time_s,altitude_ft,vertical_speed_fpm,ias_kt,pitch_deg,roll_deg,heading_deg,throttle_pct,afterburner_on,gear_down,flaps_deg,speedbrake_pct,weight_on_wheels,label
0.0,0.17239021109464694,-46.20410096390628,9.70126406104016,-0.5047847658126119,-0.19264764694804304,8.939986963298225,15.939220638911378,0.0,1.0,0.0,0.0,1.0,Taxi
0.1,0.018376541214959363,-26.141439460061722,9.299543219388942,-0.11237524302875246,0.2283211974018433,9.036658832056276,15.280442462220517,0.0,1.0,0.0,0.0,1.0,Taxi
0.2,0.041683013794338336,-44.99124770145121,10.82501660152694,-0.081392574295515,-0.2956893663850589,8.923518296881014,15.038461956619908,0.0,1.0,0.0,0.0,1.0,Taxi
0.30000000000000004,-0.05256602741260905,18.872974021217576,9.458770677732062,-0.30152443603308277,-0.361114783406442,8.936022382875421,15.947292224308912,0.0,1.0,0.0,0.0,1.0,Taxi
0.4,0.11274141132104726,40.901470738390564,8.321903848895222,-0.6708942987840769,0.5542206393095099,8.859269540058108,14.556745717589303,0.0,1.0,0.0,0.0,1.0,Taxi
0.5,0.2461903674862912,4.090334854458793,9.600932529566629,-0.12078426368701517,0.14594585884935635,8.987339017839986,16.42323704541293,0.0,1.0,0.0,0.0,1.0,Taxi
0.6000000000000001,-0.0321143531403151,-17.299779284538662,8.802097581671566,-0.1890483622267546,-0.4484653596045813,8.912552085993013,15.567208019397192,0.0,1.0,0.0,0.0,1.0,Taxi
0.7000000000000001,0.02624251489835395,-37.031368961693516,9.891990093969026,0.02783833620109255,0.11716494853007027,8.883402162364348,15.38961847194582,0.0,1.0,0.0,0.0,1.0,Taxi
0.8,0.06103352267782358,34.80504731073716,10.184651285432123,-0.45874516979292757,0.21440248579576518,9.092819406612932,14.8312140449354,0.0,1.0,0.0,0.0,1.0,Taxi
0.9,0.14191088341337066,15.07059218449922,9.068170706568235,0.10645126443626951,0.8667158098767339,9.06332532050908,15.329322051080165,0.0,1.0,0.0,0.0,1.0,Taxi
1.0,0.10159547582085003,-1.8400420125458983,9.835129052431848,-0.351539097424057,-1.0021777768878923,9.095743936880638,16.04957753652754,0.0,1.0,0.0,0.0,1.0,Taxi
1.1,0.051833312615094065,-16.559475020652297,9.790420095830513,0.2017254427718443,0.560150302191473,9.001205496640011,15.59380686234493,0.0,1.0,0.0,0.0,1.0,Taxi
1.2000000000000002,0.05911350831010914,-2.5071314829431053,9.01352672849223,-0.3918295701218293,-0.1766055026709421,8.897251607938017,15.744210388852924,0.0,1.0,0.0,0.0,1.0,Taxi
1.3,0.08905981840613449,10.144407473748169,9.348705217104042,-0.1653396840301784,0.9920630318418215,9.011171205438245,15.968267504454861,0.0,1.0,0.0,0.0,1.0,Taxi
1.4000000000000001,0.10255534998383489,9.35712221018173,10.480881697634208,-0.600459793004907,0.8353843995950665,9.003392501021551,15.03782604411566,0.0,1.0,0.0,0.0,1.0,Taxi
1.5,0.10589911936101777,-28.818058950497342,9.54078770636599,-0.29396381295504304,0.925902179402888,8.890735676913948,14.652572971424778,0.0,1.0,0.0,0.0,1.0,Taxi
1.6,-0.055030476346352254,35.49713915963263,9.442162824465013,-0.28336307816365053,-0.19069215776441412,9.164050634065404,14.962978936630398,0.0,1.0,0.0,0.0,1.0,Taxi
1.7000000000000002,0.280041045781998,-14.68766656225884,9.740762753419096,-0.16594501236483994,-0.6190092315341076,8.97616724693961,15.448590769516043,0.0,1.0,0.0,0.0,1.0,Taxi
1.8,0.03246078654972353,22.229922959962135,9.454748614461622,-0.3194797303115228,0.02011176436523781,8.993708199690445,15.34415704399059,0.0,1.0,0.0,0.0,1.0,Taxi
1.9000000000000001,0.05611913845345839,-36.28378170993402,9.546366683686477,-0.2839845288935034,-0.4240918258705923,8.993869997319848,15.336099321395192,0.0,1.0,0.0,0.0,1.0,Taxi
2.0,0.09862213723232792,5.37197837304345,9.924224106167468,-0.02218029430744739,-0.015736013590922887,9.02510575370917,15.720450343394315,0.0,1.0,0.0,0.0,1.0,Taxi
2.1,0.05932067841494076,7.816226920601807,9.737091467963516,-0.3834490751539945,-0.6412002327374307,8.95040407642665,15.24837751429989,0.0,1.0,0.0,0.0,1.0,Taxi
2.2,0.0952002730564674,-31.641336414028203,11.237991142627273,-0.3328498570242796,-0.1884222001357374,9.102835943777905,14.932814892813003,0.0,1.0,0.0,0.0,1.0,Taxi
2.3000000000000003,-0.05958454483781309,-10.309900296610323,10.626680130318979,-0.16540096440934712,0.7238651543628993,9.121452073951957,14.970735911458547,0.0,1.0,0.0,0.0,1.0,Taxi
2.4000000000000004,0.00777117693188914,-18.430525746631254,9.674473030534855,-0.23011977888303353,0.13497517665883413,8.784236913316192,15.770306030153897,0.0,1.0,0.0,0.0,1.0,Taxi
2.5,0.0030476443233111404,31.36638124868163,9.81809459697801,-0.2777220534301947,-0.5182625426406002,8.953909675963871,15.999003938440383,0.0,1.0,0.0,0.0,1.0,Taxi
2.6,0.09724736140559503,0.7738316237049551,8.989511085605038,-0.23473923687068393,0.3041813880905395,9.087909545310879,16.164757961552837,0.0,1.0,0.0,0.0,1.0,Taxi
2.7,0.011640335050413883,4.140551110148755,9.277181178225677,-0.5187004337344912,-0.30825931077199914,9.022092004197532,15.225820633762902,0.0,1.0,0.0,0.0,1.0,Taxi
2.8000000000000003,0.023750399874054882,-13.813677713689769,9.635362029486497,0.1436486686692941,0.6004448632517636,8.868194317359496,15.551362121465452,0.0,1.0,0.0,0.0,1.0,Taxi
2.9000000000000004,0.028178972837146155,25.60128179531758,10.26520096523736,-0.35381705172786304,0.49450671983493544,8.937274630493334,15.699240187176322,0.0,1.0,0.0,0.0,1.0,Taxi
3.0,0.13964674402700175,-57.76908242902933,9.8595541481954,-0.43079682545182807,0.33857339409362164,9.127625802256887,15.608040154834754,0.0,1.0,0.0,0.0,1.0,Taxi
3.1,-0.2650950122710918,3.225812958015363,9.79219969604265,-0.202805686740342,0.8807789019208361,8.817522720420072,15.743690961178876,0.0,1.0,0.0,0.0,1.0,Taxi
3.2,0.04430803762722288,-35.10600736501317,9.423005875106679,-0.4810639270951593,-0.0893565630109412,8.988969977723514,15.811431092326485,0.0,1.0,0.0,0.0,1.0,Taxi
3.3000000000000003,-0.035883292798064216,17.5701878021671,8.895753766062642,-0.32551721294113,0.9967339872974527,8.966813000473792,15.081049257458481,0.0,1.0,0.0,0.0,1.0,Taxi
3.4000000000000004,-0.17724407326025637,-30.037218333541897,9.229022017914716,-0.003225818661110158,0.25568036841667285,8.937378767192513,15.152843039864178,0.0,1.0,0.0,0.0,1.0,Taxi
3.5,-0.10587805404048667,-14.27336059039874,9.313060991933758,-0.24293852988217612,0.4070655245178875,8.944721408525766,15.67674911915649,0.0,1.0,0.0,0.0,1.0,Taxi
3.6,-0.10725009575005798,27.214527054309276,9.99796100175512,-0.3966406110290924,-1.0724533508711005,9.039321515318136,14.967005100785565,0.0,1.0,0.0,0.0,1.0,Taxi
3.7,-0.041171437988710036,4.635205600720913,10.573788944507807,-0.48150009889572454,-0.06424105070117436,9.045813645677924,15.1521413872631,0.0,1.0,0.0,0.0,1.0,Taxi
3.8000000000000003,-0.08270202603688216,22.64865632350012,9.129888884639639,-0.18008894785888957,-0.12006077808582429,9.0084386516765,15.540931559094131,0.0,1.0,0.0,0.0,1.0,Taxi
3.9000000000000004,0.005993185867442561,23.99327954073597,9.730183914424552,-0.4304808114096115,-0.5596179416960262,9.038643517989271,15.217412912433208,0.0,1.0,0.0,0.0,1.0,Taxi
4.0,0.07879495971496975,19.890130170162,10.693069414353294,-0.4386007321334059,-0.4622931677427786,8.962562604719324,15.64071308170963,0.0,1.0,0.0,0.0,1.0,Taxi
4.1000000000000005,0.01674862481392776,-14.950773595414049,9.538230191318489,-0.1807738827567435,0.6124656607767522,9.114832151746896,15.112120074665608,0.0,1.0,0.0,0.0,1.0,Taxi
4.2,-0.06876068210962773,-11.739177851446472,10.1632213410679,-0.07784231187885787,0.33224974698749377,9.048493825889466,14.272308963594627,0.0,1.0,0.0,0.0,1.0,Taxi
4.3,0.020099070457737345,9.127978037879467,8.849168498237397,-0.39545709240665405,0.35574714985720024,8.919369643022037,15.609909986157641,0.0,1.0,0.0,0.0,1.0,Taxi
4.4,0.062388515003325054,37.43846662812203,10.865977389980808,-0.5560038369650513,1.0567864635745214,9.026634643122065,15.426852278351987,0.0,1.0,0.0,0.0,1.0,Taxi
4.5,0.11843165103098237,-20.434102297459315,9.25079159471743,-0.3226634854730588,0.26518724453668774,9.081206029344457,16.0915467587275,0.0,1.0,0.0,0.0,1.0,Taxi
4.6000000000000005,-0.08207144102955931,21.691913039679985,9.16124009371829,-0.12556380879066809,0.7069587868266479,8.997472454425747,15.276736355954883,0.0,1.0,0.0,0.0,1.0,Taxi
4.7,0.17084808020172487,-20.298829876196837,10.7209077045332,-0.1810731400739503,0.16169276117700324,8.880405895413332,15.504362386757382,0.0,1.0,0.0,0.0,1.0,Taxi
4.800000000000001,0.01693750164999807,19.285360612344245,10.205979043996923,-0.3873957039298786,-0.29575655498674197,8.79438121671501,15.261837481875618,0.0,1.0,0.0,0.0,1.0,Taxi
4.9,0.014355362032161806,-48.22090833489909,9.157366247814045,-0.17412079611860876,0.015949190993144294,9.041666044997953,15.109332062874222,0.0,1.0,0.0,0.0,1.0,Taxi
5.0,-0.0702564614727707,-29.832235191350076,9.912047481861757,-0.38832761209665256,0.35041575416783993,8.867976493064475,15.221468465698026,0.0,1.0,0.0,0.0,1.0,Taxi
5.1000000000000005,-0.1322236743067524,-31.02185023786204,9.987363410472467,-0.4673366614334731,-0.7770291790387343,8.893325953668068,14.971954060592667,0.0,1.0,0.0,0.0,1.0,Taxi
5.2,-0.14075388915714848,49.85515746707159,8.928438642339252,0.041571782354162534,0.13630937401839618,8.89655794076657,15.524946490713525,0.0,1.0,0.0,0.0,1.0,Taxi
5.300000000000001,0.17901932586258715,55.12723181596018,8.988037175316068,-0.013829198528682085,0.254128803426865,8.878718388978427,15.51451350271172,0.0,1.0,0.0,0.0,1.0,Taxi
5.4,0.14341248477304835,40.662209559454105,10.216718184628554,-0.43270323266195243,-0.35153183639981206,8.94255299618078,14.980235381310102,0.0,1.0,0.0,0.0,1.0,Taxi
5.5,0.06255715864012193,-57.86071829261116,10.037658337832212,-0.14620655862925913,-0.6622098230870032,8.984449306884812,15.88268781102353,0.0,1.0,0.0,0.0,1.0,Taxi
5.6000000000000005,-0.11028426560046878,-30.747804596650493,8.962925789390548,-0.5206113436213492,0.277387063742512,8.90309643705939,15.098037576238008,0.0,1.0,0.0,0.0,1.0,Taxi
5.7,-0.010326538210204185,-42.07585969499504,9.579232116544597,0.04150951342671255,0.06279203858840507,8.890336652345866,15.450796473138771,0.0,1.0,0.0,0.0,1.0,Taxi
5.800000000000001,-0.14782213983485337,9.936038937139768,10.080426142098263,-0.1194177293477538,0.6028670530224544,8.940081193053686,15.876865410404593,0.0,1.0,0.0,0.0,1.0,Taxi
5.9,-0.06060407091477004,-29.533964343079674,9.735718932908314,-0.2052525786001654,0.08858410299659965,8.95351434833782,16.106877357326457,0.0,1.0,0.0,0.0,1.0,Taxi
6.0,-0.15799635992560265,21.484675104575587,9.454548268002563,-0.5178753890333959,-1.0825964001191222,9.003322574019705,14.279015691264235,0.0,1.0,0.0,0.0,1.0,Taxi
6.1000000000000005,-0.040398764311975546,5.053088773503544,9.18588532627889,-0.03111789150287328,0.016547971087265443,8.998276695101822,15.892857821329967,0.0,1.0,0.0,0.0,1.0,Taxi
6.2,-0.035338627047252436,18.65806390103917,9.948906471917255,-0.18189831777969345,0.3897185107979244,8.853261322088088,15.581200826072417,0.0,1.0,0.0,0.0,1.0,Taxi
6.300000000000001,-0.0647060404204069,-10.43618958114681,9.593512983449502,-0.1445239326090057,-0.6576094406808596,9.062016175840427,15.70206451636445,0.0,1.0,0.0,0.0,1.0,Taxi
6.4,-0.0925797122177097,3.8803492284006325,9.575339179115288,-0.01273761636994536,-0.7992176871065912,8.8390541860785,15.215992759724086,0.0,1.0,0.0,0.0,1.0,Taxi
6.5,-0.015936880905249376,23.53045097267021,9.706670643545577,-0.1278440023773999,0.3411498843394773,9.000994765226608,15.812533731866871,0.0,1.0,0.0,0.0,1.0,Taxi
6.6000000000000005,0.052946214442944055,44.11270968865093,10.186573627982229,-0.4970107065746258,0.5587859646831181,8.962702812866155,15.986729679130802,0.0,1.0,0.0,0.0,1.0,Taxi
6.7,0.12798383622554485,-10.791729472001407,8.453626276684382,-0.02194080628883241,-0.11958684676286141,9.144464703897711,15.742620248260419,0.0,1.0,0.0,0.0,1.0,Taxi
6.800000000000001,-0.06989552826525651,1.2402037515608175,9.335401571562173,-0.40247856536836163,0.19162101839025192,8.930503813618373,15.878849218519619,0.0,1.0,0.0,0.0,1.0,Taxi
6.9,0.05914723320074803,-14.13448904115188,9.84041697128287,-0.3104901828544412,-0.46804475628006975,8.98090549958971,16.39700426600225,0.0,1.0,0.0,0.0,1.0,Taxi
7.0,0.05731139101978532,21.045129111154775,9.759986395259476,-0.31673451996963714,-0.2771216188626836,8.98347160040538,16.153694104801424,0.0,1.0,0.0,0.0,1.0,Taxi
7.1000000000000005,0.03533011729051726,5.695754889590735,10.81817825442538,-0.5145565775983993,0.23283648805755328,9.036234031415916,15.12491016982322,0.0,1.0,0.0,0.0,1.0,Taxi
7.2,0.0876260076487016,-8.505011645746672,9.842375157355482,-0.4037676673333839,0.09766328703974425,9.094403454382928,15.807430203118233,0.0,1.0,0.0,0.0,1.0,Taxi
7.300000000000001,0.014786332791051862,-7.64251303822653,10.396912631716177,-0.4677634095952472,0.19574726276290227,9.00300891140796,16.00882902945184,0.0,1.0,0.0,0.0,1.0,Taxi
7.4,-0.002882447900615495,-5.777832711902327,10.146286881750738,-0.45753880025862714,0.242439234235024,9.207409897464004,15.6111056730959,0.0,1.0,0.0,0.0,1.0,Taxi
7.5,0.05873684408918987,34.82846973095602,10.319810042405138,-0.27063130972485594,1.1733672291995993,8.950643092019163,15.779528249146328,0.0,1.0,0.0,0.0,1.0,Taxi
7.6000000000000005,0.1889286814458319,-30.176819753199606,9.526248604535894,-0.08844137843830988,-1.4378529974388548,9.096438034769847,14.687180591687836,0.0,1.0,0.0,0.0,1.0,Taxi
7.7,-0.15376654666661363,-8.407946578155688,8.975506811612998,0.1282418773127167,0.3240236062443656,9.000175739979454,15.426239548136031,0.0,1.0,0.0,0.0,1.0,Taxi
7.800000000000001,0.01669711119841129,-46.59987470670301,10.816017884641479,-0.13648348712838543,-0.273963475463916,8.990413277930486,15.319734106257199,0.0,1.0,0.0,0.0,1.0,Taxi
7.9,-0.044070692087683286,9.078628259970797,9.690267044419135,0.08913230441563957,-0.4102847256933632,8.855277171804516,14.97457908102522,0.0,1.0,0.0,0.0,1.0,Taxi
8.0,-0.10837340536675977,7.1358133897182325,9.542302003356268,-0.4852020789136169,0.212722684394358,9.035090531367302,15.937634995412978,0.0,1.0,0.0,0.0,1.0,Taxi
8.1,0.05237617814700234,2.228281941107755,9.017229596557632,0.1049728023498317,0.12958851809720004,8.954046585875176,14.858078876774373,0.0,1.0,0.0,0.0,1.0,Taxi
8.200000000000001,-0.03292928238214464,11.930418423978788,10.043837462165547,-0.31098146193165854,0.3989736211609147,8.973690374557975,15.919624055389606,0.0,1.0,0.0,0.0,1.0,Taxi
8.3,-0.04872131324686596,-4.010657862697684,8.006105877879312,0.19670000462012305,0.06044565888709612,8.975010037554057,15.38013819452621,0.0,1.0,0.0,0.0,1.0,Taxi
8.4,0.0323228888335138,22.294921811293847,8.689717209468878,-0.4415805249409184,-0.4220912232166409,9.0307900108196,16.02758346519996,0.0,1.0,0.0,0.0,1.0,Taxi
8.5,0.07854532667432448,-12.155375074182425,8.619082665525045,-0.03350093561218581,-0.6177377337482082,9.093558635671286,15.649947236678583,0.0,1.0,0.0,0.0,1.0,Taxi
8.6,-0.10949818861777819,-2.329916147852297,8.929241433190695,-0.48769641374614237,-0.2901573917110983,8.957560566154541,15.530018073412412,0.0,1.0,0.0,0.0,1.0,Taxi
8.700000000000001,0.020673308094252222,12.393951315035139,9.442260517731565,-0.4739304452893779,0.3534479899598638,8.943563796861667,15.437744665959421,0.0,1.0,0.0,0.0,1.0,Taxi
8.8,0.1405150832495001,25.1231015248005,10.04911326231317,0.1987856649847043,0.4933763473838669,9.001049507473795,15.22612161445419,0.0,1.0,0.0,0.0,1.0,Taxi
8.9,0.016117319006224193,-6.352571412073183,9.492189559783695,-0.41888828873209016,-0.8743044326406342,8.871279313192076,15.571358266592119,0.0,1.0,0.0,0.0,1.0,Taxi
9.0,-0.011089548966113784,-31.843735402440092,10.216005155924915,-0.19802512810339043,-0.12541394250449758,8.890389620943154,14.427421479425773,0.0,1.0,0.0,0.0,1.0,Taxi
9.1,-0.018703593762700452,-43.51274076802741,10.987278866447731,-0.48224686964405783,-0.15862787497550807,9.028678025303236,15.30638131814346,0.0,1.0,0.0,0.0,1.0,Taxi
9.200000000000001,-0.20144638483391294,-34.879979665295494,9.791546482987123,-0.24080320345524533,0.1504222434027942,8.919598332249905,15.77541915168074,0.0,1.0,0.0,0.0,1.0,Taxi
9.3,-0.18548944729259134,22.950318446153407,10.266176188367343,0.15864370571055708,-0.34050897048634293,9.05584961632502,15.411939143300263,0.0,1.0,0.0,0.0,1.0,Taxi
9.4,0.09604799846806655,79.95311676570607,10.1279150857183,-0.1911053611806867,-0.7515224050456509,8.96609426119511,15.904738518005749,0.0,1.0,0.0,0.0,1.0,Taxi
9.5,0.19831919899461736,69.06835158211307,9.890417534578772,-0.3544176896240485,-0.18995328375014503,8.94147761657922,15.061137448554977,0.0,1.0,0.0,0.0,1.0,Taxi
9.600000000000001,0.15985231061797395,19.053790136457195,8.871256022785177,-0.32653921602939384,0.6119480513394022,9.090362456741957,14.957052876575489,0.0,1.0,0.0,0.0,1.0,Taxi
9.700000000000001,0.19131694915035244,-45.889312636014836,9.643805634047233,-0.2720858695568179,-1.0652554826937652,8.910408779781108,15.523402346428655,0.0,1.0,0.0,0.0,1.0,Taxi
9.8,-0.031127364185456915,-34.683830823234196,9.120873793446,-0.23823043102671151,-0.589875013508453,8.976463972510714,15.159331113723674,0.0,1.0,0.0,0.0,1.0,Taxi
9.9,-0.013566843498197138,-62.12173011622082,9.900169159785236,-0.16706769264050503,-0.062012492311608367,8.91304661754316,15.74482041959761,0.0,1.0,0.0,0.0,1.0,Taxi
10.0,-0.11929170143075177,-14.7779002482075,9.87279343023142,-0.08819438571015006,-0.3019027945580717,8.974940894381007,15.221627588815624,0.0,1.0,0.0,0.0,1.0,Taxi
10.100000000000001,-0.10501686542649452,18.0417283277756,9.375530561013223,-0.37323000995320776,-0.5775937187974144,9.040376877739902,15.564285750678671,0.0,1.0,0.0,0.0,1.0,Taxi
10.200000000000001,0.07664179814068076,10.012427430573377,10.069407048061523,-0.1277028305557305,-0.35560773082787406,8.991616163571678,14.259176302989745,0.0,1.0,0.0,0.0,1.0,Taxi
10.3,-0.06922956427788499,10.22113680439609,9.436411562743668,-0.5829148257939415,0.15824352282803258,8.972395501337871,15.30306310671863,0.0,1.0,0.0,0.0,1.0,Taxi
10.4,-0.05391118140451417,-21.444848984292197,9.865067738265163,-0.2081357663608815,0.12002596597451083,8.963185311830784,15.307993183867838,0.0,1.0,0.0,0.0,1.0,Taxi
10.5,-0.03058244678078033,32.14597480939561,8.939085141198913,-0.3977459457213739,0.43033109204446685,9.003045252110667,14.590149651351407,0.0,1.0,0.0,0.0,1.0,Taxi
10.600000000000001,0.09150030976909297,11.079147560541038,8.704444834550674,-0.28157508591642993,0.31553935803157446,9.021100690790036,15.577694185492932,0.0,1.0,0.0,0.0,1.0,Taxi
10.700000000000001,0.0014845563981909266,-5.643494430446609,10.541570493416272,-0.14448489242333784,-0.6908009208078068,9.019589734783267,15.39832879065275,0.0,1.0,0.0,0.0,1.0,Taxi
10.8,-0.058799918933013444,-17.933513327039854,10.300657274548625,0.027493470607878268,0.26845436786136534,8.993693470562732,15.044087312524816,0.0,1.0,0.0,0.0,1.0,Taxi
10.9,0.0018327431338936283,17.67006501306907,9.949340899499958,-0.30272902288382614,0.3366676642865504,8.917937885448396,16.106111191491525,0.0,1.0,0.0,0.0,1.0,Taxi
11.0,0.0898348814635362,-0.33758831849641996,9.135900539229436,-0.17742729127864282,-0.2516243555456822,8.962725182032443,14.965621130987603,0.0,1.0,0.0,0.0,1.0,Taxi
11.100000000000001,-0.060487860525495624,-19.946809005609882,9.082369113400095,-0.20775728556800216,0.6172795623491997,8.932161030044426,15.916974883145592,0.0,1.0,0.0,0.0,1.0,Taxi
11.200000000000001,-0.09790130189415587,-36.380861137340816,8.849094398250703,-0.6026478595390724,-0.3164380257795758,9.014406853078299,15.408801157537257,0.0,1.0,0.0,0.0,1.0,Taxi
11.3,-0.09206942422316795,51.54547901263124,9.56102462134854,-0.1948035766166119,0.5305565798310787,8.950132647925955,15.93220887981919,0.0,1.0,0.0,0.0,1.0,Taxi
11.4,0.19723953453766052,4.567867565522003,9.895604555739391,0.16030017962570892,0.2972031037503576,8.952869471203712,15.744110974359348,0.0,1.0,0.0,0.0,1.0,Taxi
11.5,-0.0750619640665459,18.776967033866004,9.363977192784917,-0.057923411139126246,-0.08804980015186092,9.120425346406705,14.487127747788467,0.0,1.0,0.0,0.0,1.0,Taxi
11.600000000000001,0.0018154109461620332,-77.22240040453183,10.561805784892208,-0.3267435568762579,-0.4970291383504004,8.967218350337646,14.949464169639748,0.0,1.0,0.0,0.0,1.0,Taxi
11.700000000000001,-0.18887246748499872,61.30774366909804,8.32693982849685,-0.3303637505566154,-0.2865217175996918,8.795600733402807,15.047402179005323,0.0,1.0,0.0,0.0,1.0,Taxi
11.8,0.2314767542789441,-12.11932276652494,10.13181605795192,-0.36061099950343006,-0.3349953550877541,9.142408632937133,16.6307342482854,0.0,1.0,0.0,0.0,1.0,Taxi
11.9,-0.058781202886462894,47.50656666875627,9.568687816147097,-0.11736072004931677,0.9050325024783241,8.976223345415917,15.975813200106465,0.0,1.0,0.0,0.0,1.0,Taxi
12.0,0.04866036585878242,-48.162138140635456,9.683876947472715,-0.23372455245369364,0.5400194519321365,8.945017129237044,16.201390434248363,0.0,1.0,0.0,0.0,1.0,Taxi
12.100000000000001,-0.009333936424233347,-2.983000567390223,7.916285233153763,-0.5412183706173759,0.5006820299965838,8.944646329274008,14.899054199798472,0.0,1.0,0.0,0.0,1.0,Taxi
12.200000000000001,-0.07369620572341408,3.9673074003309665,9.198777911521962,-0.11068091666176685,0.16268175818066025,8.942895875685508,15.564636199034663,0.0,1.0,0.0,0.0,1.0,Taxi
12.3,0.06849690286043718,-10.068386993758176,8.916233180979685,-0.13539764327048914,-0.2465735736028128,9.099314902961908,15.097290240852532,0.0,1.0,0.0,0.0,1.0,Taxi
12.4,-0.059675871393024285,34.016868435120045,10.419176321737243,-0.24648880753693797,0.36712797454806323,8.919646825924303,16.25544042746071,0.0,1.0,0.0,0.0,1.0,Taxi
12.5,0.09638813645218605,38.55482929199821,9.267973487159514,-0.2040770415956537,-0.4629821111827185,8.91950328682043,15.712964942908876,0.0,1.0,0.0,0.0,1.0,Taxi
12.600000000000001,0.26127104932042816,29.352440047561867,8.498431591958859,-0.41595903656934485,0.7606958979612563,8.959272355810526,15.348850994862783,0.0,1.0,0.0,0.0,1.0,Taxi
12.700000000000001,0.08708632884478495,-36.065306876028274,9.832780312342091,0.05432107273339043,-0.7620366092911827,8.82124570525616,15.133905478253684,0.0,1.0,0.0,0.0,1.0,Taxi
12.8,-0.08393839792795539,-56.725059937354395,10.228452433783817,-0.5385719110149221,-0.534403048291445,8.934818599919822,15.799561013907216,0.0,1.0,0.0,0.0,1.0,Taxi
12.9,-0.022354250366343874,-50.95317654997374,10.04364570126294,-0.25738267084411404,0.3152741036494117,9.073781781032949,15.64341504296649,0.0,1.0,0.0,0.0,1.0,Taxi
13.0,-0.16767955390508388,-29.024642933543635,9.615066777902216,-0.24339852080316823,-0.15129659363704542,9.00684576873374,15.301775793761895,0.0,1.0,0.0,0.0,1.0,Taxi
13.100000000000001,-0.22906161259567362,-21.81002174874744,10.091032088452087,-0.3239855178591312,0.6103700631750079,9.030299261363723,15.087187272518076,0.0,1.0,0.0,0.0,1.0,Taxi
13.200000000000001,-0.13140435911008116,34.69112529866513,9.037141661231145,-0.23443093040614665,0.6185306675438309,8.917164060136884,15.795862492970356,0.0,1.0,0.0,0.0,1.0,Taxi
13.3,0.005776072588241694,52.53865709946337,9.815062926638635,-0.4455267375878033,-1.2245392439603406,8.817138056833755,15.444392503289379,0.0,1.0,0.0,0.0,1.0,Taxi
13.4,0.0336316729016432,32.63225499980406,9.918705513492288,-0.35965958913518653,-0.42144884978086555,9.040593705982928,15.13645725035647,0.0,1.0,0.0,0.0,1.0,Taxi
13.5,0.03175691588893905,8.543722235979416,9.641443581820706,-0.44145874520657347,-0.4323309987552183,8.879914722983074,15.574892963789758,0.0,1.0,0.0,0.0,1.0,Taxi
13.600000000000001,0.04849468376813868,-3.6132952634244853,9.404875190757048,-0.2836477900338791,0.4415236388647284,8.824216745722765,15.835275863684604,0.0,1.0,0.0,0.0,1.0,Taxi
13.700000000000001,0.015565196584520678,9.710251251447316,9.071099497752437,0.036310459130105555,-0.6985939990285174,8.901122634686601,15.468813061307687,0.0,1.0,0.0,0.0,1.0,Taxi
13.8,0.08030817214617553,-6.052245639999193,9.26774012411377,-0.14288969075157754,-1.2106407992510393,8.911647818652966,15.79100977485236,0.0,1.0,0.0,0.0,1.0,Taxi
13.9,0.018233455568142615,-18.249205147394527,10.28977726915398,-0.5008759862532695,-0.5168844598326001,8.8663435162199,15.024894584572978,0.0,1.0,0.0,0.0,1.0,Taxi
14.0,-0.07568082915245206,1.0017773793704474,9.199074282446492,-0.2987672949959265,0.2702599720749217,8.97910310775353,16.20466376463404,0.0,1.0,0.0,0.0,1.0,Taxi
14.100000000000001,0.08531705904302767,-25.981828397645344,9.420315801273043,-0.2532576866326569,0.9689369279988739,9.189467699087686,15.044331962718381,0.0,1.0,0.0,0.0,1.0,Taxi
14.200000000000001,-0.11167568642008421,-3.518852620997372,10.035547851052067,-0.38044907337176226,-0.8368372312656573,8.971836829120093,15.744461516119774,0.0,1.0,0.0,0.0,1.0,Taxi
14.3,-0.09327509225743902,24.08612620891095,8.82044623708458,-0.33862279473655293,-0.4416475163821435,8.913756936214043,15.402362023026654,0.0,1.0,0.0,0.0,1.0,Taxi
14.4,0.2057476900875823,1.7410009638709123,9.135185602854234,0.01093474461163002,0.06471279635908048,8.982382928603101,14.995928914907145,0.0,1.0,0.0,0.0,1.0,Taxi
14.5,-0.10297068160072975,35.87339030576899,8.532346401190878,-0.5867177538125085,0.5325743612534989,9.069003972387634,15.281164597576687,0.0,1.0,0.0,0.0,1.0,Taxi
14.600000000000001,0.08609185927140582,-29.72013855396858,10.902872244072014,-0.16288171601720886,1.030472218750929,8.762080868447583,16.339650078464828,0.0,1.0,0.0,0.0,1.0,Taxi
14.700000000000001,0.05714699731773929,-2.0988870259881955,9.438996898545366,-0.6104227954837087,0.16630947528228726,8.934937474276921,14.979251184102045,0.0,1.0,0.0,0.0,1.0,Taxi
14.8,-0.11346511673067082,36.94152605806039,10.00317127840215,-0.18879401174668275,0.3735596391124151,9.00164830451655,14.982057247372126,0.0,1.0,0.0,0.0,1.0,Taxi
14.9,0.2707994895617077,-16.78626321318534,10.95335076731709,-0.42008554331973685,0.03582811351418625,9.011192485981269,15.02830077715991,0.0,1.0,0.0,0.0,1.0,Taxi
15.0,-0.026784318748187513,14.839772243708033,8.823639591524522,-0.11923139252395257,0.725606740423937,8.929360608881382,15.960112976819325,0.0,1.0,0.0,0.0,1.0,Taxi
15.100000000000001,-0.03926625551213077,-61.148729995819714,9.569316915146109,0.14504904355319692,-0.28050329829577186,8.844626933799134,15.554134411004917,0.0,1.0,0.0,0.0,1.0,Taxi
15.200000000000001,-0.03494416041739097,14.629102347699083,9.282436505490193,-0.25846022593877316,0.003663248350939583,8.995690583352712,15.261366247824965,0.0,1.0,0.0,0.0,1.0,Taxi
15.3,0.04636119299030783,-6.050410412001637,9.438069516073506,0.019179625278339663,-1.1001735606872889,8.900350084572551,15.319134265199637,0.0,1.0,0.0,0.0,1.0,Taxi
15.4,-0.06951830757213903,-21.269524268348555,9.663220201145128,-0.10921317100847591,0.3693882345818293,8.711108604343053,15.24057181140039,0.0,1.0,0.0,0.0,1.0,Taxi
15.5,-0.14129178175913382,4.115458472604009,10.485528998816642,-0.15573282208011793,0.7981175435988764,8.987429984086134,15.365606495572283,0.0,1.0,0.0,0.0,1.0,Taxi
15.600000000000001,0.06693848535332779,-11.176524654454932,9.987634903567983,-0.45734326477085097,0.33254421610803364,9.00014396048249,14.928681805256797,0.0,1.0,0.0,0.0,1.0,Taxi
15.700000000000001,-0.1254009308444138,-0.8736975571119453,10.631073902781486,-0.025689542253864744,-0.3790168898850214,8.954910638281945,14.778463239478219,0.0,1.0,0.0,0.0,1.0,Taxi
15.8,-0.14566026954469366,-26.16228059529222,9.6928081450455,-0.16241707102894848,-0.7064298124118713,9.144071091932346,15.57883352199358,0.0,1.0,0.0,0.0,1.0,Taxi
15.9,-0.06387291762313342,72.27909319150159,9.300426837316639,-0.45595169066130614,0.8466045574907034,9.022234157398998,15.153523960587934,0.0,1.0,0.0,0.0,1.0,Taxi
16.0,0.23599453511309398,20.952243909018943,10.31156707737221,-0.4314424451306662,-0.4936554149232292,8.989449658474882,15.67058871040545,0.0,1.0,0.0,0.0,1.0,Taxi
16.1,-0.04089904999959896,46.1070326312819,9.281280050389661,-0.3586416020264049,-0.16795227655194084,9.123303545685133,15.547404970436775,0.0,1.0,0.0,0.0,1.0,Taxi
16.2,0.16666224553327608,-49.62924255644467,9.688035124051797,-0.42118112038599764,-0.7282163459140985,9.16007145763183,16.045370415132815,0.0,1.0,0.0,0.0,1.0,Taxi
16.3,-0.012151677669129377,9.831949674017586,9.978934393671057,-0.2756321790844468,0.23012725187799146,9.064101463630777,15.541420829626277,0.0,1.0,0.0,0.0,1.0,Taxi
16.400000000000002,0.00826069837048891,-28.848230166969316,10.171650043783433,-0.1325043858513965,0.9003438149552294,8.931477489201768,15.758956185719654,0.0,1.0,0.0,0.0,1.0,Taxi
16.5,0.022421094698429428,-10.213570971012198,9.598092582391669,-0.292471510140285,0.06088417876720615,9.018810094503124,15.185805492764056,0.0,1.0,0.0,0.0,1.0,Taxi
16.6,-0.06321953252419048,-1.1761515077960496,10.084309865967285,-0.204138771844414,0.6696217861926925,9.056674381139544,14.617640731679803,0.0,1.0,0.0,0.0,1.0,Taxi
16.7,0.002379940831508552,6.445737363945216,9.238755139631392,-0.4964645486678716,-0.4567274317235056,8.737767587997325,15.332767729956794,0.0,1.0,0.0,0.0,1.0,Taxi
16.8,0.054649781518155395,16.747377633445993,9.440085922255065,-0.03923387809422929,-0.04640599361833016,8.858450363045506,15.199434748781778,0.0,1.0,0.0,0.0,1.0,Taxi
16.900000000000002,0.02051735564303938,-13.24376302261561,9.953449619340635,-0.07169733302338643,0.09375252918198931,9.03207405994607,14.977494161694134,0.0,1.0,0.0,0.0,1.0,Taxi
17.0,-0.0638388742815696,8.003226283052769,9.650659547998162,0.1715617487494624,-0.40124718539985416,8.965670879479433,15.88191965260224,0.0,1.0,0.0,0.0,1.0,Taxi
17.1,0.09466591293341914,-42.8114915070812,9.226601883220134,-0.4555838471152862,-0.4783224465623605,9.028173619832558,15.301493383506553,0.0,1.0,0.0,0.0,1.0,Taxi
17.2,-0.1935401018923667,25.578999958282264,10.160656843497032,-0.4784806107238546,-0.32341351284126835,9.043540090674583,15.630869100222759,0.0,1.0,0.0,0.0,1.0,Taxi
17.3,0.06405612550984163,-10.653894495952477,9.766128412158153,-0.511252172464401,-0.1277167882994248,8.886933674403622,14.88871855131647,0.0,1.0,0.0,0.0,1.0,Taxi
17.400000000000002,0.041396440453656674,40.34381714095397,8.749104658387374,-0.002035115985005609,-0.26142020736883087,8.956032178467922,15.557721459748944,0.0,1.0,0.0,0.0,1.0,Taxi
17.5,0.008178983812403052,10.389492502677124,9.895101832154563,-0.5282456894339926,0.6462357753726288,8.989807190313968,15.940867089116084,0.0,1.0,0.0,0.0,1.0,Taxi
17.6,0.11600358802322717,-0.4913144843173072,9.952006909059635,-0.3360193642793504,-1.0773864939366333,9.060672934532818,16.458724022142185,0.0,1.0,0.0,0.0,1.0,Taxi
17.7,0.038939868032070064,-58.37786388199962,9.612785471286024,-0.5633330533498491,0.04976432756165635,9.060804949301144,14.769485566139421,0.0,1.0,0.0,0.0,1.0,Taxi
17.8,-0.2837103355975951,-6.95792470581848,9.791918615328626,-0.23237880476183928,-0.7855884621576473,8.814394068958336,15.611487500236468,0.0,1.0,0.0,0.0,1.0,Taxi
17.900000000000002,0.08121396449413475,-7.573262023368102,10.350860871336941,-0.20330264050213687,0.5080251545976772,8.763501283951598,14.753534667775288,0.0,1.0,0.0,0.0,1.0,Taxi
18.0,0.0010735579152295145,59.27762891009639,8.596314793983318,-0.15483895833909403,-0.38855832732651563,8.919566076653155,14.846810362776662,0.0,1.0,0.0,0.0,1.0,Taxi
18.1,0.0126778089528868,-11.296471341335518,10.163717249491455,-0.267264002130354,-0.026726762022825742,9.090063063162006,15.602614529128479,0.0,1.0,0.0,0.0,1.0,Taxi
18.2,0.024731607787457102,1.8146282373964813,8.167087165591177,-0.4764811429356256,0.6632030233336627,8.920412347194997,15.666459072687733,0.0,1.0,0.0,0.0,1.0,Taxi
18.3,0.010146699102211883,-25.138969625440563,9.203473872137241,-0.1460814375817413,-0.8319741051146663,9.192357214461595,15.84338113426127,0.0,1.0,0.0,0.0,1.0,Taxi
18.400000000000002,-0.11301703917431605,-16.902569140288644,8.55851428546897,-0.23535756947556447,0.6756806800453831,8.846192395860612,15.394212780296616,0.0,1.0,0.0,0.0,1.0,Taxi
18.5,-0.059781237913986124,15.320127122482532,10.500607470836512,-0.23799242908086662,0.2480201411217538,8.874785850745582,16.057231117987214,0.0,1.0,0.0,0.0,1.0,Taxi
18.6,0.08674733471462454,22.031099192526927,9.45158408806241,-0.4238723328047598,-0.22686869519996222,8.90858062288595,15.841664520413357,0.0,1.0,0.0,0.0,1.0,Taxi
18.7,-0.002861543211681419,15.399216086497356,9.626335513856363,-0.1674806546472874,-1.1841707072395804,8.879736294812915,15.425403125403149,0.0,1.0,0.0,0.0,1.0,Taxi
18.8,0.017214842518500622,-3.884907152324908,9.45649549150694,-0.08128037963577178,0.9372651341952358,8.890107822610048,15.820909018967587,0.0,1.0,0.0,0.0,1.0,Taxi
18.900000000000002,0.06732279895299997,-4.026334343568226,9.547329110571154,-0.4148433159568778,-0.17278882895568334,8.99969846860671,15.285139014140157,0.0,1.0,0.0,0.0,1.0,Taxi
19.0,-0.02299321492952257,18.476769265713408,9.55920992184046,-0.5173744527202506,0.31506232412312885,8.979039811048153,16.00700980951508,0.0,1.0,0.0,0.0,1.0,Taxi
19.1,0.10959868884706764,-8.98257825991487,10.174352763787871,-0.09817442208945204,0.0776712627655177,8.875440086054937,15.593113110786176,0.0,1.0,0.0,0.0,1.0,Taxi
19.200000000000003,0.02240990765342558,-17.639075507786387,9.798881086454307,-0.607013896678172,1.0358219980514114,8.98344115090481,15.338935032564592,0.0,1.0,0.0,0.0,1.0,Taxi
19.3,-0.11118859246845454,-28.512838647404468,9.178942518812931,-0.4485443578534767,-0.5422099615025199,8.91018703063213,15.104364584011371,0.0,1.0,0.0,0.0,1.0,Taxi
19.400000000000002,-0.032965504389954735,-12.407229456068086,8.614055120657936,-0.4003732918813093,0.5239904560255312,9.04863595093309,15.354711446527352,0.0,1.0,0.0,0.0,1.0,Taxi
19.5,-0.03962623962691486,23.577091147085714,10.362106976523455,-0.4190021292502013,0.9229203249569573,9.005012965198944,15.621451820413693,0.0,1.0,0.0,0.0,1.0,Taxi
19.6,0.006696863266974017,-15.025804545800801,9.923568336873355,-0.10097965036598061,-0.5956748447604292,9.02854043002111,15.463575477207911,0.0,1.0,0.0,0.0,1.0,Taxi
19.700000000000003,-0.10809452711895873,43.76741032907245,9.462467698247666,-0.016703127173640864,-0.1016916490954147,8.982167732822688,15.820543824295063,0.0,1.0,0.0,0.0,1.0,Taxi
19.8,0.1792108120184474,15.22623326632177,10.254588663948594,-0.047189284087401584,0.17136107835694078,8.963113037902815,15.303442284981585,0.0,1.0,0.0,0.0,1.0,Taxi
19.900000000000002,0.0828280295985829,26.43887893538214,10.949628672026966,-0.43510582191712177,0.36518758963593545,8.99487353999416,15.733696470689992,0.0,1.0,0.0,0.0,1.0,Taxi
20.0,0.024099867557951998,-33.85682804040809,9.666409883279995,0.05056761910345514,0.2858339528977837,9.240655505145071,14.27865099202837,0.0,1.0,0.0,0.0,1.0,Taxi
20.1,0.009926671816406945,2.7487112350216356,10.445622475970055,-0.504544540849156,0.5313184212589183,8.924991195137181,15.326917690396277,0.0,1.0,0.0,0.0,1.0,Taxi
20.200000000000003,0.09657158577369106,-35.36420362102146,9.666320732068076,-0.198732738606759,0.00669141347604029,9.040854560916955,15.29344361856669,0.0,1.0,0.0,0.0,1.0,Taxi
20.3,-0.15272115054715538,4.165213897309651,10.712724926300277,-0.21059559730030872,0.20034965837113622,9.040149832883628,14.46440917412734,0.0,1.0,0.0,0.0,1.0,Taxi
20.400000000000002,0.030752741302955123,-43.74025789524413,9.71692188867933,0.055363085025794345,-0.608556738661457,9.212373082660804,15.9519816968775,0.0,1.0,0.0,0.0,1.0,Taxi
20.5,-0.12212970370252965,48.53830286993341,9.389283363704578,-0.14701021452033558,-0.5102158388284105,9.095523155781336,15.446660170033852,0.0,1.0,0.0,0.0,1.0,Taxi
20.6,0.08997036380251168,-23.382699406461906,10.451169442899431,0.09023129705325361,-0.04672082524993639,8.799402630970064,15.703016215725523,0.0,1.0,0.0,0.0,1.0,Taxi
20.700000000000003,-0.08616075572935443,30.59378683261311,9.724123098712353,-0.42168697774799235,-0.17537633396098368,8.942032193267039,15.261408526167202,0.0,1.0,0.0,0.0,1.0,Taxi
20.8,0.030839230460535855,20.86007860943087,9.666454811244932,-0.07649223716308706,0.3383030317459523,8.76015487184543,15.86660835304782,0.0,1.0,0.0,0.0,1.0,Taxi
20.900000000000002,0.194270756849666,39.5931740240766,10.154103931592822,-0.019841729756862325,-0.9300296621295451,9.012164424342188,15.509317486937325,0.0,1.0,0.0,0.0,1.0,Taxi
21.0,0.11180511439102858,-26.543192486435373,9.592499460119937,-0.13869178009968708,0.23409333810999253,9.001930313362095,15.775492166393223,0.0,1.0,0.0,0.0,1.0,Taxi
21.1,-0.10187673197164103,-34.37447903071054,8.593465270727588,-0.41223986078885716,0.38038347191950805,8.944694207657164,15.538283582346043,0.0,1.0,0.0,0.0,1.0,Taxi
21.200000000000003,0.02239836169611325,-20.949168493057794,9.437168267034851,-0.3020445035965477,-1.107782244876205,9.00520640982927,15.703435293246335,0.0,1.0,0.0,0.0,1.0,Taxi
21.3,0.007059271925739606,19.306795942612816,9.274189423440657,-0.12169087041524176,0.8359990161106743,9.048652302746461,15.515114486070754,0.0,1.0,0.0,0.0,1.0,Taxi
21.400000000000002,-0.00534275225857696,28.991458228374523,9.122542211352432,-0.09335257612290274,0.9818398934578181,8.921677251412916,15.65729694923249,0.0,1.0,0.0,0.0,1.0,Taxi
21.5,0.1673556528379858,-2.584418097790651,10.273275590504287,-0.438863724429214,0.5513472530289296,8.87282265876837,15.501536616092684,0.0,1.0,0.0,0.0,1.0,Taxi
21.6,-0.005862818563213666,46.94620507859048,9.352207093337336,-0.4748115847211944,-0.1109806679315849,8.919172224532304,14.684462892286051,0.0,1.0,0.0,0.0,1.0,Taxi
21.700000000000003,0.22938827313437538,-46.24814246842313,9.36192295189253,0.006909064074001825,-0.1403307931041789,9.024567523753205,14.736247885583468,0.0,1.0,0.0,0.0,1.0,Taxi
21.8,-0.06388505950412988,2.7853950446158273,9.597367277239254,-0.0498034147412835,-0.29131628103543955,8.975895296376507,15.209789493764895,0.0,1.0,0.0,0.0,1.0,Taxi
21.900000000000002,0.008064156659865446,-45.531139549845,9.842153075802877,0.009114081411683572,-0.0036603109682084244,9.062110118233306,16.01331526474528,0.0,1.0,0.0,0.0,1.0,Taxi
22.0,0.0017325753851503692,18.543605014274217,9.92883744531869,0.11968488487367301,-0.22705323368355548,8.84452019348356,15.460054946670203,0.0,1.0,0.0,0.0,1.0,Taxi
22.1,0.028832965567241232,14.569115815328635,9.74055046214653,-0.2156154283385177,0.17093061192784845,9.064275837348475,14.794883683708129,0.0,1.0,0.0,0.0,1.0,Taxi
22.200000000000003,0.08090973573650863,25.89394935569908,9.734287679503435,-0.5574379517274953,0.017410050953986282,9.103535550199979,15.317064400738474,0.0,1.0,0.0,0.0,1.0,Taxi
22.3,0.13120232216364577,-7.6178008972546225,8.94748087422299,0.04347247786331715,0.2997542720024666,9.169194247308269,15.245539708759141,0.0,1.0,0.0,0.0,1.0,Taxi
22.400000000000002,-0.00925603891903186,-19.949738732742144,9.937732171786454,-0.27433161469134887,-0.19062924405482964,9.005903718144111,15.351934157969689,0.0,1.0,0.0,0.0,1.0,Taxi
22.5,-0.018838957927202086,-27.480192787909914,9.055729920118901,0.09804145164916639,-0.5098384967612802,8.991536780535228,15.826393709639106,0.0,1.0,0.0,0.0,1.0,Taxi
22.6,-0.006198641775903783,20.589156642832624,10.327385425895367,-0.4121035329546475,0.5915976633579905,9.0537203327969,15.721792215070844,0.0,1.0,0.0,0.0,1.0,Taxi
22.700000000000003,0.09368974429513127,-20.594541365296624,9.477539621590115,-0.052759599437713356,-0.5007359557836205,8.972554838521546,15.980000031341978,0.0,1.0,0.0,0.0,1.0,Taxi
22.8,-0.12181166475368524,-7.692965547029111,8.860928023574308,-0.45634260300149077,-0.08797996219308493,8.893283823411082,15.33669789401184,0.0,1.0,0.0,0.0,1.0,Taxi
22.900000000000002,-0.04466346951104936,17.478018596692365,9.776749519301761,0.05138439902660036,-0.08061204220046074,8.831445746651696,15.655581344746276,0.0,1.0,0.0,0.0,1.0,Taxi
23.0,0.1810798372785931,-17.73046722612808,10.105544727215614,-0.5552917039701173,0.04985877666915913,8.902222927529124,15.955890237429122,0.0,1.0,0.0,0.0,1.0,Taxi
23.1,-0.2104640008843256,27.040449862031625,9.43952413362672,-0.23291677754121787,-0.06136870627203219,9.121046433770687,15.427725241076704,0.0,1.0,0.0,0.0,1.0,Taxi
23.200000000000003,0.09053877979910883,-12.300809659147253,10.02801383175777,-0.2686388228953099,-0.17703839234650473,9.007443127864292,14.473116406605648,0.0,1.0,0.0,0.0,1.0,Taxi
23.3,0.11957578898285688,61.24198033495289,10.493830398937698,-0.37622659262209623,0.09879791496487782,8.83570232899001,15.299548917211602,0.0,1.0,0.0,0.0,1.0,Taxi
23.400000000000002,0.09574590079043892,-28.27468070963985,9.83960951000327,-0.2496725247941946,-0.46861065148207953,8.98200781579601,16.33486973474761,0.0,1.0,0.0,0.0,1.0,Taxi
23.5,-0.050834623749090396,-3.2524284344905303,8.866425246545722,-0.3958437179796348,-0.10817694749010043,9.026961362010468,15.614579022054523,0.0,1.0,0.0,0.0,1.0,Taxi
23.6,0.10331364681040425,-6.840347464371568,9.626638095801681,-0.3062743814646818,0.04168068362827613,9.070862530115107,15.491027448802198,0.0,1.0,0.0,0.0,1.0,Taxi
23.700000000000003,0.061544163468581096,21.74569933217197,9.34801487692958,-0.21816350978226945,-0.8911079141066524,8.89827369748798,15.160958137877792,0.0,1.0,0.0,0.0,1.0,Taxi
23.8,0.057893872911769485,-42.54335287358455,8.477762946737277,-0.41849639272283445,0.6421864378569428,8.965501373572636,15.21478473693672,0.0,1.0,0.0,0.0,1.0,Taxi
23.900000000000002,-0.10940311755751848,-17.602912998694396,8.818222849167045,-0.2686366842283733,1.0399834978950462,8.812455845128852,15.530024455940408,0.0,1.0,0.0,0.0,1.0,Taxi
24.0,-0.026470401524890854,-9.6692970125808,10.72766150166639,-0.10441100462857564,0.30798101059368993,9.02775582387028,15.869812744984117,0.0,1.0,0.0,0.0,1.0,Taxi
24.1,0.0095473878488655,73.00246719808031,9.41515019807398,-0.4259737360248982,-0.19177257663291478,8.751626230947863,14.736174628779052,0.0,1.0,0.0,0.0,1.0,Taxi
24.200000000000003,0.2556092184328831,-19.062205036826157,9.52298234628416,-0.22924952672680363,-0.16810170177018036,8.94773745320191,14.941525852003888,0.0,1.0,0.0,0.0,1.0,Taxi
24.3,-0.12178142670902159,-3.557220419020652,8.904628383230605,-0.4654366989426977,-0.519822826133963,8.917782649984929,15.615717042510067,0.0,1.0,0.0,0.0,1.0,Taxi
24.400000000000002,-0.008238714246237731,-43.184878767567454,10.845566196800835,0.07799747224127779,0.7798750493811457,9.147005318357458,15.503201793566294,0.0,1.0,0.0,0.0,1.0,Taxi
24.5,0.0396848245950458,25.054032594348303,9.881356194683276,-0.16535748268570039,-0.669644295694317,9.109106682515346,14.52863780453975,0.0,1.0,0.0,0.0,1.0,Taxi
24.6,0.003488736262719914,4.945107118379279,9.435373151291495,-0.514127876627489,0.4681458786606425,8.881229095615367,15.264400492353078,0.0,1.0,0.0,0.0,1.0,Taxi
24.700000000000003,0.016486821345658664,-40.41777140858479,10.114119902379306,0.12001688657253429,-0.23417518952726604,8.947064363675565,16.114379989434912,0.0,1.0,0.0,0.0,1.0,Taxi
24.8,-0.16240403244787818,4.931204238761818,10.418877737874173,-0.1753469118490986,0.6712608767823616,8.778670921536673,15.441708739480442,0.0,1.0,0.0,0.0,1.0,Taxi
24.900000000000002,0.028144757456529,-24.631710998820736,8.39955980767846,-0.4224594126310093,0.33128854575315875,8.878789717384223,15.022274701141201,0.0,1.0,0.0,0.0,1.0,Taxi
25.0,-0.10667173364844502,31.445195850258642,10.377694953600049,0.24138457379231792,0.442970058399132,8.869955460754568,15.383362936462488,0.0,1.0,0.0,0.0,1.0,Taxi
25.1,-0.005178053196584969,-7.099795004937657,9.10743334861656,-0.2787003117967957,0.08663172362224394,9.009099113470882,16.10190363328678,0.0,1.0,0.0,0.0,1.0,Taxi
25.200000000000003,-0.007354217568159272,48.324805370316675,8.652757270601489,-0.5699916324650206,0.8306371329947705,9.036693346111576,15.726103052466883,0.0,1.0,0.0,0.0,1.0,Taxi
25.3,0.13495229320313837,-46.48324899420638,10.867210211006272,0.00020806637284953577,-0.8109321339551714,8.868697096215385,15.091255711127305,0.0,1.0,0.0,0.0,1.0,Taxi
25.400000000000002,-0.23759429816761687,-40.64472976592738,9.846609282975962,-0.18757051669080443,-0.8667939942630609,9.106803593695247,15.70945042543976,0.0,1.0,0.0,0.0,1.0,Taxi
25.5,-0.21057786639779616,-39.722267300172724,9.245626907949676,0.02508234225798872,-0.7692249016183481,9.168901257076755,15.29140009722465,0.0,1.0,0.0,0.0,1.0,Taxi
25.6,-0.06365904329772527,65.45380608626664,10.759999311704881,-0.22185036176114956,-0.23348015304391953,8.909729584880665,14.853830729693113,0.0,1.0,0.0,0.0,1.0,Taxi
25.700000000000003,0.0896747322637163,48.36524859486315,9.35679174931471,-0.3885696963490296,-0.36117402134048066,8.90146558109734,15.941677849250993,0.0,1.0,0.0,0.0,1.0,Taxi
25.8,0.031248376576519517,12.491173057982422,9.033341024313934,-0.4868308268261572,-0.2694204633179952,9.068768670751524,15.712017636000082,0.0,1.0,0.0,0.0,1.0,Taxi
25.900000000000002,-0.0012031780078131764,9.386011031535523,10.172967524751236,-0.40305255750153246,0.828577330456699,8.959111565290982,15.008050987962585,0.0,1.0,0.0,0.0,1.0,Taxi
26.0,0.1366047874213939,-22.513460655974487,8.689477724196324,-0.3870866863437158,-0.3063932698670024,8.974531182139799,15.919019869379564,0.0,1.0,0.0,0.0,1.0,Taxi
26.1,-0.08131892670335296,-11.043756318273177,9.665494556797636,-0.5704770180938069,0.459262985362896,8.991487180878323,14.349455000648256,0.0,1.0,0.0,0.0,1.0,Taxi
26.200000000000003,-0.05642195959917909,-16.389164993551024,8.778652615995963,-0.4012665359402374,0.04100477840312106,9.021871503813486,15.449821962551678,0.0,1.0,0.0,0.0,1.0,Taxi
26.3,0.05465896245363875,23.298097145068642,8.971060712699085,-0.2841340777477346,0.5479998021404718,9.225348333466684,16.555093969464416,0.0,1.0,0.0,0.0,1.0,Taxi
26.400000000000002,0.03517155902199025,-2.773832408785571,9.99218812039088,-0.30762881798255387,0.1866392729517271,8.939207610928804,16.46658974021482,0.0,1.0,0.0,0.0,1.0,Taxi
26.5,-0.07029112164310695,-21.801581829834106,9.05966300890721,-0.8902787579809338,0.1805515218066467,9.023143070221408,15.309636966807954,0.0,1.0,0.0,0.0,1.0,Taxi
26.6,-0.0543489466955318,-22.389697184656708,10.12374837990777,-0.46999831672254966,-0.14018151140413504,8.84573711470091,16.784910617852425,0.0,1.0,0.0,0.0,1.0,Taxi
26.700000000000003,-0.07677692690129331,-11.73702012871052,8.342532265031176,-0.2816764711510712,-0.46091308949810017,8.781063759913877,15.756968429561944,0.0,1.0,0.0,0.0,1.0,Taxi
26.8,-0.1289762222866596,-0.3441109394293562,9.508438665657845,-0.384522096798,-0.7897211653947545,9.086037241162558,15.363182004319844,0.0,1.0,0.0,0.0,1.0,Taxi
26.900000000000002,-0.05606950139267861,-24.93832933580264,9.307687430539687,-0.14462897293836752,0.30984279893356254,8.92462690159715,15.572009100657539,0.0,1.0,0.0,0.0,1.0,Taxi
27.0,-0.20146857358030654,22.897067175009536,9.492108107713078,-0.3651485347749254,0.9401225297231671,9.04049085031562,15.24207520652866,0.0,1.0,0.0,0.0,1.0,Taxi
27.1,-0.014490886411611937,7.4766129690609615,9.378245983091475,-0.2713063886643239,-0.272844134508501,9.027048597663793,15.86564908025448,0.0,1.0,0.0,0.0,1.0,Taxi
27.200000000000003,-0.018686436547373824,42.41307827176397,9.862615421913564,-0.17189083391830928,-0.009251899637543337,9.051257544142004,15.309327007104773,0.0,1.0,0.0,0.0,1.0,Taxi
27.3,0.01059681777851331,27.910618849395828,9.890128474824978,-0.054607728910709974,-0.5143839910221567,8.926321578044565,15.609560624438755,0.0,1.0,0.0,0.0,1.0,Taxi
27.400000000000002,0.12506220783536717,1.2195650726707374,9.3978626222906,-0.2368154824084927,-0.06558616569430994,9.035957333037175,15.343643409282903,0.0,1.0,0.0,0.0,1.0,Taxi
27.5,-0.01258861118402016,-19.353441129616133,9.326482490733122,-0.5972162831432916,-0.17002201309979348,9.144623161697268,14.638006340585171,0.0,1.0,0.0,0.0,1.0,Taxi
27.6,-0.08617038786956738,-30.159352133123473,9.885959162910964,0.027851716645546587,-0.3384828852769489,8.992281573811738,15.162110033477633,0.0,1.0,0.0,0.0,1.0,Taxi
27.700000000000003,-0.025734552830250192,-17.78358022511093,9.957601539843541,-0.049479042281330876,-0.507119218252693,9.083475865984894,15.419136586466433,0.0,1.0,0.0,0.0,1.0,Taxi
27.8,-0.10150651230957485,26.693438662931754,8.309294620273935,-0.45348083235828107,0.5084852443821049,8.93853301768064,15.428006484404593,0.0,1.0,0.0,0.0,1.0,Taxi
27.900000000000002,0.04729680544509138,21.035032236101554,8.808885096800742,-0.1963223893607904,0.5101851390414717,8.953842561486965,15.891548308373926,0.0,1.0,0.0,0.0,1.0,Taxi
28.0,0.07944060835025755,36.870392166098725,8.889731989487515,-0.43531785014927993,0.704663683416169,9.1074684366871,15.763360756198932,0.0,1.0,0.0,0.0,1.0,Taxi
28.1,0.08284544852091878,16.878847921495954,9.35837446375968,-0.3524863367048451,0.4190993871040161,8.92545867784537,15.292341654774281,0.0,1.0,0.0,0.0,1.0,Taxi
28.200000000000003,0.13169104505257112,-47.67946043780635,8.46203743426425,-0.1072867593478824,-0.4470864869315344,8.933342570445518,15.260089200094443,0.0,1.0,0.0,0.0,1.0,Taxi
28.3,-0.1589566938387742,-26.310469473135935,9.907443983123176,-0.20958516228160742,-0.3113101324268812,8.92558092081066,15.570213108734764,0.0,1.0,0.0,0.0,1.0,Taxi
28.400000000000002,-0.0487068988447609,26.661053010889006,9.0412267574802,-0.18303970801940783,0.1701152859074187,8.887147839901388,15.332628058038278,0.0,1.0,0.0,0.0,1.0,Taxi
28.5,0.26499631010701613,52.21134850208541,10.059090185506134,-0.16140921852965204,-0.39792804168342855,9.033342043668938,15.247367201933981,0.0,1.0,0.0,0.0,1.0,Taxi
28.6,0.10210004867165277,19.97643288157558,9.22627972558803,0.032491351674077296,0.7463252716453536,8.965183093982091,15.071882579551849,0.0,1.0,0.0,0.0,1.0,Taxi
28.700000000000003,0.05117526556311698,-55.512910104383515,10.15721421248708,-0.11505965984558181,-0.008826435568330016,9.01156097011011,15.29336794932858,0.0,1.0,0.0,0.0,1.0,Taxi
28.8,-0.012568240414901469,4.442964706498482,9.413386060166875,-0.24284112189208626,-0.4535046637820854,8.885827058841528,15.736520114965938,0.0,1.0,0.0,0.0,1.0,Taxi
28.900000000000002,0.1243148722041452,-16.606901031918568,9.503995320173,-0.3149255210893189,0.32458802653603747,8.919260778955163,14.970980325271517,0.0,1.0,0.0,0.0,1.0,Taxi
29.0,-0.031859239596475845,-8.506849790253112,10.030664354717644,-0.28053793197566324,0.3955263490109194,9.042049887993528,15.724950607832032,0.0,1.0,0.0,0.0,1.0,Taxi
29.1,-0.05510248936616702,-19.783932628746715,9.335090966588806,-0.3139840682716756,0.2229388833907117,8.922888497312272,16.83013676074906,0.0,1.0,0.0,0.0,1.0,Taxi
29.200000000000003,0.025395209060411622,4.260345595287245,8.633282320811325,-0.23088179316673837,0.4222895068760516,9.044479648091169,15.219266024647766,0.0,1.0,0.0,0.0,1.0,Taxi
29.3,-0.010557511620039595,-2.6945648073188218,8.641934189796704,-0.510510630195107,0.19220235062473062,8.965847105038847,15.352494912750895,0.0,1.0,0.0,0.0,1.0,Taxi
29.400000000000002,-0.0685753134027611,-17.03816082309061,10.21013746389867,-0.24323864611028523,0.8004765766752029,9.008102375710507,15.252564430819698,0.0,1.0,0.0,0.0,1.0,Taxi
29.5,-0.05979559505504141,22.669244136758078,8.85794962837564,0.0012325950721331913,0.5302765507446534,9.200240026632969,15.634800508655417,0.0,1.0,0.0,0.0,1.0,Taxi
29.6,0.10278870906375077,44.68250740246753,9.367512503017377,-0.24172179479479375,-0.3250997313111426,9.060272543410292,15.316198035952754,0.0,1.0,0.0,0.0,1.0,Taxi
29.700000000000003,0.15483722360957652,22.05741952455116,10.469606777852038,-0.2585853040056824,-0.3457655518503261,9.114690638678553,15.351412625484752,0.0,1.0,0.0,0.0,1.0,Taxi
29.8,0.05049150256771439,-31.942518955935004,9.267571960665151,-0.5908552019021064,-0.05986665645353535,8.877520895093312,14.702467007463904,0.0,1.0,0.0,0.0,1.0,Taxi
29.900000000000002,-0.056923885715924216,-33.671683026706866,9.166894214405312,-0.5290552607904604,-0.006945335117865213,9.019981499986898,15.344070589933938,0.0,1.0,0.0,0.0,1.0,Taxi
30.0,-0.013521191523957775,-29.724311644441034,9.764299301806638,-0.5074246551852519,-0.3401824677478104,9.127794119289035,14.881672599185455,0.0,1.0,0.0,0.0,1.0,Taxi
30.1,-0.09813005565449075,-12.466173343488421,10.424647762770766,-0.3186287469973309,-0.49463586206967874,9.034174091920363,15.095671127132231,0.0,1.0,0.0,0.0,1.0,Taxi
30.200000000000003,-0.1192547524333663,7.267859138226821,10.621024181434187,-0.3283492134555426,-0.11183024374286513,8.962213062647038,16.059699085337762,0.0,1.0,0.0,0.0,1.0,Taxi
30.3,0.022818104167176338,17.36347649923186,9.156446821817056,-0.3498651083190979,-0.332165171308576,8.958397685668672,15.030962894771905,0.0,1.0,0.0,0.0,1.0,Taxi
30.400000000000002,-0.01131267315833144,47.81453974463943,9.961579508366269,-0.23884201962615134,0.02810577241610778,8.89238325557318,15.282070620603998,0.0,1.0,0.0,0.0,1.0,Taxi
30.5,0.11981794628983092,11.660667203840655,9.553526059051842,-0.0174677196804586,-1.1481923871885968,8.943654117153812,15.757689888414031,0.0,1.0,0.0,0.0,1.0,Taxi
30.6,0.08112144018637966,-34.162485625582036,9.577108321129824,-0.12170735454863654,0.5419951636375904,8.912935110930732,15.328833231864364,0.0,1.0,0.0,0.0,1.0,Taxi
30.700000000000003,-0.18212510128624154,5.882353016081396,9.90006954188819,0.08122368565015597,-0.16674788035647894,8.90692431308662,15.753079782105686,0.0,1.0,0.0,0.0,1.0,Taxi
30.8,0.14922971137023794,-24.856668628521543,9.824899697379564,-0.5714325678154872,0.15718455022894948,9.034440023674563,16.31287629255369,0.0,1.0,0.0,0.0,1.0,Taxi
30.900000000000002,-0.043161902956228,25.970985426191888,8.999086102004242,-0.203674512269688,-1.1961801116230777,8.93553023944412,15.691789470089223,0.0,1.0,0.0,0.0,1.0,Taxi
31.0,-0.05227017415528208,-34.11276718410395,9.003062743713134,-0.3046650042830456,0.04000595051377944,9.034287456820607,14.839867425357282,0.0,1.0,0.0,0.0,1.0,Taxi
31.1,-0.021334124550281774,6.715806582369299,10.603794720309455,-0.12276825188855042,-0.07324253653473911,8.984572834457765,15.955612887184593,0.0,1.0,0.0,0.0,1.0,Taxi
31.200000000000003,-0.009582870044381481,-17.941075313008465,9.298803875826332,-0.39212310801729733,-0.029176004819350315,9.187373922845893,15.291949607384945,0.0,1.0,0.0,0.0,1.0,Taxi
31.3,-0.1419755507203244,15.272253156213035,9.97402808885461,-0.22340659955601982,0.09518981907706334,8.956644955194747,14.532684675810454,0.0,1.0,0.0,0.0,1.0,Taxi
31.400000000000002,0.05502714123078342,-8.364743871913129,10.524249166441045,-0.3432574016619807,-0.2820046904382132,9.038219893944984,14.885675621744522,0.0,1.0,0.0,0.0,1.0,Taxi
31.5,-0.051406589403947135,5.7922049763845465,9.517334880675598,-0.16386974155487027,0.18673016110826623,8.91078362634488,15.353775520585302,0.0,1.0,0.0,0.0,1.0,Taxi
31.6,-0.11301452583840166,9.442143553240575,10.471348913586677,-0.00022327381049722095,-1.3417578499487706,8.942129626589917,15.7996962970596,0.0,1.0,0.0,0.0,1.0,Taxi
31.700000000000003,0.1022378589969863,-13.012769752387575,9.232993739305599,-0.6516924579217717,0.13573518034748355,8.969625782472178,15.275808750360124,0.0,1.0,0.0,0.0,1.0,Taxi
31.8,-0.11647043816588497,29.827859951110838,10.259955045931935,-0.3290564279832928,0.09092204658871086,8.99968538960485,15.595999557525184,0.0,1.0,0.0,0.0,1.0,Taxi
31.900000000000002,0.03612477391715256,-29.616165295059474,9.69557195815329,0.09442144673035119,0.7708367755659223,8.96739888186363,15.240014962382617,0.0,1.0,0.0,0.0,1.0,Taxi
32.0,-0.04584296747831106,48.4705894821472,9.48310247477561,-0.050793276911736546,0.13917283078537449,8.899288858200748,16.39059324697973,0.0,1.0,0.0,0.0,1.0,Taxi
32.1,0.12588250924485098,5.743705850304022,10.105251206174614,-0.1347808755966481,-1.1581792498129235,9.059790824373863,15.109739974747205,0.0,1.0,0.0,0.0,1.0,Taxi
32.2,0.06484330316867264,29.47416772831933,9.49330454609753,-0.4204766739172252,-0.23513134657115325,9.025715177988388,16.151920154185365,0.0,1.0,0.0,0.0,1.0,Taxi
32.300000000000004,0.10152787116328557,-65.09614391762989,9.208660123629736,-0.3971118462173494,-0.2301329030437895,9.078605742462628,15.451092505614126,0.0,1.0,0.0,0.0,1.0,Taxi
32.4,-0.1995982103432985,-24.51607912063172,8.626741232345442,-0.22119799331191778,-0.04989579856361558,8.978804313928151,15.664668785458055,0.0,1.0,0.0,0.0,1.0,Taxi
32.5,-0.05773709243448599,-24.45999031759112,9.981096912578508,-0.2730592256204458,-0.171368840464533,9.112919563609637,14.193104689608145,0.0,1.0,0.0,0.0,1.0,Taxi
32.6,-0.020772080424670072,46.426525110579746,10.036582886346169,-0.4800494253376264,0.03489508257288244,8.961610967139165,16.2613243939809,0.0,1.0,0.0,0.0,1.0,Taxi
32.7,0.0325344152096002,36.36408924405302,10.70710387254501,-0.34422721419336816,-0.47724169291772045,8.829686663821747,14.980793583468378,0.0,1.0,0.0,0.0,1.0,Taxi
32.800000000000004,0.12408335378577906,-29.749759383669886,9.899496506235993,0.23312637699930494,0.7971120368911058,8.989391957306452,15.805725968934507,0.0,1.0,0.0,0.0,1.0,Taxi
32.9,-0.16952087734301954,-1.2932081124793957,9.146446701301198,-0.16595431926609439,-0.0597732971854832,8.754086133748501,15.139628360190104,0.0,1.0,0.0,0.0,1.0,Taxi
33.0,0.02606837464720322,-42.39620854593495,9.703683165609192,-0.5574453382751441,1.087643927915687,8.999559624092,14.784632023483661,0.0,1.0,0.0,0.0,1.0,Taxi
33.1,-0.08789768894389567,28.888710141829687,9.541856827258046,0.088797435131106,-0.6745055463328503,9.003729242261159,15.914054543961315,0.0,1.0,0.0,0.0,1.0,Taxi
33.2,-0.025077326633871123,-26.81488647408968,10.320994148474625,-0.3673849348710129,-0.21129211171049772,8.769983930260025,15.19166869884761,0.0,1.0,0.0,0.0,1.0,Taxi
33.300000000000004,-0.10800605772324523,71.18457699212654,10.34463598480816,0.11980421599248492,0.36932966583758803,8.781782657041049,15.405929830455346,0.0,1.0,0.0,0.0,1.0,Taxi
33.4,0.26802519601673697,19.505991950004873,11.074495043528673,-0.05857920158995808,-0.7430721174495052,8.874107308371265,15.311582923463588,0.0,1.0,0.0,0.0,1.0,Taxi
33.5,0.07245263311615324,17.210080319042472,9.54024004155079,-0.8336236604738579,0.6057049175058179,8.96925993206139,14.552226833917512,0.0,1.0,0.0,0.0,1.0,Taxi
33.6,-0.021955656128032887,-66.89241227516875,10.35107236312204,-0.6651326114924699,0.07348158701066138,8.846208622652398,14.857203039794715,0.0,1.0,0.0,0.0,1.0,Taxi
33.7,-0.0664368653591068,-0.5416692036197143,10.532219667393662,-0.2531189153648317,0.06605251975078402,9.103150879269094,14.432816565654251,0.0,1.0,0.0,0.0,1.0,Taxi
33.800000000000004,0.06974428709805462,0.04064268005607848,10.092077170865817,-0.15663281533680168,0.656135388568085,8.863224734790037,15.000244892716099,0.0,1.0,0.0,0.0,1.0,Taxi
33.9,-0.021752442727752536,20.775281531135928,9.343543773693153,-0.12580313291751333,-0.2296643224977131,9.061810909497922,16.243866351303833,0.0,1.0,0.0,0.0,1.0,Taxi
34.0,0.037439542296572814,-7.660555518837636,9.406807124482883,-0.0462277764539894,-0.28263835343375104,8.771151191910803,16.069414624922217,0.0,1.0,0.0,0.0,1.0,Taxi
34.1,0.03144150950386643,-5.216588602053826,10.115738439162646,-0.2837519555900184,-0.20452982001613132,9.113102544259448,16.416881911620727,0.0,1.0,0.0,0.0,1.0,Taxi
34.2,-0.04783538573802168,4.716402287083601,9.992997610552974,-0.5439555302869374,-0.15572931519707178,9.055138940548204,15.957334813376876,0.0,1.0,0.0,0.0,1.0,Taxi
34.300000000000004,0.06102155373199079,-19.321692508983904,8.895263962251226,-0.32547909985555273,-0.6257041228432646,8.809393109137659,15.620400707633285,0.0,1.0,0.0,0.0,1.0,Taxi
34.4,-0.06516695304105312,-12.973043454475766,8.982320068402675,-0.6340581549173625,0.19188422675469638,8.985638681097157,16.208608325370864,0.0,1.0,0.0,0.0,1.0,Taxi
34.5,-0.11270060301040052,-7.204510547033877,9.944888320305804,-0.3185506196283518,-0.17692138190262738,9.031095740645469,15.223336099876391,0.0,1.0,0.0,0.0,1.0,Taxi
34.6,0.024999000996821424,33.330209849883424,8.276946684269971,-0.006342594481035357,-0.0965566554115685,9.123708785455676,16.220333864095288,0.0,1.0,0.0,0.0,1.0,Taxi
34.7,0.10148409620836399,-3.226341982198297,9.753008258558971,0.054249306609210624,-0.08568011729454275,8.825441591486651,15.50204205563407,0.0,1.0,0.0,0.0,1.0,Taxi
34.800000000000004,-0.12883231292139202,40.437834181497415,9.273962713030986,-0.3449705542905894,0.40243484497129073,9.145628866485538,15.475121083889753,0.0,1.0,0.0,0.0,1.0,Taxi
34.9,0.2271881719043085,-41.67378364874906,9.094257459527718,-0.16707767782102823,0.15539349110014666,8.95189207177134,15.488143276108808,0.0,1.0,0.0,0.0,1.0,Taxi
35.0,-0.1068848220353813,31.78121564695125,9.325218499606121,-0.526263964480884,0.23494869294158044,9.202199428140148,16.151887706719197,0.0,1.0,0.0,0.0,1.0,Taxi
35.1,0.030073765313364226,2.109902570434007,9.752007355696623,-0.060614775866695836,-0.08389920367150479,9.14007622317797,16.492427568933085,0.0,1.0,0.0,0.0,1.0,Taxi
35.2,0.2377376847564785,-5.219900748391315,9.616839478317473,-0.4028499182909303,0.24507263131701038,8.63862505033876,14.832649250774143,0.0,1.0,0.0,0.0,1.0,Taxi
