time_s,altitude_ft,vertical_speed_fpm,ias_kt,pitch_deg,roll_deg,heading_deg,throttle_pct,afterburner_on,gear_down,flaps_deg,speedbrake_pct,weight_on_wheels,label
0.0,-1.6732789924614837,-488.810283463148,150.8204609869897,2.799055005666703,3.954484441781844,56.93961803823362,44.06879690730251,0.0,1.0,18.824800041348666,16.15926903768599,0.0,Landing
0.1,-3.3026466040053104,-649.3942628819868,149.28166320512244,2.9066596040607675,4.250719161428242,56.88852674508354,44.6613289464356,0.0,1.0,18.824800041348666,16.15926903768599,0.0,Landing
0.2,-4.920250306871418,-974.2181514210989,149.65886668162247,3.1072925382613295,4.05181360772762,56.4216174175607,44.66892378242959,0.0,1.0,18.824800041348666,16.15926903768599,0.0,Landing
0.30000000000000004,-6.544369749566979,-975.0742128530463,152.3619341434959,2.8564795597995665,4.30374145018659,56.54238098261453,44.52517596443506,0.0,1.0,18.824800041348666,16.15926903768599,0.0,Landing
0.4,-8.178017668270542,-998.4401108705757,150.43978004591156,3.0268649129902565,4.274776224682304,56.776956003512055,43.95158063455775,0.0,1.0,18.824800041348666,16.15926903768599,0.0,Landing
0.5,-9.912450861224297,-985.296396968662,150.06257731663848,2.8236354724787125,3.837638786232869,56.9406631871467,44.08332153299184,0.0,1.0,18.824800041348666,16.15926903768599,0.0,Landing
0.6000000000000001,-11.470851734410289,-993.1000790802609,150.41723799512786,2.9832933821074774,3.9889945933867357,56.77745425694377,43.46763130835481,0.0,1.0,18.824800041348666,16.15926903768599,0.0,Landing
0.7000000000000001,-13.143518063671847,-972.2500761306229,150.5873781554921,2.6896811205006457,3.8906465822538334,56.63857760019562,43.50113074036549,0.0,1.0,18.824800041348666,16.15926903768599,0.0,Landing
0.8,-14.773701241877411,-962.6536824064091,150.27623316963926,3.0236643181763347,3.9584918019667192,56.86992071433701,44.5023120481798,0.0,1.0,18.824800041348666,16.15926903768599,0.0,Landing
0.9,-16.284120146442334,-964.303973916108,151.45525107953597,2.7727567927551364,4.30560292626039,56.664999110212136,44.43881871598577,0.0,1.0,18.824800041348666,16.15926903768599,0.0,Landing
1.0,-17.965037933252386,-952.6961716037313,150.34492956292388,2.850139379345076,4.162551017715404,56.66666546691647,44.22833123011807,0.0,1.0,18.824800041348666,16.15926903768599,0.0,Landing
1.1,-19.537182099896068,-967.9109567462361,150.04707464857674,2.8711121071838264,4.03981783519553,56.64084839993541,44.718856613838675,0.0,1.0,18.824800041348666,16.15926903768599,0.0,Landing
1.2000000000000002,-21.123674930173514,-960.3696739297262,149.71341418238165,2.863814518127479,4.186899864664394,56.92278915978744,44.295617204754414,0.0,1.0,18.824800041348666,16.15926903768599,0.0,Landing
1.3,-22.766886302901018,-959.285473355009,149.24313029917985,2.805570993057094,4.17257727709209,56.38381837286613,43.37817538291947,0.0,1.0,18.824800041348666,16.15926903768599,0.0,Landing
1.4000000000000001,-24.333609466671113,-951.3379885288742,149.6620218343391,3.073443119601817,4.654774127866941,56.81489103193377,43.81077535975459,0.0,1.0,18.824800041348666,16.15926903768599,0.0,Landing
1.5,-25.880364872817886,-937.8931091035347,148.96950660433637,2.6996073504300715,4.458980210718199,56.790099903510566,44.10862965468975,0.0,1.0,18.824800041348666,16.15926903768599,0.0,Landing
1.6,-27.45635184841869,-945.8287934497826,149.68713386885935,3.134374465002762,4.134233696624003,56.64122550318422,44.464352001657744,0.0,1.0,18.824800041348666,16.15926903768599,0.0,Landing
1.7000000000000002,-29.062753433920026,-967.8167020171514,149.14429072466143,3.12480489959571,4.337029155648344,56.68107399109334,43.99556161083156,0.0,1.0,18.824800041348666,16.15926903768599,0.0,Landing
1.8,-30.719448382903643,-976.8924050791312,150.65238912185112,2.7905627807398714,4.2553999315000635,56.72231284426522,43.55184923746095,0.0,1.0,18.824800041348666,16.15926903768599,0.0,Landing
1.9000000000000001,-32.34081387381435,-953.1936429026465,151.4170202947022,3.005258517308387,4.441837798224127,56.766047410856345,44.601642861685285,0.0,1.0,18.824800041348666,16.15926903768599,0.0,Landing
2.0,-33.82872164843326,-939.2490562328248,151.35003700653425,2.672024243366089,4.044295496885036,56.974936064326585,44.594040856458335,0.0,1.0,18.824800041348666,16.15926903768599,0.0,Landing
2.1,-35.41569366406777,-943.3998162071206,148.8307605793539,2.9589885670741842,3.9643734720744206,56.775013300528656,44.27888516851886,0.0,1.0,18.824800041348666,16.15926903768599,0.0,Landing
2.2,-37.05781295484995,-956.8125794519759,150.0905758745543,2.637769800891093,4.497853622936261,56.7748777574746,44.24757420303885,0.0,1.0,18.824800041348666,16.15926903768599,0.0,Landing
2.3000000000000003,-38.61278454569314,-957.5839907177084,148.8713165165041,2.669553565947937,4.0584144020061625,56.93488089986016,43.613799268994235,0.0,1.0,18.824800041348666,16.15926903768599,0.0,Landing
2.4000000000000004,-40.20361361765631,-947.9813069184032,149.71495794229466,2.9149594067166373,4.25184614440817,56.9608015955244,44.56599379414019,0.0,1.0,18.824800041348666,16.15926903768599,0.0,Landing
2.5,-41.79771948944197,-970.9960844899741,150.21362490497424,2.7674206759171116,4.277640348969941,56.830654626448506,44.647253144598416,0.0,1.0,18.824800041348666,16.15926903768599,0.0,Landing
2.6,-43.46776496814301,-995.114035234377,151.4517292039562,3.041742701118893,4.014968005090128,56.526355853380664,44.347767560967156,0.0,1.0,18.824800041348666,16.15926903768599,0.0,Landing
2.7,-45.179183793828194,-973.7510265305318,149.67494473450208,3.1224044277899883,4.025041712620913,56.6207083330371,44.0068980286164,0.0,1.0,18.824800041348666,16.15926903768599,0.0,Landing
2.8000000000000003,-46.666474622094626,-946.7549356053895,151.12213301697867,2.865965449146528,4.073671697717308,56.97905871793341,43.85481374429256,0.0,1.0,18.824800041348666,16.15926903768599,0.0,Landing
2.9000000000000004,-48.201539646169955,-941.7697066598948,149.8054160447681,2.6370842975022706,3.989025400504243,56.6660797741373,43.668097579301275,0.0,1.0,18.824800041348666,16.15926903768599,0.0,Landing
3.0,-49.88803232712767,-957.7915188110809,151.0224835809587,3.010741576078272,3.9309022572897185,56.6268641179247,44.5444149295658,0.0,1.0,18.824800041348666,16.15926903768599,0.0,Landing
3.1,-51.45543221615003,-964.5959951317224,151.0151178391497,2.8574617184207933,4.752288001134049,56.87928266649527,44.0320881620526,0.0,1.0,18.824800041348666,16.15926903768599,0.0,Landing
3.2,-53.02451962182857,-952.8418311100282,151.82593334939278,2.891785450564274,4.567204697549458,56.65206342019877,44.10679180466749,0.0,1.0,18.824800041348666,16.15926903768599,0.0,Landing
3.3000000000000003,-54.65224148267781,-974.6625330916728,150.98394389328172,2.8172036500991187,3.9188728990891613,56.9030634872675,44.07312745912107,0.0,1.0,18.824800041348666,16.15926903768599,0.0,Landing
3.4000000000000004,-56.328744881608394,-1006.7743072718316,149.9269285572405,3.0356208106762144,4.148927102451262,56.936892278832886,44.43349606767733,0.0,1.0,18.824800041348666,16.15926903768599,0.0,Landing
3.5,-58.058391158187725,-1010.701026480696,147.85345603871392,2.7301545443122226,4.017286236770246,56.759588605128215,43.74341018049205,0.0,1.0,18.824800041348666,16.15926903768599,0.0,Landing
3.6,-59.70574661508129,-985.0672437223637,148.76301198097906,2.753877231252172,3.910670596202063,56.68362515775891,44.265193380467245,0.0,1.0,18.824800041348666,16.15926903768599,0.0,Landing
3.7,-61.25408110022021,-961.2141914756222,147.5006296478063,2.745040174960624,4.005720279352313,56.695792480339435,43.668959338076256,0.0,1.0,18.824800041348666,16.15926903768599,0.0,Landing
3.8000000000000003,-62.864462115565836,-945.5843375820181,149.29011047824852,3.0424726922385155,3.874303320782957,56.83483788410331,43.94948525039904,0.0,1.0,18.824800041348666,16.15926903768599,0.0,Landing
3.9000000000000004,-64.43366830299138,-949.4841831453969,148.91908640664172,2.6050620629159815,4.133179880627077,56.66106958484448,44.32874958747239,0.0,1.0,18.824800041348666,16.15926903768599,0.0,Landing
4.0,-66.0015020159472,-952.1224749345196,151.35859639688968,2.8056409822100803,3.6787587637813153,56.66018087931673,43.91567109207161,0.0,1.0,18.824800041348666,16.15926903768599,0.0,Landing
4.1000000000000005,-67.62507449023843,-967.1106971128951,149.94131533593364,2.7851065444320415,3.9711272273155154,56.70164756908247,44.571016402041174,0.0,1.0,18.824800041348666,16.15926903768599,0.0,Landing
4.2,-69.26922178855585,-975.9012713768784,149.9861087371478,2.6270317242513817,4.420233718463371,56.680432058105794,44.13571642437396,0.0,1.0,18.824800041348666,16.15926903768599,0.0,Landing
4.3,-70.88100837283159,-972.9845943479177,150.48795142078154,2.721156369876091,4.259782596108772,56.55088831081309,44.13129888682828,0.0,1.0,18.824800041348666,16.15926903768599,0.0,Landing
4.4,-72.48999746197802,-978.0373155747384,150.4490120472709,2.717313657366636,3.821389612307694,56.83282816027855,44.00679310588169,0.0,1.0,18.824800041348666,16.15926903768599,0.0,Landing
4.5,-74.15940836642955,-990.4149054464115,150.03028433329848,2.7906825348755517,4.278944644818497,57.039955354684025,44.22852712120474,0.0,1.0,18.824800041348666,16.15926903768599,0.0,Landing
4.6000000000000005,-75.83308290006364,-967.8981134197926,151.68530554107352,3.345822962868342,4.043623755289429,56.73640053271038,44.55546017947795,0.0,1.0,18.824800041348666,16.15926903768599,0.0,Landing
4.7,-77.32948802907698,-954.8997114757299,150.76165237026046,3.0799925497841376,4.387489225879706,56.666684273396754,44.11138221577763,0.0,1.0,18.824800041348666,16.15926903768599,0.0,Landing
4.800000000000001,-78.9339069238082,-939.9823524643751,150.2604681878132,2.9119873539961993,4.018687922977646,56.595856487358105,44.36658029499854,0.0,1.0,18.824800041348666,16.15926903768599,0.0,Landing
4.9,-80.53299466238552,-971.6050805122991,149.08865657018282,2.8613160443045995,4.393544124199006,56.74283672346405,44.22361888515932,0.0,1.0,18.824800041348666,16.15926903768599,0.0,Landing
5.0,-82.18751343163848,-983.3994269153949,151.71976996961854,2.8792543386090146,4.557525305342482,56.74124903652012,44.74869141555256,0.0,1.0,18.824800041348666,16.15926903768599,0.0,Landing
5.1000000000000005,-83.85090405838517,-986.6424709164249,152.63588869177264,3.0094132987339495,4.240835450186418,56.945716071077584,44.04644794590626,0.0,1.0,18.824800041348666,16.15926903768599,0.0,Landing
5.2,-85.46620701696764,-981.9246288886064,149.6008488433949,3.0325568144665294,4.604709245686149,56.74511836448943,44.0291011788505,0.0,1.0,18.824800041348666,16.15926903768599,0.0,Landing
5.300000000000001,-87.09713657608151,-972.2039445339791,149.85948937980092,2.9924683453401637,4.125074817762355,56.76512011050704,44.40125086312382,0.0,1.0,18.824800041348666,16.15926903768599,0.0,Landing
5.4,-88.71192378105506,-951.776220441991,149.72365394183217,2.4288768511675487,4.33583308268105,56.85186286143761,44.013233214813894,0.0,1.0,18.824800041348666,16.15926903768599,0.0,Landing
5.5,-90.2250881191776,-944.7345504342878,150.02083890448705,2.6438838101197493,4.335514190262928,56.77493504373541,43.86184286222164,0.0,1.0,18.824800041348666,16.15926903768599,0.0,Landing
5.6000000000000005,-91.82080932825295,-939.6384127356187,151.5945662075476,3.3552590633886705,4.0935478159904335,56.652299806325516,44.472008396544695,0.0,1.0,18.824800041348666,16.15926903768599,0.0,Landing
5.7,-93.41011584473316,-967.1577404776344,150.76385473406236,2.6154679346240988,3.9358833012546826,56.70358662568435,43.53921036866071,0.0,1.0,18.824800041348666,16.15926903768599,0.0,Landing
5.800000000000001,-95.06087682156577,-967.2863983608808,149.3029699027113,2.701785760671076,4.0060417236300605,56.78799599044021,44.139686546333536,0.0,1.0,18.824800041348666,16.15926903768599,0.0,Landing
5.9,-96.65724132005735,-953.7887312445977,149.7198446597966,3.086885319869448,4.36542883228991,56.51604337263615,44.24239829726782,0.0,1.0,18.824800041348666,16.15926903768599,0.0,Landing
6.0,-98.17905950095614,-940.9412989419963,150.5615502767986,2.999572896332564,3.991902606410689,56.75917356828279,44.2819982427472,0.0,1.0,18.824800041348666,16.15926903768599,0.0,Landing
6.1000000000000005,-99.76558331627575,-947.9187756452151,149.7897860679936,2.7586806597639835,3.9413751456091712,56.77104946060126,44.03257580130755,0.0,1.0,18.824800041348666,16.15926903768599,0.0,Landing
6.2,-101.39683519828343,-967.0536256377944,150.41209426565587,2.3503748638276485,4.514082685310798,56.48232211597718,43.705571684726806,0.0,1.0,18.824800041348666,16.15926903768599,0.0,Landing
6.300000000000001,-103.01432762914511,-952.8848209580502,149.43476172509372,2.8842782296246905,4.252605311446002,56.402393648172335,44.31138897510493,0.0,1.0,18.824800041348666,16.15926903768599,0.0,Landing
6.4,-104.530007421066,-948.7101847433509,150.35349433379926,3.159167776162651,4.120424571363333,56.82578230562956,43.97602999569867,0.0,1.0,18.824800041348666,16.15926903768599,0.0,Landing
6.5,-106.14038612200018,-945.7396123177006,151.05184279222146,2.5748722506867194,4.417501093487488,56.6215932667194,43.826741284252535,0.0,1.0,18.824800041348666,16.15926903768599,0.0,Landing
6.6000000000000005,-107.74302569073362,-954.9594487959894,148.4728452054527,2.905231598671293,4.355459980225989,56.80812120986309,44.06436701327801,0.0,1.0,18.824800041348666,16.15926903768599,0.0,Landing
6.7,-109.30480466504595,-943.4706594779813,149.66072196062564,2.9947593568097193,4.140574477707762,56.73209001318497,43.901036481744185,0.0,1.0,18.824800041348666,16.15926903768599,0.0,Landing
6.800000000000001,-110.85773941939009,-956.6083351522196,148.786277341883,2.758825825602952,4.279718295513922,56.599039918307824,44.05630028314777,0.0,1.0,18.824800041348666,16.15926903768599,0.0,Landing
6.9,-112.52606736649471,-969.9233055947503,149.2141261698208,2.499065338901303,4.13952450270723,56.82259747467617,44.57203382385528,0.0,1.0,18.824800041348666,16.15926903768599,0.0,Landing
7.0,-114.1544211930197,-981.6188127267766,150.56215771475624,3.0185020015202775,4.171930098570671,57.04892604488214,44.27505555950273,0.0,1.0,18.824800041348666,16.15926903768599,0.0,Landing
7.1000000000000005,-115.76583348302397,-963.7683366704495,148.84039327370306,2.8143783361499453,4.324341419604076,56.998410614921795,44.18938581823347,0.0,1.0,18.824800041348666,16.15926903768599,0.0,Landing
7.2,-117.34490904984696,-970.0409101897549,149.27582899522727,3.013960878853883,4.472019718362519,56.450349645393544,44.13417365707078,0.0,1.0,18.824800041348666,16.15926903768599,0.0,Landing
7.300000000000001,-119.00462574396848,-976.5351692253888,149.84303604236385,2.7775904268790783,3.636828616446485,56.7198762636591,44.33818389837069,0.0,1.0,18.824800041348666,16.15926903768599,0.0,Landing
7.4,-120.64850932915091,-981.3388992908814,150.822546988113,3.0107519592499012,4.2313194389761986,56.65180158495116,43.83618654455245,0.0,1.0,18.824800041348666,16.15926903768599,0.0,Landing
7.5,-122.25160354630137,-979.3858777809846,150.80410974358273,2.7816091098120306,4.2281942200163565,56.51913549306306,44.32811744350459,0.0,1.0,18.824800041348666,16.15926903768599,0.0,Landing
7.6000000000000005,-123.9015551328734,-976.5472463987635,149.68944726420878,2.8475701586972915,4.369818225274991,56.75359550598745,44.06493817672758,0.0,1.0,18.824800041348666,16.15926903768599,0.0,Landing
7.7,-125.53124556114473,-964.9043113833159,150.7046167388495,2.6297436232661258,4.091675176683494,56.823952630327824,44.43501483654214,0.0,1.0,18.824800041348666,16.15926903768599,0.0,Landing
7.800000000000001,-127.07612510321795,-967.0711871168693,152.1764385318562,2.8152357318409957,3.906387976006115,56.783000672653145,44.072135438441464,0.0,1.0,18.824800041348666,16.15926903768599,0.0,Landing
7.9,-128.73691106845774,-967.1417102544439,149.1085491021869,3.2145180549647536,3.974619009121145,56.73747881768247,43.6613000446499,0.0,1.0,18.824800041348666,16.15926903768599,0.0,Landing
8.0,-130.36695411241695,-974.3159141702394,149.34580894652038,2.7088401745973174,4.177827956568057,57.04655043405222,43.87190150925039,0.0,1.0,18.824800041348666,16.15926903768599,0.0,Landing
8.1,-131.94770467406914,-953.0259029660614,150.59678312893257,3.013079936270944,3.9567029129583062,56.45889757214036,44.19094613773231,0.0,1.0,18.824800041348666,16.15926903768599,0.0,Landing
8.200000000000001,-133.50204058328805,-952.6405894135736,150.16415506938063,2.7681954224642267,4.324257267278213,56.4613870664333,44.10006796268214,0.0,1.0,18.824800041348666,16.15926903768599,0.0,Landing
8.3,-135.13015705948482,-959.9534932071891,149.297116656007,2.856730959675725,4.056300670305755,56.93058085208281,44.15548088375955,0.0,1.0,18.824800041348666,16.15926903768599,0.0,Landing
8.4,-136.7474721401051,-970.9413449259614,149.13703425545532,2.9816636053297416,4.5275002888348,56.78233240218128,43.50276926191661,0.0,1.0,18.824800041348666,16.15926903768599,0.0,Landing
8.5,-138.35674730791786,-960.238554227334,149.33676794144864,3.0755861459958402,4.582815028352636,56.62724028892842,44.405072688959294,0.0,1.0,18.824800041348666,16.15926903768599,0.0,Landing
8.6,-139.93134983062149,-956.4094654437781,150.51689041849545,2.8330189208617864,4.300761339031423,56.74076678061198,44.570927901481134,0.0,1.0,18.824800041348666,16.15926903768599,0.0,Landing
8.700000000000001,-141.52951946732398,-935.8920901208024,151.82035122872583,2.744898288681197,4.023893786255347,56.63887130899002,44.16220900164138,0.0,1.0,18.824800041348666,16.15926903768599,0.0,Landing
8.8,-143.03620775852187,-945.7136554768226,149.36277920085578,2.9567887501007717,4.166160314669725,56.74991179309569,43.94128509486136,0.0,1.0,18.824800041348666,16.15926903768599,0.0,Landing
8.9,-144.6599181080056,-945.6470248677136,149.32793572912274,2.6744282231445675,3.992572534784383,56.51319696771645,44.08240545950811,0.0,1.0,18.824800041348666,16.15926903768599,0.0,Landing
9.0,-146.25775459166255,-956.360493020958,150.80770939380642,2.859895324237214,4.144772231581986,56.894125019299224,44.020522085296754,0.0,1.0,18.824800041348666,16.15926903768599,0.0,Landing
9.1,-147.81801022362666,-934.3400328210009,149.80538966315902,2.927621500666558,4.314544551528303,56.62902828001438,44.188562613158894,0.0,1.0,18.824800041348666,16.15926903768599,0.0,Landing
9.200000000000001,-149.3316182721106,-937.5049316413425,149.35917444411757,3.0907582652152277,4.07265433293268,56.55000937153716,44.40047875079398,0.0,1.0,18.824800041348666,16.15926903768599,0.0,Landing
9.3,-150.94527924986926,-956.1875390803892,148.85517083775534,2.7188094268209695,4.264846533284659,56.50319642972681,43.80481832460831,0.0,1.0,18.824800041348666,16.15926903768599,0.0,Landing
9.4,-152.5989479190286,-971.3693947453294,149.65431897449002,3.0551129320945534,4.257717249367666,56.5618145660211,43.83254603876658,0.0,1.0,18.824800041348666,16.15926903768599,0.0,Landing
9.5,-154.18846524583725,-955.7920771546834,149.98455279548105,3.0961366238201187,3.9399790571737396,56.845125848994485,44.00717430805235,0.0,1.0,18.824800041348666,16.15926903768599,0.0,Landing
9.600000000000001,-155.72423963564268,-938.1484247978848,150.77455315327904,2.80083201389953,3.894736992507978,56.75181031522527,43.91174868884923,0.0,1.0,18.824800041348666,16.15926903768599,0.0,Landing
9.700000000000001,-157.28969004301803,-929.8526515585991,149.91204450304326,3.162048156030563,4.165538216604448,56.48969621059342,44.28240246331768,0.0,1.0,18.824800041348666,16.15926903768599,0.0,Landing
9.8,-158.83772850363025,-921.8819605706302,150.63241154122568,2.6031109963767682,4.228064447215266,56.73357758881923,44.52699252181548,0.0,1.0,18.824800041348666,16.15926903768599,0.0,Landing
9.9,-160.33364943849583,-924.8644976986669,149.08385958210712,2.3753756894408458,3.9033170170370965,56.6892162084028,43.66347540354746,0.0,1.0,18.824800041348666,16.15926903768599,0.0,Landing
10.0,-161.91401253151136,-932.6796981455858,150.08687392693156,2.7863322769386674,4.564488256812723,56.57346762972014,44.311379493924626,0.0,1.0,18.824800041348666,16.15926903768599,0.0,Landing
10.100000000000001,-163.50112699435817,-936.7840590561799,150.9868527200067,3.0467873587007306,4.105109187817635,56.59712096713275,43.81506552722163,0.0,1.0,18.824800041348666,16.15926903768599,0.0,Landing
10.200000000000001,-165.01756973377672,-938.3611346538487,149.0083083720882,2.6740150359069075,4.219379743937056,56.60790152601203,43.94118407902134,0.0,1.0,18.824800041348666,16.15926903768599,0.0,Landing
10.3,-166.6058182047806,-938.5410281672649,150.08615369962226,2.821701461554028,4.042603993452415,56.72185446609643,43.36098722770824,0.0,1.0,18.824800041348666,16.15926903768599,0.0,Landing
10.4,-168.1938321351945,-965.2272615174242,149.58888390559616,2.88994652060464,3.939035771931333,56.78593072994238,44.629940157703416,0.0,1.0,18.824800041348666,16.15926903768599,0.0,Landing
10.5,-169.84370604136384,-963.5649288653099,149.01956908299726,2.7130673064770607,4.499935233389192,56.866249627367836,43.63182301992609,0.0,1.0,18.824800041348666,16.15926903768599,0.0,Landing
10.600000000000001,-171.42364284910715,-945.389654897349,150.54107912982758,3.2313106692945466,4.078281729513713,56.757835062000595,44.22035966249591,0.0,1.0,18.824800041348666,16.15926903768599,0.0,Landing
10.700000000000001,-172.92078040968124,-919.6441411760078,150.4371056797554,2.7041110097369656,4.173278549144782,56.79792956563972,43.72273028257897,0.0,1.0,18.824800041348666,16.15926903768599,0.0,Landing
10.8,-174.44192674724388,-907.3438100152543,151.324826412642,2.7298733607349646,4.062788639593433,56.709389735007335,43.83158653913206,0.0,1.0,18.824800041348666,16.15926903768599,0.0,Landing
10.9,-175.96036189918343,-915.3359510118606,151.38297327336804,2.637690800133606,4.349453767434391,56.61754140724531,44.2852470713522,0.0,1.0,18.824800041348666,16.15926903768599,0.0,Landing
11.0,-177.49746016474054,-937.3546994666868,151.8553727241431,3.0057420559287213,4.155579885502093,56.546743368561124,44.02919355977432,0.0,1.0,18.824800041348666,16.15926903768599,0.0,Landing
11.100000000000001,-179.12870024457732,-948.2121336958984,152.10700993796883,2.8612252189436136,4.182017976555229,56.709982072465664,44.43663039176345,0.0,1.0,18.824800041348666,16.15926903768599,0.0,Landing
11.200000000000001,-180.70142256766292,-962.1606195129347,148.94754488834465,2.697574351775148,3.999984523690096,56.81547831669917,43.9042265145658,0.0,1.0,18.824800041348666,16.15926903768599,0.0,Landing
11.3,-182.30826326230522,-970.3699561128986,149.64358499687881,3.169571517360941,4.023731624640368,56.73401239494399,44.036911576557884,0.0,1.0,18.824800041348666,16.15926903768599,0.0,Landing
11.4,-183.9805500251418,-967.6266283398037,151.35729071676627,2.6660650749755734,4.26063516397482,56.574509669707425,44.05164753629861,0.0,1.0,18.824800041348666,16.15926903768599,0.0,Landing
11.5,-185.53955570936193,-950.181983222126,150.72929503875378,2.9203266601509412,4.298557774483009,56.650083163460124,43.84460284257677,0.0,1.0,18.824800041348666,16.15926903768599,0.0,Landing
11.600000000000001,-187.05917317841585,-927.7326872624485,150.4023479794877,2.5199764470699053,3.9862125199730922,56.63298511847,43.657533999593845,0.0,1.0,18.824800041348666,16.15926903768599,0.0,Landing
11.700000000000001,-188.61921346145405,-911.4631617337467,148.8478150263547,2.940616690777939,3.887536230990063,56.69024441073083,44.33190099317832,0.0,1.0,18.824800041348666,16.15926903768599,0.0,Landing
11.8,-190.09687151803067,-941.4992205534533,151.8336032134887,3.1004573280450343,4.334555672177718,56.897402813437395,43.343849139519534,0.0,1.0,18.824800041348666,16.15926903768599,0.0,Landing
11.9,-191.7666692811831,-943.3438262884978,150.36711120242245,2.6855662441210897,3.9400631534291124,56.801621598270344,44.15762982352494,0.0,1.0,18.824800041348666,16.15926903768599,0.0,Landing
12.0,-193.33593259289654,-951.9749252465999,149.0755567716795,2.70612571155935,4.013129874497042,56.8830465329155,44.15444979749498,0.0,1.0,18.824800041348666,16.15926903768599,0.0,Landing
12.100000000000001,-194.85674614426367,-941.1216540452018,151.87637645205973,2.661013363361319,3.9470119850553007,56.883665382020126,43.832450379667186,0.0,1.0,18.824800041348666,16.15926903768599,0.0,Landing
12.200000000000001,-196.47227755140912,-951.8495444600434,149.90909585511957,2.786705296734397,4.233304623266606,56.78577447035542,43.95129429743418,0.0,1.0,18.824800041348666,16.15926903768599,0.0,Landing
12.3,-198.09518031519676,-971.4803640331752,149.66858894989565,2.931442960252515,4.142328542351163,56.84401868055812,43.976855638850466,0.0,1.0,18.824800041348666,16.15926903768599,0.0,Landing
12.4,-199.71414796442954,-957.3632644085877,151.22726839385524,2.620834601222329,3.5286059636472205,56.83700919087261,44.331243978442224,0.0,1.0,18.824800041348666,16.15926903768599,0.0,Landing
12.5,-201.25909387345206,-943.9817075257623,150.8449960641543,2.8870804875728977,4.192626336475967,56.879192013332954,44.18226842942872,0.0,1.0,18.824800041348666,16.15926903768599,0.0,Landing
12.600000000000001,-202.81508885282557,-944.5122886022773,150.57225656604422,3.0812645593822796,4.211698348356948,56.69628927451015,44.30135409315993,0.0,1.0,18.824800041348666,16.15926903768599,0.0,Landing
12.700000000000001,-204.43670940744093,-956.5480367720228,150.36184370543725,2.810788049087362,3.7259141228493577,56.85492555838721,44.398198229507,0.0,1.0,18.824800041348666,16.15926903768599,0.0,Landing
12.8,-206.04183405731217,-962.6701796683222,150.16405482337592,2.9842035581014565,4.211248162327476,56.5872635523088,43.25072806004205,0.0,1.0,18.824800041348666,16.15926903768599,0.0,Landing
12.9,-207.62843975116718,-948.5681059298031,152.04002106165603,2.9174149572193264,4.034510732289595,57.08051168017772,44.599846074428214,0.0,1.0,18.824800041348666,16.15926903768599,0.0,Landing
13.0,-209.17954993708994,-952.9175383805467,150.21031457588387,2.61637141397279,4.394902544979071,56.773907411341554,44.395795571008186,0.0,1.0,18.824800041348666,16.15926903768599,0.0,Landing
13.100000000000001,-210.8064217492149,-971.2571544605056,150.0351694762742,2.9151189057647153,4.3150147010369,56.57434362074372,44.00255740630742,0.0,1.0,18.824800041348666,16.15926903768599,0.0,Landing
13.200000000000001,-212.4847255234697,-995.9180203956635,151.01975439009675,2.981856568042573,3.982610578669338,56.590814936454365,44.07634708048854,0.0,1.0,18.824800041348666,16.15926903768599,0.0,Landing
13.3,-214.15914003906826,-980.0559084454336,151.86407402211051,3.133076869567831,4.031108744825461,56.62687922166799,44.047076489007154,0.0,1.0,18.824800041348666,16.15926903768599,0.0,Landing
13.4,-215.70670129144207,-980.872814128361,149.93849550096277,2.8403088314899754,4.215725595391154,56.7717395190075,43.72883886336013,0.0,1.0,18.824800041348666,16.15926903768599,0.0,Landing
13.5,-217.3890895941115,-969.1865376819692,150.45675589138574,2.7800085573001945,3.948917329612007,56.863006130411804,44.185779368155245,0.0,1.0,18.824800041348666,16.15926903768599,0.0,Landing
13.600000000000001,-219.0050727274781,-983.4645205390815,150.47935694999262,3.0464045221165965,4.593897421072027,56.70134109412902,44.03982536590088,0.0,1.0,18.824800041348666,16.15926903768599,0.0,Landing
13.700000000000001,-220.62402389413748,-944.1396304169531,150.0234163777807,2.5958109281148323,4.223567294236401,56.87861024483021,44.17425898471451,0.0,1.0,18.824800041348666,16.15926903768599,0.0,Landing
13.8,-222.10978774619628,-938.4481480433351,151.31946442755853,2.7297054800263507,4.3661430756878765,56.79064236283307,44.341951414749644,0.0,1.0,18.824800041348666,16.15926903768599,0.0,Landing
13.9,-223.69731346769478,-928.553091638213,150.89460928692117,3.008230493648611,4.121440990532818,56.672193642156,43.71158231522914,0.0,1.0,18.824800041348666,16.15926903768599,0.0,Landing
14.0,-225.26678935232854,-939.6441084118125,149.2673434216323,2.6316797433409826,4.211567511274099,56.704166631820044,44.318840860594285,0.0,1.0,18.824800041348666,16.15926903768599,0.0,Landing
14.100000000000001,-226.80800828825534,-923.603012399758,150.22982285310206,2.8334940579514525,3.663474871861899,56.579186068767626,43.88538376463181,0.0,1.0,18.824800041348666,16.15926903768599,0.0,Landing
14.200000000000001,-228.31532852969357,-909.0820610108439,151.26777983797967,2.7320726650656555,4.138130698037023,56.6988399621676,43.72109247931472,0.0,1.0,18.824800041348666,16.15926903768599,0.0,Landing
14.3,-229.81219965738276,-919.6591636873223,149.99196482144933,2.8400708287925926,4.347915633143545,56.97858325329213,44.47528282792618,0.0,1.0,18.824800041348666,16.15926903768599,0.0,Landing
14.4,-231.40630410669195,-935.1057043748086,150.00794895826022,3.072059154435977,4.139537907060954,56.8640269652592,43.49920001250875,0.0,1.0,18.824800041348666,16.15926903768599,0.0,Landing
14.5,-232.99085705156762,-940.856455793346,148.34973618587335,2.589947607458893,4.280756522828937,56.44322476936401,43.954771297499335,0.0,1.0,18.824800041348666,16.15926903768599,0.0,Landing
14.600000000000001,-234.5164819363495,-925.7323993744536,150.78610193864495,2.780463350977879,4.189097498846512,56.687880979913814,44.33368697256966,0.0,1.0,18.824800041348666,16.15926903768599,0.0,Landing
14.700000000000001,-236.03496610356422,-904.2347730749215,150.18556630316058,2.9410731788396878,4.199930408115942,56.82382342366992,43.93498788792768,0.0,1.0,18.824800041348666,16.15926903768599,0.0,Landing
14.8,-237.51203091694222,-908.3152659203223,149.6874019630367,3.0282272833357142,3.8354952500688224,56.8304711416103,44.24740712012271,0.0,1.0,18.824800041348666,16.15926903768599,0.0,Landing
14.9,-239.0580582659511,-927.9473111390759,151.02781412461837,2.622295554881279,3.7563435473786067,56.34295978763993,43.70821766984224,0.0,1.0,18.824800041348666,16.15926903768599,0.0,Landing
15.0,-240.6747026592596,-943.8593715382184,151.66504403640948,2.6149514673968177,4.046436993311602,56.64928110176635,44.24049420723763,0.0,1.0,18.824800041348666,16.15926903768599,0.0,Landing
15.100000000000001,-242.23132777463331,-951.1274850940482,149.74204395756828,3.058018649283337,4.483686735674057,56.862272055365224,44.126026892904974,0.0,1.0,18.824800041348666,16.15926903768599,0.0,Landing
15.200000000000001,-243.81369569142134,-929.0339971084735,149.6061857866744,2.8064782645907123,4.1030011668612145,56.82128637238685,44.613061712044015,0.0,1.0,18.824800041348666,16.15926903768599,0.0,Landing
15.3,-245.31987264480196,-930.7108582556965,149.91024086654323,2.939099679656779,4.373292655749895,56.823459608464816,43.511911389692635,0.0,1.0,18.824800041348666,16.15926903768599,0.0,Landing
15.4,-246.8848820659118,-937.8629734275593,149.56526608348477,2.9184667797926274,4.0957218493102845,56.76719159444548,44.54270677565161,0.0,1.0,18.824800041348666,16.15926903768599,0.0,Landing
15.5,-248.50301055855914,-947.7234804284025,150.3388992067721,2.9365522107134785,4.435553783831267,56.68775894147342,44.24066505085637,0.0,1.0,18.824800041348666,16.15926903768599,0.0,Landing
15.600000000000001,-250.05849004694397,-947.5869272108184,150.84761953088625,2.879493730127678,4.12231334150695,56.89758423461967,44.215343989107105,0.0,1.0,18.824800041348666,16.15926903768599,0.0,Landing
15.700000000000001,-251.6228167019659,-930.5590958423467,150.12223508791328,2.8217592503485482,4.143264382473883,56.674979921520844,44.04418882458084,0.0,1.0,18.824800041348666,16.15926903768599,0.0,Landing
15.8,-253.15580603777087,-924.7898222595155,149.01283716022388,2.6782547878247414,4.0586329926239015,56.713240492980844,43.88500716192677,0.0,1.0,18.824800041348666,16.15926903768599,0.0,Landing
15.9,-254.68243915824155,-921.1516893662919,152.6227295507954,2.8395264457566913,4.123092497063376,57.06342003186643,44.095072895151496,0.0,1.0,18.824800041348666,16.15926903768599,0.0,Landing
16.0,-256.22857514879735,-945.4713532681752,149.9420289844566,2.73629234575962,4.296087361949215,56.70651477431932,44.597153321543516,0.0,1.0,18.824800041348666,16.15926903768599,0.0,Landing
16.1,-257.88316280411175,-975.646418989959,150.72994732149058,3.2760091430839586,4.419894428434947,56.805052697766314,43.69443811336268,0.0,1.0,18.824800041348666,16.15926903768599,0.0,Landing
16.2,-259.56067125319134,-989.2087118368182,150.75614525478568,2.708464554303786,3.902942485494586,56.57387337268932,43.99362018843146,0.0,1.0,18.824800041348666,16.15926903768599,0.0,Landing
16.3,-261.17461870798144,-967.8979536974567,152.00318396099672,2.8816607141242576,4.197702143837227,56.90791338478016,43.83256218737816,0.0,1.0,18.824800041348666,16.15926903768599,0.0,Landing
16.400000000000002,-262.72265257259903,-960.1375088495162,149.46996157645893,2.796208064092997,4.1548991589015545,57.12531071284576,43.35433359452956,0.0,1.0,18.824800041348666,16.15926903768599,0.0,Landing
16.5,-264.3613587974389,-948.3768466784569,151.3290301140424,2.813745307749423,4.222249554797169,56.75555865861844,44.01865401255707,0.0,1.0,18.824800041348666,16.15926903768599,0.0,Landing
16.6,-265.9165029413737,-959.8249402292255,149.50894333415383,2.8686692058319037,4.014057444653294,56.69504245272384,44.55671509276844,0.0,1.0,18.824800041348666,16.15926903768599,0.0,Landing
16.7,-267.52177727374516,-951.305824338158,149.50860834856843,2.96051494487072,4.324284055013396,56.63584993456931,44.23877935684343,0.0,1.0,18.824800041348666,16.15926903768599,0.0,Landing
16.8,-269.1178879191297,-942.8696374527591,149.76273570740412,2.895362333459048,4.162452448470945,56.773666164209544,43.659766115688626,0.0,1.0,18.824800041348666,16.15926903768599,0.0,Landing
16.900000000000002,-270.6308511286375,-938.2858393871971,148.69605992588853,2.8759544402532637,3.9641653322408277,56.907115742019926,43.92277469582447,0.0,1.0,18.824800041348666,16.15926903768599,0.0,Landing
17.0,-272.21320647068114,-936.9288406769784,150.16051819514237,2.776439701023441,4.017476048630459,57.17546515627424,43.73601910207396,0.0,1.0,18.824800041348666,16.15926903768599,0.0,Landing
17.1,-273.8025321225146,-927.9211414235989,152.09957930756357,2.8136136953910444,3.946211450545563,56.79842886432772,44.106318177248475,0.0,1.0,18.824800041348666,16.15926903768599,0.0,Landing
17.2,-275.2704568357555,-921.0273995223248,151.10508015941136,2.736935048376168,4.394161922505175,56.7406779978171,44.377689480494645,0.0,1.0,18.824800041348666,16.15926903768599,0.0,Landing
17.3,-276.81834346829277,-929.7500859352796,150.62553708233813,2.8206190595000447,4.147338861570164,56.74439280476355,43.51421087757108,0.0,1.0,18.824800041348666,16.15926903768599,0.0,Landing
17.400000000000002,-278.451282552191,-945.687292371315,149.8840530146319,2.999851009291673,4.172770081725001,56.772394438755555,43.71648091787686,0.0,1.0,18.824800041348666,16.15926903768599,0.0,Landing
17.5,-279.9988932976121,-965.4758327682886,149.8606855746199,2.783022361875177,4.177326372953263,56.98986449100647,44.31323707559886,0.0,1.0,18.824800041348666,16.15926903768599,0.0,Landing
17.6,-281.6457226321342,-946.6749661906193,149.27185671448555,2.7269018907008933,3.7761118857592093,56.590785630351775,44.049643131949026,0.0,1.0,18.824800041348666,16.15926903768599,0.0,Landing
17.7,-283.1846573831441,-948.9820588819954,149.28637313369612,2.885410196104362,3.9427963352421873,56.959352684926614,44.279449633321114,0.0,1.0,18.824800041348666,16.15926903768599,0.0,Landing
17.8,-284.74380359202206,-924.18434539768,150.74963075745563,2.9139241552811908,4.075524001365848,56.98921938902987,43.91318562896972,0.0,1.0,18.824800041348666,16.15926903768599,0.0,Landing
17.900000000000002,-286.2666443591226,-934.3463701334714,149.71892559292462,2.8860413512903467,4.266504417635758,56.657440603125906,44.315283242334246,0.0,1.0,18.824800041348666,16.15926903768599,0.0,Landing
18.0,-287.85638923381146,-935.2088200569939,149.85212901574837,2.642513824374939,4.440356689835492,56.72431323479617,44.20460479541479,0.0,1.0,18.824800041348666,16.15926903768599,0.0,Landing
18.1,-289.41984769230703,-951.4475332018038,150.77726369165296,2.6063381107117882,4.144519631611991,56.80243393747003,43.91232833051718,0.0,1.0,18.824800041348666,16.15926903768599,0.0,Landing
18.2,-291.0238820251316,-947.6532812950155,150.30198349050238,2.982437549305338,4.402922521457967,56.89456853816864,44.007331143490504,0.0,1.0,18.824800041348666,16.15926903768599,0.0,Landing
18.3,-292.59465564028653,-940.0031758499041,151.7020572425923,2.9252796019806575,4.072084888193605,56.81509699091373,43.977850832527366,0.0,1.0,18.824800041348666,16.15926903768599,0.0,Landing
18.400000000000002,-294.11986357155655,-942.9621524100186,148.88090886860334,3.320663428300085,3.8017809257347905,56.901870512404344,44.25034172828509,0.0,1.0,18.824800041348666,16.15926903768599,0.0,Landing
18.5,-295.7386927871817,-944.1761503805311,150.7928243621219,2.967234712116255,4.1681519224775,56.75188874474787,44.07073385444147,0.0,1.0,18.824800041348666,16.15926903768599,0.0,Landing
18.6,-297.3155363921892,-944.054887326911,149.11541229171016,2.8130553249712196,4.202875676976744,56.90739274340791,44.21222878419006,0.0,1.0,18.824800041348666,16.15926903768599,0.0,Landing
18.7,-298.8401380081911,-931.9648525969457,152.04495549413747,3.0068143676622747,4.399754505338634,56.609898131130365,44.52392783774017,0.0,1.0,18.824800041348666,16.15926903768599,0.0,Landing
18.8,-300.39851705016645,-924.7346117348003,151.55700337908453,2.9604577569143724,4.229153274357985,56.80214121410182,44.12822126837995,0.0,1.0,18.824800041348666,16.15926903768599,0.0,Landing
18.900000000000002,-301.9392094508632,-924.767362797286,149.74556365353936,2.858003801715816,4.083714380890698,56.62979180234157,43.63460774040493,0.0,1.0,18.824800041348666,16.15926903768599,0.0,Landing
19.0,-303.46397482217753,-922.1661415962218,149.39924493244064,2.8928648133279773,4.197141117948726,56.77080550393117,43.77110748653856,0.0,1.0,18.824800041348666,16.15926903768599,0.0,Landing
19.1,-305.00934775814756,-938.5477070893218,149.55114072036068,3.003872427430987,4.082877961769141,56.82956308932614,44.05445870289652,0.0,1.0,18.824800041348666,16.15926903768599,0.0,Landing
19.200000000000003,-306.6319479863098,-939.0296960032402,149.31892472738312,2.607561430286873,4.129774748100101,56.628076244849126,44.41532097665099,0.0,1.0,18.824800041348666,16.15926903768599,0.0,Landing
19.3,-308.15912330219373,-929.1014694669003,151.64696591070884,2.863146991410046,4.349425417696247,56.871279995785585,44.03174084893621,0.0,1.0,18.824800041348666,16.15926903768599,0.0,Landing
19.400000000000002,-309.65485510548206,-941.6941977094099,148.3901340039055,3.0627568702173433,4.071388194911462,56.8661437129299,43.53852309031773,0.0,1.0,18.824800041348666,16.15926903768599,0.0,Landing
19.5,-311.34041897485685,-941.2562784615717,149.07219267102883,2.6712206395571743,4.211920800538947,56.858435971162976,44.02581589237996,0.0,1.0,18.824800041348666,16.15926903768599,0.0,Landing
19.6,-312.8654046945016,-971.1301878753603,149.8698603304455,2.686205501702897,4.131744499937865,56.63579512264039,44.29800919635725,0.0,1.0,18.824800041348666,16.15926903768599,0.0,Landing
19.700000000000003,-314.51050604485886,-943.1398268490512,149.89408776079011,2.482214370615808,4.049085047234523,56.73716816750874,43.75310931448994,0.0,1.0,18.824800041348666,16.15926903768599,0.0,Landing
19.8,-316.0561181091021,-930.6925792861649,150.32501717695794,2.822789122028074,4.489093219437729,56.67781711795294,44.70241603951807,0.0,1.0,18.824800041348666,16.15926903768599,0.0,Landing
19.900000000000002,-317.5188675909324,-897.0881227454016,151.0814450048689,3.0453214693901307,3.869675618348981,56.8582555910491,44.20735035538486,0.0,1.0,18.824800041348666,16.15926903768599,0.0,Landing
20.0,-318.99594665858586,-899.720901256933,149.43925422432275,2.9645771124518174,4.166003271111072,56.74388512611074,44.276735956535674,0.0,1.0,18.824800041348666,16.15926903768599,0.0,Landing
20.1,-320.55472261538677,-920.4592961740674,148.9853997650555,2.8059802231046524,4.039191459660991,57.18272130910469,44.478353636921625,0.0,1.0,18.824800041348666,16.15926903768599,0.0,Landing
20.200000000000003,-322.12116407180275,-935.3015981553086,149.60774179460105,3.0526253617193104,4.193767882515292,56.69060423650262,43.379721773660755,0.0,1.0,18.824800041348666,16.15926903768599,0.0,Landing
20.3,-323.6724546493624,-951.87779703341,150.90501794418734,3.1344226298437023,3.8877075996057746,56.53544624803919,43.98940444563548,0.0,1.0,18.824800041348666,16.15926903768599,0.0,Landing
20.400000000000002,-325.3141116005538,-961.2238585075603,151.80223525515905,2.7113510143851034,4.053409687703636,56.78001215520112,44.305353307221296,0.0,1.0,18.824800041348666,16.15926903768599,0.0,Landing
20.5,-326.92728336434055,-966.5425301148276,150.2810210371281,2.692581559946481,3.725652427169262,56.87103121505271,44.300117178584514,0.0,1.0,18.824800041348666,16.15926903768599,0.0,Landing
20.6,-328.50516729993655,-937.7565348908548,149.9860286675854,3.3647412290201024,4.348445329506048,56.548811302115666,43.51777697331429,0.0,1.0,18.824800041348666,16.15926903768599,0.0,Landing
20.700000000000003,-330.0028942750081,-934.1218626363117,151.20963873766345,2.6042406390754778,4.262422250874877,56.9152426317666,43.92522411711341,0.0,1.0,18.824800041348666,16.15926903768599,0.0,Landing
20.8,-331.5978926775221,-924.762902734051,150.6713757249586,3.0851366030682987,4.131323531927654,56.629549373671125,43.99263721990799,0.0,1.0,18.824800041348666,16.15926903768599,0.0,Landing
20.900000000000002,-333.1289818136068,-943.807377106623,151.9578462665495,3.066507970693646,4.054033120978289,56.9847075888344,43.86122709304844,0.0,1.0,18.824800041348666,16.15926903768599,0.0,Landing
21.0,-334.7219311605412,-920.1157785864099,151.68701661224262,2.9548829689585485,4.304752524553914,56.7636600325859,44.219144004569316,0.0,1.0,18.824800041348666,16.15926903768599,0.0,Landing
21.1,-336.19847157045416,-921.6783993528567,150.90230041001635,2.794113036360453,4.224236953681989,56.76719408710363,43.63622129215776,0.0,1.0,18.824800041348666,16.15926903768599,0.0,Landing
21.200000000000003,-337.7373738103711,-921.522241824414,151.19195743549076,2.831087158912568,4.484468773993733,56.73132429616294,43.46318917483709,0.0,1.0,18.824800041348666,16.15926903768599,0.0,Landing
21.3,-339.3295423696633,-926.5390546128743,151.23363062756843,2.828433833440635,4.298386455190729,56.89313157168317,43.77729593079237,0.0,1.0,18.824800041348666,16.15926903768599,0.0,Landing
21.400000000000002,-340.83116684351853,-960.1782559183108,151.52847771016724,3.020812007055004,4.386848868020666,56.947253784271595,43.79914874230588,0.0,1.0,18.824800041348666,16.15926903768599,0.0,Landing
21.5,-342.53826508996264,-958.9753173436408,150.07365732873953,2.936574196919213,4.086382894563309,56.78125897716751,43.900519036888205,0.0,1.0,18.824800041348666,16.15926903768599,0.0,Landing
21.6,-344.1244189563815,-957.2281761984187,151.19431143453488,2.942296113401495,4.27071630200854,56.98400719172099,43.645815897325285,0.0,1.0,18.824800041348666,16.15926903768599,0.0,Landing
21.700000000000003,-345.6173077245106,-925.5087987692833,152.00705150815506,2.8189754340034074,4.221841867651,56.86443870514677,44.19334718817297,0.0,1.0,18.824800041348666,16.15926903768599,0.0,Landing
21.8,-347.16580908380905,-924.223093156968,149.92048674110742,2.6021338593118903,4.159869927589524,56.48597638306751,43.88925986964379,0.0,1.0,18.824800041348666,16.15926903768599,0.0,Landing
21.900000000000002,-348.7455344221663,-937.8143613465683,151.06646069077078,2.9953093516322804,4.446667110104723,56.78339429557832,44.00618418785788,0.0,1.0,18.824800041348666,16.15926903768599,0.0,Landing
22.0,-350.30637953124346,-937.6706202624179,149.97636941920854,2.7731447310470125,4.275010518954042,56.69064831223443,43.881561678177704,0.0,1.0,18.824800041348666,16.15926903768599,0.0,Landing
22.1,-351.85416218512114,-931.3875301589861,149.34795425611514,3.1289979742993426,4.151182149093086,56.67219281416999,43.90117022436368,0.0,1.0,18.824800041348666,16.15926903768599,0.0,Landing
22.200000000000003,-353.40247207296125,-919.9273730893652,150.31594359911637,2.795699569084296,4.027021305881339,57.00451696196836,44.63230394049487,0.0,1.0,18.824800041348666,16.15926903768599,0.0,Landing
22.3,-354.9060163966903,-922.7232991276879,149.82000060641536,2.7360406631115923,4.024732520206268,56.932738810098385,44.46741682698661,0.0,1.0,18.824800041348666,16.15926903768599,0.0,Landing
22.400000000000002,-356.4677786807596,-918.722829950491,151.03421776838996,2.8490256194272265,4.100171902060396,56.68319008155305,44.21379367683245,0.0,1.0,18.824800041348666,16.15926903768599,0.0,Landing
22.5,-357.9960862227137,-931.9004454956827,148.9738642301959,2.710621010725062,4.216672017070192,56.67549204189743,43.90235909137898,0.0,1.0,18.824800041348666,16.15926903768599,0.0,Landing
22.6,-359.5655186241687,-934.5070910634719,151.44207666229266,3.3036382021831363,4.761571199192952,56.899383950166396,43.92633561840793,0.0,1.0,18.824800041348666,16.15926903768599,0.0,Landing
22.700000000000003,-361.14031413607694,-949.8482418386858,149.28454278863657,3.239027141512539,4.090361900027913,56.560197059047766,44.36128074555567,0.0,1.0,18.824800041348666,16.15926903768599,0.0,Landing
22.8,-362.7453274319071,-946.5679726173108,150.88630573921677,2.845680812753621,4.136770573822988,56.55132632291304,44.411220874639305,0.0,1.0,18.824800041348666,16.15926903768599,0.0,Landing
22.900000000000002,-364.29835848725526,-938.9898890111455,149.37259290417506,2.855699231385124,4.119302361843055,56.722726539495966,43.924519923716716,0.0,1.0,18.824800041348666,16.15926903768599,0.0,Landing
23.0,-365.83526358113266,-930.02622238688,150.02118836515055,2.7164055838355927,3.957684994255247,56.81667066521777,44.032959392185546,0.0,1.0,18.824800041348666,16.15926903768599,0.0,Landing
23.1,-367.3954585438415,-950.2924721905289,148.8916594059588,2.710980675719148,4.3382151156187945,56.70409451900326,43.96309295404723,0.0,1.0,18.824800041348666,16.15926903768599,0.0,Landing
23.200000000000003,-369.0498208482079,-957.1574044433761,151.60209738465588,2.5565005389076436,4.3928172445041955,56.65520104133333,43.96851077476875,0.0,1.0,18.824800041348666,16.15926903768599,0.0,Landing
23.3,-370.62105060334954,-938.8558214198271,149.6672863429651,2.8053683202709165,3.8092954071932903,56.505565270587454,44.0177135447147,0.0,1.0,18.824800041348666,16.15926903768599,0.0,Landing
23.400000000000002,-372.08973765094066,-933.125768402772,149.6197585515656,2.2830624806780775,4.040018857242539,56.51067281712932,43.74221896736265,0.0,1.0,18.824800041348666,16.15926903768599,0.0,Landing
23.5,-373.71544969022176,-929.2653826914376,150.68819458793837,2.734117762555243,4.389393281954454,56.48741180433524,43.463297715861714,0.0,1.0,18.824800041348666,16.15926903768599,0.0,Landing
23.6,-375.26737751680673,-937.146914124162,151.73472622506605,2.4081775138275354,3.9538537858723988,56.602803995676766,44.39293645171079,0.0,1.0,18.824800041348666,16.15926903768599,0.0,Landing
23.700000000000003,-376.7754722215615,-917.1689134895929,148.52242374149247,2.6680936187036455,4.089705848042609,57.11212434357094,43.921883986421285,0.0,1.0,18.824800041348666,16.15926903768599,0.0,Landing
23.8,-378.3012942576697,-907.2375087284173,150.01759679419027,2.579497641077442,4.5284017215934735,56.67612268936887,43.86939367247566,0.0,1.0,18.824800041348666,16.15926903768599,0.0,Landing
23.900000000000002,-379.8035650604488,-920.6500267722619,151.08495914664516,2.8134631553006657,4.049800951182354,56.75839906412773,44.08274766739169,0.0,1.0,18.824800041348666,16.15926903768599,0.0,Landing
24.0,-381.3787223554228,-928.0546893513475,148.47136314852057,3.1298133429665533,3.9906729371947436,56.4900631336119,43.92699234127103,0.0,1.0,18.824800041348666,16.15926903768599,0.0,Landing
24.1,-382.94156770442646,-934.3661444380019,150.40235177176726,2.9055837797832647,3.9012412306375666,56.742162956414006,43.82616220604754,0.0,1.0,18.824800041348666,16.15926903768599,0.0,Landing
24.200000000000003,-384.4753957826388,-926.7634290622597,150.50788633014312,2.834776826118168,3.954926430136751,56.638981288331195,44.46658132283165,0.0,1.0,18.824800041348666,16.15926903768599,0.0,Landing
24.3,-386.0125395007341,-939.3701299082524,151.12745601891618,2.8922850437830574,4.075570953454642,56.81683931018824,44.54571348390602,0.0,1.0,18.824800041348666,16.15926903768599,0.0,Landing
24.400000000000002,-387.6384183539677,-944.9045519690459,149.59193646659423,2.7661043801368983,3.9750318614728113,56.749151188656015,44.14623058380792,0.0,1.0,18.824800041348666,16.15926903768599,0.0,Landing
24.5,-389.19991854248406,-961.6381154136776,148.378294567556,2.7956657204629676,4.180578245482286,56.87673571165601,44.124635673442825,0.0,1.0,18.824800041348666,16.15926903768599,0.0,Landing
24.6,-390.82073007780247,-923.3339687562535,150.08380495588273,2.852761980433336,4.099075713719347,56.95507128157652,44.26905555480437,0.0,1.0,18.824800041348666,16.15926903768599,0.0,Landing
24.700000000000003,-392.255088197749,-912.5513087679793,151.19652237244844,3.0440673173196666,4.4554901981566655,56.73939660423292,44.09799962543258,0.0,1.0,18.824800041348666,16.15926903768599,0.0,Landing
24.8,-393.76267508632395,-896.9651058566116,150.5013195691562,2.67590747630109,4.005538409279024,56.809822749197906,44.41079944355404,0.0,1.0,18.824800041348666,16.15926903768599,0.0,Landing
24.900000000000002,-395.3055556070855,-911.3841544486378,148.9563186020048,2.9056349540026267,4.396633274326073,56.50976236664138,44.100584641795685,0.0,1.0,18.824800041348666,16.15926903768599,0.0,Landing
25.0,-396.8120089699922,-906.0088710263359,150.30470537888954,2.818206798294178,4.058590929077708,56.69429141870518,44.146885858303605,0.0,1.0,18.824800041348666,16.15926903768599,0.0,Landing
25.1,-398.29271944145563,-904.9366302632963,150.27709498971313,2.774414134453101,4.172017021384315,56.66395296613547,44.64083437510727,0.0,1.0,18.824800041348666,16.15926903768599,0.0,Landing
25.200000000000003,-399.830238758402,-907.6604038046186,149.73324362568155,2.8281916463413275,3.8208893965101907,56.74208423936,43.98988151493706,0.0,1.0,18.824800041348666,16.15926903768599,0.0,Landing
25.3,-401.35031098901527,-931.9656592694743,150.37472706507313,2.5541495046814062,4.074376734521006,56.704328064570916,43.62150131733046,0.0,1.0,18.824800041348666,16.15926903768599,0.0,Landing
25.400000000000002,-402.952547737803,-933.1807341685477,151.10723506005291,2.747339157050889,4.184787239569945,56.69043548714944,44.08766886557289,0.0,1.0,18.824800041348666,16.15926903768599,0.0,Landing
25.5,-404.49614242924474,-956.2327864478676,149.81606974626865,3.03225568883052,4.122108149190069,56.83634501722719,44.445584767032635,0.0,1.0,18.824800041348666,16.15926903768599,0.0,Landing
25.6,-406.1314749212546,-960.0480009897298,151.68740241967103,3.0471713010690453,3.7594198314223624,56.74508309033979,43.64720698582698,0.0,1.0,18.824800041348666,16.15926903768599,0.0,Landing
25.700000000000003,-407.75278774275165,-961.4545502754255,151.0474992124964,2.9274475061174283,4.34393570131161,56.61689301852772,44.36613271388202,0.0,1.0,18.824800041348666,16.15926903768599,0.0,Landing
25.8,-409.30341518062187,-956.4060134259536,152.17222964665382,2.8788623383602254,3.9053303502217753,56.57404644809827,44.45596042516453,0.0,1.0,18.824800041348666,16.15926903768599,0.0,Landing
25.900000000000002,-410.9135049883844,-935.1929967052571,151.5429177891842,2.582680368408712,3.8800656908337174,56.86608359665496,44.222839337024155,0.0,1.0,18.824800041348666,16.15926903768599,0.0,Landing
26.0,-412.42875272627793,-938.6245820109594,151.2968083189511,2.8077048596739287,4.001550226406054,56.87819012112698,44.054906907145785,0.0,1.0,18.824800041348666,16.15926903768599,0.0,Landing
26.1,-413.99653809067667,-911.9194072034135,149.06081430503647,2.774307550483956,4.1773260373519685,56.58603448350658,45.01622148962729,0.0,1.0,18.824800041348666,16.15926903768599,0.0,Landing
26.200000000000003,-415.47310202440144,-899.9580953781903,149.21141232538812,2.687348874839852,4.105030738812965,56.82988076796562,44.531863684111,0.0,1.0,18.824800041348666,16.15926903768599,0.0,Landing
26.3,-416.9285432031689,-897.4361271849149,150.54693669995828,2.996673070658833,4.148871576774239,56.869344453327244,44.09404826752125,0.0,1.0,18.824800041348666,16.15926903768599,0.0,Landing
26.400000000000002,-418.48371872660124,-906.0445180002604,150.57957793650903,2.7965593876803885,4.059405260246424,56.97936003750277,43.71410196550014,0.0,1.0,18.824800041348666,16.15926903768599,0.0,Landing
26.5,-420.00332461440274,-920.1311277050651,150.3323816265773,2.906892154054869,4.4230132308742665,56.95192004736498,44.43549368175218,0.0,1.0,18.824800041348666,16.15926903768599,0.0,Landing
26.6,-421.5291988416942,-914.7809458195867,151.37906602204524,2.896449691272076,3.811416361059867,56.757022294916055,44.44768084372537,0.0,1.0,18.824800041348666,16.15926903768599,0.0,Landing
26.700000000000003,-423.0576234556992,-926.3279307960717,150.03733143661168,3.1676599862540264,3.9201731815026406,56.9414817831165,44.28502043571458,0.0,1.0,18.824800041348666,16.15926903768599,0.0,Landing
26.8,-424.6349642683831,-924.9763756939843,147.20628352375505,3.3396012704303626,4.469767008665353,56.62093057080642,44.24128693484008,0.0,1.0,18.824800041348666,16.15926903768599,0.0,Landing
26.900000000000002,-426.15408072016413,-933.6479799594941,149.82906462127045,2.9682904312320773,4.0738306125217445,56.95086473063418,43.945070461450356,0.0,1.0,18.824800041348666,16.15926903768599,0.0,Landing
27.0,-427.72586335549664,-916.1608385618252,150.39259063922748,2.894130157228289,4.362410743666499,56.89762264126148,43.73736388064339,0.0,1.0,18.824800041348666,16.15926903768599,0.0,Landing
27.1,-429.2157684611922,-936.0157960413973,151.86786309204038,2.8487059381679916,3.9260888578283435,56.6566024361461,44.02222524370951,0.0,1.0,18.824800041348666,16.15926903768599,0.0,Landing
27.200000000000003,-430.8341597003711,-937.4104583277928,150.06720042870563,3.1223302424010186,3.7491883400673363,56.61116190661255,44.080421784702864,0.0,1.0,18.824800041348666,16.15926903768599,0.0,Landing
27.3,-432.4129156471356,-956.3708540513063,150.25790535649625,2.921677396695499,4.219919803013625,56.691184540195934,43.69818514214345,0.0,1.0,18.824800041348666,16.15926903768599,0.0,Landing
27.400000000000002,-433.99762273144876,-949.2043118342964,148.7636734045764,2.6008329460581994,4.07302354135291,56.76293643707908,44.28079813688617,0.0,1.0,18.824800041348666,16.15926903768599,0.0,Landing
27.5,-435.5801812595426,-950.9094794450676,151.80535653723118,2.9119793855237512,3.732500540854904,56.762570330093524,44.08591316490326,0.0,1.0,18.824800041348666,16.15926903768599,0.0,Landing
27.6,-437.16746304436094,-942.567609454443,150.8897779875202,2.760052087958959,4.1998761382531,56.53124270963701,44.591825506107874,0.0,1.0,18.824800041348666,16.15926903768599,0.0,Landing
27.700000000000003,-438.71046077872097,-961.6372211417457,151.198858985442,2.844363374434474,4.024825410281481,56.877926963840196,44.07430080481609,0.0,1.0,18.824800041348666,16.15926903768599,0.0,Landing
27.8,-440.3883673652513,-965.4941205792398,149.9784163289293,2.750428515264976,4.264714975245871,56.95955022027715,43.579723215571015,0.0,1.0,18.824800041348666,16.15926903768599,0.0,Landing
27.900000000000002,-441.99493364725714,-983.8464667820632,150.52397227692018,2.962659400474991,4.144726616474881,56.62019146434818,44.123706929865236,0.0,1.0,18.824800041348666,16.15926903768599,0.0,Landing
28.0,-443.6296931126313,-962.1050230296534,151.21394161167447,2.831574984467026,4.142274750145324,56.71846184975698,44.15351991783507,0.0,1.0,18.824800041348666,16.15926903768599,0.0,Landing
28.1,-445.1988924803996,-948.7046574363377,150.87487711493196,3.0631750061187546,4.509089113620273,56.91493858825413,44.01809217040185,0.0,1.0,18.824800041348666,16.15926903768599,0.0,Landing
28.200000000000003,-446.73845693443883,-917.9982535978071,150.40897547676263,3.0980016418855785,4.5580582066872735,56.904926176792685,44.20972395965111,0.0,1.0,18.824800041348666,16.15926903768599,0.0,Landing
28.3,-448.2196843806203,-918.1825217085476,148.22254155170984,2.8945080482518524,4.25684098573069,57.0166414422182,44.34667702975158,0.0,1.0,18.824800041348666,16.15926903768599,0.0,Landing
28.400000000000002,-449.78980508894233,-924.599575579498,151.63195547238058,2.7832399719388663,4.379205497166886,56.83987225601123,43.86624984200343,0.0,1.0,18.824800041348666,16.15926903768599,0.0,Landing
28.5,-451.3614548123363,-939.1916810393014,150.2164852873666,3.1117026999070987,3.6540093103239597,56.69526878501375,44.00645214569613,0.0,1.0,18.824800041348666,16.15926903768599,0.0,Landing
28.6,-452.91564278581683,-930.6862539658483,150.61327761379766,2.9692709374525568,4.293075367888674,56.813579567330635,44.855732833385716,0.0,1.0,18.824800041348666,16.15926903768599,0.0,Landing
28.700000000000003,-454.44323635877157,-937.88592767595,150.30166430703198,3.3314286603664964,4.50785814594254,56.730196617030174,44.200752866428644,0.0,1.0,18.824800041348666,16.15926903768599,0.0,Landing
28.8,-456.05088445071607,-934.6444410287746,149.4062054682623,2.822327397987361,3.879090138355299,56.83868886126095,44.31906852691258,0.0,1.0,18.824800041348666,16.15926903768599,0.0,Landing
28.900000000000002,-457.5888649909607,-940.6178000546789,150.91281042897958,2.996684049222361,4.241398082986416,56.47640029095385,43.91436344820276,0.0,1.0,18.824800041348666,16.15926903768599,0.0,Landing
29.0,-459.14632535904497,-938.4767027012687,150.92625336856622,2.9307666091666063,3.960554564640815,56.86725364764311,44.09440946582999,0.0,1.0,18.824800041348666,16.15926903768599,0.0,Landing
29.1,-460.7432679642224,-943.6564951464562,148.12822987591315,2.9582651604308956,4.131603500041785,56.715151295755334,43.67840334911498,0.0,1.0,18.824800041348666,16.15926903768599,0.0,Landing
29.200000000000003,-462.307147466693,-938.651046101029,150.10920279765327,2.7957405593167093,4.266095495844608,56.79448667956359,44.42716309977355,0.0,1.0,18.824800041348666,16.15926903768599,0.0,Landing
29.3,-463.8395805895501,-914.3385279730297,148.64764309291897,2.7669426761313076,4.512100589224932,56.795869530636196,44.22727112284906,0.0,1.0,18.824800041348666,16.15926903768599,0.0,Landing
29.400000000000002,-465.31496060408756,-923.5287491422924,149.57894793154975,2.757965121120633,4.152181789781149,56.74745049551302,44.03735780802861,0.0,1.0,18.824800041348666,16.15926903768599,0.0,Landing
29.5,-466.92479121240444,-917.2298131274262,151.00299830169564,2.8124092260959954,4.604603749079945,56.758661690806036,43.719828615830394,0.0,1.0,18.824800041348666,16.15926903768599,0.0,Landing
29.6,-468.42572965518724,-935.0291511130878,150.33994260175615,2.899712996652928,4.041071621927632,56.6780197127664,43.94894722322318,0.0,1.0,18.824800041348666,16.15926903768599,0.0,Landing
29.700000000000003,-469.990106359653,-906.5465950829436,150.6033932211671,3.0095945194380436,4.444981908687088,56.787046956885945,44.19242601279038,0.0,1.0,18.824800041348666,16.15926903768599,0.0,Landing
29.8,-471.45752418781916,-903.6475891755005,148.31067664235445,2.8884548765981504,4.175405626763575,56.942886093260256,44.15736482726127,0.0,1.0,18.824800041348666,16.15926903768599,0.0,Landing
29.900000000000002,-472.94396760106474,-901.171028790293,151.4100600495064,3.1189342234276674,4.260910953820543,56.73852112767986,43.75786099999297,0.0,1.0,18.824800041348666,16.15926903768599,0.0,Landing
30.0,-474.49596150360446,-928.8690978331603,151.72416198659155,3.0696768414483504,4.1690943498521085,56.460048094272224,44.53032270381772,0.0,1.0,18.824800041348666,16.15926903768599,0.0,Landing
30.1,-476.10186967698496,-955.5708924176203,150.31560661571302,2.649829400458912,4.045157742330174,56.50187748523297,44.123355845627664,0.0,1.0,18.824800041348666,16.15926903768599,0.0,Landing
30.200000000000003,-477.72182206315284,-960.9839028761259,149.97488955406914,2.848554169110963,3.960906438135339,56.929894787736714,44.11288247239885,0.0,1.0,18.824800041348666,16.15926903768599,0.0,Landing
