time_s,altitude_ft,vertical_speed_fpm,ias_kt,pitch_deg,roll_deg,heading_deg,throttle_pct,afterburner_on,gear_down,flaps_deg,speedbrake_pct,weight_on_wheels,label
0.0,-2.0392113634416478,-666.7928803014063,158.18498676233506,-0.12104387502347402,3.1364163753843908,98.33668054138195,37.312550868796755,0.0,1.0,11.453351691257401,13.824004251232191,0.0,Landing
0.1,-4.261854297779669,-873.590875694042,158.82668118202,-0.1461055573607393,3.3517467332827797,98.42486388842144,37.36539965911748,0.0,1.0,11.453351691257401,13.824004251232191,0.0,Landing
0.2,-6.407165741911857,-1288.610885207233,157.30499545026163,0.003563176155057135,3.3666669583326674,98.25161520273468,37.59664369724719,0.0,1.0,11.453351691257401,13.824004251232191,0.0,Landing
0.30000000000000004,-8.482265789477813,-1266.2328483942435,156.66226189386745,-0.3980734567772514,3.057246325559408,98.43014417621544,37.72370871288266,0.0,1.0,11.453351691257401,13.824004251232191,0.0,Landing
0.4,-10.593018539750886,-1256.57292909864,157.8736329266151,-0.21864686991716104,3.3081465659708993,98.1770715992651,36.95040803940647,0.0,1.0,11.453351691257401,13.824004251232191,0.0,Landing
0.5,-12.690030387405058,-1266.0592274712587,157.7799131074081,-0.6339703292876819,3.7940228676983576,98.35903162806312,37.54156058950041,0.0,1.0,11.453351691257401,13.824004251232191,0.0,Landing
0.6000000000000001,-14.812561926834107,-1245.1168302437673,159.4619968869466,-0.4032943369272849,3.199490624727483,98.6524501563423,37.64730053795945,0.0,1.0,11.453351691257401,13.824004251232191,0.0,Landing
0.7000000000000001,-16.818602690969723,-1239.3454524544115,158.23107803950725,-0.5669661155011605,3.2291833492250728,98.27301764524697,38.009181967613245,0.0,1.0,11.453351691257401,13.824004251232191,0.0,Landing
0.8,-18.886757649677115,-1211.7193717381754,157.80393774677276,-0.026864686644276825,3.2915166525430233,98.14926405539228,37.10524703317352,0.0,1.0,11.453351691257401,13.824004251232191,0.0,Landing
0.9,-20.871158785524983,-1231.600056416724,157.77705896365177,0.056985089840816905,3.412548256386189,98.18735787522326,37.18802124457204,0.0,1.0,11.453351691257401,13.824004251232191,0.0,Landing
1.0,-22.976602973053343,-1234.7489272048626,159.59364395296538,0.026304701134292063,3.088905721447662,98.43892892796936,37.269366309048074,0.0,1.0,11.453351691257401,13.824004251232191,0.0,Landing
1.1,-25.06050228570143,-1267.6908655508412,159.4810136308075,-0.46192307663758814,3.48043203049572,98.08817949831842,37.68365438371251,0.0,1.0,11.453351691257401,13.824004251232191,0.0,Landing
1.2000000000000002,-27.20961311327919,-1265.5470353579951,157.4453249954778,-0.2657874889698709,3.3018405274115867,98.34429635178196,37.232898127469845,0.0,1.0,11.453351691257401,13.824004251232191,0.0,Landing
1.3,-29.304338149843318,-1268.2944446677234,158.89315626487195,-0.049939247912754364,3.8559781545224516,98.27290250939399,37.28448669823719,0.0,1.0,11.453351691257401,13.824004251232191,0.0,Landing
1.4000000000000001,-31.401974509040045,-1249.765678066619,157.9916163982649,-0.3342648585069147,3.281768289850459,98.24802975894096,37.3912023827537,0.0,1.0,11.453351691257401,13.824004251232191,0.0,Landing
1.5,-33.458441503612285,-1254.2931806596855,158.26946879731895,-0.2998629291549086,3.4064937272802487,97.9829909893881,37.96071494094511,0.0,1.0,11.453351691257401,13.824004251232191,0.0,Landing
1.6,-35.575804053141745,-1259.7044352065325,158.30959155006144,-0.08308094977595756,3.047682906931953,98.25119802523807,37.94609800128591,0.0,1.0,11.453351691257401,13.824004251232191,0.0,Landing
1.7000000000000002,-37.70049668507271,-1271.8236944919242,158.05706379001919,-0.34475721489461586,2.918678643091071,98.10737249551556,38.05288742817462,0.0,1.0,11.453351691257401,13.824004251232191,0.0,Landing
1.8,-39.817559976071905,-1270.363957350746,159.20132912276588,-0.0010419772895363666,3.5169581509874885,98.39012750448495,37.67535319838449,0.0,1.0,11.453351691257401,13.824004251232191,0.0,Landing
1.9000000000000001,-41.927623839895475,-1253.2405478095825,156.37936782096992,-0.44104769960195045,3.520751551749692,98.48112491214135,37.038838853372184,0.0,1.0,11.453351691257401,13.824004251232191,0.0,Landing
2.0,-43.96669942412062,-1258.169844478597,158.8036844936181,-0.32691846293484655,3.471252438525322,98.39082278008448,37.50683979024284,0.0,1.0,11.453351691257401,13.824004251232191,0.0,Landing
2.1,-46.10840919846489,-1242.971527832475,159.03362870951258,-0.3437119833430228,3.124048832395735,98.45694426095122,37.56233326879127,0.0,1.0,11.453351691257401,13.824004251232191,0.0,Landing
2.2,-48.14248147905785,-1259.9394374500732,158.21409839643601,-0.47048528639584775,3.2481748998299134,98.48969820254683,37.256125046534926,0.0,1.0,11.453351691257401,13.824004251232191,0.0,Landing
2.3000000000000003,-50.266396611370986,-1236.1259234713118,158.71345043593743,-0.32589301125221604,3.4525355516150964,98.46739923217052,36.961345460996384,0.0,1.0,11.453351691257401,13.824004251232191,0.0,Landing
2.4000000000000004,-52.28903881582145,-1228.3861403310582,157.97159833478906,-0.5027847232429571,3.6171689078605804,98.31076677136912,37.309955933659595,0.0,1.0,11.453351691257401,13.824004251232191,0.0,Landing
2.5,-54.28441218071314,-1236.2099666530569,158.5575618582575,-0.36701093077059455,3.3934603989762087,98.18358170467195,37.82204730381658,0.0,1.0,11.453351691257401,13.824004251232191,0.0,Landing
2.6,-56.44744644463627,-1242.7881110825708,158.2435003199722,-0.032231584239156175,3.5766746918686234,98.42897528907855,37.23182137805082,0.0,1.0,11.453351691257401,13.824004251232191,0.0,Landing
2.7,-58.502979371234304,-1260.1522305391256,157.98101846304937,-0.24293085224701502,3.313326128940548,98.4646223555689,37.74635465461255,0.0,1.0,11.453351691257401,13.824004251232191,0.0,Landing
2.8000000000000003,-60.58517333340877,-1241.2120190886399,158.3584513164842,-0.48103796873596727,3.3255518871910232,98.57386554929866,37.67327977033184,0.0,1.0,11.453351691257401,13.824004251232191,0.0,Landing
2.9000000000000004,-62.65350654007947,-1260.6244156660068,159.40261148297074,-0.3479868264480992,3.2702575668021865,98.2101126045302,37.2250896385666,0.0,1.0,11.453351691257401,13.824004251232191,0.0,Landing
3.0,-64.80610144956434,-1269.1291029965712,159.61834908130385,-0.7138692875378527,3.146892895435033,98.42954538550617,37.09861267479746,0.0,1.0,11.453351691257401,13.824004251232191,0.0,Landing
3.1,-66.93081884839162,-1255.2266899702672,158.44889291721182,-0.06485486287666128,3.4713136161357956,98.35934707540912,37.673215823549974,0.0,1.0,11.453351691257401,13.824004251232191,0.0,Landing
3.2,-68.9296399899308,-1237.1751248346045,157.8751482790306,-0.0011539132842101618,3.408114554254859,98.3922715427895,37.736201984306874,0.0,1.0,11.453351691257401,13.824004251232191,0.0,Landing
3.3000000000000003,-70.99197707373736,-1227.336024901888,158.3451567396456,-0.4731698930309788,3.575610571547244,98.23245630695868,37.69608426299427,0.0,1.0,11.453351691257401,13.824004251232191,0.0,Landing
3.4000000000000004,-73.06749897290106,-1224.6541486966294,157.95497057930513,0.05827181600160891,3.3719143642132865,98.18662480096259,37.39712117269634,0.0,1.0,11.453351691257401,13.824004251232191,0.0,Landing
3.5,-75.05291073341395,-1212.8850504172876,158.121120824806,-0.1649076822289501,3.462311039394194,98.46060274562302,37.59261913366354,0.0,1.0,11.453351691257401,13.824004251232191,0.0,Landing
3.6,-77.0564023258238,-1215.6348883966928,158.19218401992555,-0.14150137359346884,3.325662456006471,98.16637756635515,37.34823493503557,0.0,1.0,11.453351691257401,13.824004251232191,0.0,Landing
3.7,-79.14567341488453,-1210.2001777427092,158.1871625980644,-0.499826685480912,3.59025056773764,98.31517869963074,37.333555093672516,0.0,1.0,11.453351691257401,13.824004251232191,0.0,Landing
3.8000000000000003,-81.1039116221275,-1210.7142787178532,159.25887382875302,0.019980098062870655,3.6423693097257472,98.05056725217821,37.519320420342,0.0,1.0,11.453351691257401,13.824004251232191,0.0,Landing
3.9000000000000004,-83.10997371941306,-1200.1368675419174,158.50667010767984,-0.18039651079493074,3.2036157826551874,98.11141201595916,37.471148921085906,0.0,1.0,11.453351691257401,13.824004251232191,0.0,Landing
4.0,-85.14635775259411,-1227.7370998849392,158.22101032094324,-0.25139707035098163,3.091662691293386,98.32671808451812,37.88067062600582,0.0,1.0,11.453351691257401,13.824004251232191,0.0,Landing
4.1000000000000005,-87.2425971215522,-1230.6584132583794,156.73735204577554,-0.0521830674589997,3.511837800658703,98.12649978976566,37.672800300308495,0.0,1.0,11.453351691257401,13.824004251232191,0.0,Landing
4.2,-89.26326578570496,-1236.79173081386,157.90186471776462,-0.5037584502732901,3.5843618803077506,98.53194787199192,37.49638620837855,0.0,1.0,11.453351691257401,13.824004251232191,0.0,Landing
4.3,-91.33031640666341,-1227.6943592258363,157.95445808546822,-0.5944775470324815,3.4652829380933015,98.14764807179847,37.65029733003455,0.0,1.0,11.453351691257401,13.824004251232191,0.0,Landing
4.4,-93.38106891768138,-1226.706741271056,157.68823442086665,-0.19391867731109824,3.2068599481373896,98.35384973863705,37.201393860678344,0.0,1.0,11.453351691257401,13.824004251232191,0.0,Landing
4.5,-95.39679949206024,-1216.821497344529,157.6034674915177,-0.11582896727681069,3.2811932121887173,98.20796876711563,37.73218002691801,0.0,1.0,11.453351691257401,13.824004251232191,0.0,Landing
4.6000000000000005,-97.41442389338606,-1210.0779096025435,158.86737860493145,-0.29340507204941213,3.5054732784642986,98.33193741349999,37.53631169311813,0.0,1.0,11.453351691257401,13.824004251232191,0.0,Landing
4.7,-99.43145846569409,-1223.5578899911616,156.54772375285316,-0.3996611575677674,3.1553962734169705,98.46676142396188,37.493496112484436,0.0,1.0,11.453351691257401,13.824004251232191,0.0,Landing
4.800000000000001,-101.51458894201605,-1216.5487390400044,156.8756536273514,-0.46460305125663603,3.292702061941407,98.2716958643311,37.537261693060316,0.0,1.0,11.453351691257401,13.824004251232191,0.0,Landing
4.9,-103.49716758858608,-1236.654181095031,157.9279454574205,-0.5012917679780995,3.1321210097299845,98.11346484940765,37.42091121834823,0.0,1.0,11.453351691257401,13.824004251232191,0.0,Landing
5.0,-105.61472937116925,-1255.676409665878,156.2304485534989,-0.1684827918917131,3.755228020231125,98.20919654286149,37.864070567244326,0.0,1.0,11.453351691257401,13.824004251232191,0.0,Landing
5.1000000000000005,-107.79297099034544,-1290.130067635221,156.90551021052275,-0.32855039521910384,3.5664530313106835,98.33913846524763,37.17310385269228,0.0,1.0,11.453351691257401,13.824004251232191,0.0,Landing
5.2,-109.94781792676218,-1283.3621814063633,158.3864837452716,-0.14781553707308007,3.1770068137247263,98.39900255530483,37.387974268050456,0.0,1.0,11.453351691257401,13.824004251232191,0.0,Landing
5.300000000000001,-112.03154027820106,-1236.106294593347,159.04067408519853,-0.4713836093429582,3.5067037021363654,98.13135205033501,38.052021045953055,0.0,1.0,11.453351691257401,13.824004251232191,0.0,Landing
5.4,-113.97350246331217,-1213.7708896704028,159.14544588378246,-0.6037276818942332,3.332572059239328,98.24781205442156,37.52630243548348,0.0,1.0,11.453351691257401,13.824004251232191,0.0,Landing
5.5,-116.0166723751142,-1202.740923986619,157.62146132546306,-0.046480556789904814,3.3693656057984613,98.4461661488773,37.37119433718106,0.0,1.0,11.453351691257401,13.824004251232191,0.0,Landing
5.6000000000000005,-118.04524489813416,-1217.6277744794022,157.9539344070204,-0.49872043077783235,3.136573105296559,98.09698685437553,38.03473313509606,0.0,1.0,11.453351691257401,13.824004251232191,0.0,Landing
5.7,-120.06164133570918,-1235.3769384817042,157.21326859308735,-0.46727716172351696,3.2546027028826523,98.42208516003592,37.26669419091239,0.0,1.0,11.453351691257401,13.824004251232191,0.0,Landing
5.800000000000001,-122.19355706752272,-1233.7378826859663,158.6232649773929,-0.6530717675935085,3.308839448639951,98.16615360627225,37.46374256723151,0.0,1.0,11.453351691257401,13.824004251232191,0.0,Landing
5.9,-124.21393431156399,-1237.4721654676762,160.1614481372943,-0.15738800963892885,2.8531081364614863,98.44352707841028,37.22930845941615,0.0,1.0,11.453351691257401,13.824004251232191,0.0,Landing
6.0,-126.24900216304756,-1221.33417511981,159.79970152820775,-0.14477103487012086,3.4802554881175296,98.3535359204269,37.21591062782328,0.0,1.0,11.453351691257401,13.824004251232191,0.0,Landing
6.1000000000000005,-128.30022794312177,-1223.556945936494,157.1563124333717,-0.22371531705994102,3.63453825629412,98.46553199134837,38.15359986894169,0.0,1.0,11.453351691257401,13.824004251232191,0.0,Landing
6.2,-130.33171904124646,-1224.0718243185966,157.93724197370204,-0.07578643511897182,3.6063835857061104,98.22358009258943,37.94011700141801,0.0,1.0,11.453351691257401,13.824004251232191,0.0,Landing
6.300000000000001,-132.36936128464055,-1219.3338628654715,158.77261278349684,-0.17879444899492447,3.246115172560941,98.18592547860754,37.88860233072723,0.0,1.0,11.453351691257401,13.824004251232191,0.0,Landing
6.4,-134.39689725744913,-1233.9586137605295,156.18708888237595,-0.4578003484712587,3.0794034526221257,98.18146424540953,37.57596842187242,0.0,1.0,11.453351691257401,13.824004251232191,0.0,Landing
6.5,-136.5015121100491,-1232.5912951872397,157.4488293377041,-0.318961664905102,3.3569021069435028,98.48818510943238,37.1923114354593,0.0,1.0,11.453351691257401,13.824004251232191,0.0,Landing
6.6000000000000005,-138.53231776057675,-1224.4609240116063,157.54063751805634,-0.4206114175909474,3.432788400958225,98.30848505079081,37.52304986645573,0.0,1.0,11.453351691257401,13.824004251232191,0.0,Landing
6.7,-140.51920187750716,-1215.1138509429416,156.82988012901149,-0.12967685527000314,2.937961086425325,98.28164689971464,37.67694969370973,0.0,1.0,11.453351691257401,13.824004251232191,0.0,Landing
6.800000000000001,-142.5770813647638,-1208.1015669808778,156.40550441253174,-0.3474672679951132,3.205892888172758,98.11243599076772,37.24288166007136,0.0,1.0,11.453351691257401,13.824004251232191,0.0,Landing
6.9,-144.57282559548113,-1207.6781131754672,158.51070216326625,-0.48592589982557066,3.1888752389307227,98.38131535423122,37.75720902581256,0.0,1.0,11.453351691257401,13.824004251232191,0.0,Landing
7.0,-146.5575924433845,-1202.5287794394956,158.29671140244594,-0.18195116555986174,3.356816371049193,98.27004922847561,37.29508227421889,0.0,1.0,11.453351691257401,13.824004251232191,0.0,Landing
7.1000000000000005,-148.5897252619613,-1206.4261328364637,159.41175922896474,-0.4548790684630535,3.5218240726794288,98.27535871247039,37.55751838464626,0.0,1.0,11.453351691257401,13.824004251232191,0.0,Landing
7.2,-150.60495625966345,-1217.5757144131353,158.53091098632217,-0.2028631669358943,3.406204262137813,98.41683823372193,37.501421390367696,0.0,1.0,11.453351691257401,13.824004251232191,0.0,Landing
7.300000000000001,-152.64547101545017,-1212.2888774337753,160.45802524051828,-0.31864308770062894,3.1006732089611098,98.19130710869445,38.15055375694172,0.0,1.0,11.453351691257401,13.824004251232191,0.0,Landing
7.4,-154.65116964913017,-1213.5125908061525,158.52061535193394,-0.07533810893039486,3.0509808471113855,98.50616907811423,37.29316810189756,0.0,1.0,11.453351691257401,13.824004251232191,0.0,Landing
7.5,-156.67251921369422,-1224.248919234418,158.25960447285976,-0.21809535778096217,2.9707591344206405,98.3441868752787,37.73799186139191,0.0,1.0,11.453351691257401,13.824004251232191,0.0,Landing
7.6000000000000005,-158.76671561162226,-1238.3323536309151,157.73187909756976,-0.5126017534013179,3.6361423473649377,98.36866924676735,37.45954639467482,0.0,1.0,11.453351691257401,13.824004251232191,0.0,Landing
7.7,-160.84283141728474,-1227.6390146910273,156.47166068765924,-0.35047602838581765,3.0193989175494327,98.15174127603223,36.92003536868417,0.0,1.0,11.453351691257401,13.824004251232191,0.0,Landing
7.800000000000001,-162.81071428714935,-1227.0205496063454,158.9557614163957,-0.5245432915051783,3.424346824085471,98.15364917671553,36.879569900538705,0.0,1.0,11.453351691257401,13.824004251232191,0.0,Landing
7.9,-164.901818359654,-1221.628688181687,157.3781195247282,-0.10734088041946341,3.4307278122525044,98.29645016765392,37.37181455756502,0.0,1.0,11.453351691257401,13.824004251232191,0.0,Landing
8.0,-166.95097485819318,-1246.0860985242505,157.2288941975294,-0.28612292752772484,3.1820356450684075,98.23418368151545,37.386761460802326,0.0,1.0,11.453351691257401,13.824004251232191,0.0,Landing
8.1,-169.0411447797706,-1213.5117368007402,156.61191032013508,-0.3546989758371233,3.274203795204936,98.4097249615117,37.59836552949417,0.0,1.0,11.453351691257401,13.824004251232191,0.0,Landing
8.200000000000001,-170.9693770436577,-1194.5251171524433,158.14828307902556,-0.3085005874441559,3.440302971630898,98.2554083444877,37.645490193412925,0.0,1.0,11.453351691257401,13.824004251232191,0.0,Landing
8.3,-172.9236004439554,-1174.5361109661928,157.85816313982454,-0.4392273309792303,3.651987053786862,98.16613449455599,37.30599261844285,0.0,1.0,11.453351691257401,13.824004251232191,0.0,Landing
8.4,-174.91382533460157,-1198.7421035092777,159.96627260053944,-0.6437135675445865,3.338392086346712,98.199042626292,37.154417999383355,0.0,1.0,11.453351691257401,13.824004251232191,0.0,Landing
8.5,-176.96308756120408,-1206.8468506641636,158.1957510981603,-0.5112538064970489,3.536794644989238,98.38087933451209,37.537442345252515,0.0,1.0,11.453351691257401,13.824004251232191,0.0,Landing
8.6,-178.9578346972762,-1209.7500403874108,157.10764069444753,-0.42433715885737033,3.753520036035267,98.47237676315848,36.94797143737447,0.0,1.0,11.453351691257401,13.824004251232191,0.0,Landing
8.700000000000001,-180.96257553653862,-1207.95555129925,158.04684401465386,-0.4489913769562619,3.1856552680699046,98.27388320302055,37.39128408215553,0.0,1.0,11.453351691257401,13.824004251232191,0.0,Landing
8.8,-183.00286531770033,-1205.9420813005206,158.12011208090013,-0.1402835047399498,3.449936480158951,98.1445878588903,37.48969958082357,0.0,1.0,11.453351691257401,13.824004251232191,0.0,Landing
8.9,-184.9875451037788,-1210.146893001729,158.57724794187592,-0.12118768434364097,3.322800096950569,98.48722952653452,36.9520226744141,0.0,1.0,11.453351691257401,13.824004251232191,0.0,Landing
9.0,-187.01331000154727,-1196.3116669308022,158.54344725558542,-0.3732407237141735,3.4400390774745877,98.39634780139909,37.802228866380695,0.0,1.0,11.453351691257401,13.824004251232191,0.0,Landing
9.1,-188.98442365235434,-1191.2749239148695,158.09897576736688,-0.106043484608464,3.2001988931192256,98.07497886663208,37.69382396953901,0.0,1.0,11.453351691257401,13.824004251232191,0.0,Landing
9.200000000000001,-190.94391972335316,-1191.3373144487307,156.57949686379925,-0.24042739338471436,3.246690068369593,98.06007140746146,37.80888120079132,0.0,1.0,11.453351691257401,13.824004251232191,0.0,Landing
9.3,-192.96999657379092,-1205.1335181467095,156.64646397095112,-0.498745759834207,3.0434154102214213,98.5343275654854,37.63177194510074,0.0,1.0,11.453351691257401,13.824004251232191,0.0,Landing
9.4,-195.01009124308789,-1227.0569760655064,158.7051659694064,-0.28897665860442107,3.252153603202985,98.2067788625784,37.64001430697038,0.0,1.0,11.453351691257401,13.824004251232191,0.0,Landing
9.5,-197.0792046036807,-1220.678638182153,157.13089292393815,-0.5953036695293621,3.210466508287504,98.4788866688761,37.588507746096106,0.0,1.0,11.453351691257401,13.824004251232191,0.0,Landing
9.600000000000001,-199.0733897647017,-1208.9003734654,158.0393891281178,-0.1580109059300897,3.2619980915546196,98.14498468300656,36.88085924281714,0.0,1.0,11.453351691257401,13.824004251232191,0.0,Landing
9.700000000000001,-201.05459311041488,-1189.272063998152,158.74493667977103,-0.2115379425858691,3.4523270127491994,98.11569751522717,37.36624842861806,0.0,1.0,11.453351691257401,13.824004251232191,0.0,Landing
9.8,-203.02556492367145,-1195.5778137418008,157.27551389120626,0.009120224888019945,3.3377913124362366,98.39161522687044,37.82428709341771,0.0,1.0,11.453351691257401,13.824004251232191,0.0,Landing
9.9,-205.0512788334107,-1206.2885924768918,159.56122943304948,-0.401167008823075,3.3018030980324475,98.2620165046174,37.25263715480809,0.0,1.0,11.453351691257401,13.824004251232191,0.0,Landing
10.0,-207.08603607279935,-1224.7450168619764,157.74522896311038,-0.5165277166555173,3.1598222782536833,98.18792100500605,37.241950376887246,0.0,1.0,11.453351691257401,13.824004251232191,0.0,Landing
10.100000000000001,-209.14929000798134,-1219.1976872347311,157.4376649822252,-0.08392373677216253,3.2226160926017857,98.04127239518391,37.20323033942856,0.0,1.0,11.453351691257401,13.824004251232191,0.0,Landing
10.200000000000001,-211.14726726958435,-1205.1018845259366,158.71045801755741,-0.23807203389365372,2.853213438597819,98.2436579238103,36.916023254293435,0.0,1.0,11.453351691257401,13.824004251232191,0.0,Landing
10.3,-213.11154549542903,-1214.4836019756156,156.94476728952054,-0.2330710232229455,3.214162242636462,98.28333930126388,37.4362444425283,0.0,1.0,11.453351691257401,13.824004251232191,0.0,Landing
10.4,-215.2217080178594,-1225.160926806052,158.50483862710922,-0.08450093431407948,3.2964511364175584,98.28962847987259,37.23781059028619,0.0,1.0,11.453351691257401,13.824004251232191,0.0,Landing
10.5,-217.2730719036146,-1228.0192037417237,158.3716583998194,-0.6041338947584733,3.5639391950744184,98.23003701396897,37.463668927834,0.0,1.0,11.453351691257401,13.824004251232191,0.0,Landing
10.600000000000001,-219.25164151413765,-1199.255594847375,157.6701416694122,-0.4555117980917873,3.3998059358948014,98.21848857026464,37.45879734971098,0.0,1.0,11.453351691257401,13.824004251232191,0.0,Landing
10.700000000000001,-221.2179859920963,-1199.05946520484,158.6287214656576,-0.3444767183255427,3.6294881595424395,98.4129257996874,37.03668037887685,0.0,1.0,11.453351691257401,13.824004251232191,0.0,Landing
10.8,-223.2683692296388,-1196.6617594262061,157.9928882877365,-0.2461265590634083,3.4244457814008666,98.16412992732182,37.47495232751001,0.0,1.0,11.453351691257401,13.824004251232191,0.0,Landing
10.9,-225.23495031126868,-1191.1517580382451,156.60890473664483,-0.6674352959210572,3.348907437596482,98.03137526703324,37.06639001449799,0.0,1.0,11.453351691257401,13.824004251232191,0.0,Landing
11.0,-227.1737447822875,-1173.477952618066,158.6258833695017,-0.43669494910525586,3.3791820708131692,98.12061516644212,37.758686375180105,0.0,1.0,11.453351691257401,13.824004251232191,0.0,Landing
11.100000000000001,-229.13575899272914,-1179.5722948463606,159.29683838752715,-0.04569252841191876,3.0720181559617004,98.15584987667535,37.63274648712281,0.0,1.0,11.453351691257401,13.824004251232191,0.0,Landing
11.200000000000001,-231.13281178550048,-1196.168124442022,158.4353634481134,-0.16048805247818743,3.3220877085015528,98.4551257090975,37.777384270832655,0.0,1.0,11.453351691257401,13.824004251232191,0.0,Landing
11.3,-233.15458540449762,-1216.8634460558337,157.9891054935555,-0.594379072833563,3.0611170908056082,98.20577519961068,37.68626021910464,0.0,1.0,11.453351691257401,13.824004251232191,0.0,Landing
11.4,-235.2200762230083,-1225.1313524906664,160.7351107518417,-0.5549219601670734,3.202084692549272,98.0386653669853,37.50469857851195,0.0,1.0,11.453351691257401,13.824004251232191,0.0,Landing
11.5,-237.2584685479538,-1223.1039152457015,158.0271885880288,0.09145936991835396,3.473906137190282,98.2807311833397,37.43028868134599,0.0,1.0,11.453351691257401,13.824004251232191,0.0,Landing
11.600000000000001,-239.27010498072613,-1198.518521041342,157.51506032595054,-0.29597734691830135,3.361090047878028,98.44849730249956,37.54515717571071,0.0,1.0,11.453351691257401,13.824004251232191,0.0,Landing
11.700000000000001,-241.21266882821502,-1200.9289885543012,158.96658251369408,-0.7812816293814072,3.340570442028748,98.09512734973248,38.15415488334379,0.0,1.0,11.453351691257401,13.824004251232191,0.0,Landing
11.8,-243.26311349072532,-1183.0473322243733,159.9107623669304,-0.343839020321678,3.4880692168122214,98.40054140108379,37.7078754649106,0.0,1.0,11.453351691257401,13.824004251232191,0.0,Landing
11.9,-245.185341641848,-1191.6904685431746,156.85752206242526,-0.04085566270159385,3.259882663644125,98.12535994526615,37.2931314553695,0.0,1.0,11.453351691257401,13.824004251232191,0.0,Landing
12.0,-247.1711211709309,-1166.1266776397497,158.1372118308059,-0.16950059440634163,3.2461100580610043,98.329672509553,37.201768244397535,0.0,1.0,11.453351691257401,13.824004251232191,0.0,Landing
12.100000000000001,-249.09374687892407,-1176.364461491653,157.54444572877551,-0.4885337025866603,3.5418064137353844,98.12374084944406,37.29020543276387,0.0,1.0,11.453351691257401,13.824004251232191,0.0,Landing
12.200000000000001,-251.06716394930626,-1172.069231522977,160.5402218180985,-0.65773593181475,3.4685970301159768,98.50266854815686,37.691043521985385,0.0,1.0,11.453351691257401,13.824004251232191,0.0,Landing
12.3,-253.03146732854577,-1185.2204162396959,158.7874135921394,-0.4869471214925618,3.333602281499264,98.12492553358425,37.70775635944663,0.0,1.0,11.453351691257401,13.824004251232191,0.0,Landing
12.4,-255.01984896012254,-1189.1909288658155,158.0271827761059,-0.5467751722335981,3.687740065958721,97.97042497235446,37.446140236817,0.0,1.0,11.453351691257401,13.824004251232191,0.0,Landing
12.5,-257.01311859363534,-1182.8376842906664,158.51952593371422,0.006005219798772388,3.0157776052010323,98.24710592580203,36.921072287380994,0.0,1.0,11.453351691257401,13.824004251232191,0.0,Landing
12.600000000000001,-258.9456557499991,-1185.1704013237622,157.54730067606556,-0.4741023688648664,3.650935417382378,98.41708902666619,37.36188763756687,0.0,1.0,11.453351691257401,13.824004251232191,0.0,Landing
12.700000000000001,-260.94570096674136,-1201.398910252874,157.96790984164073,-0.07234455743467616,3.197314267262087,98.29883216129622,37.57308021216196,0.0,1.0,11.453351691257401,13.824004251232191,0.0,Landing
12.8,-263.0201131448997,-1216.473576116675,159.51780628544722,-0.48663735807865277,3.291757260941174,98.00822900912357,37.23137435607897,0.0,1.0,11.453351691257401,13.824004251232191,0.0,Landing
12.9,-265.0280236305825,-1201.8807796654073,159.80099999064097,-0.45531070900984283,3.4616721684260643,98.29305108738123,38.118237761560515,0.0,1.0,11.453351691257401,13.824004251232191,0.0,Landing
13.0,-266.9551048650684,-1177.2173606166461,159.0716924888051,-0.2653696977610367,3.3942943763494706,98.15158045441598,37.737323863810076,0.0,1.0,11.453351691257401,13.824004251232191,0.0,Landing
13.100000000000001,-268.90619994798294,-1169.7147109659115,157.2195680033172,-0.1554365372193492,3.3800403514428212,98.37942481263389,37.607383354558415,0.0,1.0,11.453351691257401,13.824004251232191,0.0,Landing
13.200000000000001,-270.87659718541204,-1172.297301808976,158.1843239304253,-0.3307727033568522,3.295736230372236,98.47332771844958,37.272849692578156,0.0,1.0,11.453351691257401,13.824004251232191,0.0,Landing
13.3,-272.8165913741133,-1186.2095601005533,158.4411330620409,-0.24373818152492824,3.319740132064867,98.4146789468349,37.94714841078972,0.0,1.0,11.453351691257401,13.824004251232191,0.0,Landing
13.4,-274.8372477484857,-1191.7657858895266,158.67472524079972,-0.14068189651551924,3.149750462217708,98.29383533899971,37.06621088656426,0.0,1.0,11.453351691257401,13.824004251232191,0.0,Landing
13.5,-276.8354261148597,-1218.749975641401,159.06694986979656,-0.13266403079144468,3.0622138454778836,98.52813820261053,37.496472931523755,0.0,1.0,11.453351691257401,13.824004251232191,0.0,Landing
13.600000000000001,-278.9103412523203,-1217.1420314056377,157.5551803227116,0.23397307868880612,3.66196188004609,98.09243946051146,37.95591344869556,0.0,1.0,11.453351691257401,13.824004251232191,0.0,Landing
13.700000000000001,-280.9229579055139,-1233.6682292507703,158.21682837679398,-0.022038945967626455,3.288666665964,98.14626182280824,37.21002846630476,0.0,1.0,11.453351691257401,13.824004251232191,0.0,Landing
13.8,-283.0037672611135,-1195.9763102348804,159.64793666916702,0.14808352363717958,3.514598991181304,98.28264215684345,36.955187985147674,0.0,1.0,11.453351691257401,13.824004251232191,0.0,Landing
13.9,-284.8902228034947,-1173.6332771080015,158.54084233337812,-0.4760831920401724,3.2338861165325126,98.40467089867798,37.69020185917085,0.0,1.0,11.453351691257401,13.824004251232191,0.0,Landing
14.0,-286.7911242910539,-1154.1900951378582,157.5840254579331,-0.21403298749415894,3.3545220293577653,98.47520233402713,37.576532633044096,0.0,1.0,11.453351691257401,13.824004251232191,0.0,Landing
14.100000000000001,-288.7747177368028,-1168.8768717799803,158.67024692604275,-0.30770053158992666,2.6747235141665273,98.01545336220454,37.52409706686153,0.0,1.0,11.453351691257401,13.824004251232191,0.0,Landing
14.200000000000001,-290.7346071623946,-1175.9906372781986,157.20779515842776,-0.4781608287069211,3.090817077387629,98.26944375021412,37.256936896852125,0.0,1.0,11.453351691257401,13.824004251232191,0.0,Landing
14.3,-292.6710774774449,-1180.5571767991407,158.83306563557372,-0.2405540012761991,3.0815672139990458,98.16589939042217,37.446528253753094,0.0,1.0,11.453351691257401,13.824004251232191,0.0,Landing
14.4,-294.6775036207985,-1184.2914778183058,159.7512225146503,-0.4223136926286511,3.4478658408186442,98.3058668078516,37.845226005656514,0.0,1.0,11.453351691257401,13.824004251232191,0.0,Landing
14.5,-296.6560645514861,-1180.1446832137456,157.98706300835536,-0.16072829830764884,3.251284149485108,98.29636809780447,37.60814203152317,0.0,1.0,11.453351691257401,13.824004251232191,0.0,Landing
14.600000000000001,-298.5718008935136,-1173.6467805218808,158.98380998695026,-0.5377207134056372,3.2282251099919037,98.04810952495984,37.6261644446672,0.0,1.0,11.453351691257401,13.824004251232191,0.0,Landing
14.700000000000001,-300.5457375234079,-1180.1343301461086,158.1724641220486,0.04750338977498747,3.4412546780716267,98.27712361804265,37.59924859947528,0.0,1.0,11.453351691257401,13.824004251232191,0.0,Landing
14.8,-302.55673620221665,-1177.8950733469628,155.41915691256784,-0.17539428364102377,3.0785171883032967,98.14277772823186,37.49747661085697,0.0,1.0,11.453351691257401,13.824004251232191,0.0,Landing
14.9,-304.46127626024844,-1181.3593741090017,158.08135763699931,-0.27556202828073545,3.2056339901213176,98.47064087277914,37.64498338958699,0.0,1.0,11.453351691257401,13.824004251232191,0.0,Landing
15.0,-306.45253439395293,-1166.516107317284,159.23550642364177,0.059497234318238945,3.4044587324262046,98.0351381525852,38.347241808577216,0.0,1.0,11.453351691257401,13.824004251232191,0.0,Landing
15.100000000000001,-308.3893167388031,-1176.684853562847,158.59255622995374,-0.1283655510820744,3.4662465291434987,98.34225372585718,37.654834933455255,0.0,1.0,11.453351691257401,13.824004251232191,0.0,Landing
15.200000000000001,-310.3447005280627,-1164.174106326459,158.61605090398217,-0.6224786264065572,3.2459142341167175,98.10807438981385,37.09593650815653,0.0,1.0,11.453351691257401,13.824004251232191,0.0,Landing
15.3,-312.2734049255852,-1175.5626765420973,158.98468148856543,-0.11331417182633466,3.412448856915315,98.37032819249208,37.14521713048189,0.0,1.0,11.453351691257401,13.824004251232191,0.0,Landing
15.4,-314.26713012151356,-1185.902465248273,157.99804540851366,-0.19302485564027716,3.4613655939783516,98.72261528650841,37.096301036767684,0.0,1.0,11.453351691257401,13.824004251232191,0.0,Landing
15.5,-316.27421285430404,-1175.8717474239918,158.162026294994,-0.4675385079532868,3.14774152524737,98.10726335067204,37.822960050295144,0.0,1.0,11.453351691257401,13.824004251232191,0.0,Landing
15.600000000000001,-318.1527636627052,-1168.1434109040877,157.1886657981113,-0.11869341747467643,3.5314171609828473,98.34951660062359,37.49141093731616,0.0,1.0,11.453351691257401,13.824004251232191,0.0,Landing
15.700000000000001,-320.107847176034,-1141.935255575936,159.18706739221835,-0.39605680492540407,3.464654393045586,98.1595796944274,37.410847731304905,0.0,1.0,11.453351691257401,13.824004251232191,0.0,Landing
15.8,-321.9838891321837,-1150.4865268192473,157.1855621587048,-0.569907339863888,3.087783367089033,98.12481102952165,37.744965651086495,0.0,1.0,11.453351691257401,13.824004251232191,0.0,Landing
15.9,-323.9051962968014,-1150.8269654870335,159.45535158417417,-0.26143409578893456,3.290757326702166,98.61651527575344,37.027549325620306,0.0,1.0,11.453351691257401,13.824004251232191,0.0,Landing
16.0,-325.86198200346917,-1159.3518724292608,157.23944253564255,-0.2916117046850444,3.1653553279745013,98.36141149052105,37.23048481099937,0.0,1.0,11.453351691257401,13.824004251232191,0.0,Landing
16.1,-327.78064849433,-1167.2990048587396,157.75360110086083,-0.6221180540921987,3.297911353307637,98.26580067600332,36.917114975561205,0.0,1.0,11.453351691257401,13.824004251232191,0.0,Landing
16.2,-329.7416913210951,-1149.0119193624762,158.37869025499077,-0.1687164287696688,3.04295561771512,98.40423889578238,37.66917514956979,0.0,1.0,11.453351691257401,13.824004251232191,0.0,Landing
16.3,-331.60704160028155,-1165.5606853578547,158.81099638704617,-0.3500255088889753,3.3038877394490416,98.33031757028027,37.23087144123997,0.0,1.0,11.453351691257401,13.824004251232191,0.0,Landing
16.400000000000002,-333.6084519211193,-1152.4405740615975,159.58639861209113,-0.8429771193123107,3.187274620231776,98.23681833700437,37.04845837567378,0.0,1.0,11.453351691257401,13.824004251232191,0.0,Landing
16.5,-335.5038941914031,-1174.8253857762281,158.84311581388886,-0.23576952913667365,3.7258994019760063,98.20570770129245,37.19149352742622,0.0,1.0,11.453351691257401,13.824004251232191,0.0,Landing
16.6,-337.4811685291627,-1152.0882708325305,157.49925945953865,-0.4300042804537345,3.5061228213130278,98.5071994338598,37.32919947542715,0.0,1.0,11.453351691257401,13.824004251232191,0.0,Landing
16.7,-339.36889327528195,-1165.2426676000116,158.85433984088615,-0.10849343771878983,3.422879854679074,98.48733866817162,37.140803262430104,0.0,1.0,11.453351691257401,13.824004251232191,0.0,Landing
16.8,-341.33010752940316,-1163.0732650917364,159.58124976876942,-0.14012804116078184,3.113122004406418,98.2234900555975,37.80457863891146,0.0,1.0,11.453351691257401,13.824004251232191,0.0,Landing
16.900000000000002,-343.29653485462137,-1168.4923295278506,158.11263927256485,-0.4586991247548238,3.4020618880958318,98.37079861947149,37.49687601136452,0.0,1.0,11.453351691257401,13.824004251232191,0.0,Landing
17.0,-345.2113549229212,-1163.8475189557655,158.59710669508743,-0.4771830604688214,3.4323630778805243,98.26312164259298,36.78185703699162,0.0,1.0,11.453351691257401,13.824004251232191,0.0,Landing
17.1,-347.149345124182,-1171.3573853214373,159.1920665143366,-0.1705806541072516,3.547519898019643,98.0308229979151,37.16320849369665,0.0,1.0,11.453351691257401,13.824004251232191,0.0,Landing
17.2,-349.15332178122856,-1168.3813530614088,159.02363004426135,-0.36220526001605213,3.138133673351919,98.35460050970045,37.70938129723265,0.0,1.0,11.453351691257401,13.824004251232191,0.0,Landing
17.3,-351.05326168822825,-1158.6183911015269,157.39580336615964,-0.36713702406334797,3.2853583852688093,98.43475007135328,37.34302116897168,0.0,1.0,11.453351691257401,13.824004251232191,0.0,Landing
17.400000000000002,-352.9424370796896,-1145.0992577929355,157.90463252623243,-0.042420912829571555,3.1645487669245136,98.20445898690377,37.3028756486247,0.0,1.0,11.453351691257401,13.824004251232191,0.0,Landing
17.5,-354.87881807019323,-1151.0931646931112,157.36305947902386,-0.4309149240362463,3.457858477137363,98.5983793563791,37.41573730775807,0.0,1.0,11.453351691257401,13.824004251232191,0.0,Landing
17.6,-356.8087275116938,-1162.2004402079367,156.37977664464614,-0.28054418894586086,3.228200730079396,98.26466082173249,37.91693375160512,0.0,1.0,11.453351691257401,13.824004251232191,0.0,Landing
17.7,-358.7534392807293,-1160.0034821523989,158.07042241896087,-0.18505042112345393,3.2087095984169896,98.17530072539722,37.28556930554445,0.0,1.0,11.453351691257401,13.824004251232191,0.0,Landing
17.8,-360.67883548095523,-1156.1510950503816,157.35680915752414,-0.12761871743209985,2.933462969170312,98.34097480594284,37.064605302499444,0.0,1.0,11.453351691257401,13.824004251232191,0.0,Landing
17.900000000000002,-362.5894829869457,-1162.009816762611,158.27092886815808,-0.1565603671050572,3.4394901540291483,98.29725814313906,37.641566200643815,0.0,1.0,11.453351691257401,13.824004251232191,0.0,Landing
18.0,-364.56348836454237,-1156.0048207795035,157.04086765509564,-0.37702117903773386,2.967204721644824,98.33521338273437,37.557990930173915,0.0,1.0,11.453351691257401,13.824004251232191,0.0,Landing
18.1,-366.45885958485275,-1148.901788836645,158.57049324941008,0.10969182697393459,3.131393312597551,98.32186289779747,37.88926862257912,0.0,1.0,11.453351691257401,13.824004251232191,0.0,Landing
18.2,-368.33399193112893,-1130.2765234408753,158.99273011117975,-0.24894926158974573,3.0045589935121106,98.23787211783127,37.138147468751754,0.0,1.0,11.453351691257401,13.824004251232191,0.0,Landing
18.3,-370.21487098174674,-1123.0942847836902,158.9497146253392,-0.2783838268019779,3.378290275484977,98.41099514553434,37.57526141330561,0.0,1.0,11.453351691257401,13.824004251232191,0.0,Landing
18.400000000000002,-372.0743310087712,-1137.937694766276,158.21720126400268,-0.30764528286092624,3.156044679792921,98.17256703106415,37.35690528565597,0.0,1.0,11.453351691257401,13.824004251232191,0.0,Landing
18.5,-374.0236804049603,-1160.980353747641,158.45080760848978,-0.416364036741264,3.286530276520061,98.17118738034674,37.1355847420025,0.0,1.0,11.453351691257401,13.824004251232191,0.0,Landing
18.6,-376.01977275048495,-1189.6529437022648,158.07447792455892,-0.4590794731224235,3.3268255257037755,98.18161104591331,36.62808760460304,0.0,1.0,11.453351691257401,13.824004251232191,0.0,Landing
18.7,-378.0225957272825,-1202.8904762128493,159.250652301242,-0.1431042455016495,3.129183610361455,98.5291948321468,37.46229096282873,0.0,1.0,11.453351691257401,13.824004251232191,0.0,Landing
18.8,-380.03813278602456,-1213.2173563629976,157.68059046153425,-0.27005420844274397,3.266411835043771,98.30523076182783,37.94931697649856,0.0,1.0,11.453351691257401,13.824004251232191,0.0,Landing
18.900000000000002,-382.08585953229993,-1199.0061131779157,157.40592644984864,-0.28753652581312716,3.8977044385370085,98.30359653078688,37.57700297676124,0.0,1.0,11.453351691257401,13.824004251232191,0.0,Landing
19.0,-384.0176262931721,-1166.1824555332714,156.77582868433728,-0.32625798160556063,3.445530344120014,98.11961640392934,37.34870579994609,0.0,1.0,11.453351691257401,13.824004251232191,0.0,Landing
19.1,-385.8690450636909,-1143.3667044001822,155.74821086597473,-0.2766200234501801,3.200781706628774,98.44275282026541,37.40986886612029,0.0,1.0,11.453351691257401,13.824004251232191,0.0,Landing
19.200000000000003,-387.80269305430085,-1156.7981009446046,157.87876665409533,0.06573090707338236,3.0644918373261683,98.3166407451082,37.33325713035259,0.0,1.0,11.453351691257401,13.824004251232191,0.0,Landing
19.3,-389.8016167978951,-1164.038713455045,159.66203435081118,-0.37166835016029154,3.3599035736066867,98.3083058899067,37.79861826869831,0.0,1.0,11.453351691257401,13.824004251232191,0.0,Landing
19.400000000000002,-391.68923863096614,-1154.7658845868455,157.33847365740084,-0.44953256243541884,3.6056173050828195,98.25242419533242,37.66127469778388,0.0,1.0,11.453351691257401,13.824004251232191,0.0,Landing
19.5,-393.5765224772351,-1143.441985173706,158.40968122847306,-0.09890889324232247,3.3270462327024486,98.36983850284184,37.46544845813476,0.0,1.0,11.453351691257401,13.824004251232191,0.0,Landing
19.6,-395.51882672376365,-1142.6615009226114,159.34039559180988,-0.2890932642538349,3.4355734129501734,98.24357209761524,37.14667212322579,0.0,1.0,11.453351691257401,13.824004251232191,0.0,Landing
19.700000000000003,-397.4025461355792,-1142.1668547701074,157.01404185693093,-0.1709145113828406,2.919266117239705,98.39767000650289,37.24503482977284,0.0,1.0,11.453351691257401,13.824004251232191,0.0,Landing
19.8,-399.2873567510856,-1128.8751887850594,159.25236777711646,-0.11293796284802501,3.4548939239344008,98.37419073093304,37.52243973899724,0.0,1.0,11.453351691257401,13.824004251232191,0.0,Landing
19.900000000000002,-401.16320266768895,-1134.5659115502142,157.3286448117952,-0.34179085604133097,3.0464985049202107,98.21230404982862,37.48991071245077,0.0,1.0,11.453351691257401,13.824004251232191,0.0,Landing
20.0,-403.0753756933303,-1149.8366669078223,157.80508348955217,-0.05482589961149367,3.416390604233569,98.38366286789312,37.48348106409554,0.0,1.0,11.453351691257401,13.824004251232191,0.0,Landing
20.1,-405.0365400856247,-1176.8360013184292,158.13573444820966,-0.13016308598850904,3.2298503253507866,98.42603372345974,37.45743924852016,0.0,1.0,11.453351691257401,13.824004251232191,0.0,Landing
20.200000000000003,-407.0473826742811,-1192.063089149815,159.0454396245743,-0.19369354766387886,3.5520490575211987,98.36844174201025,37.580929547218055,0.0,1.0,11.453351691257401,13.824004251232191,0.0,Landing
20.3,-409.03569113907935,-1175.8945692667683,157.24163114794695,-0.2144178198315989,2.842403728317799,98.234485575586,37.5197375976721,0.0,1.0,11.453351691257401,13.824004251232191,0.0,Landing
20.400000000000002,-410.91601293195856,-1152.0245671513976,158.31144743936815,-0.37435155048998214,3.2687039461424003,98.37702773694093,37.27563587244853,0.0,1.0,11.453351691257401,13.824004251232191,0.0,Landing
20.5,-412.8075055100381,-1134.7759258007616,157.70909861551817,-0.004214383840225933,3.3468923980119603,98.34760646955056,37.529721514830406,0.0,1.0,11.453351691257401,13.824004251232191,0.0,Landing
20.6,-414.70957076808315,-1129.877829378631,159.3988845861646,-0.36127281127324656,2.994779566679969,98.41597725790729,37.3992447883029,0.0,1.0,11.453351691257401,13.824004251232191,0.0,Landing
20.700000000000003,-416.5654020788517,-1119.37932005161,156.92664229876985,-0.23905625978253553,3.3888891690799414,98.4345323467872,37.52368720997846,0.0,1.0,11.453351691257401,13.824004251232191,0.0,Landing
20.8,-418.40440211029613,-1122.9670282475354,156.41553442733948,-0.7544453873911581,3.451340024738008,98.17355893214017,37.4051691285681,0.0,1.0,11.453351691257401,13.824004251232191,0.0,Landing
20.900000000000002,-420.32440590932083,-1123.9280372726514,159.6704772803944,-0.32535857106438354,3.247157496721529,98.21030128184918,37.626458008205525,0.0,1.0,11.453351691257401,13.824004251232191,0.0,Landing
21.0,-422.185042265215,-1142.374888280824,159.068062550431,-0.20443602414576045,3.3450660515172648,98.24214836453206,37.16494209262434,0.0,1.0,11.453351691257401,13.824004251232191,0.0,Landing
21.1,-424.11627655170025,-1151.028548385716,155.92691633696722,-0.2955336798572474,3.6886126579892076,98.56531605579602,37.440695565608834,0.0,1.0,11.453351691257401,13.824004251232191,0.0,Landing
21.200000000000003,-426.0795486512494,-1164.2743748958421,159.48939822943137,-0.29042349922296395,3.3609531996781175,98.22380694327285,37.364487978291415,0.0,1.0,11.453351691257401,13.824004251232191,0.0,Landing
21.3,-428.0064141396942,-1143.9596912319641,158.68137731333954,-0.6476315663347003,2.924105786987778,98.12152596547031,37.2770861090726,0.0,1.0,11.453351691257401,13.824004251232191,0.0,Landing
21.400000000000002,-429.8360750078601,-1118.159946112007,158.71805510698837,-0.5303926343895125,3.432867016160178,98.49259608905004,37.0439297259779,0.0,1.0,11.453351691257401,13.824004251232191,0.0,Landing
21.5,-431.67034838180945,-1104.3223361018024,157.4306922976541,-0.1895764189377879,3.7099389532220646,98.23114151369964,37.59074650815572,0.0,1.0,11.453351691257401,13.824004251232191,0.0,Landing
21.6,-433.5280258202032,-1127.3948577622377,157.04049469266124,-0.10744384713301205,3.5164330869029983,98.1844995852058,37.65465316280102,0.0,1.0,11.453351691257401,13.824004251232191,0.0,Landing
21.700000000000003,-435.47304929667126,-1133.8523467179018,159.2943951250454,-0.178983615007049,3.6486536225669504,98.4106260533066,37.584339235550445,0.0,1.0,11.453351691257401,13.824004251232191,0.0,Landing
21.8,-437.33961011539895,-1129.7897310847475,158.78311184225956,-0.24951375226425132,3.5103204221649404,98.16255301008783,37.38310816214831,0.0,1.0,11.453351691257401,13.824004251232191,0.0,Landing
21.900000000000002,-439.17697447562693,-1117.8555762869453,159.27904589873697,-0.24110882966832317,3.4846112877322932,98.42794546751992,36.93381617006985,0.0,1.0,11.453351691257401,13.824004251232191,0.0,Landing
22.0,-441.062327178106,-1109.8287579157386,158.19726790828906,-0.249075873885271,3.392396000263117,98.52832822294215,37.61999904156709,0.0,1.0,11.453351691257401,13.824004251232191,0.0,Landing
22.1,-442.88875390497765,-1117.6282474925301,158.8095422486001,0.0034106637283518038,3.551576813945308,98.25217875283442,37.32495397115653,0.0,1.0,11.453351691257401,13.824004251232191,0.0,Landing
22.200000000000003,-444.7651157130896,-1108.3477674082815,156.7078461736346,-0.5907339594786516,2.9526255011033795,98.22704471674626,37.14508239537893,0.0,1.0,11.453351691257401,13.824004251232191,0.0,Landing
22.3,-446.6040660151474,-1114.793394485275,158.06420286672264,-0.1984925734520333,3.441566573086408,98.29578041616247,37.3114876019332,0.0,1.0,11.453351691257401,13.824004251232191,0.0,Landing
22.400000000000002,-448.462720877404,-1115.9796724287162,158.4664302812645,-0.25630398027136736,3.324806713899702,98.37864420174373,37.41249342327059,0.0,1.0,11.453351691257401,13.824004251232191,0.0,Landing
22.5,-450.34501407523317,-1114.5910374490197,156.62609330473293,-0.4661368218484677,3.465848553030659,98.42666877062209,37.63849294718567,0.0,1.0,11.453351691257401,13.824004251232191,0.0,Landing
22.6,-452.1770212023925,-1114.4821455973897,159.9105472458486,-0.31694748282567253,3.4262082484534915,98.26177443788083,37.96202099570878,0.0,1.0,11.453351691257401,13.824004251232191,0.0,Landing
22.700000000000003,-454.035131605391,-1114.8831599582763,156.7086409890925,-0.2726877538547535,3.5752913404916904,98.45326540660074,37.83202282003556,0.0,1.0,11.453351691257401,13.824004251232191,0.0,Landing
22.8,-455.91942987502455,-1110.3610594226327,159.12441960267108,-0.6556314131961887,3.4918577036824034,98.22010999076878,38.13518299618269,0.0,1.0,11.453351691257401,13.824004251232191,0.0,Landing
22.900000000000002,-457.72882649950566,-1111.615903154302,158.98468020185237,-0.1440580593295209,3.1904530440750185,98.431747734998,37.086676754172224,0.0,1.0,11.453351691257401,13.824004251232191,0.0,Landing
23.0,-459.5932111211625,-1104.201144438548,161.06223482493053,-0.5065392995664401,3.07111069392693,98.12865071316918,37.53430580092159,0.0,1.0,11.453351691257401,13.824004251232191,0.0,Landing
23.1,-461.4404355972173,-1127.5962399899183,158.4007898193476,-0.46664607233923405,3.198215082902871,98.3973629919098,37.04763117421155,0.0,1.0,11.453351691257401,13.824004251232191,0.0,Landing
23.200000000000003,-463.36680769945525,-1125.511500919447,157.94802421505216,-0.3700720564940453,3.20072641754324,98.18127804099186,37.68724201388293,0.0,1.0,11.453351691257401,13.824004251232191,0.0,Landing
23.3,-465.2207686257597,-1137.0491589040168,157.5317979944461,-0.4545273227525819,3.314279015954642,98.28361015142826,37.390060944314314,0.0,1.0,11.453351691257401,13.824004251232191,0.0,Landing
23.400000000000002,-467.1256813917374,-1134.7438377465323,157.69963874542051,-0.21981017887176557,3.144185219836175,98.59445170454802,37.57610521780049,0.0,1.0,11.453351691257401,13.824004251232191,0.0,Landing
23.5,-469.0405268881879,-1136.6952282135005,157.7058089948419,-0.28657253947931133,3.3912462071362803,98.227878941972,37.131338523358146,0.0,1.0,11.453351691257401,13.824004251232191,0.0,Landing
23.6,-470.9042447668272,-1122.5651859247253,158.68658003327462,-0.24180323030858414,3.4408654562980763,98.14283133870464,37.84156703302377,0.0,1.0,11.453351691257401,13.824004251232191,0.0,Landing
23.700000000000003,-472.738507321361,-1115.1374432057653,158.3991121832859,-0.37482611087529505,3.260158106134832,98.43230870881632,37.42095404802772,0.0,1.0,11.453351691257401,13.824004251232191,0.0,Landing
23.8,-474.61621410421674,-1093.6894764158862,158.18006839042064,0.030751477179264075,3.086243125815529,98.27519745281728,37.52705327096046,0.0,1.0,11.453351691257401,13.824004251232191,0.0,Landing
23.900000000000002,-476.37269214890665,-1117.2689412621933,155.98748688219956,0.08307861008967332,3.626441291179972,98.25961541519735,37.71688428803215,0.0,1.0,11.453351691257401,13.824004251232191,0.0,Landing
24.0,-478.32485202767197,-1136.9974286485785,157.99376746338052,-0.3158367763972591,3.7388508531084126,98.3942100878212,37.8267545390802,0.0,1.0,11.453351691257401,13.824004251232191,0.0,Landing
24.1,-480.30120124745963,-1167.2190954201258,156.510125557664,-0.2011583480113711,3.5681042264697664,98.06996478709073,36.8218380570916,0.0,1.0,11.453351691257401,13.824004251232191,0.0,Landing
24.200000000000003,-482.2087876260073,-1157.6964177585867,160.4637293937752,-0.25278030086144593,3.588082098098119,98.50862905055783,37.46653806537819,0.0,1.0,11.453351691257401,13.824004251232191,0.0,Landing
24.3,-484.1133341164649,-1116.9609232446303,157.53413015254858,-0.09201002299173372,3.4650551224818527,98.18993495892522,37.35917744122059,0.0,1.0,11.453351691257401,13.824004251232191,0.0,Landing
24.400000000000002,-485.8860058636828,-1102.0859693274926,159.5631203085337,-0.21038134580680617,3.2671993446338603,98.34612406612888,37.52505118286696,0.0,1.0,11.453351691257401,13.824004251232191,0.0,Landing
24.5,-487.71921747264474,-1103.3757107973881,157.71508918049054,-0.15963505127023292,3.31633902578203,98.31486591204043,37.35956107988314,0.0,1.0,11.453351691257401,13.824004251232191,0.0,Landing
24.6,-489.63021267045184,-1123.8003045485245,157.4046344901841,0.17482042898877148,3.4191413132003277,98.54200537981768,37.47797836849806,0.0,1.0,11.453351691257401,13.824004251232191,0.0,Landing
24.700000000000003,-491.5050073864254,-1139.7977519868962,158.72413023209754,-0.13993420868660897,3.281975358448273,98.30397859507286,37.3285431914728,0.0,1.0,11.453351691257401,13.824004251232191,0.0,Landing
24.8,-493.4182062325792,-1129.4093486609543,159.11232903769601,-0.22334459300740372,3.197375782757571,98.11314911650504,37.49202555582101,0.0,1.0,11.453351691257401,13.824004251232191,0.0,Landing
24.900000000000002,-495.2772594137566,-1107.6180654853033,158.96589630470828,-0.32777143246146845,3.2194650000962404,98.40048713521469,37.049021570602335,0.0,1.0,11.453351691257401,13.824004251232191,0.0,Landing
25.0,-497.0430977138519,-1101.3132288404106,159.62943263038895,-0.561128923278398,3.2958322980836297,98.52004777960218,37.477013179098954,0.0,1.0,11.453351691257401,13.824004251232191,0.0,Landing
25.1,-498.9247723767813,-1084.4430495178585,159.52847883926736,-0.401812486649346,3.1046955464163775,98.5384720431486,37.60102435474003,0.0,1.0,11.453351691257401,13.824004251232191,0.0,Landing
25.200000000000003,-500.6994746613459,-1102.7615083977253,158.46181170690315,-0.3748561186398077,3.2724692276601153,98.273547302721,37.380981199345065,0.0,1.0,11.453351691257401,13.824004251232191,0.0,Landing
25.3,-502.55690525584055,-1088.678759734569,158.98481348946518,-0.25130030796665614,3.084704081409223,98.3488210048045,37.261359107448335,0.0,1.0,11.453351691257401,13.824004251232191,0.0,Landing
25.400000000000002,-504.3681661754541,-1111.1114244131725,158.9753880307579,-0.5053582223870632,3.280616437450138,98.50764698375792,37.17578429422348,0.0,1.0,11.453351691257401,13.824004251232191,0.0,Landing
25.5,-506.25503178341177,-1110.7811234420979,157.94457182137623,-0.6601675142561345,3.070560321614186,98.37824227066551,37.486537558122535,0.0,1.0,11.453351691257401,13.824004251232191,0.0,Landing
25.6,-508.11081087305104,-1123.192154586718,158.37591179881923,-0.3758487907911889,3.221278314683371,98.37058105834177,37.242465249926276,0.0,1.0,11.453351691257401,13.824004251232191,0.0,Landing
25.700000000000003,-509.9841269483877,-1114.2311172585667,158.1058239978644,-0.3065665165555639,3.5449103321163995,98.16420363333998,37.96533398736747,0.0,1.0,11.453351691257401,13.824004251232191,0.0,Landing
25.8,-511.8261873697046,-1115.7335227428803,157.7693421367216,-0.22819312558095622,3.0631421134125882,98.53438489238255,37.07676557607004,0.0,1.0,11.453351691257401,13.824004251232191,0.0,Landing
25.900000000000002,-513.6894784867654,-1110.8395483288405,157.3704060279712,-0.24947709760925418,3.0994816075987006,98.19608544532957,37.758212347012915,0.0,1.0,11.453351691257401,13.824004251232191,0.0,Landing
26.0,-515.5383246900319,-1082.376939642677,159.62989356736037,-0.22931500417818707,3.2585311066849547,98.382497986712,37.20004994363634,0.0,1.0,11.453351691257401,13.824004251232191,0.0,Landing
26.1,-517.238072067918,-1067.8055303406609,159.4925236823598,-0.15375896389805188,3.476300237347485,98.20154787184697,37.18392229971484,0.0,1.0,11.453351691257401,13.824004251232191,0.0,Landing
26.200000000000003,-519.0285061384687,-1077.6381136289729,157.9403710450912,-0.36957808279219134,3.035990253493278,98.03217856039521,37.7589402190138,0.0,1.0,11.453351691257401,13.824004251232191,0.0,Landing
26.3,-520.9265152581768,-1115.9836463573356,161.2419484093131,-0.18369987504821805,3.1848889855954785,98.19568948794921,37.379038379939466,0.0,1.0,11.453351691257401,13.824004251232191,0.0,Landing
26.400000000000002,-522.8179902997047,-1122.8245876695382,158.99628340944184,-0.3319889624954936,3.726486150327964,98.49635748557455,37.34273009102498,0.0,1.0,11.453351691257401,13.824004251232191,0.0,Landing
26.5,-524.6426290768164,-1115.012717586933,158.76591170348757,-0.5063476493692174,3.8287711738519326,98.37082477996387,37.099937567195866,0.0,1.0,11.453351691257401,13.824004251232191,0.0,Landing
26.6,-526.5015788461114,-1102.2808541988752,158.6806746600316,-0.2542137948237715,3.4101729635310334,98.20445662406394,37.36048665352193,0.0,1.0,11.453351691257401,13.824004251232191,0.0,Landing
26.700000000000003,-528.329394570699,-1111.7278369300038,158.0073685138291,0.16823125219982477,3.6011160585111788,98.11588718998303,37.30784840190203,0.0,1.0,11.453351691257401,13.824004251232191,0.0,Landing
26.8,-530.2012682614665,-1112.3303826660049,157.51372204538717,-0.1618866848585348,3.2074039461841775,98.32297082043362,37.87203384871468,0.0,1.0,11.453351691257401,13.824004251232191,0.0,Landing
26.900000000000002,-532.0632307594415,-1128.7807489188026,157.22694553341816,-0.2115505859284108,3.2018470880991385,98.19311489434745,37.40881118860527,0.0,1.0,11.453351691257401,13.824004251232191,0.0,Landing
27.0,-533.973298315293,-1139.1183307762958,159.73429127177403,-0.6234308564164145,3.0482955052398846,98.20322991337775,37.260291506591294,0.0,1.0,11.453351691257401,13.824004251232191,0.0,Landing
27.1,-535.8968599153479,-1158.2044117872783,159.16631193922092,-0.22478887240496992,3.1311277739029624,98.16980161596962,37.27564096466176,0.0,1.0,11.453351691257401,13.824004251232191,0.0,Landing
27.200000000000003,-537.8542528183779,-1127.1651384425695,158.37309780521483,-0.3711817507095608,3.0672850951091037,98.13069482677957,37.236400129116,0.0,1.0,11.453351691257401,13.824004251232191,0.0,Landing
27.3,-539.6091240075059,-1116.7803533993947,160.28352420500696,-0.26122464187348143,3.1663152600070297,98.3265290855141,37.60656302826294,0.0,1.0,11.453351691257401,13.824004251232191,0.0,Landing
27.400000000000002,-541.4807616823449,-1093.5409192449015,160.1691350588625,-0.3218567098540757,3.4814766780498205,98.24111131456249,37.2894362124451,0.0,1.0,11.453351691257401,13.824004251232191,0.0,Landing
27.5,-543.3219574146024,-1105.292191032845,158.50315822929707,-0.2503578617052702,2.9427087506190253,98.31253684060107,36.89615679770945,0.0,1.0,11.453351691257401,13.824004251232191,0.0,Landing
27.6,-545.1355849626701,-1107.8683617387924,159.8575509760721,-0.14795959846003925,3.4968579069076706,98.49522835808466,37.570772159103306,0.0,1.0,11.453351691257401,13.824004251232191,0.0,Landing
27.700000000000003,-547.0201034910389,-1111.6453494285452,158.32775571047063,-0.1414845389224438,3.329843396684631,98.31354926665023,37.25005854842464,0.0,1.0,11.453351691257401,13.824004251232191,0.0,Landing
27.8,-548.8801841617451,-1118.6482977773949,159.2723253306168,-0.2504254511711857,3.6126820440245875,97.90523207779279,37.533419541901736,0.0,1.0,11.453351691257401,13.824004251232191,0.0,Landing
27.900000000000002,-550.7288264515571,-1112.5496717963642,159.7852585502497,-0.0034323030981777136,3.203224397647425,98.2481864057612,37.52303288283826,0.0,1.0,11.453351691257401,13.824004251232191,0.0,Landing
28.0,-552.5828518500207,-1106.8652268374535,157.90116094412127,-0.01696568414989985,3.284298180468601,98.22454231602637,37.07617999183075,0.0,1.0,11.453351691257401,13.824004251232191,0.0,Landing
28.1,-554.4145102959324,-1111.8897726205887,158.32875790097046,-0.5831917946361185,3.142368910205169,98.27061844937288,37.2902636135485,0.0,1.0,11.453351691257401,13.824004251232191,0.0,Landing
28.200000000000003,-556.28827531466,-1100.4315134487797,157.63020882148513,-0.36963550566838194,3.4102044443707897,98.54448435810036,37.7189803858039,0.0,1.0,11.453351691257401,13.824004251232191,0.0,Landing
28.3,-558.0850094172646,-1104.6010334366656,158.36123784001666,-0.564414003208537,3.261790058176469,98.09241441133526,37.59634122477757,0.0,1.0,11.453351691257401,13.824004251232191,0.0,Landing
28.400000000000002,-559.9375154631157,-1109.3764113791167,156.43427896235923,-0.2669126567313534,3.329179693487869,98.12476359519263,37.27803841676641,0.0,1.0,11.453351691257401,13.824004251232191,0.0,Landing
28.5,-561.8351573715556,-1110.8550679741484,160.0989722862408,0.25955900172178203,3.293585403732367,98.26831013971321,36.91361287147635,0.0,1.0,11.453351691257401,13.824004251232191,0.0,Landing
28.6,-563.6392847571353,-1108.2741229693056,157.53080167924458,-0.5851983550774569,3.5214527309376584,98.30659731500032,37.22456917835211,0.0,1.0,11.453351691257401,13.824004251232191,0.0,Landing
28.700000000000003,-565.4788860779622,-1098.0557461557964,156.65868162033112,-0.17147127697120035,3.439116650451562,98.14771056479162,37.55438949131902,0.0,1.0,11.453351691257401,13.824004251232191,0.0,Landing
28.8,-567.3254361023346,-1115.1452506311443,158.52419304241266,-0.4477132632114096,3.3620055769073622,98.240977364054,37.73428473469217,0.0,1.0,11.453351691257401,13.824004251232191,0.0,Landing
28.900000000000002,-569.215011010291,-1108.7799332927716,158.52181109167793,-0.11965173547516172,3.1641547628565445,98.45388531205589,37.41369078766739,0.0,1.0,11.453351691257401,13.824004251232191,0.0,Landing
29.0,-571.0227857444261,-1092.745249635641,158.11123130667465,-0.22655674838163808,3.1830342161969614,98.1865030891816,37.03848274962271,0.0,1.0,11.453351691257401,13.824004251232191,0.0,Landing
29.1,-572.7891623505128,-1072.1268408518426,158.72643412421013,-0.20531371479294422,3.1909324992159545,98.12223973452654,38.03914234846894,0.0,1.0,11.453351691257401,13.824004251232191,0.0,Landing
29.200000000000003,-574.5756452145503,-1089.6628897820392,158.96620194414783,-0.3889008696519844,3.1975156109893335,98.31240211690749,37.09339826982661,0.0,1.0,11.453351691257401,13.824004251232191,0.0,Landing
29.3,-576.4711001933363,-1094.9336853876048,158.75925065914572,-0.00022943964341404222,3.247475766397149,98.17633028052734,37.43728365490322,0.0,1.0,11.453351691257401,13.824004251232191,0.0,Landing
29.400000000000002,-578.2638307774508,-1107.2283245212475,157.46763317790993,-0.16817871880427554,2.9850949726168396,98.43408448230849,37.393602577346854,0.0,1.0,11.453351691257401,13.824004251232191,0.0,Landing
29.5,-580.1117868371565,-1088.8471230719688,157.23350080341683,-0.2605711970808419,3.3126137459607046,98.14309082275179,37.084004207527194,0.0,1.0,11.453351691257401,13.824004251232191,0.0,Landing
29.6,-581.9153358086961,-1084.6534304800798,157.45614083985262,0.02360876340036272,3.0978733345774843,98.20014013247214,36.99786606583306,0.0,1.0,11.453351691257401,13.824004251232191,0.0,Landing
29.700000000000003,-583.6870979298512,-1076.2479878542308,158.28340017467562,-0.6502908743159729,3.410475900216291,98.30303713870046,37.23262978715612,0.0,1.0,11.453351691257401,13.824004251232191,0.0,Landing
