time_s,altitude_ft,vertical_speed_fpm,ias_kt,pitch_deg,roll_deg,heading_deg,throttle_pct,afterburner_on,gear_down,flaps_deg,speedbrake_pct,weight_on_wheels,label
0.0,-2.233427260725944,-666.139569352815,183.23250136133674,3.1676451194993644,-3.883318821255108,357.8207619692814,41.28145294197691,0.0,1.0,13.985700406597445,3.770996767526462,0.0,Landing
0.1,-4.453892491901994,-875.6648217706364,184.06016500000788,2.6822338743306204,-3.8479813560617178,357.67104176751445,40.29612050810109,0.0,1.0,13.985700406597445,3.770996767526462,0.0,Landing
0.2,-6.611751369579126,-1330.7700703223052,181.9542327487696,2.8925467505767744,-3.5239613755087875,357.68466513157716,41.40735290754336,0.0,1.0,13.985700406597445,3.770996767526462,0.0,Landing
0.30000000000000004,-8.88727761233747,-1353.3006342130964,182.4878071517769,2.7394904385676457,-3.5116913184914993,357.9757621758815,41.038779389829365,0.0,1.0,13.985700406597445,3.770996767526462,0.0,Landing
0.4,-11.220395662967476,-1372.595298262785,182.79285287148676,3.023134293807216,-3.818045780966969,357.85506410043763,40.703171006484844,0.0,1.0,13.985700406597445,3.770996767526462,0.0,Landing
0.5,-13.47472786089305,-1378.7032313639158,182.07438396995784,3.096288957205143,-3.9105490293764396,358.05476424181325,40.912523265574855,0.0,1.0,13.985700406597445,3.770996767526462,0.0,Landing
0.6000000000000001,-15.78079376915705,-1380.2219384459138,183.1303908641394,3.06080017009523,-3.4068699156800815,357.69450415193,40.970138612802366,0.0,1.0,13.985700406597445,3.770996767526462,0.0,Landing
0.7000000000000001,-18.121505355197044,-1411.6255839594794,182.6147356267084,3.126966362521312,-3.5734059689902455,357.70027763863175,40.59838634604867,0.0,1.0,13.985700406597445,3.770996767526462,0.0,Landing
0.8,-20.532855780690447,-1394.6605639533293,184.82002725561816,2.9571894026561725,-3.5554013492011416,357.7708465046403,41.09000487247641,0.0,1.0,13.985700406597445,3.770996767526462,0.0,Landing
0.9,-22.754096588923698,-1368.466665606292,181.82958370411492,2.9297167446612815,-3.9424321727659883,357.6591226146013,40.989871647278314,0.0,1.0,13.985700406597445,3.770996767526462,0.0,Landing
1.0,-24.963838683228506,-1338.1344679131146,182.5589573331652,2.8300313569560895,-3.5125996558734522,357.7281245466361,40.756259309689085,0.0,1.0,13.985700406597445,3.770996767526462,0.0,Landing
1.1,-27.22352812025602,-1350.9484906248133,183.30119081368971,2.636240872061565,-3.7166749089465436,358.0380379894616,41.29057788103677,0.0,1.0,13.985700406597445,3.770996767526462,0.0,Landing
1.2000000000000002,-29.508839042047764,-1365.40445564083,182.15582425462776,2.86016567256641,-3.7044570674356523,357.918266730788,40.5660724716303,0.0,1.0,13.985700406597445,3.770996767526462,0.0,Landing
1.3,-31.790860961432656,-1363.1046345095897,181.04096898302876,2.740158423886849,-3.8380762731764673,357.8610703134332,40.81534426163874,0.0,1.0,13.985700406597445,3.770996767526462,0.0,Landing
1.4000000000000001,-34.03905129280397,-1369.1821670376405,183.79902421444203,3.053559694150172,-3.787307034908405,357.72170380495277,40.98221644126728,0.0,1.0,13.985700406597445,3.770996767526462,0.0,Landing
1.5,-36.35474987723597,-1366.5192450531704,181.6840293936286,2.5378665213573375,-4.009141673080849,357.99635525205827,41.05551431890119,0.0,1.0,13.985700406597445,3.770996767526462,0.0,Landing
1.6,-38.62345718669851,-1360.0022912303643,182.95186389029783,3.198429725902069,-3.7788694161418976,357.78259465296753,41.10501923080959,0.0,1.0,13.985700406597445,3.770996767526462,0.0,Landing
1.7000000000000002,-40.83906274895579,-1348.6189943462236,182.0541358629585,2.5543955784755683,-3.9257077878582893,357.54874090998374,40.805162563622005,0.0,1.0,13.985700406597445,3.770996767526462,0.0,Landing
1.8,-43.097844848967085,-1344.1220972378162,184.28100555496673,3.0427417055510197,-3.5860251525380793,357.9904915923498,41.064721771941905,0.0,1.0,13.985700406597445,3.770996767526462,0.0,Landing
1.9000000000000001,-45.34406767288759,-1362.8525503901672,183.13250510143146,2.6649643427890526,-3.889884039780243,357.8014073212968,40.440337289329634,0.0,1.0,13.985700406597445,3.770996767526462,0.0,Landing
2.0,-47.653325500906625,-1356.3542439804407,184.75161434390756,2.7019819785365558,-3.828316450866961,358.2330950393301,40.373935887912516,0.0,1.0,13.985700406597445,3.770996767526462,0.0,Landing
2.1,-49.87961606886929,-1367.720869516215,183.82401964838658,2.913472865884332,-3.483224095719729,357.7672739913404,41.044649889021734,0.0,1.0,13.985700406597445,3.770996767526462,0.0,Landing
2.2,-52.182672020468665,-1359.9816248409027,181.8772151062003,2.9502905600087925,-3.738142262141237,357.91657390217847,40.69270664608807,0.0,1.0,13.985700406597445,3.770996767526462,0.0,Landing
2.3000000000000003,-54.45323362511114,-1355.6385623721155,184.1211073722361,2.9559732321990224,-3.440041105009657,357.60374547684467,41.17085981801086,0.0,1.0,13.985700406597445,3.770996767526462,0.0,Landing
2.4000000000000004,-56.65780888072987,-1346.694037167502,181.12369197801826,2.5985361120750343,-3.7079723879047264,357.8543653071083,40.61129607733601,0.0,1.0,13.985700406597445,3.770996767526462,0.0,Landing
2.5,-58.916142206306176,-1338.5954892736877,183.113118361405,3.0091550583523348,-3.7770013537905194,357.9365853944453,40.634507354299735,0.0,1.0,13.985700406597445,3.770996767526462,0.0,Landing
2.6,-61.14621107147958,-1344.6928702798702,183.752631500813,3.0950597250899237,-3.7933729857376792,357.77197521249013,41.0635013808678,0.0,1.0,13.985700406597445,3.770996767526462,0.0,Landing
2.7,-63.38127323212922,-1343.2767950418422,183.82720359834693,2.8019193761436005,-3.4502854625738717,357.7181052201677,40.99970183047514,0.0,1.0,13.985700406597445,3.770996767526462,0.0,Landing
2.8000000000000003,-65.63252618151539,-1352.9678817974186,182.64526555693448,2.911263948001412,-3.8671248615084237,357.9529799552695,40.79520426500652,0.0,1.0,13.985700406597445,3.770996767526462,0.0,Landing
2.9000000000000004,-67.91105048046667,-1360.4273303662212,181.25172333781526,3.016991311518541,-3.5426274207668653,357.76555237068555,40.67011029333601,0.0,1.0,13.985700406597445,3.770996767526462,0.0,Landing
3.0,-70.18340988396032,-1369.5432399874674,181.70008437218007,2.638233751626883,-3.93972520695581,357.68824860526047,40.78683969430123,0.0,1.0,13.985700406597445,3.770996767526462,0.0,Landing
3.1,-72.48024238145273,-1348.6317773343815,183.50802167644463,3.059515389588017,-4.001878595325971,357.8136873822955,40.83355331729317,0.0,1.0,13.985700406597445,3.770996767526462,0.0,Landing
3.2,-74.65420936713858,-1341.3041729946058,182.3800367021034,2.7364629158208604,-3.7614555562538876,357.76512934723337,40.848129268369064,0.0,1.0,13.985700406597445,3.770996767526462,0.0,Landing
3.3000000000000003,-76.88993074893335,-1320.2574535312121,182.78853514338607,2.6630003857741302,-3.6381560982686234,357.923692076923,41.198040347969894,0.0,1.0,13.985700406597445,3.770996767526462,0.0,Landing
3.4000000000000004,-79.08152964910879,-1341.6195511276212,181.8501450117528,2.836844527291384,-3.419686942820946,358.25952378559373,41.06960261523878,0.0,1.0,13.985700406597445,3.770996767526462,0.0,Landing
3.5,-81.36230712277668,-1319.660963102487,181.6828677709093,2.986525686073262,-3.6101467408314343,357.68023424625085,40.35563591302063,0.0,1.0,13.985700406597445,3.770996767526462,0.0,Landing
3.6,-83.48823556444579,-1326.0848599965811,180.80595154794898,2.8656789807349985,-3.4601366500348236,357.8490576919535,40.421423804754404,0.0,1.0,13.985700406597445,3.770996767526462,0.0,Landing
3.7,-85.7119539490917,-1307.1576832425876,182.35326839877908,3.366418691268086,-3.686739072212961,357.73860358139905,40.422019417978646,0.0,1.0,13.985700406597445,3.770996767526462,0.0,Landing
3.8000000000000003,-87.89809553898962,-1322.0511586120494,182.68096326984556,3.0481448737702372,-3.0344893266215385,357.55672028966865,40.6101308364654,0.0,1.0,13.985700406597445,3.770996767526462,0.0,Landing
3.9000000000000004,-90.09849135750603,-1322.9606726889897,182.66450264488444,2.8641590208457055,-3.885424995073347,358.196465345996,41.26410293555574,0.0,1.0,13.985700406597445,3.770996767526462,0.0,Landing
4.0,-92.32675731253664,-1327.2586623874474,183.110893580274,2.962063919681995,-3.583867522698335,357.5997838978019,41.06732358732418,0.0,1.0,13.985700406597445,3.770996767526462,0.0,Landing
4.1000000000000005,-94.53438885092686,-1346.3942155890807,181.61011730198675,2.6884783471639926,-3.911765636299291,357.71767425574,41.17673849233817,0.0,1.0,13.985700406597445,3.770996767526462,0.0,Landing
4.2,-96.83046243545144,-1359.0891234511816,184.68779137903277,3.079461732605443,-3.9415825363304804,357.7492170070866,40.76116093990966,0.0,1.0,13.985700406597445,3.770996767526462,0.0,Landing
4.3,-99.12220292979255,-1359.7099522841715,183.25977743414452,2.5627710527270318,-3.71411546314853,357.7422510168417,40.66573316194521,0.0,1.0,13.985700406597445,3.770996767526462,0.0,Landing
4.4,-101.33293861234772,-1350.5534359752658,184.77876384369878,2.7572998354817693,-3.2735007709446253,358.0920311485253,40.41720082423003,0.0,1.0,13.985700406597445,3.770996767526462,0.0,Landing
4.5,-103.58322961532777,-1332.6544800029524,182.10099975891808,2.6433928054838347,-3.80689132956102,357.74719895356407,40.735719393274366,0.0,1.0,13.985700406597445,3.770996767526462,0.0,Landing
4.6000000000000005,-105.78547532980731,-1330.3989441883714,183.2035928790129,2.9225485853653828,-3.611938249555077,357.7590314176209,40.48857163048606,0.0,1.0,13.985700406597445,3.770996767526462,0.0,Landing
4.7,-107.98493333328958,-1321.3351034255963,183.48136570857062,3.020466503592424,-3.76526761034671,357.8835541407743,40.64508057296104,0.0,1.0,13.985700406597445,3.770996767526462,0.0,Landing
4.800000000000001,-110.18990513245575,-1335.3890967617417,183.58154319109897,2.9328221838254835,-3.7639822274369026,357.70537208588894,41.05981296608754,0.0,1.0,13.985700406597445,3.770996767526462,0.0,Landing
4.9,-112.46242081361602,-1333.6145133995076,182.80058383352863,2.698277244395534,-3.8351540154548664,357.7133232455841,40.54509114755304,0.0,1.0,13.985700406597445,3.770996767526462,0.0,Landing
5.0,-114.65300590028711,-1330.111079192662,183.5815121551386,3.0680572622546785,-3.5924166639385944,357.7626963951152,40.90606410299835,0.0,1.0,13.985700406597445,3.770996767526462,0.0,Landing
5.1000000000000005,-116.84046052841906,-1319.1210525199238,181.0829751688075,2.820560851054439,-3.5312109195160906,357.8346148691778,40.26737583527292,0.0,1.0,13.985700406597445,3.770996767526462,0.0,Landing
5.2,-119.05802607621564,-1304.2978292549722,183.5850817738306,3.05276799316959,-3.929576626054307,357.6182868103301,40.29937487787502,0.0,1.0,13.985700406597445,3.770996767526462,0.0,Landing
5.300000000000001,-121.17449504656197,-1319.0917226138283,183.7743230316094,2.7534635014034325,-3.380145232250663,357.83436185528114,40.437755384899084,0.0,1.0,13.985700406597445,3.770996767526462,0.0,Landing
5.4,-123.4359191414882,-1316.2956047290381,182.90095731020818,3.0555193497760103,-3.3695587259973796,357.6049523805442,40.73350844600464,0.0,1.0,13.985700406597445,3.770996767526462,0.0,Landing
5.5,-125.63950409986083,-1331.5310718501933,181.63828509647382,2.7775894875723264,-3.345259489799904,357.7263509052468,40.498383164559726,0.0,1.0,13.985700406597445,3.770996767526462,0.0,Landing
5.6000000000000005,-127.83215040581294,-1324.016995346983,185.71631268903823,2.7803630356797204,-3.9800234786126003,358.1285490762741,40.79636174163424,0.0,1.0,13.985700406597445,3.770996767526462,0.0,Landing
5.7,-130.05600411822311,-1332.24382841189,182.76755501317535,2.4098141601392875,-3.7713354792573037,357.72168941613677,40.96406757765926,0.0,1.0,13.985700406597445,3.770996767526462,0.0,Landing
5.800000000000001,-132.30072324192028,-1341.2821782859055,182.49292539024555,3.271271629910479,-3.3168922900342586,357.9298210810407,40.46170764430205,0.0,1.0,13.985700406597445,3.770996767526462,0.0,Landing
5.9,-134.53856129724247,-1341.1542563088572,182.6125122024169,2.5724738772633073,-3.2973163833496693,357.99406781817447,41.37087180487957,0.0,1.0,13.985700406597445,3.770996767526462,0.0,Landing
6.0,-136.7617753997674,-1337.7084105872484,182.71865896853768,3.2723619153265697,-3.258325512808449,357.7662917475071,40.04296951111048,0.0,1.0,13.985700406597445,3.770996767526462,0.0,Landing
6.1000000000000005,-138.98926529485652,-1331.5727906149107,182.58622243443142,2.9935133730366603,-3.9053458347499785,357.6701046580322,41.27793465904291,0.0,1.0,13.985700406597445,3.770996767526462,0.0,Landing
6.2,-141.19642525031702,-1324.2578814494325,183.53427582059447,2.9840253579693035,-3.5510426827082187,357.8253764889712,39.99966468928857,0.0,1.0,13.985700406597445,3.770996767526462,0.0,Landing
6.300000000000001,-143.38306480701456,-1295.6974276608207,186.0040280384678,2.583382750391811,-3.8133850024564704,357.59807701740135,40.69088133301179,0.0,1.0,13.985700406597445,3.770996767526462,0.0,Landing
6.4,-145.46775243316063,-1292.892000236992,183.28526893835144,2.6651377035480968,-3.6754277483441,358.0169309180957,41.351641603751446,0.0,1.0,13.985700406597445,3.770996767526462,0.0,Landing
6.5,-147.66088525150198,-1300.7119866134246,181.5063577346674,2.9214162988954278,-3.5135371311807098,357.8600753002555,41.071224237395,0.0,1.0,13.985700406597445,3.770996767526462,0.0,Landing
6.6000000000000005,-149.8866247400817,-1321.2849125802222,183.91762329055433,2.76947966903375,-3.7184603420015963,357.65132078843135,40.743439034927796,0.0,1.0,13.985700406597445,3.770996767526462,0.0,Landing
6.7,-152.07417699606174,-1302.5177382133336,184.624180312155,2.711034802260742,-3.505490149872777,357.5347571850839,40.93346938267756,0.0,1.0,13.985700406597445,3.770996767526462,0.0,Landing
6.800000000000001,-154.17347394256865,-1287.9235401624271,183.8249320298358,2.9201635990838346,-3.7005807069608756,357.89584752327573,40.72926792160252,0.0,1.0,13.985700406597445,3.770996767526462,0.0,Landing
6.9,-156.32624244089382,-1276.6447887628772,181.49508713032856,2.889788942384038,-3.287794998784134,357.91653272176177,40.82299055996303,0.0,1.0,13.985700406597445,3.770996767526462,0.0,Landing
7.0,-158.45740093987612,-1299.5274754812272,183.02821760843355,3.078307082641658,-3.756121951647598,357.713035582409,40.22051434553666,0.0,1.0,13.985700406597445,3.770996767526462,0.0,Landing
7.1000000000000005,-160.67111131997478,-1312.4476924347448,182.57519115365218,2.4094458896191564,-3.4071549550689975,357.8074955021225,40.99830942256497,0.0,1.0,13.985700406597445,3.770996767526462,0.0,Landing
7.2,-162.88848090306755,-1327.2933482938981,181.65886514359482,2.723037761829142,-3.424356749402933,357.8234071848142,40.30879806387739,0.0,1.0,13.985700406597445,3.770996767526462,0.0,Landing
7.300000000000001,-165.0938676813456,-1305.2185395951767,182.00541275589245,2.582467474806424,-3.869625317664693,357.7772001010027,40.590995629242585,0.0,1.0,13.985700406597445,3.770996767526462,0.0,Landing
7.4,-167.19720401795067,-1300.1286861225424,183.8965992102394,2.9792072262652263,-3.639222124252555,357.58410876120513,40.70025579738754,0.0,1.0,13.985700406597445,3.770996767526462,0.0,Landing
7.5,-169.38912433368026,-1279.321696837036,182.45029934148988,2.731835364138025,-3.5770397154163853,357.6634864446412,41.213690729232674,0.0,1.0,13.985700406597445,3.770996767526462,0.0,Landing
7.6000000000000005,-171.4904761655308,-1299.6334782956808,181.72949567987385,2.7295202171753443,-3.9271004158549676,357.8655107871282,40.816895956377294,0.0,1.0,13.985700406597445,3.770996767526462,0.0,Landing
7.7,-173.69537140942907,-1288.000870262874,183.33319541571515,3.235901466931021,-3.649195398223834,357.85567499932745,41.11299716179993,0.0,1.0,13.985700406597445,3.770996767526462,0.0,Landing
7.800000000000001,-175.82912868499463,-1313.7765158937443,182.61161036748413,2.7513132818423416,-3.588056675659786,357.80462969738255,41.56460069505962,0.0,1.0,13.985700406597445,3.770996767526462,0.0,Landing
7.9,-178.0593587449995,-1301.0782015246605,183.79878376053122,2.863192684693647,-3.4942310783204884,357.83454511162495,41.43042532063086,0.0,1.0,13.985700406597445,3.770996767526462,0.0,Landing
8.0,-180.20076241705237,-1322.8979877157428,183.30146150366903,2.9814664747226605,-3.3160153857217116,357.868674691734,40.972502902208994,0.0,1.0,13.985700406597445,3.770996767526462,0.0,Landing
8.1,-182.44361862357334,-1307.9773897624248,182.58581288739634,2.589059285905696,-3.596921178152369,357.8145493550684,40.72139132488794,0.0,1.0,13.985700406597445,3.770996767526462,0.0,Landing
8.200000000000001,-184.59924569381164,-1307.4354157520759,182.6755083077366,3.2087478823513877,-3.6887910145423035,357.8597222171934,40.75851659096978,0.0,1.0,13.985700406597445,3.770996767526462,0.0,Landing
8.3,-186.73793949581275,-1279.5470392017307,180.96765388165576,2.851469586430073,-3.962190681405123,357.7541580196146,40.848116417666034,0.0,1.0,13.985700406597445,3.770996767526462,0.0,Landing
8.4,-188.841353819582,-1293.2604612881448,181.06642250714768,2.809393944449925,-3.622777919400338,357.7033562937469,40.35166993113613,0.0,1.0,13.985700406597445,3.770996767526462,0.0,Landing
8.5,-191.06554800025236,-1295.069113528399,182.13794545171575,3.0623971069032234,-3.6124166078261637,357.65592548432164,40.834862354155796,0.0,1.0,13.985700406597445,3.770996767526462,0.0,Landing
8.6,-193.21328506345475,-1292.4793318121717,181.9662669061046,2.9467697384122187,-3.764347524093706,357.74753663414094,40.36703837952396,0.0,1.0,13.985700406597445,3.770996767526462,0.0,Landing
8.700000000000001,-195.30375047864285,-1274.077415928184,182.6207332687061,3.163655143733559,-3.5034626804886293,357.71927228681716,40.779924344987734,0.0,1.0,13.985700406597445,3.770996767526462,0.0,Landing
8.8,-197.43593507989328,-1270.704037585125,182.87021562051368,2.867434123288384,-3.6148610356545547,358.0247294009828,40.550068160724315,0.0,1.0,13.985700406597445,3.770996767526462,0.0,Landing
8.9,-199.56680525138037,-1294.066556353431,183.1594825946119,2.7463432219651933,-3.868971145302983,357.82233783554807,40.80768716145423,0.0,1.0,13.985700406597445,3.770996767526462,0.0,Landing
9.0,-201.77408326041,-1295.270816361392,183.20204251674173,3.0544675350020802,-3.7841397867947957,357.87093344261257,41.49309521819153,0.0,1.0,13.985700406597445,3.770996767526462,0.0,Landing
9.1,-203.91228916170024,-1271.7552511227439,183.56907850849174,2.749012824830097,-3.966734158228887,357.7940892877418,40.84385175073191,0.0,1.0,13.985700406597445,3.770996767526462,0.0,Landing
9.200000000000001,-205.9255815069941,-1284.4686204591198,182.40967994781607,3.0248900171194455,-3.6982380586954386,357.54256906360456,40.55412095994738,0.0,1.0,13.985700406597445,3.770996767526462,0.0,Landing
9.3,-208.1964263627056,-1306.642446977105,181.41575178462452,2.654479358757854,-3.4692632586062846,357.74012120432803,40.861038564974066,0.0,1.0,13.985700406597445,3.770996767526462,0.0,Landing
9.4,-210.44550139658577,-1340.8310914946242,183.53880658453818,2.811429332503058,-3.714087689885563,357.84683369509537,40.85183854208852,0.0,1.0,13.985700406597445,3.770996767526462,0.0,Landing
9.5,-212.6297369644672,-1329.8344425028063,182.76750247631296,3.119854644154533,-3.567678211257544,357.90840223495707,41.02223197217035,0.0,1.0,13.985700406597445,3.770996767526462,0.0,Landing
9.600000000000001,-214.84559857521964,-1311.978255252268,184.07084637926366,2.8603293895080433,-3.8567149057214603,357.7005004223224,40.49573730496561,0.0,1.0,13.985700406597445,3.770996767526462,0.0,Landing
9.700000000000001,-217.0053926728471,-1304.6707624634848,184.55339059564844,3.1635995670477675,-3.6342661917756836,357.4987760597014,40.66114910051828,0.0,1.0,13.985700406597445,3.770996767526462,0.0,Landing
9.8,-219.15309077678464,-1289.7101331617137,181.07131616239442,3.1234891028968303,-3.766456888297216,357.92944620828246,40.94454945625502,0.0,1.0,13.985700406597445,3.770996767526462,0.0,Landing
9.9,-221.2941492410282,-1292.7614345211623,184.30929799745294,3.180565369741626,-3.665087298721871,357.7267005651622,40.784666557394296,0.0,1.0,13.985700406597445,3.770996767526462,0.0,Landing
10.0,-223.46919984545292,-1310.6974439235157,184.4521045079649,2.7338687017127197,-3.648631390982305,357.7384618669121,41.33409212851831,0.0,1.0,13.985700406597445,3.770996767526462,0.0,Landing
10.100000000000001,-225.70657799640222,-1304.6972490922315,181.94855085901276,2.9871962606601072,-3.8200386409130154,357.7085205473559,40.967730577683206,0.0,1.0,13.985700406597445,3.770996767526462,0.0,Landing
10.200000000000001,-227.81763548648937,-1290.3283905230637,181.26157134094473,3.15711365519802,-3.509568403772765,357.8547932392644,40.74452061130395,0.0,1.0,13.985700406597445,3.770996767526462,0.0,Landing
10.3,-229.92084179806824,-1270.9491344787582,182.35671982942603,3.1113682415719355,-3.388012003813728,357.89837101930834,40.69214427087202,0.0,1.0,13.985700406597445,3.770996767526462,0.0,Landing
10.4,-232.061323668796,-1263.6835591725628,183.1698088428356,3.045091914169014,-3.992008574441227,357.92986687939253,40.84242312876712,0.0,1.0,13.985700406597445,3.770996767526462,0.0,Landing
10.5,-234.13605328235218,-1266.0180883934856,183.71839651596432,2.8493542347471443,-3.5532809907998457,357.76820059656006,41.084654197609574,0.0,1.0,13.985700406597445,3.770996767526462,0.0,Landing
10.600000000000001,-236.25093224003567,-1275.9029757442192,184.1841644227632,3.3069567491606917,-3.2395612070357176,357.6267410028561,40.519168672152375,0.0,1.0,13.985700406597445,3.770996767526462,0.0,Landing
10.700000000000001,-238.4408385475171,-1294.561557757629,184.2608426789398,2.8075244282821368,-3.6699423673199307,357.5456688360549,40.523147994348804,0.0,1.0,13.985700406597445,3.770996767526462,0.0,Landing
10.8,-240.60886107114032,-1318.5396442231306,181.95318922688813,2.935821561396035,-3.3609787089708574,357.8512664859961,40.991428333629614,0.0,1.0,13.985700406597445,3.770996767526462,0.0,Landing
10.9,-242.84363046115132,-1327.4863317146185,183.2536533718703,2.6526827069388603,-3.9507886550744997,357.7543276220847,40.40187426160971,0.0,1.0,13.985700406597445,3.770996767526462,0.0,Landing
11.0,-245.0782702060902,-1318.2362908039238,182.22048191593072,2.689938231389733,-3.050936420971938,357.8645493974932,40.782094871758886,0.0,1.0,13.985700406597445,3.770996767526462,0.0,Landing
11.100000000000001,-247.20004252515994,-1303.9203648308046,181.07461529758922,3.066936346497895,-3.3935614836679657,358.0716009006478,40.91756590657526,0.0,1.0,13.985700406597445,3.770996767526462,0.0,Landing
11.200000000000001,-249.36323228530534,-1307.3076856392106,184.1170466455407,2.6282512914536262,-3.6141932797025227,357.8307140085808,40.55341632514816,0.0,1.0,13.985700406597445,3.770996767526462,0.0,Landing
11.3,-251.61480863428625,-1317.0925308316328,181.8858301700552,2.9447912619314636,-3.6168089106588828,358.0601519126235,41.42228106039504,0.0,1.0,13.985700406597445,3.770996767526462,0.0,Landing
11.4,-253.7855051793181,-1314.1708793621547,183.87337932615225,3.2006326595408936,-3.59239852296586,357.86201129366816,41.08889409485466,0.0,1.0,13.985700406597445,3.770996767526462,0.0,Landing
11.5,-255.93408668211612,-1302.631524465835,183.27040643830833,2.560684166388149,-4.091336946023363,357.7437996936353,40.62637453449502,0.0,1.0,13.985700406597445,3.770996767526462,0.0,Landing
11.600000000000001,-258.1279662566154,-1319.2901007831267,183.1089378802907,2.7668617951905055,-3.589212556134181,357.8630253070685,41.16342809902497,0.0,1.0,13.985700406597445,3.770996767526462,0.0,Landing
11.700000000000001,-260.38195568323374,-1322.6293866911533,182.19510830118304,2.7374494695700666,-3.7234241966083528,357.9516041036194,41.47411167543063,0.0,1.0,13.985700406597445,3.770996767526462,0.0,Landing
11.8,-262.5472336155719,-1315.311865567196,184.1804797318836,2.9955923629393597,-3.886841851089465,357.69312249186805,41.20367554777874,0.0,1.0,13.985700406597445,3.770996767526462,0.0,Landing
11.9,-264.7045255844514,-1316.864090741467,182.04349885590702,3.209128251816013,-3.9380341417559475,357.8333364401533,40.71520634350104,0.0,1.0,13.985700406597445,3.770996767526462,0.0,Landing
12.0,-266.9662761369411,-1310.7958062463126,181.22100219583078,3.007982629901459,-3.7418747340479017,357.67310896077095,40.84978129788523,0.0,1.0,13.985700406597445,3.770996767526462,0.0,Landing
12.100000000000001,-269.10121264680345,-1311.035097898457,183.1626851793991,2.850815913265957,-3.5408119798007167,358.08528890283924,40.52174221068546,0.0,1.0,13.985700406597445,3.770996767526462,0.0,Landing
12.200000000000001,-271.2597010739437,-1277.058463165963,182.3996463686441,2.2552674453757313,-3.473330090034753,357.6734153577388,40.72682620274924,0.0,1.0,13.985700406597445,3.770996767526462,0.0,Landing
12.3,-273.3515684527709,-1265.395783623012,181.03642654593975,2.813843596970969,-3.4852582096418456,357.52033362511247,40.78074819682717,0.0,1.0,13.985700406597445,3.770996767526462,0.0,Landing
12.4,-275.4281915649185,-1248.8468106261507,182.7619476632888,2.84267073795675,-3.475464341975984,357.4159855805307,40.449747644243274,0.0,1.0,13.985700406597445,3.770996767526462,0.0,Landing
12.5,-277.50393512707444,-1263.8671225334747,184.48025644545925,2.736122398340511,-3.898224460063432,357.6370438585351,40.84496679986591,0.0,1.0,13.985700406597445,3.770996767526462,0.0,Landing
12.600000000000001,-279.67090406543826,-1276.5483648300005,183.20498384820377,3.062015400261919,-3.736762474989728,357.94002212730163,41.31774836090127,0.0,1.0,13.985700406597445,3.770996767526462,0.0,Landing
12.700000000000001,-281.8109333890685,-1263.443273524058,182.41607679435467,3.1183317976505696,-3.5915499543851666,357.67946201067707,40.90834454139967,0.0,1.0,13.985700406597445,3.770996767526462,0.0,Landing
12.8,-283.82115149469473,-1272.031172329764,182.9649675218966,2.7578926488726374,-3.7089680351882635,357.7759265795082,40.791041662108995,0.0,1.0,13.985700406597445,3.770996767526462,0.0,Landing
12.9,-286.0310599270871,-1282.8666185964266,181.15063150596262,2.614542639080785,-3.830061235682267,357.8900910875782,41.18289421274016,0.0,1.0,13.985700406597445,3.770996767526462,0.0,Landing
13.0,-288.22526648205064,-1301.791921402787,182.0818247981349,2.9269808921587614,-3.9316585371561144,357.54770415857706,41.0440140317843,0.0,1.0,13.985700406597445,3.770996767526462,0.0,Landing
13.100000000000001,-290.33011110170867,-1290.894144524816,182.6283839116599,2.7006069880051413,-4.081581843076945,357.6793997761001,40.45358309086659,0.0,1.0,13.985700406597445,3.770996767526462,0.0,Landing
13.200000000000001,-292.48553064971117,-1287.7044804839443,181.97531125049676,2.8384423747119625,-3.6891414666927185,357.73534926767434,40.873148714132945,0.0,1.0,13.985700406597445,3.770996767526462,0.0,Landing
13.3,-294.66378888447036,-1288.406396751509,181.82368123089674,2.667857045997533,-3.1309717361042573,357.97228652956085,41.29159135535737,0.0,1.0,13.985700406597445,3.770996767526462,0.0,Landing
13.4,-296.7721430854662,-1286.2566816248886,182.32874344663372,2.820610638635224,-3.4954766461308657,357.79950544924156,40.57411950631309,0.0,1.0,13.985700406597445,3.770996767526462,0.0,Landing
13.5,-298.9168140578356,-1266.5734262916772,182.81240283212983,2.5143346592990237,-3.518017080108676,358.0076555153246,41.042927163453214,0.0,1.0,13.985700406597445,3.770996767526462,0.0,Landing
13.600000000000001,-300.99665601592875,-1283.9449739711995,184.2324680933357,2.8687360032636455,-3.4733687797779775,357.678419246834,41.10230935579087,0.0,1.0,13.985700406597445,3.770996767526462,0.0,Landing
13.700000000000001,-303.1918679553222,-1281.5632752057923,182.42392936511422,3.0370060456967183,-3.7564427834531813,357.95731259242234,40.66112114278591,0.0,1.0,13.985700406597445,3.770996767526462,0.0,Landing
13.8,-305.32463043386457,-1290.628820435552,183.57678891411481,2.7395805502505652,-3.527168104178511,357.7198614458471,41.313714325006664,0.0,1.0,13.985700406597445,3.770996767526462,0.0,Landing
13.9,-307.4498001181065,-1281.5465818276152,183.0173857862414,3.0250926852119586,-3.6915081799563203,358.0680069998923,40.65205291504948,0.0,1.0,13.985700406597445,3.770996767526462,0.0,Landing
14.0,-309.5996008644603,-1278.9229204791695,183.81707610772003,3.022882523480839,-3.8818536534183767,357.8780111208225,41.30341912123422,0.0,1.0,13.985700406597445,3.770996767526462,0.0,Landing
14.100000000000001,-311.7192450362604,-1282.7346949672233,184.43338602076963,2.975949072341526,-3.7881908172701864,357.79773765277105,40.404525831133704,0.0,1.0,13.985700406597445,3.770996767526462,0.0,Landing
14.200000000000001,-313.8634735929426,-1262.137003703674,182.7266229099694,2.7677974842549222,-3.557894380510138,357.4735943028754,40.85665679337714,0.0,1.0,13.985700406597445,3.770996767526462,0.0,Landing
14.3,-315.91028588297866,-1262.1919035068572,181.77698633342595,3.2675118609429807,-3.6007013039405855,357.9203484775858,40.78862311528621,0.0,1.0,13.985700406597445,3.770996767526462,0.0,Landing
14.4,-318.0302045537947,-1245.3716541923086,181.5235222316736,2.8431687677941833,-3.9642343084966507,357.8862002909382,41.257618280988915,0.0,1.0,13.985700406597445,3.770996767526462,0.0,Landing
14.5,-320.09033186390417,-1258.7338616530246,182.31503889563834,2.9987068854481196,-3.454276045813586,357.71142554415553,41.07042347970967,0.0,1.0,13.985700406597445,3.770996767526462,0.0,Landing
14.600000000000001,-322.2039551912438,-1242.5219631715095,183.2680216689595,2.7866057052370063,-3.8585289227964297,357.90814576931234,41.0033289513514,0.0,1.0,13.985700406597445,3.770996767526462,0.0,Landing
14.700000000000001,-324.24281436965225,-1248.4681185194177,180.52477561245945,2.8469638654623535,-3.7594761625597766,357.80528351172075,40.89048513037489,0.0,1.0,13.985700406597445,3.770996767526462,0.0,Landing
14.8,-326.33267245650126,-1251.0061189124258,183.58951991367266,2.815611194207141,-3.905566168743172,357.5869817517437,40.89452511930214,0.0,1.0,13.985700406597445,3.770996767526462,0.0,Landing
14.9,-328.4589857858059,-1259.7345267728883,185.31058709637585,3.004426052921218,-3.4343196136604424,357.6526321243248,40.65117998362045,0.0,1.0,13.985700406597445,3.770996767526462,0.0,Landing
15.0,-330.5414870035167,-1260.7340344367344,181.67969560574315,2.6776045941089164,-3.5821010767303707,357.73783480886027,41.63910978531777,0.0,1.0,13.985700406597445,3.770996767526462,0.0,Landing
15.100000000000001,-332.63634262868493,-1267.0214912243637,181.8039035378798,2.6797783753749598,-3.679482902885136,357.91185051794196,40.92705301328157,0.0,1.0,13.985700406597445,3.770996767526462,0.0,Landing
15.200000000000001,-334.7940932419277,-1272.5947580206935,182.11061576684895,3.1448254853838984,-3.6206949604979823,357.60917176206044,40.91905992956239,0.0,1.0,13.985700406597445,3.770996767526462,0.0,Landing
15.3,-336.90446079362016,-1300.831735281065,182.6396496077996,2.8664784033293427,-3.742353138993142,357.725968653687,40.70401230227463,0.0,1.0,13.985700406597445,3.770996767526462,0.0,Landing
15.4,-339.14050130509025,-1286.7693525228788,181.23878891885158,2.611417307111413,-3.8826718583833495,357.89370642920096,40.765904814620306,0.0,1.0,13.985700406597445,3.770996767526462,0.0,Landing
15.5,-341.2279400045421,-1284.9799683277524,181.76918095428363,2.5030198263236407,-3.406547282508733,357.7861412280215,40.72867923167835,0.0,1.0,13.985700406597445,3.770996767526462,0.0,Landing
15.600000000000001,-343.3293606352589,-1262.341872445927,181.6378000099088,2.9758878313402897,-3.476482728871121,357.88172065532194,40.43386236543536,0.0,1.0,13.985700406597445,3.770996767526462,0.0,Landing
15.700000000000001,-345.4522106673199,-1260.1954192504763,182.2817242625597,3.003613725370229,-3.3036325504104327,357.77964299911,41.035496028976986,0.0,1.0,13.985700406597445,3.770996767526462,0.0,Landing
15.8,-347.5289171007945,-1241.1417448792122,182.85475696935345,2.447497675886691,-3.7936168287257366,357.7393608226164,41.151498920150075,0.0,1.0,13.985700406597445,3.770996767526462,0.0,Landing
15.9,-349.535069359655,-1227.0911321765425,182.2424091862684,2.7821160749608573,-3.550089320601451,357.6830289571757,41.05302919564873,0.0,1.0,13.985700406597445,3.770996767526462,0.0,Landing
16.0,-351.5876663282026,-1231.4971892164635,182.8257971002098,2.6766908907631555,-4.01594667839826,358.0439043743165,40.4601945158725,0.0,1.0,13.985700406597445,3.770996767526462,0.0,Landing
16.1,-353.6864030468768,-1252.8770068558288,182.53709840237403,2.982741077221874,-3.4771417493733927,357.66058079959953,41.05069895792854,0.0,1.0,13.985700406597445,3.770996767526462,0.0,Landing
16.2,-355.7994543939341,-1264.2551902559944,183.6174740662629,3.249601764230288,-3.784913265980096,357.84854554568403,40.474357507674874,0.0,1.0,13.985700406597445,3.770996767526462,0.0,Landing
16.3,-357.9089422794826,-1274.8886584022102,181.79386398285564,3.212673075986694,-3.543759506977053,357.7368005842658,41.38435163542045,0.0,1.0,13.985700406597445,3.770996767526462,0.0,Landing
16.400000000000002,-360.06084633888787,-1260.1007968282033,183.83328119292756,3.032136707307219,-3.5550371127852016,357.8314532943916,40.76524720748498,0.0,1.0,13.985700406597445,3.770996767526462,0.0,Landing
16.5,-362.09995837807514,-1246.9969783982265,182.57253919257658,2.9902319122274545,-3.493959064955594,357.86397173193757,40.71384356257613,0.0,1.0,13.985700406597445,3.770996767526462,0.0,Landing
16.6,-364.1439271714737,-1219.4486254930894,184.24542926098806,3.021009242413425,-3.6942448068402074,357.8747769909496,40.40968028503303,0.0,1.0,13.985700406597445,3.770996767526462,0.0,Landing
16.7,-366.1580894663533,-1211.4655183870354,181.0437699927909,3.094581475119487,-3.8576952353431753,357.82427683620097,40.730494695349314,0.0,1.0,13.985700406597445,3.770996767526462,0.0,Landing
16.8,-368.1572859700103,-1211.952290644365,183.99301533720424,3.170747668147677,-3.5528147444851736,357.8483100895346,41.04108198781349,0.0,1.0,13.985700406597445,3.770996767526462,0.0,Landing
16.900000000000002,-370.20368862469553,-1234.668321676952,182.68468140028787,2.8324405201937286,-3.527133421421181,357.58466941685197,40.63495106749783,0.0,1.0,13.985700406597445,3.770996767526462,0.0,Landing
17.0,-372.3314310747381,-1247.4816338299433,181.5379239725935,2.7934579227684284,-3.3158225940441493,358.0164557022092,40.667800727970395,0.0,1.0,13.985700406597445,3.770996767526462,0.0,Landing
17.1,-374.39469413916004,-1259.093046006501,181.55377289785764,2.629578455324292,-3.449493298203377,357.9073894969365,40.88057758471413,0.0,1.0,13.985700406597445,3.770996767526462,0.0,Landing
17.2,-376.49915385472804,-1240.1411903590542,183.20197606741502,3.3074437886183885,-3.4397811993364558,357.8377192128685,40.69283506144807,0.0,1.0,13.985700406597445,3.770996767526462,0.0,Landing
17.3,-378.53213702653335,-1224.8670557008495,184.8377441261379,3.203657856547493,-3.9658900487571813,357.7433386188168,40.62016152459591,0.0,1.0,13.985700406597445,3.770996767526462,0.0,Landing
17.400000000000002,-380.5190294176643,-1214.9677313138454,184.18386649057203,2.8924555011701867,-3.867013902158046,357.8457356789402,40.49652168099874,0.0,1.0,13.985700406597445,3.770996767526462,0.0,Landing
17.5,-382.57399251129726,-1226.2347410023153,181.90950761189518,3.0571808547396855,-3.5408934194641843,357.81111355010194,40.54012350915421,0.0,1.0,13.985700406597445,3.770996767526462,0.0,Landing
17.6,-384.6633107315449,-1245.8888713377974,182.62016147723938,3.130588556241543,-3.589711893038298,357.7318393626306,41.126903934290546,0.0,1.0,13.985700406597445,3.770996767526462,0.0,Landing
17.7,-386.7484737743533,-1229.0241545974368,184.35191959413908,3.3005703290099193,-3.686052061918342,358.0139356014464,40.67206074964082,0.0,1.0,13.985700406597445,3.770996767526462,0.0,Landing
17.8,-388.71911328428445,-1225.5258778947564,180.5252342560665,2.9230336418045355,-3.636997653236517,357.9062544661018,40.815767112967976,0.0,1.0,13.985700406597445,3.770996767526462,0.0,Landing
17.900000000000002,-390.7909401210187,-1228.4364413329854,182.76965126726824,3.1615858893969078,-3.692577937613352,357.87245325466984,40.66239105089416,0.0,1.0,13.985700406597445,3.770996767526462,0.0,Landing
18.0,-392.8906559810182,-1250.8677232631157,184.014171626777,2.82367534961398,-3.59940515917974,357.6635775129463,40.71723692814588,0.0,1.0,13.985700406597445,3.770996767526462,0.0,Landing
18.1,-394.9734519006,-1239.1515626918704,182.72617636937835,2.9288827247275155,-3.914626078349807,357.8381945791623,41.12007200641246,0.0,1.0,13.985700406597445,3.770996767526462,0.0,Landing
18.2,-396.98669793447806,-1236.1571420352334,183.12670893155925,2.8154024626065524,-3.476319398525273,357.6650452975432,40.57576126912834,0.0,1.0,13.985700406597445,3.770996767526462,0.0,Landing
18.3,-399.07144169119437,-1237.9326916044647,183.44377998174596,2.898135568544633,-3.805954644270023,357.83516905203373,41.191935462821846,0.0,1.0,13.985700406597445,3.770996767526462,0.0,Landing
18.400000000000002,-401.16311535862235,-1266.7173908522159,183.759810952126,3.0683102525437564,-3.6545206470945395,357.74405235528116,40.82778417349628,0.0,1.0,13.985700406597445,3.770996767526462,0.0,Landing
18.5,-403.32028488873914,-1271.3811256101735,182.98072016163565,2.96189116536491,-3.6025704404489503,357.78875102463553,41.126819896335924,0.0,1.0,13.985700406597445,3.770996767526462,0.0,Landing
18.6,-405.42834731924523,-1290.4607128465045,181.69958589615092,2.491030673990696,-3.65952423123335,357.8215366413117,40.38319012950327,0.0,1.0,13.985700406597445,3.770996767526462,0.0,Landing
18.7,-407.6154189228549,-1259.2824214357393,184.79037914993478,2.9376626316668992,-3.855128074330157,357.9420617959363,41.3160415556442,0.0,1.0,13.985700406597445,3.770996767526462,0.0,Landing
18.8,-409.61669699591783,-1249.6161760294285,183.27352311359377,2.4067535884909943,-4.082537088701802,357.81221381054365,40.67984078866615,0.0,1.0,13.985700406597445,3.770996767526462,0.0,Landing
18.900000000000002,-411.6764281993924,-1234.4845169967925,183.9643076638087,3.0773221431705364,-3.30642424618559,357.5627237705871,40.43269755813112,0.0,1.0,13.985700406597445,3.770996767526462,0.0,Landing
19.0,-413.78784150783883,-1240.068261492877,183.0675907698456,2.6235493054700476,-3.6523341807522165,357.7275698127637,40.934723820054046,0.0,1.0,13.985700406597445,3.770996767526462,0.0,Landing
19.1,-415.8170383033822,-1223.0738979245416,183.68213385683924,2.774620291137013,-3.8182338107254887,357.9983258651721,41.16096718367076,0.0,1.0,13.985700406597445,3.770996767526462,0.0,Landing
19.200000000000003,-417.7917976890151,-1221.2235075689136,184.14133467867867,2.873836098986007,-3.8677276896901884,357.9784828492111,40.911164593378736,0.0,1.0,13.985700406597445,3.770996767526462,0.0,Landing
19.3,-419.8939590456834,-1240.9936567744012,182.42702380642837,3.041195016982882,-3.6038035724089457,357.64253214933615,40.463475363005564,0.0,1.0,13.985700406597445,3.770996767526462,0.0,Landing
19.400000000000002,-422.0220065872542,-1259.303400078386,185.5711889383158,3.089487036876844,-3.3573348500189266,357.6986002604392,40.5938230575556,0.0,1.0,13.985700406597445,3.770996767526462,0.0,Landing
19.5,-424.088314689407,-1247.282079968818,183.61896016632582,2.8597174046066285,-3.467118768518135,357.91554551411184,40.86517007348735,0.0,1.0,13.985700406597445,3.770996767526462,0.0,Landing
19.6,-426.1303694455275,-1241.8569360702463,182.41669873209364,2.9069140044697965,-4.046826369274714,357.7446596476101,41.32097050040063,0.0,1.0,13.985700406597445,3.770996767526462,0.0,Landing
19.700000000000003,-428.23129126760546,-1241.9222091482197,183.02865006044337,2.9993670827309593,-3.578496785514993,357.9519054828803,40.924110294416984,0.0,1.0,13.985700406597445,3.770996767526462,0.0,Landing
19.8,-430.2979257351481,-1236.844299816596,182.40645859577654,3.039755493795359,-3.342048056779691,358.0687587311544,41.38812668887564,0.0,1.0,13.985700406597445,3.770996767526462,0.0,Landing
19.900000000000002,-432.3145909446105,-1243.3150559686055,182.50447152408773,2.7484249226460906,-3.784016801597937,357.60703041318993,40.785429338684864,0.0,1.0,13.985700406597445,3.770996767526462,0.0,Landing
20.0,-434.4478665474485,-1234.4788615990751,181.4858720412728,2.969987334325459,-3.659510790271214,358.00954278860786,40.75827619520324,0.0,1.0,13.985700406597445,3.770996767526462,0.0,Landing
20.1,-436.4703200431435,-1230.7423354991101,183.31897801114647,2.8057402514881664,-3.5808624757572542,357.67431257909413,41.071336795147374,0.0,1.0,13.985700406597445,3.770996767526462,0.0,Landing
20.200000000000003,-438.468302622106,-1202.5119393979821,182.09261860563694,2.6527452310804858,-4.130990447352351,357.69880198790634,40.67539398233694,0.0,1.0,13.985700406597445,3.770996767526462,0.0,Landing
20.3,-440.4604262444384,-1212.2091915193664,183.38582150131845,2.7086175728954807,-3.5390746169761034,357.8565325087345,41.04974509187595,0.0,1.0,13.985700406597445,3.770996767526462,0.0,Landing
20.400000000000002,-442.5313660007403,-1211.1864414196134,182.01008659075413,2.977186580226953,-3.732940844547695,357.8956253849549,41.273450811955286,0.0,1.0,13.985700406597445,3.770996767526462,0.0,Landing
20.5,-444.5242348292041,-1228.176079705736,184.31490920670691,2.684024479169978,-3.7860858574591845,357.78464816438463,41.337469103455724,0.0,1.0,13.985700406597445,3.770996767526462,0.0,Landing
20.6,-446.6013066429671,-1228.1940967667538,184.7117451299271,2.746652691031811,-3.947129559675828,357.9189570115302,40.793182611784204,0.0,1.0,13.985700406597445,3.770996767526462,0.0,Landing
20.700000000000003,-448.6723364845741,-1240.8717201776426,183.69660327114644,3.150529359068589,-3.7035891363650904,357.6858897399511,40.52931854208055,0.0,1.0,13.985700406597445,3.770996767526462,0.0,Landing
20.8,-450.7285934300923,-1233.1811988245931,181.9266763295451,2.868067371675027,-3.793087287140677,357.83265363316355,41.103007859927196,0.0,1.0,13.985700406597445,3.770996767526462,0.0,Landing
20.900000000000002,-452.76721263709004,-1215.0459332166633,184.14365264758626,2.738837909174304,-3.5725564903498963,357.83261939348404,41.03963900907144,0.0,1.0,13.985700406597445,3.770996767526462,0.0,Landing
21.0,-454.7475661506574,-1202.990849234186,183.92115177500622,2.918149664993258,-3.7525637293094607,357.892259010413,40.74136602672058,0.0,1.0,13.985700406597445,3.770996767526462,0.0,Landing
21.1,-456.74354767626323,-1211.7643022961033,181.89822768334017,2.7741384874058364,-3.716391942428054,357.6550261138093,41.631342444117486,0.0,1.0,13.985700406597445,3.770996767526462,0.0,Landing
21.200000000000003,-458.82603414857056,-1227.8041296842844,182.95414511533076,2.7184045749712458,-3.70702548731855,357.825514338055,40.97474781387489,0.0,1.0,13.985700406597445,3.770996767526462,0.0,Landing
21.3,-460.8865867990788,-1230.8491488432423,183.9958324784371,3.214588677641251,-3.106542027659102,357.77917998776763,40.70514916770087,0.0,1.0,13.985700406597445,3.770996767526462,0.0,Landing
21.400000000000002,-462.89779342047945,-1204.4951427091178,182.89233796444367,2.9020164288214523,-3.6916522117693837,357.99864481561167,40.82302563487968,0.0,1.0,13.985700406597445,3.770996767526462,0.0,Landing
21.5,-464.84850986211615,-1192.7786554040495,182.86296430095663,2.9190986138391244,-3.592821968136051,357.7410475006045,41.19607684166138,0.0,1.0,13.985700406597445,3.770996767526462,0.0,Landing
21.6,-466.8504800760991,-1207.893712059638,182.60271785317627,2.754915213755356,-3.743263133554825,357.6059491291053,41.08309701266525,0.0,1.0,13.985700406597445,3.770996767526462,0.0,Landing
21.700000000000003,-468.93726198077763,-1231.9793875106484,181.69829689497405,2.7868867944065623,-3.6434868728799756,357.82541462098186,40.63468981981127,0.0,1.0,13.985700406597445,3.770996767526462,0.0,Landing
21.8,-471.0084067996694,-1243.0532278992814,183.5652331869242,2.692942095765506,-3.6649997673218495,357.8241390130273,41.042407282597246,0.0,1.0,13.985700406597445,3.770996767526462,0.0,Landing
21.900000000000002,-473.0657462155955,-1221.4071691700951,182.467960824591,3.2112174835777343,-3.8377292919557187,357.79304083367083,41.027250110511524,0.0,1.0,13.985700406597445,3.770996767526462,0.0,Landing
22.0,-475.0442978266281,-1214.7304219063813,182.80060277916652,3.1699655697163873,-3.677355359132266,357.74145440889174,40.882319974868345,0.0,1.0,13.985700406597445,3.770996767526462,0.0,Landing
22.1,-477.0820589092013,-1202.5902525256015,184.5446278706695,3.2262799639658706,-3.4458195040129596,357.65607138271207,40.737539753664294,0.0,1.0,13.985700406597445,3.770996767526462,0.0,Landing
22.200000000000003,-479.0786974782235,-1219.03868971051,182.9884389239861,2.9339289761629495,-3.6658187329491403,357.86961968259266,41.30042034826526,0.0,1.0,13.985700406597445,3.770996767526462,0.0,Landing
22.3,-481.13949127518066,-1214.888639169851,183.25664090169764,2.641555005289824,-3.8040892168606844,357.88758819207214,40.86855364398196,0.0,1.0,13.985700406597445,3.770996767526462,0.0,Landing
22.400000000000002,-483.15650210505055,-1202.1683444352107,183.79753908465062,2.7786058320897298,-3.6714055885639656,357.8764453157637,40.85595192260461,0.0,1.0,13.985700406597445,3.770996767526462,0.0,Landing
22.5,-485.08953920039954,-1186.487304216746,182.31283899476796,2.998700704594437,-3.5869035053799476,357.7186388659793,40.991738686258486,0.0,1.0,13.985700406597445,3.770996767526462,0.0,Landing
22.6,-487.0719277962644,-1194.3324688244502,182.08907950132019,3.0245021153248994,-3.9018125259858083,357.93490264016987,40.82305858298751,0.0,1.0,13.985700406597445,3.770996767526462,0.0,Landing
22.700000000000003,-489.1281644491728,-1207.1761939036378,183.5009430065126,2.8941236155954506,-3.580454858938015,357.82093330650684,40.852076120401165,0.0,1.0,13.985700406597445,3.770996767526462,0.0,Landing
22.8,-491.12542016991773,-1204.400121303172,181.98487593578434,3.1169445104616944,-3.759827477751697,357.75786826633043,41.056191246230725,0.0,1.0,13.985700406597445,3.770996767526462,0.0,Landing
22.900000000000002,-493.09392840278025,-1172.4495814027364,182.51686362416908,2.834988611373732,-3.753033169547344,357.6769437165344,41.23579479601697,0.0,1.0,13.985700406597445,3.770996767526462,0.0,Landing
23.0,-494.9904123561865,-1187.874640736959,183.25871088176646,2.812527757101843,-3.2574045271821483,357.7733188448325,41.27103803065322,0.0,1.0,13.985700406597445,3.770996767526462,0.0,Landing
23.1,-497.0647933736025,-1198.1835799690316,181.8324327355615,3.0862024928714056,-3.743345437164773,357.75046325946755,41.07985563606522,0.0,1.0,13.985700406597445,3.770996767526462,0.0,Landing
23.200000000000003,-499.0848463026254,-1221.7244823938472,184.9259113011138,2.7646522375055813,-3.477202033638503,357.82136772557146,41.172545921098056,0.0,1.0,13.985700406597445,3.770996767526462,0.0,Landing
23.3,-501.0990347681557,-1199.756696267582,181.8120368715479,3.087601036778504,-3.7424615897507607,357.8810264882493,40.29380760781332,0.0,1.0,13.985700406597445,3.770996767526462,0.0,Landing
23.400000000000002,-503.06357685494044,-1197.4374136182291,183.06103214911676,2.9216050427243565,-3.674849011981318,357.79962116298873,40.77233788860662,0.0,1.0,13.985700406597445,3.770996767526462,0.0,Landing
23.5,-505.07203337071655,-1188.6658275132504,183.05634843252503,2.6432730150600627,-3.7759138364908216,357.9302630480187,41.18567619322112,0.0,1.0,13.985700406597445,3.770996767526462,0.0,Landing
23.6,-507.04236390572197,-1189.6713798504493,183.09923819830482,2.8289018205754877,-3.5277282435762007,357.96892203192806,40.87752011362202,0.0,1.0,13.985700406597445,3.770996767526462,0.0,Landing
23.700000000000003,-509.0119337541927,-1189.5176217139465,183.96198535119734,2.8584654913036007,-3.287613644949146,358.02270553770086,40.51052048926946,0.0,1.0,13.985700406597445,3.770996767526462,0.0,Landing
23.8,-511.0196214792863,-1179.6331056102986,183.60419390953038,2.6478831836395713,-3.534004320767657,357.5371107262831,40.910825727010845,0.0,1.0,13.985700406597445,3.770996767526462,0.0,Landing
23.900000000000002,-512.9405294337735,-1200.529733804592,184.36366118008294,2.7507723445661005,-3.8264205250573946,357.89762815988706,40.95072294503608,0.0,1.0,13.985700406597445,3.770996767526462,0.0,Landing
24.0,-515.0145824232156,-1195.3345069956072,184.20789403799046,2.7235230106382895,-3.1937984561848154,358.027014076107,41.216087974598175,0.0,1.0,13.985700406597445,3.770996767526462,0.0,Landing
24.1,-516.9962940142643,-1205.1030348085078,182.03431885508067,2.8830324655086375,-3.516396238967208,357.71571878681993,40.76808719475503,0.0,1.0,13.985700406597445,3.770996767526462,0.0,Landing
24.200000000000003,-518.966044607816,-1192.487368181537,182.86178021460478,2.554783472627611,-3.8462023912659284,357.80534378733796,40.904262051792585,0.0,1.0,13.985700406597445,3.770996767526462,0.0,Landing
24.3,-520.9770192641233,-1199.2811682714091,182.18240035633838,3.097963816651524,-3.458846061153217,357.98414225911665,41.357903386432994,0.0,1.0,13.985700406597445,3.770996767526462,0.0,Landing
24.400000000000002,-522.9926998556214,-1199.3363658057888,182.94728507253208,2.841288610978186,-3.673578110907499,357.7623971675548,40.67582115890073,0.0,1.0,13.985700406597445,3.770996767526462,0.0,Landing
24.5,-524.962726436845,-1196.1492499378892,183.1911121312499,3.280645768652513,-3.9540532798249766,357.95613143563264,40.901866753822596,0.0,1.0,13.985700406597445,3.770996767526462,0.0,Landing
24.6,-526.9577655138128,-1213.6164008739797,182.53715500169625,2.910037119112426,-3.615929082849352,357.84650826763084,40.600271376076584,0.0,1.0,13.985700406597445,3.770996767526462,0.0,Landing
24.700000000000003,-529.0607818599913,-1209.1579972700629,182.05383751970368,2.6903341319278398,-3.7908703605615046,357.8728204688348,40.66641995293298,0.0,1.0,13.985700406597445,3.770996767526462,0.0,Landing
24.8,-531.0085164231953,-1205.707722399029,181.9756199196384,2.945981032095476,-3.7530378594195275,357.5516986492248,40.72926189483969,0.0,1.0,13.985700406597445,3.770996767526462,0.0,Landing
24.900000000000002,-532.9863041258079,-1185.8075183592746,183.21278236005244,2.800143410510186,-3.252258976385625,357.72643846780954,41.16649537348008,0.0,1.0,13.985700406597445,3.770996767526462,0.0,Landing
25.0,-534.9898194517876,-1194.3217222604744,183.34748551997092,2.762071088874618,-3.683250579577896,357.6936715648999,41.339952155465774,0.0,1.0,13.985700406597445,3.770996767526462,0.0,Landing
25.1,-536.9801250344976,-1187.1661604616747,184.84149747255148,3.0467634008917734,-3.827950690123337,357.83506050143694,41.49737881987542,0.0,1.0,13.985700406597445,3.770996767526462,0.0,Landing
25.200000000000003,-538.9221349281163,-1202.1569460677483,182.3021172997017,2.883463832821554,-3.886479129956639,357.72951883222254,41.043016065716294,0.0,1.0,13.985700406597445,3.770996767526462,0.0,Landing
25.3,-541.0006041821264,-1189.0547446930668,182.64736972843065,2.796317839800515,-3.691900589401171,357.63434190870976,40.97217427637068,0.0,1.0,13.985700406597445,3.770996767526462,0.0,Landing
25.400000000000002,-542.925398757963,-1190.375252534227,181.44921489291266,2.7756990133439667,-3.8114214040265373,357.9353612269589,41.14732662216119,0.0,1.0,13.985700406597445,3.770996767526462,0.0,Landing
25.5,-544.8740111907874,-1160.4695038246973,181.77012869581807,3.057809820442535,-3.917367317828833,357.7883624886588,40.77922466415156,0.0,1.0,13.985700406597445,3.770996767526462,0.0,Landing
25.6,-546.8029517012499,-1177.5880181550065,182.46317170975215,2.8345751992295125,-3.6233263249811314,357.7518907282031,40.8811903401287,0.0,1.0,13.985700406597445,3.770996767526462,0.0,Landing
25.700000000000003,-548.813338848738,-1190.3871440841613,181.85502933739707,3.0674696761313847,-3.4980212188205653,357.85813540507934,40.904024600839804,0.0,1.0,13.985700406597445,3.770996767526462,0.0,Landing
25.8,-550.8259469112082,-1205.1151029124867,184.07012181836976,2.8029727890686926,-3.8549081473410194,357.82721444642857,40.843147847910174,0.0,1.0,13.985700406597445,3.770996767526462,0.0,Landing
25.900000000000002,-552.8285272158123,-1203.4738059446227,182.74970566449866,2.833763755328172,-3.7011106238903757,357.89401907095635,40.972131530698846,0.0,1.0,13.985700406597445,3.770996767526462,0.0,Landing
26.0,-554.8307078784611,-1201.1911871039956,183.4967869556881,3.0216304272429793,-3.7645350740922874,358.05944816881834,41.2727949675758,0.0,1.0,13.985700406597445,3.770996767526462,0.0,Landing
26.1,-556.8319028467282,-1193.7965242929295,181.81985222978565,2.8790634051631256,-3.540999200318811,357.91338705072894,40.99740556889217,0.0,1.0,13.985700406597445,3.770996767526462,0.0,Landing
26.200000000000003,-558.797509837277,-1185.1210026577292,183.26195087336575,3.171042109542048,-3.3658843666060525,357.91678860865386,41.1230971353347,0.0,1.0,13.985700406597445,3.770996767526462,0.0,Landing
26.3,-560.7563128917498,-1179.612521290278,182.36971757370833,3.24025512940438,-3.3409729736337876,357.87074050067486,40.694104280037905,0.0,1.0,13.985700406597445,3.770996767526462,0.0,Landing
26.400000000000002,-562.7299654531796,-1176.247507166181,182.30350745244715,2.6447308797401363,-3.675207571514437,357.8591326146567,41.310491576321475,0.0,1.0,13.985700406597445,3.770996767526462,0.0,Landing
26.5,-564.6787473731079,-1178.8112710219593,183.2287476623397,2.7985792980625126,-3.526258577820353,357.5042348452872,40.90267919261399,0.0,1.0,13.985700406597445,3.770996767526462,0.0,Landing
26.6,-566.6503692468596,-1182.3098389202414,181.89656088169312,2.830105236433648,-3.480259627075754,357.7871373130255,41.11975194135746,0.0,1.0,13.985700406597445,3.770996767526462,0.0,Landing
26.700000000000003,-568.6415146477808,-1187.9735979954376,184.26583279030115,3.2110159848979514,-3.6420235998067203,358.0241137641017,40.6236233082422,0.0,1.0,13.985700406597445,3.770996767526462,0.0,Landing
26.8,-570.618615363085,-1201.342339719531,181.5611068268363,2.83236980464732,-3.745543907135021,357.8175279482573,41.056142836390855,0.0,1.0,13.985700406597445,3.770996767526462,0.0,Landing
26.900000000000002,-572.6570809454572,-1198.2652251751915,180.90966640599459,2.9747297978101894,-3.881872292524166,358.1510916563068,40.48486619208796,0.0,1.0,13.985700406597445,3.770996767526462,0.0,Landing
27.0,-574.6328407736568,-1198.5919429994055,183.04880534524818,2.7598443511336788,-3.701073736662796,357.68936444597693,41.21989806112874,0.0,1.0,13.985700406597445,3.770996767526462,0.0,Landing
27.1,-576.6115750780821,-1193.1859119242063,181.24571312720386,2.6605637648201244,-3.838817474202295,357.95069096266275,40.707717518345376,0.0,1.0,13.985700406597445,3.770996767526462,0.0,Landing
27.200000000000003,-578.6230105050782,-1195.4758028477045,182.54386961984397,2.618620275739494,-3.8132371843166784,357.79632418809774,41.16805513889237,0.0,1.0,13.985700406597445,3.770996767526462,0.0,Landing
27.3,-580.6102197878953,-1193.6223546981182,182.1098385534489,2.823257407877746,-3.1254012024162994,357.766977745262,41.039315662052566,0.0,1.0,13.985700406597445,3.770996767526462,0.0,Landing
27.400000000000002,-582.5796868515727,-1203.5943040729535,182.36779981304562,2.7035546944615985,-3.6481977847781684,357.99236103650924,40.570256455528494,0.0,1.0,13.985700406597445,3.770996767526462,0.0,Landing
27.5,-584.640982025443,-1184.4658900929517,182.5074954887662,3.14652639508467,-3.647049591342275,357.8013281343178,41.00176626256423,0.0,1.0,13.985700406597445,3.770996767526462,0.0,Landing
27.6,-586.53254923836,-1191.1430251787124,181.7046079059621,2.6357720270006295,-3.5585408679418054,357.98235577854484,40.965542177041016,0.0,1.0,13.985700406597445,3.770996767526462,0.0,Landing
27.700000000000003,-588.5354019774662,-1196.8356389392966,184.34574678929764,2.669106556781604,-3.687773599276976,358.16710131536433,40.87379773277206,0.0,1.0,13.985700406597445,3.770996767526462,0.0,Landing
27.8,-590.6251602201395,-1201.0251857466073,182.14356152382945,2.8278553466664507,-3.7872044008038466,357.80518732600103,40.785483366313656,0.0,1.0,13.985700406597445,3.770996767526462,0.0,Landing
27.900000000000002,-592.5376751670931,-1206.0533464525406,180.41757827589987,2.7889190434112283,-3.029959472386389,358.1774614277806,40.960699834938744,0.0,1.0,13.985700406597445,3.770996767526462,0.0,Landing
28.0,-594.5656687097289,-1200.7467358269878,183.5639775854095,2.923653210377015,-3.9197306176499884,357.71655924914376,41.13573651526372,0.0,1.0,13.985700406597445,3.770996767526462,0.0,Landing
28.1,-596.6288938992744,-1214.5051120583503,183.22145899357693,3.025944953912956,-3.9462859086022433,357.8327521411085,40.838574571483726,0.0,1.0,13.985700406597445,3.770996767526462,0.0,Landing
28.200000000000003,-598.6102007273848,-1202.536823684909,183.69959169655138,2.989604649137477,-3.6454514513266614,357.8319501865137,41.02065915346941,0.0,1.0,13.985700406597445,3.770996767526462,0.0,Landing
28.3,-600.5783528281535,-1196.2217817928376,183.9192583520047,2.6803934648443284,-4.047426246834477,358.0527709405085,40.904637401062224,0.0,1.0,13.985700406597445,3.770996767526462,0.0,Landing
28.400000000000002,-602.6100028082386,-1202.7209128027607,181.63692734159537,3.010851316037672,-3.893456299518971,357.39902330825737,40.85712227999377,0.0,1.0,13.985700406597445,3.770996767526462,0.0,Landing
28.5,-604.6238052913986,-1196.771211992268,182.1029841752455,2.860482995093917,-3.78003069045557,357.9715475464077,40.59873742140608,0.0,1.0,13.985700406597445,3.770996767526462,0.0,Landing
28.6,-606.5622088881148,-1170.0768811605258,182.19422806392055,2.909098406111495,-4.112057511361922,357.8418431207257,41.12575231723996,0.0,1.0,13.985700406597445,3.770996767526462,0.0,Landing
28.700000000000003,-608.4603872140412,-1157.847040131469,181.90960506236894,2.7554549488357987,-3.5762474959711925,358.092040930532,41.134750287397324,0.0,1.0,13.985700406597445,3.770996767526462,0.0,Landing
28.8,-610.413040492056,-1138.6555392972696,182.48190386813803,2.9970644084527382,-4.005489724505728,357.87533981483944,41.15546445162822,0.0,1.0,13.985700406597445,3.770996767526462,0.0,Landing
28.900000000000002,-612.2554865846012,-1156.67549100433,183.80594576844695,2.943255755276998,-3.5920556377336585,357.68564660640413,40.84686109330284,0.0,1.0,13.985700406597445,3.770996767526462,0.0,Landing
29.0,-614.2437646690629,-1152.3174456090373,184.3807595300473,2.934857522731021,-3.304563365555467,357.8066511312859,40.728105210968856,0.0,1.0,13.985700406597445,3.770996767526462,0.0,Landing
29.1,-616.1746277201012,-1184.6841942513265,181.72266482736808,2.952933422996998,-3.723779727216109,358.02906007883837,40.99341931163116,0.0,1.0,13.985700406597445,3.770996767526462,0.0,Landing
29.200000000000003,-618.1789075558578,-1160.2432327773158,183.98688425090555,2.6738550896191597,-3.6219027290385917,357.7506941138006,40.85755106374575,0.0,1.0,13.985700406597445,3.770996767526462,0.0,Landing
29.3,-620.0449808329495,-1144.5068745266099,183.9244211161979,2.9076433721077843,-3.68347982969555,357.90200223857425,41.07748808952466,0.0,1.0,13.985700406597445,3.770996767526462,0.0,Landing
29.400000000000002,-621.8971620927342,-1137.9050578517536,185.44432486336453,2.946722902370687,-3.708761511979514,357.8418339203896,40.978895278087506,0.0,1.0,13.985700406597445,3.770996767526462,0.0,Landing
29.5,-623.8684328451166,-1156.3170834911261,183.47316576333125,2.6444700083941566,-3.78371203623731,357.8132432560619,40.49295492725356,0.0,1.0,13.985700406597445,3.770996767526462,0.0,Landing
29.6,-625.8265662504051,-1176.8588671617408,182.66302908351847,3.1249902907269416,-3.655745214617708,358.01576485080716,40.77293432342223,0.0,1.0,13.985700406597445,3.770996767526462,0.0,Landing
29.700000000000003,-627.7814564285429,-1175.4887954607739,181.7414783928972,3.3036633988577693,-3.7485560195098913,357.7887648377671,41.3463392373404,0.0,1.0,13.985700406597445,3.770996767526462,0.0,Landing
29.8,-629.7458768224204,-1188.681575307055,181.72776861514208,2.8262667815400877,-3.924081295826189,357.6989722591379,41.23245779299183,0.0,1.0,13.985700406597445,3.770996767526462,0.0,Landing
29.900000000000002,-631.7699741269404,-1205.9620804306178,182.63038149120777,2.9025519340425845,-3.514868704877798,357.81076358991413,40.825067929277076,0.0,1.0,13.985700406597445,3.770996767526462,0.0,Landing
