time_s,altitude_ft,vertical_speed_fpm,ias_kt,pitch_deg,roll_deg,heading_deg,throttle_pct,afterburner_on,gear_down,flaps_deg,speedbrake_pct,weight_on_wheels,label
0.0,-0.08812384474360505,32.96036588217935,22.019101388239612,-0.03017692632740923,0.706256534980503,206.76235501487508,17.409607164680942,0.0,1.0,0.0,0.0,1.0,Taxi
0.1,0.02174404153032613,16.9082740154019,20.284141445212583,0.28499293707461926,0.5120494199205124,206.81173281986162,17.955008278445213,0.0,1.0,0.0,0.0,1.0,Taxi
0.2,-0.003582474666595548,15.618815599852843,20.673454854287492,0.0896156997939515,0.1449427379592004,206.94207478833823,17.452713958162885,0.0,1.0,0.0,0.0,1.0,Taxi
0.30000000000000004,-0.010029766744340834,-6.63525166616018,21.531466800305257,-0.006411501107659798,0.0786164217180967,206.96922110957735,17.51362097063714,0.0,1.0,0.0,0.0,1.0,Taxi
0.4,-0.011432216800474765,2.858595533508543,21.265017002998736,-0.28552099737125286,-0.10451612801371,206.85688510864338,18.40076145164692,0.0,1.0,0.0,0.0,1.0,Taxi
0.5,0.010710503000947169,18.965128218142162,21.44468186390231,0.04170547254046409,0.33926197570001404,206.86842249591223,17.199147105489033,0.0,1.0,0.0,0.0,1.0,Taxi
0.6000000000000001,0.08479587434636998,29.84116808558984,20.942936201860736,-0.2358582724773881,-0.18538908473103083,206.93979197108024,16.5130499662805,0.0,1.0,0.0,0.0,1.0,Taxi
0.7000000000000001,0.13777362362747445,-2.187105490272581,21.982401343322582,0.2694782217522882,0.11778493531994694,206.87713651051695,18.524908629251197,0.0,1.0,0.0,0.0,1.0,Taxi
0.8,-0.00022502445041573907,-0.6528534258413311,21.921437719662254,0.37937690601158336,0.43596718325972555,206.734606181882,18.99410410804875,0.0,1.0,0.0,0.0,1.0,Taxi
0.9,0.08153160721716332,-41.59006365083054,21.494380976941613,-0.08336382327560432,-0.28090327176279484,206.78265926535187,17.51680549902058,0.0,1.0,0.0,0.0,1.0,Taxi
1.0,-0.07017669462667825,15.364113944607814,22.131107282585702,0.13641252308758794,-0.3080963699953473,206.88746866213103,16.751021111435154,0.0,1.0,0.0,0.0,1.0,Taxi
1.1,0.0765955452726233,-31.54615191997246,21.73526816375611,-0.06905992981786135,-0.5971827403622295,206.9855049094656,17.564198143647275,0.0,1.0,0.0,0.0,1.0,Taxi
1.2000000000000002,-0.07619915238269903,35.848537647098304,20.93918708067494,-0.0496785714436242,-0.5322363730630861,207.02555491023202,17.576328656824913,0.0,1.0,0.0,0.0,1.0,Taxi
1.3,0.10906599360881322,28.89370849334014,21.676013028854385,0.230917315356808,-0.9141976557207512,206.94190960989295,17.62447821123412,0.0,1.0,0.0,0.0,1.0,Taxi
1.4000000000000001,0.22106408773932396,12.798152717111966,20.879432997907486,0.06831072221505123,0.3649143945077648,206.89268574391951,17.162746110784322,0.0,1.0,0.0,0.0,1.0,Taxi
1.5,-0.01220838879713918,-65.66406853791082,21.981832739189247,0.4239479829699361,0.9044572710413854,206.93883805641406,18.009220702983487,0.0,1.0,0.0,0.0,1.0,Taxi
1.6,-0.21925434908074087,-55.174276212761264,21.424807011813133,-0.020428121156850484,0.7126644717351528,206.79728158279522,17.98169381938829,0.0,1.0,0.0,0.0,1.0,Taxi
1.7000000000000002,-0.0548072933244823,27.079180445213908,21.34384514027773,0.27588564107863156,-0.8130422443132582,206.84863357179006,16.972237321835596,0.0,1.0,0.0,0.0,1.0,Taxi
1.8,0.12318751342893033,54.912405556653084,21.04620483176252,0.09550105717529013,0.3624273357781,206.7815435956819,18.069038497592693,0.0,1.0,0.0,0.0,1.0,Taxi
1.9000000000000001,0.05530767870252449,15.93973063839706,22.1882873616093,0.23517397653258038,0.7110531749617782,206.73908240674507,18.745782622718195,0.0,1.0,0.0,0.0,1.0,Taxi
2.0,0.024891359867502957,-4.464135566689277,21.362044869163604,-0.013413156882255625,-0.228404990369332,206.8973115689795,17.805420297963778,0.0,1.0,0.0,0.0,1.0,Taxi
2.1,0.10086683559548391,-1.3724669555364468,21.19776586510702,0.06610660707341719,0.05072371532502473,206.88250799847435,17.550777550710997,0.0,1.0,0.0,0.0,1.0,Taxi
2.2,0.048445343924842205,19.376231775522143,21.243482428111946,0.052918598723946775,-1.0039465254023352,206.9327219162667,17.648438524541486,0.0,1.0,0.0,0.0,1.0,Taxi
2.3000000000000003,0.12177251874511363,-1.7848935861570645,21.774148069736892,-0.09119304838542372,0.13336808398832076,206.9185678509051,18.02706851522953,0.0,1.0,0.0,0.0,1.0,Taxi
2.4000000000000004,0.09194236766469856,20.744940269770748,21.67402899702333,0.20843468150008426,-0.5317798647173587,206.88822109494822,16.85410432899164,0.0,1.0,0.0,0.0,1.0,Taxi
2.5,0.1521700452736959,-17.178582070897633,21.702402125362475,0.20606817569940658,0.09981750895575726,206.91961833438359,17.8016354832339,0.0,1.0,0.0,0.0,1.0,Taxi
2.6,0.035879608390625435,-0.2832855030606112,21.713255160209613,0.19472931356484707,-0.7806014610944402,206.85968835819313,17.52420815701384,0.0,1.0,0.0,0.0,1.0,Taxi
2.7,0.09052594014939547,-36.57655051645488,22.73975111892716,0.38341150536726265,0.27142911223879795,206.90524580733813,18.64335263822327,0.0,1.0,0.0,0.0,1.0,Taxi
2.8000000000000003,-0.030712707308578543,-19.205137909305197,21.210913548574116,0.36588733483099445,0.5122563377133449,206.79134222754715,17.63235376484277,0.0,1.0,0.0,0.0,1.0,Taxi
2.9000000000000004,-0.06014608115590059,16.03016477850038,21.147416920961962,0.0010294366139066563,-0.3915899308575838,206.90092726037972,18.553383937305007,0.0,1.0,0.0,0.0,1.0,Taxi
3.0,0.17067676404189736,10.466634988169469,20.966498921456157,0.1506288382705694,-0.5684612907052172,206.9307984363445,17.167569782854244,0.0,1.0,0.0,0.0,1.0,Taxi
3.1,0.021620467632268804,28.126827548427702,21.824350211950183,-0.048701763267908815,-1.0780115212749906,206.7969885250086,18.013069715146646,0.0,1.0,0.0,0.0,1.0,Taxi
3.2,0.08048805658623791,-31.660552520151658,22.132145934037418,0.08068943780664482,-0.13320676703758852,206.86913987771516,17.879140263640863,0.0,1.0,0.0,0.0,1.0,Taxi
3.3000000000000003,0.012374001441139017,-16.054406544853027,21.386394083811958,-0.04393151524003923,-0.29079696714080255,206.80159641685293,17.284916507812856,0.0,1.0,0.0,0.0,1.0,Taxi
3.4000000000000004,-0.05865156509199643,-15.877953465599537,20.950668672227366,0.400032436410944,-0.7755097061740274,206.81130599816424,17.80813818906372,0.0,1.0,0.0,0.0,1.0,Taxi
3.5,0.0010982892582401323,26.245080067126494,20.96007382899014,0.1487580046523263,0.22650937815608582,206.75146373230564,18.325699550161048,0.0,1.0,0.0,0.0,1.0,Taxi
3.6,0.1435994017767714,22.835114503987782,21.845118231099704,0.0324125489628493,-0.22498519093232458,206.99053416033246,17.55754427960195,0.0,1.0,0.0,0.0,1.0,Taxi
3.7,0.055524007427942404,-34.4491210462572,21.90071506112695,0.3147420889550091,-0.5378679793226162,206.9705251852879,16.873458807160368,0.0,1.0,0.0,0.0,1.0,Taxi
3.8000000000000003,-0.17114731597304592,-33.02476948687736,21.780655119388,-0.3581047073753486,-0.27728620282022354,206.9177000532386,17.710658718506526,0.0,1.0,0.0,0.0,1.0,Taxi
3.9000000000000004,-0.021524445657615472,24.541074368505775,21.05545673403167,-0.32680214438932426,0.5356522694648078,207.06117626301022,17.268228584348993,0.0,1.0,0.0,0.0,1.0,Taxi
4.0,0.17822937927047122,29.95352595761007,21.594059352244916,0.23518610562768852,0.3014684718776111,206.84503209815898,17.548269662413308,0.0,1.0,0.0,0.0,1.0,Taxi
4.1000000000000005,-0.021379686184995608,-31.704684703160513,21.52477404388932,0.08811206420720734,-0.06501303074924492,207.16713290932694,17.678646246902687,0.0,1.0,0.0,0.0,1.0,Taxi
4.2,-0.18004786917341808,2.2151018543566465,21.58597571644229,0.12610763463588587,0.3095525092324263,206.84120372627956,16.86661402373749,0.0,1.0,0.0,0.0,1.0,Taxi
4.3,0.18930488854225436,17.923787433255,21.977619825173797,-0.189260846079976,-0.5804559781933695,206.8894760029914,16.911610962084907,0.0,1.0,0.0,0.0,1.0,Taxi
4.4,0.06823925098127927,34.60931665842764,21.588919887669693,0.07137163241366049,0.016185050363515266,206.8241788764218,17.96047354950801,0.0,1.0,0.0,0.0,1.0,Taxi
4.5,-0.00700128588128004,-45.28933243009223,21.86211069624802,0.47672025666400214,0.07366116524323528,206.9011892238218,17.458080783660407,0.0,1.0,0.0,0.0,1.0,Taxi
4.6000000000000005,-0.03714177360820686,7.99918839957887,21.49531000009822,0.2408582985429063,-0.23491825424936344,206.94751816060443,16.437067960834966,0.0,1.0,0.0,0.0,1.0,Taxi
4.7,0.10823519297917356,-9.439410828267825,21.628234197618873,0.10995968361229616,0.21772916797870892,206.85256502851053,18.111862150049316,0.0,1.0,0.0,0.0,1.0,Taxi
4.800000000000001,-0.05419834002261925,30.393483211961154,21.83353549390801,-0.011792407437253807,-0.3902167273222256,207.0416286525276,17.85562500938237,0.0,1.0,0.0,0.0,1.0,Taxi
4.9,0.11482564245159883,-10.803132881349581,20.580469066491485,-0.002896195790145051,0.25491035388805894,206.88787159627918,17.362502719727008,0.0,1.0,0.0,0.0,1.0,Taxi
5.0,0.0542195285724256,15.73330651427086,21.262959828590503,-0.3498212032562698,0.27592938576564596,206.89100520642683,17.06102502621613,0.0,1.0,0.0,0.0,1.0,Taxi
5.1000000000000005,0.024468192548734995,-20.05483238360785,21.172538965829208,0.12754645876796583,-1.458579940348533,206.77305689836453,18.137344079902416,0.0,1.0,0.0,0.0,1.0,Taxi
5.2,0.014551480533559535,-14.343266448768674,21.07143584945888,0.24511499628010452,0.5951528517550588,206.90580657527084,17.894115443025463,0.0,1.0,0.0,0.0,1.0,Taxi
5.300000000000001,-0.017496803671417812,16.019163894438325,21.289677207668873,-0.23910549085038935,-1.523816282676377,206.85055394573487,18.910741273087286,0.0,1.0,0.0,0.0,1.0,Taxi
5.4,0.10456401202092658,-20.21715274874858,22.35172734514552,-0.05626500387762948,-0.30802451277806264,206.80313269488215,17.929534431107715,0.0,1.0,0.0,0.0,1.0,Taxi
5.5,-0.08653428321018342,-28.93914180232061,20.93526388898894,-0.1554745518629507,0.5126740171288775,206.78630922700097,17.913291702376256,0.0,1.0,0.0,0.0,1.0,Taxi
5.6000000000000005,-0.16219251268302093,-8.62399994633582,22.035729571159774,-0.11705186437801898,-0.15864336262622034,207.13113300579153,17.635976166690966,0.0,1.0,0.0,0.0,1.0,Taxi
5.7,0.061444012289247465,29.931623203379644,20.445040695435402,0.08671469994811377,-0.733092991234771,206.83760894279794,18.127828065345643,0.0,1.0,0.0,0.0,1.0,Taxi
5.800000000000001,0.06312383280671478,42.04332558683953,21.25383154041342,-0.34086205641396117,-0.5468685308583353,206.71825812573775,18.031982732369325,0.0,1.0,0.0,0.0,1.0,Taxi
5.9,0.04802411525117667,-4.134235065488702,21.55241439746789,0.19887246225514654,0.5134528731603099,206.79413452184258,18.345302636027846,0.0,1.0,0.0,0.0,1.0,Taxi
6.0,0.040772836961803886,-19.0355741280939,21.806495957220452,0.22678938857047018,-0.9607522652743191,206.8587998838682,17.458778672426607,0.0,1.0,0.0,0.0,1.0,Taxi
6.1000000000000005,-0.03205403783375479,6.14483103747519,21.881498506280597,0.02579785697635123,0.5644955504810086,206.9186233710775,17.501736395273266,0.0,1.0,0.0,0.0,1.0,Taxi
6.2,0.07874827043855254,-9.065729927451578,21.930770899524838,-0.4201233274131746,-0.02755104952114467,206.91943631998834,17.479888546289256,0.0,1.0,0.0,0.0,1.0,Taxi
6.300000000000001,-0.004555812675454088,-3.331463649552589,21.245527515055823,-0.12326535061674421,-0.5961976652212168,206.93161812299354,18.11484099233474,0.0,1.0,0.0,0.0,1.0,Taxi
6.4,-0.04871135608151781,-21.987480332818492,21.177351482806145,0.322598761404273,-0.29155753615134555,206.79947063715213,18.468627351893613,0.0,1.0,0.0,0.0,1.0,Taxi
6.5,-0.03118913122553999,41.32395651060747,21.969548087159176,-0.47958048156198074,-0.5086121705508206,206.89800071216598,17.490019885170597,0.0,1.0,0.0,0.0,1.0,Taxi
6.6000000000000005,0.2020639698775832,-24.957250424605082,21.339979963475916,0.0065136921450298785,0.4331126004292643,206.7763507214048,17.507053267848704,0.0,1.0,0.0,0.0,1.0,Taxi
6.7,-0.1734976082045433,16.233588331023995,20.689350764402132,-0.15998178110971809,0.36621390488141914,206.80199236951444,17.87647874368015,0.0,1.0,0.0,0.0,1.0,Taxi
6.800000000000001,0.049978810429579884,-73.99500252799096,20.774790230002797,0.23693243490070104,-0.8595805669380233,206.7721857703658,17.596559381738796,0.0,1.0,0.0,0.0,1.0,Taxi
6.9,-0.16791104276237173,32.5348548744492,20.903091186803916,-0.05900441584495855,-0.20179605925966704,206.74511778235603,18.195466958315194,0.0,1.0,0.0,0.0,1.0,Taxi
7.0,-0.010823333832297324,-18.668311788999727,21.75305900483714,0.15680917873085604,-0.43159283117213854,206.97037761670163,16.593551486435725,0.0,1.0,0.0,0.0,1.0,Taxi
7.1000000000000005,-0.04336274851541877,-8.118357381123209,21.540218000047222,0.18911045841755236,0.6467549842296851,206.93281783791372,17.306087608286802,0.0,1.0,0.0,0.0,1.0,Taxi
7.2,-0.2085028296679878,9.945418575134738,21.869053770845543,0.44326354252973776,-0.6750495590632105,206.9616232048137,17.328231964764527,0.0,1.0,0.0,0.0,1.0,Taxi
7.300000000000001,0.038903759043376306,1.0717884592398477,21.198410970602964,0.03542998584865968,0.802114552342507,206.8678879744183,16.559262125552177,0.0,1.0,0.0,0.0,1.0,Taxi
7.4,-0.03800380621921959,-0.2835609176273077,21.549886373050914,0.151227248508256,-0.016647369758468783,206.9416374377024,17.237620909560846,0.0,1.0,0.0,0.0,1.0,Taxi
7.5,-0.2099206342561244,9.01061000680979,21.830116794785287,-0.22099272124175345,-0.5809672031900438,206.68782772735153,17.261862073822286,0.0,1.0,0.0,0.0,1.0,Taxi
7.6000000000000005,0.08395680907742521,36.300884803622615,21.26915463457274,0.31410108724248254,-0.33863709200463893,206.95026541962034,17.618887804485833,0.0,1.0,0.0,0.0,1.0,Taxi
7.7,0.1435006177988935,71.78661369715631,21.72882770093933,-0.07608339503053921,-0.4008094203842253,206.88166865081632,18.27592307757538,0.0,1.0,0.0,0.0,1.0,Taxi
7.800000000000001,0.1490124342296572,-9.61223300245562,21.057606993764892,-0.03613245823381539,-0.637309201007753,206.92666762783074,17.596909806149895,0.0,1.0,0.0,0.0,1.0,Taxi
7.9,0.035895644065147114,-27.77896078823639,21.23693025046584,0.07156881561389158,0.04741342986518783,206.90195899772073,17.20403327160967,0.0,1.0,0.0,0.0,1.0,Taxi
8.0,0.00460581385771155,-3.2393544280155027,21.225719822005885,-0.23655849448423621,-0.6139577753459217,206.7652511523621,17.690962861138484,0.0,1.0,0.0,0.0,1.0,Taxi
8.1,0.1328156620895797,26.468542893772547,20.73725877105146,0.12177238036952133,-1.0901831043690944,206.7141526902767,18.244026942465922,0.0,1.0,0.0,0.0,1.0,Taxi
8.200000000000001,0.16823835853400984,21.75021128597019,21.746946046876232,0.2695116291687359,-0.18983823542408654,206.79275125119761,17.231460723687796,0.0,1.0,0.0,0.0,1.0,Taxi
8.3,0.1133568702875625,-45.39388446251197,21.17312115428325,0.13460513928319204,-0.9014280982089413,206.92044839594314,17.264152689784524,0.0,1.0,0.0,0.0,1.0,Taxi
8.4,-0.09415376022298011,-29.620774642503537,21.462259029641498,-0.2417611382520113,-0.3760804340337602,206.93296580933338,17.99871461138236,0.0,1.0,0.0,0.0,1.0,Taxi
8.5,0.02013448532149219,-13.881051171683934,21.74321055374843,0.05125651571780181,-0.45455144430167793,206.72716244007768,17.60867207387985,0.0,1.0,0.0,0.0,1.0,Taxi
8.6,0.04395161442914286,-17.36158733374857,21.72268126402285,0.22442415517963185,-0.4356080360129071,206.76584673106902,18.043182477099986,0.0,1.0,0.0,0.0,1.0,Taxi
8.700000000000001,-0.18096169689172292,5.360316128117034,21.853993623788554,-0.29957937860944783,1.0004815507950768,206.79163309922183,17.7126167358476,0.0,1.0,0.0,0.0,1.0,Taxi
8.8,0.04693606596207742,36.6695136337592,21.39567126769923,-0.13893482817980907,0.02820578358478538,206.8282261617892,18.07027195579003,0.0,1.0,0.0,0.0,1.0,Taxi
8.9,0.2272991825979389,48.99106269436041,21.20078357117839,0.2513270954000377,0.12268550449766608,206.72775158473064,17.201901074724926,0.0,1.0,0.0,0.0,1.0,Taxi
9.0,0.06399361658007914,20.081048436419643,21.406931631861045,0.13003746142319103,-0.8881991481711473,206.72175149120176,17.713397806351114,0.0,1.0,0.0,0.0,1.0,Taxi
9.1,0.14734130814417565,-41.80154191701369,20.442361898030065,0.1584126910090845,-0.32698156681846097,206.78177313817514,17.61409512456367,0.0,1.0,0.0,0.0,1.0,Taxi
9.200000000000001,0.01829147301287051,-14.263089795692265,20.58649507495103,0.44791733610839607,0.10765131497075599,206.87258205143837,17.111494669693183,0.0,1.0,0.0,0.0,1.0,Taxi
9.3,-0.007321832398382149,-21.842833827215628,20.661142790992244,0.16972893028497427,-0.5122644564565032,206.74589723384042,16.937701157810903,0.0,1.0,0.0,0.0,1.0,Taxi
9.4,0.038127139008097555,-19.974827562262757,20.856414461843993,0.2075959766703696,0.4540314217589927,206.85237631681866,18.06231464938258,0.0,1.0,0.0,0.0,1.0,Taxi
9.5,-0.08158266479844327,-17.81113726501134,21.694627094438946,0.618167480027399,-0.6013482929505151,206.96981194942998,17.54396394063626,0.0,1.0,0.0,0.0,1.0,Taxi
9.600000000000001,-0.09637751872343886,17.700663341767807,20.911475125188847,0.03325746296563559,-0.1431830679325878,206.73377869407454,17.208299990921585,0.0,1.0,0.0,0.0,1.0,Taxi
9.700000000000001,0.12663045571693657,43.76337981701902,21.22786502598125,-0.0835581781399653,-0.2930258199877793,206.84331209197478,17.671350663283583,0.0,1.0,0.0,0.0,1.0,Taxi
9.8,0.13723423428665182,-0.5466225670592356,22.234299537076524,0.16157765423316028,0.08216032969095799,206.96643234119097,18.2834495604199,0.0,1.0,0.0,0.0,1.0,Taxi
9.9,-0.09911063155873505,-5.966115052310016,21.24100417576803,0.1638165804615127,-0.320245035927713,206.82212982877945,16.579071209059286,0.0,1.0,0.0,0.0,1.0,Taxi
10.0,0.09679988045538646,-29.186046369450775,21.897271899485137,-0.029324703805507918,-0.13544681353546867,206.80658969873002,16.971120786793584,0.0,1.0,0.0,0.0,1.0,Taxi
10.100000000000001,-0.008695997560602091,26.618297801555627,20.894591950398958,-0.1304610293272358,-0.11806504588899278,206.9803062492465,17.257996910797615,0.0,1.0,0.0,0.0,1.0,Taxi
10.200000000000001,0.033980857449043056,-10.155603302376017,21.331500023684306,0.5379872590017494,-0.3671938786956505,206.83333645991866,18.450029565105414,0.0,1.0,0.0,0.0,1.0,Taxi
10.3,0.046021863943506346,21.62620887460679,20.884749325458536,0.14138706866133832,0.24254693424855633,206.97440617033635,17.860733623204897,0.0,1.0,0.0,0.0,1.0,Taxi
10.4,0.09943504681243184,-5.141807452544829,21.251342712864545,-0.0704387016966814,0.11919418741871264,206.90685320692853,18.10309875197586,0.0,1.0,0.0,0.0,1.0,Taxi
10.5,0.008271820186318888,18.998867117337454,21.95894744087932,0.25920443503965346,-0.04430697262658365,206.82967220252488,17.149359672182133,0.0,1.0,0.0,0.0,1.0,Taxi
10.600000000000001,0.1410161995301936,-13.69875256728787,20.418370304489475,0.05418934427146682,-0.21522916673097905,206.91192572087562,17.159672194109984,0.0,1.0,0.0,0.0,1.0,Taxi
10.700000000000001,0.030941283975992474,10.829321412126879,21.715416744532398,0.025442085320167472,0.3982720152599985,206.89600161920043,17.943346990106605,0.0,1.0,0.0,0.0,1.0,Taxi
10.8,0.06241842724695326,-44.86849173678365,21.59740391980425,0.1884729489666324,-0.11791712190709068,206.96604494991607,17.74857729721297,0.0,1.0,0.0,0.0,1.0,Taxi
10.9,-0.08332625915372466,36.9849234188982,21.09827258498681,-0.18235807906260426,-0.1533486439129686,206.80912211402938,17.99380954117731,0.0,1.0,0.0,0.0,1.0,Taxi
11.0,0.21586590107048342,-3.0871869852913156,20.58712784577181,0.1465438153671682,0.052345014944063004,206.868077274494,17.62560463628102,0.0,1.0,0.0,0.0,1.0,Taxi
11.100000000000001,0.046982492320496644,30.925200337646924,21.498040263033207,0.4586093361300842,0.8482933414854253,206.85780509985534,17.858511994972563,0.0,1.0,0.0,0.0,1.0,Taxi
11.200000000000001,0.07129974253450992,-75.33689643832751,21.1370669329666,0.16925390702319587,-0.670178104010602,206.93437148197984,17.798499674197803,0.0,1.0,0.0,0.0,1.0,Taxi
11.3,-0.16081858112115416,-25.850538925681338,21.594368285217705,0.0007759538270408206,0.3849284465276773,206.76143874837146,18.108323826287712,0.0,1.0,0.0,0.0,1.0,Taxi
11.4,-0.0822702023079101,10.49772525147263,21.467873845718948,-0.025402681501914673,-0.9465855806190525,206.96565437263962,18.122944272717483,0.0,1.0,0.0,0.0,1.0,Taxi
11.5,0.12378836879187305,37.901538590082936,22.415829893197433,-0.006049620085288143,0.10863657911431197,206.91058954503285,16.909504134549362,0.0,1.0,0.0,0.0,1.0,Taxi
11.600000000000001,0.028689111829260473,-21.821554234996494,21.31114918192107,0.025225838974177517,0.7875414138043654,206.7322641604526,16.595805854074822,0.0,1.0,0.0,0.0,1.0,Taxi
11.700000000000001,-0.19137797348289262,-3.9918751786982227,20.840664062831763,0.0004570680320793302,0.24433426223365357,206.98478295036386,18.220312830571,0.0,1.0,0.0,0.0,1.0,Taxi
11.8,0.1038289928983819,-16.61347845290656,21.562327939378672,0.2592806627986471,0.0853125392698964,207.08736597589564,18.313302678376218,0.0,1.0,0.0,0.0,1.0,Taxi
11.9,-0.05437828043527235,66.50193441411277,21.58676056878794,-0.27062344605806293,-0.2802247344015378,206.96414006477085,17.20912862198858,0.0,1.0,0.0,0.0,1.0,Taxi
12.0,0.14113169858767122,-22.522512151750366,22.270275103549146,0.24841838466616054,0.01552360024427712,207.0066551445385,16.789522428472434,0.0,1.0,0.0,0.0,1.0,Taxi
12.100000000000001,-0.008783567860369967,14.969789807465077,21.955829305953632,8.106955522149684e-05,-0.12603140770167814,206.8724938059761,17.76895754224885,0.0,1.0,0.0,0.0,1.0,Taxi
12.200000000000001,0.020470668602052995,-4.647248145701265,21.66888519389459,0.1514079317228082,-0.3929883039656777,206.69780617584206,18.184859244920514,0.0,1.0,0.0,0.0,1.0,Taxi
12.3,0.11789545785916485,-16.19314584501924,22.33274429313662,-0.14937920745643904,-0.14493780773743492,206.67954462269904,18.618237392962406,0.0,1.0,0.0,0.0,1.0,Taxi
12.4,-0.08974929708546624,-23.95106987708938,20.741504725811172,0.34174458795362095,0.09919058031321977,206.88946487220255,17.977588917795973,0.0,1.0,0.0,0.0,1.0,Taxi
12.5,-0.09928468078339397,-27.509059979795108,21.070911638755035,0.32514536661810833,-0.38360853426532016,206.80475878704283,17.5335817834524,0.0,1.0,0.0,0.0,1.0,Taxi
12.600000000000001,-0.019649842039810735,34.4933154095177,20.898816993561567,0.26793647973374846,-0.40314091034234206,206.77249903998313,17.27287482095282,0.0,1.0,0.0,0.0,1.0,Taxi
12.700000000000001,0.08271727996212222,-6.760608895591005,21.220876676511423,-0.22693258057497417,-0.6801217187960872,206.85768199941901,17.725165777580575,0.0,1.0,0.0,0.0,1.0,Taxi
12.8,-0.13308772526134907,-29.430723589819774,20.628750869871098,0.2418425887969443,0.19536251304444804,206.92551519660196,17.56980777980262,0.0,1.0,0.0,0.0,1.0,Taxi
12.9,-0.16680345998890966,-0.06903745154859091,21.835853126493525,0.1569893921108755,0.2726616309835302,206.71868091313968,17.21190617888084,0.0,1.0,0.0,0.0,1.0,Taxi
13.0,0.08237209270437923,14.55797880092974,21.32142894014562,-0.24503587484277983,0.11583022211825873,206.81906890578784,18.74381795717689,0.0,1.0,0.0,0.0,1.0,Taxi
13.100000000000001,-0.06029783125670038,25.516171739376272,20.57227878170329,0.07115889782957063,0.4825852463643329,207.01494373612786,18.612024332781314,0.0,1.0,0.0,0.0,1.0,Taxi
13.200000000000001,-0.039222601292028314,-53.610626579679156,20.84541510968036,0.14892527239038622,0.04393381854036376,206.75642782979367,18.287464473522963,0.0,1.0,0.0,0.0,1.0,Taxi
13.3,-0.1856810401940166,-1.5200200356995595,21.642870866875,0.1872334293483639,0.19600546868287835,206.95093278653235,17.259014932840685,0.0,1.0,0.0,0.0,1.0,Taxi
13.4,-0.06789793143519822,7.6931743257826595,21.957638499141513,0.11147064797350487,0.15191871281878142,206.81548359166095,18.14694979389389,0.0,1.0,0.0,0.0,1.0,Taxi
13.5,-0.0007567296631150637,55.74376519126117,22.652801093419956,0.13426465795320966,-0.045770009709103936,206.91853604380083,18.0392533364942,0.0,1.0,0.0,0.0,1.0,Taxi
13.600000000000001,0.09303778576228922,-1.8450170376531219,23.203080038009283,0.37074065303435283,-0.26541091406482364,206.9736894185362,17.940712943847274,0.0,1.0,0.0,0.0,1.0,Taxi
13.700000000000001,-0.07712301662346388,33.29886833727296,21.70340821837048,0.3212251565658697,1.1070763078959556,206.93808484451438,18.344272765267135,0.0,1.0,0.0,0.0,1.0,Taxi
13.8,0.16573761202324966,-32.29867763605384,20.861039686385766,-0.49739261617281494,-0.22597548992675426,206.95487262803726,18.037125703175885,0.0,1.0,0.0,0.0,1.0,Taxi
13.9,-0.06845560241798007,1.7627672929892972,20.175534789966097,0.012530663616197327,-0.3329388555602182,206.74879731447504,18.089447249897415,0.0,1.0,0.0,0.0,1.0,Taxi
14.0,-0.06830918015851747,-2.40037136669387,21.615389435811185,0.04308816907494347,0.21700491172505348,206.97532263848996,18.037893273431354,0.0,1.0,0.0,0.0,1.0,Taxi
14.100000000000001,0.15373575518978022,17.92032353087437,20.96699790121869,-0.2744013399616605,0.12592720764750256,206.7786873563523,17.8898358357463,0.0,1.0,0.0,0.0,1.0,Taxi
14.200000000000001,0.021146015236391716,2.621341451471975,21.205548202297074,0.09485498623019617,-0.7023957738051637,206.88991084437293,16.827634566888158,0.0,1.0,0.0,0.0,1.0,Taxi
14.3,-0.055202472901157665,-33.8498136615679,21.087504478969,0.325769929065835,0.5613391272818693,206.88978128651559,17.761250670450526,0.0,1.0,0.0,0.0,1.0,Taxi
14.4,-0.015513313118059344,22.832268503562858,21.370288026555052,-0.14129519733438434,-0.047097287675416655,206.91246892370282,17.441344152320685,0.0,1.0,0.0,0.0,1.0,Taxi
14.5,0.13530735775420594,40.364550972745185,22.09435069687747,0.14329856232170818,-0.5554655476078603,206.89765233542187,17.07951965292524,0.0,1.0,0.0,0.0,1.0,Taxi
14.600000000000001,0.14662028196256818,-13.233200961793239,21.54899169887209,-0.10714632087555384,0.594392057176937,206.77957566996338,18.56034844139566,0.0,1.0,0.0,0.0,1.0,Taxi
14.700000000000001,-0.0816793179270256,-27.910147752423338,21.35958165618167,-0.05836403015220165,0.312837785798077,206.72896992658627,18.5839378021881,0.0,1.0,0.0,0.0,1.0,Taxi
14.8,-0.004243381007910821,-27.52091983916216,20.833370306709398,0.3714971014177408,-0.6322709959739571,206.9511915358121,18.399050431893055,0.0,1.0,0.0,0.0,1.0,Taxi
14.9,0.009015682766757308,-3.388938624926818,20.44995279158227,-0.032493189438631276,0.8885914201288622,206.88254012556774,17.847046840173185,0.0,1.0,0.0,0.0,1.0,Taxi
15.0,-0.09862401105165976,-0.2650248514177089,21.162977812960886,0.16846087238585866,0.32939868418309637,206.97889435191166,18.394752692221576,0.0,1.0,0.0,0.0,1.0,Taxi
15.100000000000001,-0.005568505264999431,-1.6966793443174388,21.42249302791389,-0.2982252486284637,-0.005098057812523066,206.8594833743971,17.72546672204616,0.0,1.0,0.0,0.0,1.0,Taxi
15.200000000000001,0.0005322860451700488,42.52899178906668,22.515520506552814,0.4484818868627098,0.7951094028108897,206.7234402317481,17.820838770194136,0.0,1.0,0.0,0.0,1.0,Taxi
15.3,0.11402094789367356,25.262201619223916,21.532927271288614,0.1965488638450335,0.07964889191482029,206.96056963591627,17.172704446514256,0.0,1.0,0.0,0.0,1.0,Taxi
15.4,0.12074250283112009,-6.690645176214161,22.04440626501872,0.03951840605368139,-0.01404153755201599,206.82691960684974,17.91793578399467,0.0,1.0,0.0,0.0,1.0,Taxi
15.5,-0.0329209398359008,-27.083252455950937,21.15518519928139,0.19112767658371269,-0.3301500580109945,206.89815701355792,17.749633095957456,0.0,1.0,0.0,0.0,1.0,Taxi
15.600000000000001,-0.02139531438608117,-10.862654525111294,20.74379629855467,-0.20594551120582832,0.2909252196535393,206.7992107249679,17.068114073328015,0.0,1.0,0.0,0.0,1.0,Taxi
15.700000000000001,0.06642923020556356,-5.119581011360052,20.875692501065462,0.31252452293426514,0.23830148366198994,207.0283868388392,17.69384157583695,0.0,1.0,0.0,0.0,1.0,Taxi
15.8,-0.05851884489270115,16.051865911964303,21.019626919683432,0.011221419484447687,0.007340069944855644,206.77630018539753,17.679575349816844,0.0,1.0,0.0,0.0,1.0,Taxi
15.9,0.05886401517374027,-15.043975788496994,22.73184439786598,0.03520447157404678,-0.3949931769338015,206.8302136924052,18.61822071506757,0.0,1.0,0.0,0.0,1.0,Taxi
16.0,-0.008790648736921473,-7.684202576232171,20.961930550870253,-0.02231274840936316,0.06496492708303693,206.87470153808556,18.166546796001953,0.0,1.0,0.0,0.0,1.0,Taxi
16.1,-0.09693985777386208,-30.90953729234097,21.957856080646692,-0.04011190596538322,-0.03489939288106894,206.75473843510713,17.725162851290982,0.0,1.0,0.0,0.0,1.0,Taxi
16.2,-0.09568367128796466,30.699303668006362,20.91300625155267,0.21495249690941545,-0.6667371593671005,206.89700862067457,17.84383378664579,0.0,1.0,0.0,0.0,1.0,Taxi
16.3,0.14470586960311022,16.259541971906458,22.01370636612943,0.1271997446045783,-0.7359061756620928,207.02514771556253,17.741546320797347,0.0,1.0,0.0,0.0,1.0,Taxi
16.400000000000002,-0.01564214791432986,51.94381613555917,21.6857331380684,0.20636800286434173,0.28257668940488473,206.81491045174653,17.617983139347473,0.0,1.0,0.0,0.0,1.0,Taxi
16.5,0.1640354093898311,-39.21389913492023,21.36077981981003,0.07425943668661944,-1.3009441575258445,206.903470949719,17.178226533051106,0.0,1.0,0.0,0.0,1.0,Taxi
16.6,-0.05136362607149101,8.952533605495853,21.430305042723624,0.17865833679916993,0.10270526348062999,206.58901312921193,17.643914192941782,0.0,1.0,0.0,0.0,1.0,Taxi
16.7,0.02912052011314934,15.04645258239863,21.06188994114725,-0.007751374201273947,-0.23904152887691224,206.8600637477673,17.34639100341899,0.0,1.0,0.0,0.0,1.0,Taxi
16.8,0.23926767230182416,-10.875009678967379,21.722405879294133,0.5219647428656434,0.6541233034399551,206.83265243922324,17.094282362283675,0.0,1.0,0.0,0.0,1.0,Taxi
16.900000000000002,-0.10573867446632793,-43.78039402062539,21.181772470200414,-0.237567708702366,-0.24673410457693787,206.78210690757487,17.975051039019014,0.0,1.0,0.0,0.0,1.0,Taxi
17.0,-0.18978144998997767,-22.121731834620146,20.719399100144535,0.3282058392963306,0.329742107125948,206.97210171477866,17.915072461711866,0.0,1.0,0.0,0.0,1.0,Taxi
17.1,0.12865901312872333,4.6115527854041245,20.688000013813113,0.34959986472792787,-0.1984569206188958,206.83133229965347,16.82608637606121,0.0,1.0,0.0,0.0,1.0,Taxi
17.2,-0.08268091053930737,37.542162715870866,21.558315309038157,-0.09441338660938503,0.056874076743071725,206.84620891910652,17.658097812997685,0.0,1.0,0.0,0.0,1.0,Taxi
17.3,-0.0020706364106233776,-37.450166834776354,22.402217312251146,0.5218730966949284,0.3684182654600256,206.82623738033692,18.21729082469521,0.0,1.0,0.0,0.0,1.0,Taxi
17.400000000000002,-0.05859182104515849,21.899437726967804,21.550757526548946,0.2751164311727974,-0.23127785816229007,206.67227508063934,18.24905200119341,0.0,1.0,0.0,0.0,1.0,Taxi
17.5,0.02681627809553161,-18.596596861590164,21.383579562738955,0.270246175948316,0.498277442249202,206.7507580238082,18.23235855318787,0.0,1.0,0.0,0.0,1.0,Taxi
17.6,-0.09505362071857422,8.11956245136558,21.626258242166408,0.08162281198890907,-0.4968489385532416,206.96006601642785,17.73889673519598,0.0,1.0,0.0,0.0,1.0,Taxi
17.7,-0.01799400878833061,3.6330509120243684,22.23836360342898,0.03257314293999844,0.14729642127918954,206.65296160312778,17.29691746776067,0.0,1.0,0.0,0.0,1.0,Taxi
17.8,0.044981532655653425,-1.155453581770388,21.586392059223197,0.0341366091758121,0.4613198613939264,206.78732513285422,17.177590718066217,0.0,1.0,0.0,0.0,1.0,Taxi
17.900000000000002,-0.1008308886274262,-10.402878835251647,21.208206219904643,0.15412449384763716,0.33001874589516744,206.82398466218683,17.891742584120426,0.0,1.0,0.0,0.0,1.0,Taxi
18.0,-0.07000840296458889,-15.943963203101312,22.118535784440816,0.356255629590513,0.9582224383677052,207.03831885454497,17.90908014892783,0.0,1.0,0.0,0.0,1.0,Taxi
18.1,-0.03473828335985318,-8.410130959040314,21.712016421481852,0.11228121815601766,-0.38171965865533025,206.94081704436553,18.36310568754778,0.0,1.0,0.0,0.0,1.0,Taxi
18.2,-0.14288154342262782,5.5504609369428595,22.376216153602478,-0.10627035004372434,-0.689574625674294,206.80823961511055,18.26942995691629,0.0,1.0,0.0,0.0,1.0,Taxi
18.3,-0.04225609827987464,9.323587470028682,21.56470322073803,0.24090378706072968,-0.4971675542475597,206.99440803752736,17.65332580347966,0.0,1.0,0.0,0.0,1.0,Taxi
18.400000000000002,0.011879653990290185,20.585329852757006,20.720081139372585,0.26024852386269215,0.3302212832742185,206.78990508576567,17.097337192314814,0.0,1.0,0.0,0.0,1.0,Taxi
18.5,-0.039954894158842846,3.0236897973404484,20.633867038857485,0.20695028027329096,0.2489614671346893,206.96486664818917,17.559886833239798,0.0,1.0,0.0,0.0,1.0,Taxi
18.6,-0.02713764929317246,-2.7739642161897327,22.445319317743632,0.22511815588873027,0.05112832982370789,206.72806894322355,17.82805572915051,0.0,1.0,0.0,0.0,1.0,Taxi
18.7,-0.0019901670906585355,-5.1238904168777,22.488961990874863,0.021832748552172106,-0.561478524553565,206.97128245099475,17.618398509050547,0.0,1.0,0.0,0.0,1.0,Taxi
18.8,-0.0655743462432314,19.248781175972045,21.347051030435324,-0.10977945884238219,0.3834336466645304,206.82334330326876,17.43049307770642,0.0,1.0,0.0,0.0,1.0,Taxi
18.900000000000002,0.06910625658668772,29.117595914167236,21.224850165723293,-0.09762031154442224,-0.6123523888252702,206.76110624372177,17.845882539230196,0.0,1.0,0.0,0.0,1.0,Taxi
19.0,0.14359781248017758,3.827261404737319,22.331629133750205,-0.25107427510783786,0.5794747911884499,206.84224230650818,17.467461261039944,0.0,1.0,0.0,0.0,1.0,Taxi
19.1,-0.04643803921954485,-4.117286687783391,20.79053514917879,0.12340809689292367,1.4287192115699325,206.8916910857879,17.405407089882562,0.0,1.0,0.0,0.0,1.0,Taxi
19.200000000000003,0.04851982314777071,-33.51190560472845,20.917926347031386,0.059328617938415,0.18322557328577524,206.81448182476333,17.875166548896967,0.0,1.0,0.0,0.0,1.0,Taxi
19.3,-0.023961715543464695,16.597354744679077,21.84075863521831,-0.011979166322208024,0.29155406782887155,206.91935201841534,17.518443841680646,0.0,1.0,0.0,0.0,1.0,Taxi
19.400000000000002,0.036548734503850475,21.611625994510955,21.21799948468913,-0.5151053902852802,-0.2464298844477797,206.8056572794494,17.841492326234423,0.0,1.0,0.0,0.0,1.0,Taxi
19.5,0.15657795312032544,14.96553396905493,21.451689438372842,-0.17344511935510007,-0.9051066605434082,206.92599390720898,17.856042143171308,0.0,1.0,0.0,0.0,1.0,Taxi
19.6,0.05086595430180988,-42.7780376769637,21.356696819290175,0.3001865048643671,-0.30135968151511117,206.90817887401954,17.14972563119946,0.0,1.0,0.0,0.0,1.0,Taxi
19.700000000000003,-0.1773414538809681,-22.2356779951259,21.657307287684244,-0.05690682542889247,-0.5464476205493747,206.85786436234503,17.478819569812543,0.0,1.0,0.0,0.0,1.0,Taxi
19.8,0.0453995631446959,14.484084005818225,22.299251675193112,0.14813671011510202,-0.7235022882075078,206.81981843657923,18.43832860170348,0.0,1.0,0.0,0.0,1.0,Taxi
19.900000000000002,0.12328637433090094,31.036367376231578,21.50911350254593,-0.20211871141131754,0.8611799709978246,206.87911074739236,17.138400375378104,0.0,1.0,0.0,0.0,1.0,Taxi
20.0,-0.02215961699981027,10.832783493417486,21.841125834371,0.36375947105558,0.1364312590128865,206.91898204211918,16.661112907259984,0.0,1.0,0.0,0.0,1.0,Taxi
20.1,0.09956348061178324,-38.45958568921909,20.22465929778627,0.047212842572798445,0.18984379030699183,207.07013658308904,16.788517555123992,0.0,1.0,0.0,0.0,1.0,Taxi
20.200000000000003,-0.06901155411519459,-25.27885979048341,21.425531517246814,0.13402645388044077,-0.15451118259812477,206.95789870999567,17.733995105033582,0.0,1.0,0.0,0.0,1.0,Taxi
20.3,-0.1485539159522274,-17.08931574570383,20.94882439622916,0.5411743329600707,-0.08643554122171818,206.96155566279742,17.734898770761596,0.0,1.0,0.0,0.0,1.0,Taxi
20.400000000000002,0.014116901883264017,-21.32722359188735,20.72347472215071,0.3793063947016145,0.4822753411196667,207.17280788730181,17.660634704032688,0.0,1.0,0.0,0.0,1.0,Taxi
20.5,-0.17564767207463142,24.915362932573657,20.92787113824763,0.014705250326322167,-0.01616855934760772,206.91555251549266,18.3265350462095,0.0,1.0,0.0,0.0,1.0,Taxi
20.6,-0.023977101289359176,22.91346487625727,21.254288493984397,-0.04262566239033812,0.2653469690123664,206.91242101894704,16.38302291519378,0.0,1.0,0.0,0.0,1.0,Taxi
20.700000000000003,0.1286842262645503,-3.0657236999993245,22.004304083818493,0.01090937227982737,-0.09800214892250793,206.934358175248,17.91740706896066,0.0,1.0,0.0,0.0,1.0,Taxi
20.8,-0.1909762905746281,-20.794515660406113,20.658926927761144,0.17799802427904088,-0.1710764453660236,206.763060070057,18.500159232647036,0.0,1.0,0.0,0.0,1.0,Taxi
20.900000000000002,-0.12794967959138978,-46.37749015614161,21.473141453961535,0.0549735477335595,-0.703457082800931,206.81956650417396,17.15554974929939,0.0,1.0,0.0,0.0,1.0,Taxi
21.0,-0.10320322451615777,36.92886092070643,21.164260898404738,-0.003030454416960607,-0.988874531183564,206.8133397411466,17.5295368758503,0.0,1.0,0.0,0.0,1.0,Taxi
21.1,-0.006331985971095997,18.275600205353783,21.258158701787707,0.3694546247255422,-0.1307809505332009,206.92871806553785,17.342994173130936,0.0,1.0,0.0,0.0,1.0,Taxi
21.200000000000003,-0.03657167856462092,48.62337253715332,22.056417253587647,0.05317639622816635,0.028248345996616346,206.84653921159372,17.272267108706483,0.0,1.0,0.0,0.0,1.0,Taxi
21.3,0.13991363816960875,20.35336377605316,21.77763182060724,0.5359361931911977,-0.6430650183543954,206.87777901036327,17.55630912923373,0.0,1.0,0.0,0.0,1.0,Taxi
21.400000000000002,0.09543483290916975,17.21979463429616,22.25720142287053,0.09416688733416834,-0.01723743251731644,206.97270212983062,18.4331827735875,0.0,1.0,0.0,0.0,1.0,Taxi
21.5,0.0495272946068598,-25.070121347044047,21.362059150854943,0.4330820534286792,0.026876281495251012,206.95027174168627,18.63813346948901,0.0,1.0,0.0,0.0,1.0,Taxi
21.6,0.014563031434388482,-11.222371042137391,21.03719699140246,0.1474822591258591,-1.0780040030296896,206.84778456751178,17.551470519225173,0.0,1.0,0.0,0.0,1.0,Taxi
21.700000000000003,0.03932297769848273,-27.145106027639454,21.320447268276585,0.2686104892336233,-0.4575623297397506,206.79695715812795,18.671970238777483,0.0,1.0,0.0,0.0,1.0,Taxi
21.8,-0.0861982355313375,14.231600784254558,21.60026063316762,-0.06890383571981115,0.20363194686773425,206.97748414098112,17.73722837023756,0.0,1.0,0.0,0.0,1.0,Taxi
21.900000000000002,0.08572103535566122,-30.105480626880563,21.56070657347711,-0.09473346993374865,0.19352936469787194,206.94134578590683,18.59628564509579,0.0,1.0,0.0,0.0,1.0,Taxi
22.0,-0.11120442543592012,33.94718698431213,20.804129715064864,0.16795956558673125,-0.5768374581998803,206.70333098598633,17.672790806918503,0.0,1.0,0.0,0.0,1.0,Taxi
22.1,0.0835376993902231,6.578642971244385,21.50905642738161,0.2737290230767968,0.07922402524986748,206.832641273925,17.78496904476832,0.0,1.0,0.0,0.0,1.0,Taxi
22.200000000000003,0.1186142502118831,26.458177128945778,21.591699556488226,0.0840696749838263,0.5112036126802361,206.88050821401748,17.902177368066667,0.0,1.0,0.0,0.0,1.0,Taxi
22.3,0.02108646020880872,-20.23180105728413,22.965246980925237,-0.18126029243300573,0.3885364794954491,206.94183963952798,19.308866971429016,0.0,1.0,0.0,0.0,1.0,Taxi
22.400000000000002,-0.01762130589619759,-15.716651876183144,22.580869325173886,-0.19603329867413172,-0.04764289350696728,206.9549668173098,18.145082919167642,0.0,1.0,0.0,0.0,1.0,Taxi
22.5,0.04003099083096733,-61.447659443775194,20.94281654806959,-0.20940890585351452,-0.2339881566621462,206.89234726793336,17.365807866769515,0.0,1.0,0.0,0.0,1.0,Taxi
22.6,-0.2861518370100673,9.569425548948752,21.282332541475377,-0.27750604800414247,-0.3146722421672522,206.92248142095173,18.203939066883176,0.0,1.0,0.0,0.0,1.0,Taxi
22.700000000000003,0.030225821848546126,-10.273278122989597,20.57669735730268,0.09791544647315123,0.23390989145482854,206.8703703480537,17.53852386320308,0.0,1.0,0.0,0.0,1.0,Taxi
22.8,-0.011335399783980703,56.217805140873644,21.100338350026792,0.3010271589253388,0.09755198657144401,206.79657149899776,17.474565040294642,0.0,1.0,0.0,0.0,1.0,Taxi
22.900000000000002,-0.005062811305699102,8.085485888247332,21.64412556055909,0.07333521719877198,0.3147020030511002,206.8378302287117,18.173740811691303,0.0,1.0,0.0,0.0,1.0,Taxi
23.0,0.07065325128978275,0.7717015255015932,22.178274730937822,-0.37606457688383677,0.06593690656057599,206.86585578647987,17.734982925630824,0.0,1.0,0.0,0.0,1.0,Taxi
23.1,-0.0074768921564727815,-21.79157487188333,21.017312255758718,0.03786628251682398,0.40938197517372094,206.8604887428139,17.85872808900115,0.0,1.0,0.0,0.0,1.0,Taxi
23.200000000000003,-0.1140206856651158,-16.9587036744641,21.062274694364206,0.043458575257212306,0.04729626647885008,206.6753993773715,17.726432742677893,0.0,1.0,0.0,0.0,1.0,Taxi
23.3,-0.014140267082537806,2.846488112911054,20.16638914056169,0.49521812462882164,0.3923443580658432,206.82420833432286,17.887731695047965,0.0,1.0,0.0,0.0,1.0,Taxi
23.400000000000002,0.006755548408082447,25.102815364643423,21.35716300607794,-0.21540920800017754,0.43541138518331945,206.8695772331248,17.931923080463324,0.0,1.0,0.0,0.0,1.0,Taxi
23.5,0.011493391158101274,6.06644076220893,20.817313911289148,-0.0021171459361054162,-0.40226331511240676,206.83581966862528,16.75095666539254,0.0,1.0,0.0,0.0,1.0,Taxi
23.6,0.016191936728506807,19.436271216754584,21.13709890198524,0.4171889106926466,-0.904072023435373,206.83927428826473,18.052726466050014,0.0,1.0,0.0,0.0,1.0,Taxi
23.700000000000003,0.10393690449185533,-24.019369292303207,20.92864609150433,0.16601404285304333,0.7717464280072767,206.91275580489628,17.228430421830097,0.0,1.0,0.0,0.0,1.0,Taxi
23.8,-0.10860345530341475,0.27562177759564105,21.39820502585335,0.18868098928701865,0.12832936535613085,206.75606094911097,16.998290563965543,0.0,1.0,0.0,0.0,1.0,Taxi
23.900000000000002,0.01757004561648499,5.011213073993758,20.400125523590905,0.09893526198850937,-0.8572429477480608,206.70115244642068,17.690234509815905,0.0,1.0,0.0,0.0,1.0,Taxi
24.0,0.1289929698618241,-12.971538878060946,20.574535411170288,0.14200708231518666,-0.35690974860935554,206.8291396887322,17.761430633402476,0.0,1.0,0.0,0.0,1.0,Taxi
24.1,-0.17346114969371954,0.0789244923040826,22.732310825621862,0.23154028063944093,0.3859371461849142,206.940368108366,17.372687049459106,0.0,1.0,0.0,0.0,1.0,Taxi
24.200000000000003,0.017964668078005355,-37.50616401182568,20.682309009640466,-0.08587888919481956,-0.1398384155664465,207.03271197176446,18.134956060579235,0.0,1.0,0.0,0.0,1.0,Taxi
24.3,-0.05853785019730434,27.278022249281822,20.7966912113321,0.2516300903653737,-0.25603070965956354,206.94216949172528,17.048352548559794,0.0,1.0,0.0,0.0,1.0,Taxi
24.400000000000002,-0.037071038447310495,-21.689083679889503,22.556910675397674,-0.19858222879337412,0.7004409301564833,206.717130291829,17.515968257358967,0.0,1.0,0.0,0.0,1.0,Taxi
24.5,-0.0904807503214422,8.316555725451996,23.197802859949128,0.14169196915004134,-0.5236435731919052,206.84071994387818,17.427003064278747,0.0,1.0,0.0,0.0,1.0,Taxi
24.6,-0.01695507157004441,44.239319978000196,20.75182258110968,0.11176656724099916,-0.39907667887741693,206.889620105924,17.69614649657558,0.0,1.0,0.0,0.0,1.0,Taxi
24.700000000000003,0.18412556144269043,-7.192457159255819,21.233813184332064,-0.04724024305468787,0.10569323752413377,206.88171577950823,17.85887227406887,0.0,1.0,0.0,0.0,1.0,Taxi
24.8,-0.12644303611772137,-20.001185735567653,21.65969588896919,0.07148131951860438,0.19522746602694113,206.91788712311018,17.215493656933475,0.0,1.0,0.0,0.0,1.0,Taxi
24.900000000000002,-0.11696100024788275,-62.863803691808165,22.49198114504824,-0.04848965594937689,0.24817151717036576,206.77225177316973,18.081581470473363,0.0,1.0,0.0,0.0,1.0,Taxi
25.0,-0.13019345701635046,59.8369729561063,20.86264831134794,-0.13832189078861515,0.45561902228447343,206.87045097657096,17.7509413159126,0.0,1.0,0.0,0.0,1.0,Taxi
25.1,0.1727418286628101,14.145405939150825,21.30759585083962,0.005295426261004849,0.09928931034075843,206.90598895079347,16.773467005089294,0.0,1.0,0.0,0.0,1.0,Taxi
25.200000000000003,-0.046233970552128696,25.52591019631662,21.92116510404193,-0.1447793524905986,0.24469196946920457,206.94652376314616,16.740144411546733,0.0,1.0,0.0,0.0,1.0,Taxi
25.3,-0.0025639060347674215,-42.6040245546868,21.715622203084855,0.14057786740238337,-0.1296046296575416,206.78338485115455,17.713280485280592,0.0,1.0,0.0,0.0,1.0,Taxi
25.400000000000002,-0.040278294110623974,-9.641663457636085,21.229068915666826,-0.153998724246739,0.03134915161835712,206.82944098109158,17.60895647285207,0.0,1.0,0.0,0.0,1.0,Taxi
25.5,-0.09444228784030916,-4.190231725335217,21.37446877969526,0.21841377918194402,0.05376709002681721,206.59357489980857,17.66773007495793,0.0,1.0,0.0,0.0,1.0,Taxi
25.6,-0.02351506466144354,57.220530936856,20.629825073382897,-0.1602774390020303,0.10754906790951804,206.80181047105805,17.70544890348014,0.0,1.0,0.0,0.0,1.0,Taxi
25.700000000000003,0.245824360573656,46.72987598754694,21.311858312020085,-0.03724060853246754,0.3862699037913804,206.81151517851868,17.83222005150034,0.0,1.0,0.0,0.0,1.0,Taxi
25.8,0.13920709209742552,-12.355743423556726,21.294930064399512,-0.04890230705930208,0.2775728409724155,206.76199821699913,18.193264936669397,0.0,1.0,0.0,0.0,1.0,Taxi
25.900000000000002,-0.08529378177922724,-36.21339005349748,21.59406449218064,0.3410477203587015,0.02210850145009155,206.88051788283906,17.163887681286468,0.0,1.0,0.0,0.0,1.0,Taxi
26.0,0.06475741030616858,-44.47187387281263,21.121566227113473,0.14207636370705212,-0.4045629924705199,206.8583621246113,17.13345433529485,0.0,1.0,0.0,0.0,1.0,Taxi
26.1,-0.08315227726663765,-18.468596421078974,21.737685671931967,0.033671614074854875,0.03383562903135477,206.63803528005815,17.172778202801556,0.0,1.0,0.0,0.0,1.0,Taxi
26.200000000000003,-0.1776367638846221,7.438736292058887,22.06239204909678,0.1757622627976784,-0.014008892447871967,206.88550746474607,17.8638984653296,0.0,1.0,0.0,0.0,1.0,Taxi
26.3,0.10195109176646296,39.83231238619856,21.548020155005965,-0.34542009488220393,0.09659078990659918,206.77112425473695,18.34191382106847,0.0,1.0,0.0,0.0,1.0,Taxi
26.400000000000002,0.11600928466435508,56.44839779788242,21.665816403444406,0.06739165665555225,1.103262653570201,206.9125255637349,17.503770412625492,0.0,1.0,0.0,0.0,1.0,Taxi
26.5,0.10460522510478994,-29.787523337684036,21.486655766951603,0.4755212101446863,-0.2618863892706177,206.73577154304303,16.46859020966542,0.0,1.0,0.0,0.0,1.0,Taxi
26.6,-0.046986524921957276,-26.53737161291073,21.45481319425973,0.10248767586426824,0.21114450956267977,206.8669573216689,16.86744370044006,0.0,1.0,0.0,0.0,1.0,Taxi
26.700000000000003,-0.016677573400198622,-5.925733947795507,21.021827738279175,0.08960100841760082,0.5342310336221491,206.83564033492712,17.302921770347243,0.0,1.0,0.0,0.0,1.0,Taxi
26.8,0.07497655536581233,17.22722573135361,21.644659115408867,0.18564405051217295,0.04900095704969144,206.89426685631088,17.44057568799764,0.0,1.0,0.0,0.0,1.0,Taxi
26.900000000000002,0.03914960373481072,-4.5372347459011495,21.39639059935679,0.2551394232466029,1.1689225595860826,206.876426395581,17.515245818117887,0.0,1.0,0.0,0.0,1.0,Taxi
27.0,-0.03936374712970443,-47.37674747552575,22.71066354376324,-0.32347496399423825,-0.18901964586573836,206.83844025031374,17.738730693235706,0.0,1.0,0.0,0.0,1.0,Taxi
27.1,-0.16190718201181648,-5.552416864121881,22.39877549989003,-0.26044692177447165,0.16204461116002353,206.71032943641148,17.563566966334026,0.0,1.0,0.0,0.0,1.0,Taxi
27.200000000000003,0.011387519414201228,29.452942210663178,21.686270489938785,0.11807663280096303,-0.399402872446491,206.71623587146973,18.24410993701695,0.0,1.0,0.0,0.0,1.0,Taxi
27.3,0.10790096392361133,8.429670621680174,20.996928232588022,-0.06695693779576822,-0.17576236757164657,206.8055679739066,17.381431478904563,0.0,1.0,0.0,0.0,1.0,Taxi
27.400000000000002,-0.11975882890341571,10.49768375067932,20.787315675214835,0.3384234270277166,0.12446695519832895,206.86312867942286,17.288281152007478,0.0,1.0,0.0,0.0,1.0,Taxi
27.5,0.0638759381675977,-14.949358882048392,22.169448330258202,0.012983496606688946,0.42315203115386485,206.80313187309594,17.95887790100548,0.0,1.0,0.0,0.0,1.0,Taxi
27.6,0.03315416951336927,38.95473104532983,21.612412093493166,-0.3108877725588899,0.1595474170117871,206.92647786087377,16.95161909678219,0.0,1.0,0.0,0.0,1.0,Taxi
27.700000000000003,0.07501482632323336,4.664322360860617,21.74284860043985,-0.1775844087850657,0.629557424667368,206.8360345758947,17.91428598440525,0.0,1.0,0.0,0.0,1.0,Taxi
27.8,0.08719754997190073,-20.520138741180904,20.408010966220367,-0.47391682934238133,-0.04748265529633587,206.76745539533795,17.77071672360838,0.0,1.0,0.0,0.0,1.0,Taxi
27.900000000000002,-0.0694465241925353,-47.342153267945584,22.011225647339792,0.029193267127151215,-0.16608426491950268,206.83614703851708,17.645718886786163,0.0,1.0,0.0,0.0,1.0,Taxi
28.0,-0.16169594001649462,-28.109900508037725,21.727414761333502,0.03834154913085705,1.3519925536396933,206.88654265144748,18.51357818531988,0.0,1.0,0.0,0.0,1.0,Taxi
28.1,-0.05335195256828793,31.671851189047228,20.788504147756196,-0.008874167372645833,0.19711882472101538,206.89644513969824,17.40833640909789,0.0,1.0,0.0,0.0,1.0,Taxi
28.200000000000003,0.08891273175270074,21.499109932779515,21.171847673934913,0.29179418238968147,-0.3597407729892738,207.0517945810152,18.749589217007287,0.0,1.0,0.0,0.0,1.0,Taxi
28.3,-0.054200390352597105,-3.2104759634952447,21.612992881018794,0.3157223418870725,-0.3471318811240344,206.79706573381554,17.6067244071312,0.0,1.0,0.0,0.0,1.0,Taxi
28.400000000000002,-0.0694043323857642,-54.20955318903291,21.48624263741863,0.041940689912511486,-0.47133995726567024,206.85660880165676,17.080931909260133,0.0,1.0,0.0,0.0,1.0,Taxi
28.5,-0.18213503419246385,45.893029161538216,21.27945984692275,-0.3509203589116375,0.46828467792839396,206.90656906249774,17.754399922242662,0.0,1.0,0.0,0.0,1.0,Taxi
28.6,0.1752647554550939,30.395139305659047,21.39266959756531,0.19947469068218543,-0.18218864644662092,206.8616143718957,17.181317531585865,0.0,1.0,0.0,0.0,1.0,Taxi
28.700000000000003,0.082571364142531,51.82492646398808,21.303576131480753,0.1870904202854488,0.06368123782824281,206.813894853217,17.3435622078385,0.0,1.0,0.0,0.0,1.0,Taxi
28.8,0.07698959812747645,-15.698443355429296,21.546300065666365,0.13789668861512272,-0.03175433721913436,206.7090309501814,17.917956781752995,0.0,1.0,0.0,0.0,1.0,Taxi
28.900000000000002,0.09677253867794738,-4.980105597638155,22.33765774220078,0.27231432444535686,0.3657462039704673,206.81287321191053,17.99723117607031,0.0,1.0,0.0,0.0,1.0,Taxi
29.0,0.05767083615434017,-20.28449672908586,19.914767493846107,-0.1569472447084743,-0.42337204644201004,206.75658642654412,17.40835628161812,0.0,1.0,0.0,0.0,1.0,Taxi
29.1,-0.024432885517952908,-22.629789818033498,21.312652399699072,0.4777694518207615,-0.5377861430715077,206.69129599970347,18.21314270426845,0.0,1.0,0.0,0.0,1.0,Taxi
29.200000000000003,-0.016376410412220165,-20.085454522710517,21.560670011228353,-0.11586717604463989,0.11214865359079713,206.78438878364875,18.298194010755815,0.0,1.0,0.0,0.0,1.0,Taxi
29.3,-0.04275643645921248,57.581392191890586,21.632358952217142,0.22586296002390466,0.3004796423499485,206.75924749573915,18.437591010026892,0.0,1.0,0.0,0.0,1.0,Taxi
29.400000000000002,0.26347407544150003,14.393522708432878,21.23161380961211,-0.2614511642989366,0.16626615654882038,206.92233532234513,17.98414683530811,0.0,1.0,0.0,0.0,1.0,Taxi
29.5,0.055591203129944256,-0.724721535186203,20.400729488917733,-0.11003456287027646,-0.4047268645486638,206.92406585155732,18.401154487788098,0.0,1.0,0.0,0.0,1.0,Taxi
29.6,-0.04638004413514346,-43.3848796049744,21.65155984863335,0.37929210392880097,0.3387424210456969,206.77356873885776,16.77904091775822,0.0,1.0,0.0,0.0,1.0,Taxi
29.700000000000003,0.04654967741662799,-31.335618983115197,22.491172686903393,0.023838409983563742,-0.3719304635478171,206.8379338047596,17.560486857431016,0.0,1.0,0.0,0.0,1.0,Taxi
29.8,-0.10108689178563175,39.36614319881323,20.534445715455202,0.2440028956102933,-0.26076932239319167,206.67813240160456,17.285937503583536,0.0,1.0,0.0,0.0,1.0,Taxi
29.900000000000002,0.1504506718589227,-22.531317399468403,21.973059366623797,0.12340945232758295,-0.4719767623610011,206.81452267279758,17.779053062308943,0.0,1.0,0.0,0.0,1.0,Taxi
30.0,-0.06610690958071401,30.239087009575666,21.257647424531147,0.055026743383699186,0.6505791743260154,206.90385485788602,17.43371552214688,0.0,1.0,0.0,0.0,1.0,Taxi
30.1,0.05010854326224658,-8.770581776921844,21.417967950907574,0.34878843957027167,0.3167107705136746,206.94645045677726,17.63636121077038,0.0,1.0,0.0,0.0,1.0,Taxi
30.200000000000003,0.10659776297431345,20.916752800242666,20.823023451982515,0.028686609653353658,0.3024966878394367,206.79265195964672,18.660527571847272,0.0,1.0,0.0,0.0,1.0,Taxi
30.3,0.03847685442049928,-8.132308816056545,21.25408885499136,-0.2801292469289604,0.6236057105712252,206.96914215386857,17.634580233535058,0.0,1.0,0.0,0.0,1.0,Taxi
30.400000000000002,0.009446999181963822,-21.10351089774238,22.23478931522426,-0.08462964380660731,1.4063246241193617,206.7123874756645,17.926336290340355,0.0,1.0,0.0,0.0,1.0,Taxi
30.5,0.0010802084856015158,-8.824192821841995,21.80435570359751,0.1862567203240726,-0.8546130519550778,206.73919388790148,17.60330546678313,0.0,1.0,0.0,0.0,1.0,Taxi
30.6,-0.005644109688710714,-13.423369614942805,22.49414952165085,0.15512019585623538,-0.36918829043855406,206.9349228543797,17.757296775723663,0.0,1.0,0.0,0.0,1.0,Taxi
30.700000000000003,-0.057669848892750224,-9.205710292514384,22.1612096917915,-0.23739327546335393,-0.3080875420872619,207.03106879067218,17.722448471963283,0.0,1.0,0.0,0.0,1.0,Taxi
30.8,-0.04494834297697042,30.720629410760846,21.71821456576263,-0.06885012929790649,-0.4254098111913464,206.91329986663425,17.94360216473183,0.0,1.0,0.0,0.0,1.0,Taxi
30.900000000000002,0.1479590373650935,9.363237124846913,22.50112327410556,-0.040325895256715594,-0.5387916238018563,206.85992242916245,18.302093899518837,0.0,1.0,0.0,0.0,1.0,Taxi
31.0,-0.010853663268515668,-6.726256792261375,21.718158453647863,0.0029244557608887195,-0.1498265320276828,206.6444382931636,18.543137130546913,0.0,1.0,0.0,0.0,1.0,Taxi
31.1,-0.07857962693827732,-39.91775941024887,21.951555464483118,-0.19916434313657655,-0.6083018576447025,206.66171196221148,17.87425017269983,0.0,1.0,0.0,0.0,1.0,Taxi
31.200000000000003,-0.051629759686150856,24.1781462676476,21.27681998628406,-0.04965584704016199,0.1675211837687066,206.87689762150546,18.014213574763048,0.0,1.0,0.0,0.0,1.0,Taxi
31.3,0.11003706806972231,29.228058050945037,21.494690047920407,-0.06970372246817177,0.025849160714307318,206.8281504008587,17.144007877152465,0.0,1.0,0.0,0.0,1.0,Taxi
31.400000000000002,0.06756066331644785,21.532535501875316,21.03630826442472,0.2303250265361176,0.24051433238182765,206.75337314960063,17.675501760537436,0.0,1.0,0.0,0.0,1.0,Taxi
31.5,0.0560329178232257,-27.157837592140286,22.048512919161794,0.2378426367817825,0.25386422581912627,206.8705099258989,18.189584864187044,0.0,1.0,0.0,0.0,1.0,Taxi
31.6,-0.02575211989097915,-2.0448832598306645,20.747780384535965,0.046856282965970525,0.30150342671333824,206.8754698045666,18.152424450953824,0.0,1.0,0.0,0.0,1.0,Taxi
31.700000000000003,0.057336247017294506,-24.077806063658098,21.92417276385548,-0.00238958459041258,-0.18670446841194116,206.95839825466987,17.82524499814277,0.0,1.0,0.0,0.0,1.0,Taxi
31.8,-0.0643561124950648,-0.04185664871965974,21.340371923901788,0.1040032369915564,1.0605717013168336,206.87761689611716,18.162637111529225,0.0,1.0,0.0,0.0,1.0,Taxi
31.900000000000002,-0.025961403134577454,7.928840344376009,22.157510814485274,-0.08729664690738126,0.11721555824104887,206.98679610464933,17.964823486242157,0.0,1.0,0.0,0.0,1.0,Taxi
32.0,0.09698044873917455,30.356776077394247,21.90528395164364,-0.15334804184975448,-0.9312423763123975,206.86475607077068,18.31959326087491,0.0,1.0,0.0,0.0,1.0,Taxi
32.1,0.08742776789190644,-14.445916292100577,22.547150252992964,-0.11202586720140967,-0.5011878728831087,206.85242316833512,17.864119710223804,0.0,1.0,0.0,0.0,1.0,Taxi
32.2,-0.09819098459508033,-36.50661880600642,21.89322737308807,-0.05094425821055762,-0.8702514945139078,206.97038788644056,17.54159097395973,0.0,1.0,0.0,0.0,1.0,Taxi
32.300000000000004,-0.08555264529085758,-15.31151052211309,20.51153840501294,-0.1566763853747205,0.008667314575653664,206.76611257981176,17.88736076021176,0.0,1.0,0.0,0.0,1.0,Taxi
32.4,0.010870215281340967,54.16084441240628,21.414590654665965,0.10843028639630868,-0.060902612026666816,207.1454014131425,16.25414294381886,0.0,1.0,0.0,0.0,1.0,Taxi
32.5,0.172613237466951,-21.200774231208356,20.751558242847995,0.2219615093404754,-0.2342128489497289,206.90148241563247,17.910882999937773,0.0,1.0,0.0,0.0,1.0,Taxi
32.6,-0.19155651644689942,3.3926157351418973,21.143794652985118,-0.24140128557591467,1.005463056200257,206.90203959309963,15.895233719137856,0.0,1.0,0.0,0.0,1.0,Taxi
32.7,0.027833293957050427,-62.043514124853154,22.361499618370917,0.0810441168269404,0.2744914370384554,206.9164662652131,16.85770842804254,0.0,1.0,0.0,0.0,1.0,Taxi
32.800000000000004,-0.13760433315731482,25.624683418868983,21.837282844943502,0.03203121553046661,0.3630491807231672,207.05167031534904,17.94532443221574,0.0,1.0,0.0,0.0,1.0,Taxi
32.9,-0.06343309935255456,-12.855227152694903,21.035404301257635,0.14432011169109432,-0.4655367439710516,206.94320740898308,17.958204800378645,0.0,1.0,0.0,0.0,1.0,Taxi
33.0,-0.036442841806424146,19.110699762725154,20.846532138540645,0.07343062096301611,-0.4995724456655061,206.70345106991545,17.13822574167528,0.0,1.0,0.0,0.0,1.0,Taxi
33.1,-0.04205083434368909,2.0107010773267517,21.47443181413064,-0.21470148140259243,0.018402749548477374,207.0043037062926,17.36338911080578,0.0,1.0,0.0,0.0,1.0,Taxi
33.2,-0.053379593965920846,7.43270956881224,20.724826468776207,-0.17645948518769938,0.08650356982611292,206.82986700987135,18.404710626052314,0.0,1.0,0.0,0.0,1.0,Taxi
33.300000000000004,0.0007207060376370152,-2.2949444638737426,21.052078391966933,0.08190308970072827,-0.9281557835572285,206.8746721750997,17.47742506595891,0.0,1.0,0.0,0.0,1.0,Taxi
33.4,-0.05352555666305784,-18.57322890389888,21.64196824133563,0.2817745585328356,-0.09015351142476703,206.73603127059835,18.84090028794674,0.0,1.0,0.0,0.0,1.0,Taxi
33.5,-0.14624573848541528,15.453251042928136,22.147949780068902,-0.36681909962486686,0.007036041436752403,206.91657686962822,17.718480205157075,0.0,1.0,0.0,0.0,1.0,Taxi
33.6,0.07798696125227765,25.762554675589186,21.820019441739547,0.1451636905440497,-0.10757458288556447,206.79881923880907,17.923458220185882,0.0,1.0,0.0,0.0,1.0,Taxi
33.7,0.07528721671488806,46.11263389753645,20.079988853246025,0.3139427756412624,-0.4066952061733382,206.87397363161517,18.527877330994553,0.0,1.0,0.0,0.0,1.0,Taxi
33.800000000000004,0.08431743100226691,-46.41208217573716,21.63738259582304,0.045413199342491106,-0.26976759096057,206.83554676727977,17.78495368984196,0.0,1.0,0.0,0.0,1.0,Taxi
33.9,-0.1540734496264082,-9.079080291294582,21.49798270234443,0.1860588737890219,-0.08842959678639802,207.05645794798943,17.218268141399847,0.0,1.0,0.0,0.0,1.0,Taxi
34.0,0.029891815258415083,-3.3439090843149017,21.7030967296285,-0.06459544159582672,0.045400011805023885,207.0621826978304,17.664576405898103,0.0,1.0,0.0,0.0,1.0,Taxi
34.1,0.06759788558069234,10.190648556489942,22.424488367395607,0.05214513472835836,0.302395791275284,206.86860798483735,17.7016347636502,0.0,1.0,0.0,0.0,1.0,Taxi
34.2,-0.1031202068439585,-5.7948980880404335,20.21681959232204,-0.2481643290778966,0.5404281024754356,206.87035443895275,17.037069305644465,0.0,1.0,0.0,0.0,1.0,Taxi
34.300000000000004,0.0009173248182129144,-15.84491002234578,21.10010050329022,-0.39285028710004105,-0.1471738617636249,206.8266123711809,17.591524096074835,0.0,1.0,0.0,0.0,1.0,Taxi
34.4,-0.011626664531036576,57.46705454015699,21.809306352080895,0.2645715348287888,-0.22807809805767892,206.97455729696617,17.34834408474653,0.0,1.0,0.0,0.0,1.0,Taxi
34.5,0.18421506585682637,38.306455776608885,20.50580591873252,-0.12098061096115464,0.21882783676715312,206.83106468078245,18.181619010338967,0.0,1.0,0.0,0.0,1.0,Taxi
34.6,0.1924496037012573,-30.96179496039669,22.34033198723699,-0.015087194416952387,0.3054224582054271,206.82182294035124,17.736746068837874,0.0,1.0,0.0,0.0,1.0,Taxi
34.7,-0.16643563933302008,13.035526943194517,21.675776526025277,-0.20127007607030495,-0.2171002166294428,206.96181595418238,17.578042257171465,0.0,1.0,0.0,0.0,1.0,Taxi
34.800000000000004,0.24939270057279894,-56.79443516331793,21.962712949910927,-0.20597556603304146,0.3951967384830861,206.81012675828424,17.66634916643396,0.0,1.0,0.0,0.0,1.0,Taxi
34.9,-0.09152257211533239,52.90059375315254,21.112196361491808,0.041250834564810455,0.48979267057798653,206.86018116437094,17.83100114094833,0.0,1.0,0.0,0.0,1.0,Taxi
35.0,0.09806732943274259,-30.46858049728515,21.94302077238461,-0.06989706424339556,0.6458432328293365,206.70582558966476,18.027847231590137,0.0,1.0,0.0,0.0,1.0,Taxi
