time_s,altitude_ft,vertical_speed_fpm,ias_kt,pitch_deg,roll_deg,heading_deg,throttle_pct,afterburner_on,gear_down,flaps_deg,speedbrake_pct,weight_on_wheels,label
0.0,0.08874886905353878,13.335696000999027,13.062816082609164,-1.0759870233018916,-0.20665883640515256,130.6071414598323,23.003094275714563,0.0,1.0,0.0,0.0,1.0,Taxi
0.1,0.13320118905686887,-8.773794216510726,13.315419765515049,-0.8113487792647538,-0.3589949773716556,130.65609263199406,22.477980599240475,0.0,1.0,0.0,0.0,1.0,Taxi
0.2,0.04487989797098514,-40.90726945980317,12.532553571091167,-0.7419611561480056,0.08296190782287838,130.70174695305263,23.683411490811633,0.0,1.0,0.0,0.0,1.0,Taxi
0.30000000000000004,-0.11578747824547704,-6.805682425314842,12.7954177829561,-0.7712375284948342,0.3012499399122789,130.5962535762585,24.48761193399529,0.0,1.0,0.0,0.0,1.0,Taxi
0.4,0.09917277693029468,-5.711896343430254,11.796624804549431,-0.8239731993657107,1.1721411554427434,130.6193807474819,23.0092852437436,0.0,1.0,0.0,0.0,1.0,Taxi
0.5,0.01632041625383388,1.1945569408709105,12.894796304973905,-1.0426849743924513,-0.04785135736319458,130.55234638988549,22.53933407286273,0.0,1.0,0.0,0.0,1.0,Taxi
0.6000000000000001,-0.10981469354112249,-5.614293249803396,12.823834536492395,-0.6149174804440953,-0.4336991175448922,130.60216253818487,23.6926282292585,0.0,1.0,0.0,0.0,1.0,Taxi
0.7000000000000001,0.07110131068127767,6.549932079229401,11.28698898512143,-0.6628508095441256,-0.5359777343161738,130.73074901223697,23.827990526227058,0.0,1.0,0.0,0.0,1.0,Taxi
0.8,0.049070076649980865,8.91707142246976,12.352370672869492,-0.5110394076746877,0.07880805397350514,130.67981045846784,23.90863758569714,0.0,1.0,0.0,0.0,1.0,Taxi
0.9,-0.06522933642877371,-33.58757390049757,12.60336737884889,-0.976470168478811,-0.15918154687167432,130.726317001131,23.08010699246124,0.0,1.0,0.0,0.0,1.0,Taxi
1.0,-0.09683655882121017,3.3096652034847787,12.53279623066821,-0.5509042128089395,0.17505075293952863,130.68772351474388,23.415495237821293,0.0,1.0,0.0,0.0,1.0,Taxi
1.1,0.06561840266740476,7.1109200707577385,13.424084669880035,-0.9026034540517855,0.44917874143864445,130.61687291382407,23.386978089263835,0.0,1.0,0.0,0.0,1.0,Taxi
1.2000000000000002,-0.029674736074985025,39.332709946287416,13.007297595559006,-0.5688480721643588,0.6820113563083992,130.438068531667,24.0597854255665,0.0,1.0,0.0,0.0,1.0,Taxi
1.3,0.09982699091022691,-48.75319199693436,12.955428165767133,-0.6940172927267543,-0.24788636644700904,130.73272935534317,24.58475079615361,0.0,1.0,0.0,0.0,1.0,Taxi
1.4000000000000001,-0.17814755731726706,15.762061918342004,12.730185394030073,-0.5014044073774866,0.4070542419608454,130.77343216974498,23.84175328309401,0.0,1.0,0.0,0.0,1.0,Taxi
1.5,0.049135573516724984,-5.495369678590514,12.361599722414608,-0.33722165499042067,0.6532805232203297,130.53167149636818,22.188307259374543,0.0,1.0,0.0,0.0,1.0,Taxi
1.6,0.07235014251727433,-3.7892696861321156,12.36454097138184,-0.5622836752016985,0.13345080533820508,130.5538105747906,23.149587030762696,0.0,1.0,0.0,0.0,1.0,Taxi
1.7000000000000002,-0.19709390574792765,8.771015252347999,13.043452554184002,-0.5699919580908388,0.047932325371772604,130.7739147237113,22.25261740570871,0.0,1.0,0.0,0.0,1.0,Taxi
1.8,0.09299064977846495,-28.23310571757267,13.60898317556408,-0.8542839297443116,-0.47704901850550935,130.53207759184977,23.46429315408013,0.0,1.0,0.0,0.0,1.0,Taxi
1.9000000000000001,-0.06881538607058903,70.22991513238323,14.16241249516425,-1.0170584890215821,0.19309849343445576,130.70316020809088,23.767499581552386,0.0,1.0,0.0,0.0,1.0,Taxi
2.0,0.15405566991398845,-27.136216685582394,13.874586374749114,-0.5227782295091428,-0.39530013832800837,130.44690235803324,22.652938539868327,0.0,1.0,0.0,0.0,1.0,Taxi
2.1,-0.04269043364944699,-11.21287061832306,12.87015463761423,-0.3130497674219562,-0.40284532906277065,130.6965010523203,22.85218542068837,0.0,1.0,0.0,0.0,1.0,Taxi
2.2,-0.12487973916220432,-61.09184253277906,11.940155514632238,-0.5733307749392738,0.07688733385436353,130.82775786958837,22.683226314201235,0.0,1.0,0.0,0.0,1.0,Taxi
2.3000000000000003,-0.15140354274990686,6.05287403987947,13.292858195296105,-0.8865530546007564,0.3602900245467967,130.76869224579747,22.664605637504,0.0,1.0,0.0,0.0,1.0,Taxi
2.4000000000000004,-0.01242606345004966,60.84728975941548,13.111102318375027,-0.7757672716894298,-0.3123035609772908,130.65034733015273,23.58066024612612,0.0,1.0,0.0,0.0,1.0,Taxi
2.5,0.17935670963487307,10.53243381633184,11.569285955425032,-0.6409618066397369,0.2341481923880769,130.66476862266887,22.715353625435597,0.0,1.0,0.0,0.0,1.0,Taxi
2.6,-0.09874137366824766,-4.635594308697098,13.862743150232484,-0.6933260982164451,-0.26270400543742295,130.72022450855843,23.085318830577055,0.0,1.0,0.0,0.0,1.0,Taxi
2.7,-0.03560403499353514,-60.949181456880545,12.70540611459647,-1.0914979006614587,-0.012356188477327694,130.66123582111192,23.774298361423448,0.0,1.0,0.0,0.0,1.0,Taxi
2.8000000000000003,-0.12538919764952963,45.518723355535904,12.070676706519851,-1.0462132244636473,0.1165538388100061,130.63590129624214,23.35845061581242,0.0,1.0,0.0,0.0,1.0,Taxi
2.9000000000000004,0.12885224310943189,12.229663356809532,12.274343426529551,-0.5614961265981953,-0.19765158365860488,130.74098472366694,22.7349424194716,0.0,1.0,0.0,0.0,1.0,Taxi
3.0,0.025544281790512564,31.06000166181238,12.834585037413262,-0.6249845628757912,-0.023655299385155794,130.62330943397308,23.310971693908968,0.0,1.0,0.0,0.0,1.0,Taxi
3.1,0.029910810659532345,-30.66982513723754,12.125377988359144,-1.1259178685935045,-0.25359413897208416,130.7561816478982,23.377277392587338,0.0,1.0,0.0,0.0,1.0,Taxi
3.2,-0.024496882576755818,-38.70976653033819,13.181648847368528,-0.707203779710375,0.061548053624551353,130.66451094209896,23.23406275768836,0.0,1.0,0.0,0.0,1.0,Taxi
3.3000000000000003,-0.1680045508611784,-40.38550813934828,13.319163338320774,-0.6134580858764006,0.28738189237556644,130.63275464867064,23.5803831003719,0.0,1.0,0.0,0.0,1.0,Taxi
3.4000000000000004,-0.17201673003720908,-5.798593382717239,13.340770257076159,-0.792760634467498,-0.2081682432267506,130.79308386503186,24.183532545494174,0.0,1.0,0.0,0.0,1.0,Taxi
3.5,-0.053489849490342,60.74432688688813,12.961896490591334,-1.077259596745775,-0.4441930947627764,130.93025565765208,23.39869494204633,0.0,1.0,0.0,0.0,1.0,Taxi
3.6,0.13571708357326226,46.02970594280692,12.95422047043343,-0.8133348749367783,-0.7003183657918061,130.7304900487535,23.45432933518667,0.0,1.0,0.0,0.0,1.0,Taxi
3.7,0.05813179967682556,7.455424738387355,12.823727665769233,-0.7288972958608513,0.23772567556353263,130.6814415500308,23.670596082382538,0.0,1.0,0.0,0.0,1.0,Taxi
3.8000000000000003,-0.016212725798405214,-11.338678082583149,12.590105782642716,-0.6294732071678558,-0.44754397898473264,130.78691385846003,24.09747057606879,0.0,1.0,0.0,0.0,1.0,Taxi
3.9000000000000004,0.0790236931603465,-15.445850535200178,13.633277535448073,-0.6671824565766571,-0.49260453169801566,130.74653262036014,23.647561650270745,0.0,1.0,0.0,0.0,1.0,Taxi
4.0,-0.019097452999175354,2.4235907058069386,13.831792962352019,-1.1156022834926405,0.6425821845032094,130.62523578029857,22.87898211514389,0.0,1.0,0.0,0.0,1.0,Taxi
4.1000000000000005,-0.004094772269370538,-18.234377833552358,12.250631004186541,-0.6364513687072858,0.05668010531694391,130.54600225689603,23.922290564355105,0.0,1.0,0.0,0.0,1.0,Taxi
4.2,-0.0121481960074153,-12.521404837817286,13.100361355958245,-0.7636873963060621,1.1211189260541317,130.6513853748291,24.441066867124807,0.0,1.0,0.0,0.0,1.0,Taxi
4.3,-0.08170447718826179,-4.599857112754243,13.526620819770034,-0.9429407527387001,-0.6938572144592144,130.47920208173355,23.03536324455395,0.0,1.0,0.0,0.0,1.0,Taxi
4.4,-0.02709405783314176,-15.128490375547363,10.990100233879787,-0.6220277691833171,-0.1908828892363677,130.60379592234136,21.7722259553813,0.0,1.0,0.0,0.0,1.0,Taxi
4.5,-0.08779064788515213,-2.4337875338993027,13.3589698657593,-0.4859937875239761,1.2099720091736916,130.78039244293757,23.371197825913004,0.0,1.0,0.0,0.0,1.0,Taxi
4.6000000000000005,-0.09387341485775832,49.32865459716968,12.850150552967847,-1.1278789779241802,0.20716575960683228,130.72729508324147,23.109724486166225,0.0,1.0,0.0,0.0,1.0,Taxi
4.7,0.21954921515270664,-10.718085103028756,13.020155154558946,-0.6268368399142288,0.009110578841689025,130.55888732610208,23.607800416429086,0.0,1.0,0.0,0.0,1.0,Taxi
4.800000000000001,-0.14138107340029596,40.063758530792065,13.958065238527753,-0.6263159702581345,0.9332150123415649,130.8028273384972,23.026324688313778,0.0,1.0,0.0,0.0,1.0,Taxi
4.9,0.10644537779620195,-36.53975708469517,12.152514083211136,-0.7903133707686494,-0.0648708744089669,130.70511148660665,23.107601257930707,0.0,1.0,0.0,0.0,1.0,Taxi
5.0,0.03685042972923075,15.69100198974622,12.816411637540867,-0.6144269119138684,-0.1875760921814895,130.58316672219212,23.3102895534642,0.0,1.0,0.0,0.0,1.0,Taxi
5.1000000000000005,-0.06292606345156486,-3.8858967138990343,12.598975387298628,-1.0839153725993682,0.7255248018949183,130.6306122919898,23.521364535900727,0.0,1.0,0.0,0.0,1.0,Taxi
5.2,0.08701589422670675,11.860935138199295,13.822433183928643,-0.5572186150763944,0.459959372819013,130.58179604501254,24.110999377207335,0.0,1.0,0.0,0.0,1.0,Taxi
5.300000000000001,0.0961551054202272,-2.468314361115707,13.046859403237102,-0.6059422847945574,0.1954554161415366,130.63308052504306,23.020494517351626,0.0,1.0,0.0,0.0,1.0,Taxi
5.4,-0.07526763525714342,-16.76013098424198,12.746862446132868,-0.4910650259204483,-0.2647692603982949,130.7086773523789,23.22047834328296,0.0,1.0,0.0,0.0,1.0,Taxi
5.5,0.0032152393054968548,-32.89153167767001,13.65185777255083,-0.4234937733492157,-0.1804570521502151,130.54816346629752,23.474732055699423,0.0,1.0,0.0,0.0,1.0,Taxi
5.6000000000000005,-0.06830255296812283,7.862059374347699,12.367734008597209,-0.4403654671905989,0.27549348687764147,130.7476474992884,23.014505932737734,0.0,1.0,0.0,0.0,1.0,Taxi
5.7,-0.03595733838540493,-44.84260980783309,13.314668015396958,-0.5577677476777414,-0.13384711719969644,130.63099269670772,23.432453867341334,0.0,1.0,0.0,0.0,1.0,Taxi
5.800000000000001,-0.2209978097336686,27.876079306062877,11.514507045000702,-0.4917634535117972,-0.07955856876183778,130.69358888476302,21.967276263820445,0.0,1.0,0.0,0.0,1.0,Taxi
5.9,0.07107784356219143,-12.552671199096531,11.973042129904531,-0.8774228813832881,0.3271879313948827,130.63509310654445,23.610641226909905,0.0,1.0,0.0,0.0,1.0,Taxi
6.0,-0.09872069438088772,66.4196795572534,12.29692226829647,-0.7253018490641203,0.06439617956907173,130.69315512189007,22.682562712364263,0.0,1.0,0.0,0.0,1.0,Taxi
6.1000000000000005,0.11110058805259829,-43.817289723141954,12.609838071070763,-0.6676135052954504,-0.7138472755105713,130.71650406355639,23.040342429992542,0.0,1.0,0.0,0.0,1.0,Taxi
6.2,-0.14800860505351843,38.79633517491498,12.78728383212187,-1.0058459276811322,0.5455349081388862,130.75670666272777,22.63264656351184,0.0,1.0,0.0,0.0,1.0,Taxi
6.300000000000001,0.09526098149368709,-1.3860304507519416,13.289275713581958,-0.6508039905198085,0.31720212306088647,130.80639022247158,23.360913092364225,0.0,1.0,0.0,0.0,1.0,Taxi
6.4,0.10417043579883851,-0.9797732826076905,13.090604560779763,-0.5160031657229385,-1.0442068531016548,130.47435337115007,22.239724437040486,0.0,1.0,0.0,0.0,1.0,Taxi
6.5,-0.15290747146655692,-21.94947285684715,12.748400029632286,-0.8537556703304275,-0.6308097861970425,130.73988059256163,23.78932713487437,0.0,1.0,0.0,0.0,1.0,Taxi
6.6000000000000005,-0.014486382790548716,-18.14095304595345,12.82388442786825,-0.8803063263682038,-0.5230975858027285,130.8221961467782,22.65235360776538,0.0,1.0,0.0,0.0,1.0,Taxi
6.7,0.013465670569071232,46.53901992907731,13.144943018940392,-0.6108217455448823,0.29916323098259073,130.65324837701263,23.17312410735312,0.0,1.0,0.0,0.0,1.0,Taxi
6.800000000000001,0.0797876281788296,8.036153219109726,12.967255020617676,-0.6584196225405674,-0.20381523660571219,130.5803591470081,22.905492646283253,0.0,1.0,0.0,0.0,1.0,Taxi
6.9,0.02569438330499991,-25.227211092340795,12.7263888051089,-0.36344970055451087,-0.5654924224923638,130.64063983309273,23.549023206705762,0.0,1.0,0.0,0.0,1.0,Taxi
7.0,-0.11267038489263276,-42.875508704972475,13.92964228338029,-0.7711059371591462,0.2558563651995568,130.81172798284143,23.463281074383836,0.0,1.0,0.0,0.0,1.0,Taxi
7.1000000000000005,-0.13458991534603282,-14.611661350845106,12.60018994481326,-0.7600841052766644,0.6929606177270855,130.73288369577165,23.383104538392022,0.0,1.0,0.0,0.0,1.0,Taxi
7.2,-0.04736392344922566,15.227763125533784,12.093448443931553,-0.7096178712072864,0.28350222157120597,130.57817828276308,22.84944050170947,0.0,1.0,0.0,0.0,1.0,Taxi
7.300000000000001,-0.03653156926496384,11.337415242230426,12.210467477629452,-0.6899002412695426,-0.8293989948993447,130.76266284038684,23.380448548408822,0.0,1.0,0.0,0.0,1.0,Taxi
7.4,-0.07790283913488068,44.218379019712955,13.842505641531048,-0.5632080911937071,-0.1992824878854596,130.85333690020593,23.755751828836658,0.0,1.0,0.0,0.0,1.0,Taxi
7.5,0.17372797164933917,-5.879524670635898,13.481878286348612,-0.5318503957675855,-0.6428249273937887,130.5525246904229,23.23645144225652,0.0,1.0,0.0,0.0,1.0,Taxi
7.6000000000000005,-0.06592919261814324,2.4463350610038663,13.245292375341128,-0.7256842689768642,-0.07517261629088808,130.72176832686716,23.10026057325113,0.0,1.0,0.0,0.0,1.0,Taxi
7.7,-0.06567116382986127,-10.997678429951483,12.694622484355397,-0.6571723030229732,-0.27873301700330577,130.79675156918017,23.14328020650456,0.0,1.0,0.0,0.0,1.0,Taxi
7.800000000000001,0.11873957949958179,23.858802264095203,13.393153461989245,-0.7661412780901165,-0.01784720122822031,130.75524916800578,24.24232181670802,0.0,1.0,0.0,0.0,1.0,Taxi
7.9,0.05336481870233278,48.68731403671607,12.207959748713286,-0.842070915724356,-0.45336914607166046,130.57975946198167,23.44309844555286,0.0,1.0,0.0,0.0,1.0,Taxi
8.0,0.17776540635371907,-9.238171333330131,12.719371635064721,-1.1141576830397688,-0.7305145309523076,130.54720995954614,23.061893052691026,0.0,1.0,0.0,0.0,1.0,Taxi
8.1,0.07254872283293114,-12.525834174302744,12.526018058548056,-0.8690226268522196,-0.8032728754822487,130.70607008572745,23.22849803098432,0.0,1.0,0.0,0.0,1.0,Taxi
8.200000000000001,-0.009264352169180935,-26.152263084873088,12.892660073188821,-0.7317101522541227,0.1380998529452101,130.54986007559694,22.817185001819777,0.0,1.0,0.0,0.0,1.0,Taxi
8.3,0.04700409092935362,-19.262644693658977,12.75415279113683,-0.8954004029128999,-0.3051495875885308,130.6881062900431,23.10476524049094,0.0,1.0,0.0,0.0,1.0,Taxi
8.4,-0.02376450063536374,-7.295383689483979,13.432198506874723,-0.781327495952623,-0.9588473991005372,130.60296367070293,23.547622433299175,0.0,1.0,0.0,0.0,1.0,Taxi
8.5,-0.045741270616600826,1.110025128622728,12.659184584013998,-0.9867625001735791,-0.15497042860181356,130.72294728570625,23.779462571991342,0.0,1.0,0.0,0.0,1.0,Taxi
8.6,0.05255421657246726,20.611057742070376,14.353569511581497,-0.6384921386964095,0.33552600917217024,130.80709892112782,24.236720736691556,0.0,1.0,0.0,0.0,1.0,Taxi
8.700000000000001,0.07929078807498813,11.862212399447856,13.633115626252348,-0.6092870173142342,-0.7918855313329958,130.73122867275305,22.88345339611609,0.0,1.0,0.0,0.0,1.0,Taxi
8.8,0.013569791380638466,-0.11428379734280607,12.96023681282754,-1.1526826159651926,-0.11773395984142528,130.62686119048135,23.17824779859122,0.0,1.0,0.0,0.0,1.0,Taxi
8.9,0.05198279758575324,-9.075297834104909,13.96681587627518,-0.8375876926174324,-0.07323474379455765,130.51765488069475,23.413379528079425,0.0,1.0,0.0,0.0,1.0,Taxi
9.0,0.0339142989044636,-1.6985667768468602,13.209161275535966,-0.8342645774261511,-0.19181291096536005,130.78543454463056,23.281824796636194,0.0,1.0,0.0,0.0,1.0,Taxi
9.1,0.0050769574964041764,-41.593153512266255,13.334477084997433,-0.9706163291360344,0.04040904437602764,130.66797064257491,23.325479112941352,0.0,1.0,0.0,0.0,1.0,Taxi
9.200000000000001,-0.155982969975578,-27.956163569741506,13.030110497288353,-0.8563037101454123,-0.23975374379909603,130.74941918135312,23.730689246931544,0.0,1.0,0.0,0.0,1.0,Taxi
9.3,-0.10586651894424391,-7.351557474257852,11.806848211149514,-0.6082859789321887,-0.45930799800339933,130.56222575015386,23.010231235383216,0.0,1.0,0.0,0.0,1.0,Taxi
9.4,-0.031680829874885075,-21.517322805575304,12.61034552078054,-0.6781718837013817,0.4455487853004689,130.82019668017654,23.297693245382497,0.0,1.0,0.0,0.0,1.0,Taxi
9.5,-0.26356958400345454,28.157180810973358,14.209751141564995,-0.754763986507644,0.10904947480021047,130.7631373832969,22.305306004542054,0.0,1.0,0.0,0.0,1.0,Taxi
9.600000000000001,0.034919385110622876,20.020303201948206,13.327350205060313,-0.7287626844703956,-0.310027742403145,130.5032247671487,23.5639001847216,0.0,1.0,0.0,0.0,1.0,Taxi
9.700000000000001,0.06842068613485597,57.66742459545416,13.061001356439755,-0.6252025732280405,-0.17671097608598946,130.71188332745004,24.291646291976303,0.0,1.0,0.0,0.0,1.0,Taxi
9.8,0.02476753897381627,-12.17515892353333,14.24642979784945,-0.7776570267042545,-0.9315266948258476,130.70960880572818,23.480658394140324,0.0,1.0,0.0,0.0,1.0,Taxi
9.9,-0.02595640950704376,-31.960095974801344,12.998318757306647,-1.0632358854714685,0.6216769986738317,130.61220052070541,23.585807524173457,0.0,1.0,0.0,0.0,1.0,Taxi
10.0,-0.09137979373915074,-14.595519641881785,12.490963245340527,-0.7242758861697752,0.15784125276269892,130.55163468778522,23.268319365263118,0.0,1.0,0.0,0.0,1.0,Taxi
10.100000000000001,-0.04821005923559263,-14.96092199961995,13.406290633093555,-0.8553711134080266,-0.1661198632399664,130.68077315896738,22.84716066647402,0.0,1.0,0.0,0.0,1.0,Taxi
10.200000000000001,-0.10076101950514349,28.06642871992773,12.247451958581294,-0.9733373981011155,-0.3291937661255063,130.53126836952936,23.749604834398756,0.0,1.0,0.0,0.0,1.0,Taxi
10.3,0.04895234986048794,26.079755535185058,13.186939713172682,-0.8419099628531365,-0.6051553625615648,130.7265823937937,23.05161489078176,0.0,1.0,0.0,0.0,1.0,Taxi
10.4,0.08218871844033268,20.141811318618053,13.62613373289717,-0.6237646992189754,0.2754541279592495,130.51854304683468,24.326237289823183,0.0,1.0,0.0,0.0,1.0,Taxi
10.5,-5.196291205318913e-05,-19.187690210228627,12.509258823034678,-0.7956064717757169,-0.5557590606903591,130.70688965705426,23.081683083332187,0.0,1.0,0.0,0.0,1.0,Taxi
10.600000000000001,-0.04698610119065516,2.4625520181606126,12.81707348872155,-1.0414039630295027,-0.19876673640444667,130.78247525053666,22.950363811720724,0.0,1.0,0.0,0.0,1.0,Taxi
10.700000000000001,0.09450147853113579,6.46506837915387,12.947223736968708,-0.8644499742041052,0.4912937434931631,130.85386002341534,22.88316210401124,0.0,1.0,0.0,0.0,1.0,Taxi
10.8,0.032273378983716204,19.54057202245956,12.773916474096858,-0.4985966226272864,-0.1647321212790698,130.51705054647675,23.13053454150038,0.0,1.0,0.0,0.0,1.0,Taxi
10.9,0.05071675892164269,-32.18328528201814,13.349441300236805,-0.6671716284303364,0.24226232995105434,130.7067608239521,23.318524819635304,0.0,1.0,0.0,0.0,1.0,Taxi
11.0,-0.06641494787895487,12.363092574702238,13.372518450973626,-0.039638232786813,0.4685511375675919,130.6000616208987,22.628400659967888,0.0,1.0,0.0,0.0,1.0,Taxi
11.100000000000001,0.0940888418572274,-11.30721390761659,13.414934309261586,-0.7626850255865979,-0.051686104207461746,130.55143601004045,23.522952792578106,0.0,1.0,0.0,0.0,1.0,Taxi
11.200000000000001,-0.005819310616440237,41.058818392875274,12.84049968372216,-0.5914375116784054,0.5350019174735503,130.6102125270661,24.148899693215377,0.0,1.0,0.0,0.0,1.0,Taxi
11.3,0.13887914408542154,-3.895291586607449,12.40933356471331,-0.7574897290093522,-0.37301102527075863,130.57666240618454,23.352561054500207,0.0,1.0,0.0,0.0,1.0,Taxi
11.4,0.07461238392419021,-5.691456680324042,13.254505096784257,-0.9183497325230154,-0.06055882061095405,130.74066366106922,22.79226990143564,0.0,1.0,0.0,0.0,1.0,Taxi
11.5,-0.034276594018060394,-14.310876234425768,12.537190652754022,-0.4938811407103741,0.11930471146830517,130.60447072607917,23.487033101554683,0.0,1.0,0.0,0.0,1.0,Taxi
11.600000000000001,0.06732476291329276,12.608124676179296,13.440309331065059,-0.784537329281492,-0.2596647236166075,130.7460161209384,23.025161578030893,0.0,1.0,0.0,0.0,1.0,Taxi
11.700000000000001,0.13765300730508676,-21.419526797217316,13.805178411457018,-0.7063024202875307,0.4128158330180281,130.75761010011092,24.22406806856733,0.0,1.0,0.0,0.0,1.0,Taxi
11.8,-0.14137422800414692,-6.11376869459571,12.201661155667544,-0.5861554902518191,0.13668553023195829,130.58072240490185,24.26651658653183,0.0,1.0,0.0,0.0,1.0,Taxi
11.9,0.036755919440314234,-49.06869556140765,12.979197603402772,-1.0847894407436554,-0.008116143151683991,130.77965755796583,22.888103025127094,0.0,1.0,0.0,0.0,1.0,Taxi
12.0,-0.10769047050195149,46.25067811402091,12.607862456231627,-1.137691977627844,0.49896522555561046,130.56254246723324,23.67869840424917,0.0,1.0,0.0,0.0,1.0,Taxi
12.100000000000001,0.08987916256595765,10.57032095257049,13.75479108406555,-0.8224098259902305,-0.0786604294319815,130.5796871853217,23.63665237619739,0.0,1.0,0.0,0.0,1.0,Taxi
12.200000000000001,0.08960752420316673,25.777358816995626,12.901239931389156,-0.771455901764966,-0.5955008094939972,130.61888763195253,22.734660598887572,0.0,1.0,0.0,0.0,1.0,Taxi
12.3,0.0211963235830267,-1.0029631315349714,13.35834924407951,-0.8553901505367668,0.02681026053869011,130.56814413553138,23.245197461116174,0.0,1.0,0.0,0.0,1.0,Taxi
12.4,0.08486434690828283,-2.3497023189078186,13.536318937704669,-0.8529391325763784,-0.5847749356827192,130.65447969146373,23.370599781224122,0.0,1.0,0.0,0.0,1.0,Taxi
12.5,0.07785901260862767,-4.145037878106656,13.688436859544574,-0.7963126575129407,-0.9411870868207096,130.7375872919131,22.547753674185035,0.0,1.0,0.0,0.0,1.0,Taxi
12.600000000000001,0.0004711341924934489,-53.57407062705858,12.856290075631133,-0.8578182588493638,0.018051233355397562,130.73253799138126,23.718119337768627,0.0,1.0,0.0,0.0,1.0,Taxi
12.700000000000001,-0.18300600622701008,-31.181518448803285,12.38235890176496,-0.47680599918866434,-0.5634740084417342,130.72086963420247,23.616029705907113,0.0,1.0,0.0,0.0,1.0,Taxi
12.8,-0.07804857963538872,32.63468086177986,12.750690314983164,-0.8314265412707561,0.5531191481807077,130.6863091777746,23.27420013843836,0.0,1.0,0.0,0.0,1.0,Taxi
12.9,0.16364453850139282,34.46331663661659,14.204854078160643,-0.5309070426605995,-0.3030573812688297,130.6659203831016,22.817239871137836,0.0,1.0,0.0,0.0,1.0,Taxi
13.0,-0.010689423043927077,12.559461565669556,12.786955677796916,-0.9860040138337521,-0.32207713826368334,130.57519049085033,23.119176594589153,0.0,1.0,0.0,0.0,1.0,Taxi
13.100000000000001,-0.015251271807040884,-26.99765715829595,12.992076117195964,-0.9554712680033293,-0.01189570162696861,130.62299441976973,23.984667647800613,0.0,1.0,0.0,0.0,1.0,Taxi
13.200000000000001,0.02865625270991313,22.878743189730006,12.242172429321428,-0.797097191932256,-0.8107054022756193,130.61738730032812,23.458583959076993,0.0,1.0,0.0,0.0,1.0,Taxi
13.3,0.10370429290472301,-4.500695992681969,13.144093688786487,-0.8089641863383603,-0.4371363920653695,130.53872500082775,22.9973777685906,0.0,1.0,0.0,0.0,1.0,Taxi
13.4,-0.037754751770450665,6.91791096481722,12.820853117230062,-0.6022863859279453,0.594695200722253,130.62134825351734,23.069438659476663,0.0,1.0,0.0,0.0,1.0,Taxi
13.5,0.06324580753399929,-50.95746851263519,13.390448937517805,-0.5488873957676658,0.005478027196205313,130.4540086214426,23.353954135343326,0.0,1.0,0.0,0.0,1.0,Taxi
13.600000000000001,-0.15108304965845287,-21.01347377028009,14.00946919869525,-0.9955392682608217,0.8856897160868898,130.56769087437146,23.4636484215303,0.0,1.0,0.0,0.0,1.0,Taxi
13.700000000000001,-0.14282212062185104,18.81967537167826,13.587227549942204,-0.802247346693407,-0.45977766715842955,130.73437452471148,23.31920723503248,0.0,1.0,0.0,0.0,1.0,Taxi
13.8,0.15734418439239065,30.670443755982863,13.86381573891585,-0.914158068772681,0.6127990594062854,130.54566607337154,23.58021640364032,0.0,1.0,0.0,0.0,1.0,Taxi
13.9,0.002269169121461507,11.25496658072136,12.735531773487498,-0.541369390265336,-0.07007220596431306,130.58908880745662,23.293566065284615,0.0,1.0,0.0,0.0,1.0,Taxi
14.0,-0.08654728771824419,-31.56760656532424,12.308377008587014,-1.0044767719510967,-0.03469365399759582,130.31027163939962,23.8575491483314,0.0,1.0,0.0,0.0,1.0,Taxi
14.100000000000001,-0.0004938484342305211,11.711489014851674,12.265680846812478,-0.6460169238138247,-0.06538177407595672,130.59047067452428,23.331198426486907,0.0,1.0,0.0,0.0,1.0,Taxi
14.200000000000001,0.060826614195719914,17.837542015377295,12.96147905965689,-0.38994624883548656,1.0135041642257199,130.56453784752102,22.456169184239855,0.0,1.0,0.0,0.0,1.0,Taxi
14.3,0.0026404223586423275,-13.0247753705917,12.365927279793485,-0.7629849109117937,-0.8284466555796148,130.63052754251095,23.042428374518234,0.0,1.0,0.0,0.0,1.0,Taxi
14.4,-0.065617725287189,-29.200614034875368,13.45648442211749,-0.9518282389659372,0.05728111044833343,130.7650401937459,22.98690952482131,0.0,1.0,0.0,0.0,1.0,Taxi
14.5,-0.08517645597865689,23.497477850865994,12.066249179797582,-0.799691557091712,0.4848340588713419,130.61888776383375,23.14790207989404,0.0,1.0,0.0,0.0,1.0,Taxi
14.600000000000001,0.12012781161297233,19.742274152015607,13.96847614087034,-0.995770472016969,0.6631011559978521,130.8472535940149,24.199054305065363,0.0,1.0,0.0,0.0,1.0,Taxi
14.700000000000001,0.033093645472889045,-2.7678828182334407,12.860667668519298,-0.8115830464074564,-0.2177898994859664,130.61160830756637,23.005878419110694,0.0,1.0,0.0,0.0,1.0,Taxi
14.8,-0.09901587006982407,8.42621722258491,14.018080309277018,-0.9686500470336308,-0.2703278982025478,130.7762081011055,22.69531330639703,0.0,1.0,0.0,0.0,1.0,Taxi
14.9,0.16225889772589688,-17.357026726127796,13.474613250483593,-0.7386402385222414,-0.1865401198071056,130.58729898478975,24.175921833572644,0.0,1.0,0.0,0.0,1.0,Taxi
15.0,-0.053691488157749906,25.601045788954565,12.216164607488281,-0.7279655965956848,0.23340330298904344,130.6669904013769,22.814117943313207,0.0,1.0,0.0,0.0,1.0,Taxi
15.100000000000001,0.02898935887494876,11.371101943570617,13.863457581411515,-0.7301726736372154,0.0486478469298796,130.62186791757608,23.439157506284058,0.0,1.0,0.0,0.0,1.0,Taxi
15.200000000000001,0.21911440744375002,-0.6963710966173741,13.19258957095618,-0.974026093572403,0.2865072132313487,130.56660896136117,23.955100763912355,0.0,1.0,0.0,0.0,1.0,Taxi
15.3,-0.05717334364083672,27.224443089149712,13.743609153194324,-0.6492281389281083,-0.026277846095444285,130.55471911611977,23.09562878361477,0.0,1.0,0.0,0.0,1.0,Taxi
15.4,0.1651115743206974,-34.85394899953848,12.481869152586755,-0.8481716315898852,0.49702753196693805,130.5816484695365,23.647737495380134,0.0,1.0,0.0,0.0,1.0,Taxi
15.5,0.044844662446057684,15.615878083726829,13.170172424811529,-0.8544679773515906,-0.08587504421403278,130.6778216932056,23.46402634988126,0.0,1.0,0.0,0.0,1.0,Taxi
15.600000000000001,0.020906046777797515,-49.621380189105984,12.841542434814109,-0.5170084307464997,-0.10682614928641605,130.62791503220285,23.499895457673716,0.0,1.0,0.0,0.0,1.0,Taxi
15.700000000000001,-0.08299532662483246,-24.1060775887711,12.114210491452727,-1.365380800933563,0.30537761552300396,130.49784191861147,22.388763933398682,0.0,1.0,0.0,0.0,1.0,Taxi
15.8,-0.07568572549779776,-22.0630677771843,13.145564197131085,-0.8187579393998483,0.12259832831539483,130.5710624328093,24.591838266089947,0.0,1.0,0.0,0.0,1.0,Taxi
15.9,-0.08940929210812393,28.161588831409773,13.514063762369046,-0.6814448387842005,0.006405647428230221,130.6607113761952,23.209663591350747,0.0,1.0,0.0,0.0,1.0,Taxi
16.0,0.05781261753221644,39.09993619518966,11.888518892631081,-0.9056610706410051,1.4648933725563602,130.57846736697059,22.81538671054024,0.0,1.0,0.0,0.0,1.0,Taxi
16.1,0.11981395547815062,10.251825843409554,12.033284600524064,-0.540837559158942,0.28171380773325594,130.7145128640824,22.97663317811973,0.0,1.0,0.0,0.0,1.0,Taxi
16.2,-0.03815016289107611,-1.7952885140251904,13.573903121772894,-0.6406216424116159,0.19123050802294256,130.71499535750633,22.598838518078477,0.0,1.0,0.0,0.0,1.0,Taxi
16.3,0.048836174962090556,-4.358957392744571,13.424104027076908,-0.6699058346762616,0.23194649211958657,130.63464276597108,23.382880933994798,0.0,1.0,0.0,0.0,1.0,Taxi
16.400000000000002,0.09801916851442782,11.211928735385534,14.073326552531427,-0.43165081538350913,-0.15285751660388192,130.64940025345322,23.19135964560839,0.0,1.0,0.0,0.0,1.0,Taxi
16.5,0.01790948078585163,-35.94123304747027,12.599914907429358,-0.8417742868539996,1.3319919577522896,130.78790804138276,24.23233601116797,0.0,1.0,0.0,0.0,1.0,Taxi
16.6,-0.1308699902752607,-32.83674890753657,13.24332030060074,-0.7596128041679807,0.5261009815234531,130.6357884441527,23.254690236972124,0.0,1.0,0.0,0.0,1.0,Taxi
16.7,-0.06616457602325491,-10.596084019288059,13.085207830191036,-0.8339394380717523,-0.5219691742785199,130.5400065403507,23.00779531743795,0.0,1.0,0.0,0.0,1.0,Taxi
16.8,-0.03507093931058857,-5.434899084671969,13.433792384466548,-0.6518451531388005,-0.24069993555479635,130.71704925443692,23.24508274215287,0.0,1.0,0.0,0.0,1.0,Taxi
16.900000000000002,-0.15804448569862048,10.66821027453708,13.265221180002579,-0.5737597057482756,-0.5750469902658437,130.50090841465646,23.121399305376702,0.0,1.0,0.0,0.0,1.0,Taxi
17.0,-0.012823524650569483,-6.307644214346592,13.134430330580203,-0.6116437669439029,0.8092475281349761,130.45976556918077,23.82043748638854,0.0,1.0,0.0,0.0,1.0,Taxi
17.1,-0.06660916038232148,27.34243530292457,12.775853536298175,-0.8622804859537105,0.7394117031959254,130.56465446660707,23.76816436414142,0.0,1.0,0.0,0.0,1.0,Taxi
17.2,-0.021332309183997554,-41.91380393161199,13.040755412506183,-0.7443336847922336,-0.16214722660784847,130.64138203359954,23.246834968779165,0.0,1.0,0.0,0.0,1.0,Taxi
17.3,-0.22239254430862934,37.484628053240634,12.840387970612214,-0.8227319310809085,-0.14764591793331194,130.48427449676876,23.678841619231935,0.0,1.0,0.0,0.0,1.0,Taxi
17.400000000000002,0.12081397988388172,5.73813603444277,14.142599752340525,-0.8876901322489978,-0.2297849067552039,130.67459415010296,23.525074160180893,0.0,1.0,0.0,0.0,1.0,Taxi
17.5,0.007358370988216338,30.43778082009361,12.041745445931417,-0.588385525536002,-0.3322380031905586,130.67785860665617,23.594787537380366,0.0,1.0,0.0,0.0,1.0,Taxi
17.6,-0.07020364020816124,-35.033617093205606,13.036304533122566,-0.9317685831211923,0.05728552519884201,130.79779254834233,23.273464009498596,0.0,1.0,0.0,0.0,1.0,Taxi
17.7,-0.05435410558214624,-0.6045127532004576,13.087350564856107,-0.5928726147584737,0.03950183768862172,130.61017924332685,23.31090413866811,0.0,1.0,0.0,0.0,1.0,Taxi
17.8,0.004335807222214122,34.77108542803777,12.664603516978785,-0.9272673637510884,0.09510505529354928,130.75534404222418,22.968552770140914,0.0,1.0,0.0,0.0,1.0,Taxi
17.900000000000002,0.1036517869320277,0.03723890303417458,13.058331773546728,-0.9230714005310998,-0.041051027620524046,130.73668426072516,22.602495852794313,0.0,1.0,0.0,0.0,1.0,Taxi
18.0,-0.0541679110669753,0.15958230573568719,13.682473382697864,-1.0491507411462666,0.026742016516577222,130.67210733714495,23.945611204955927,0.0,1.0,0.0,0.0,1.0,Taxi
18.1,0.005133718750892614,2.7152220698595713,12.513564352144012,-0.8588926054962843,-0.6111568139349858,130.7088759476403,23.288864038140368,0.0,1.0,0.0,0.0,1.0,Taxi
18.2,0.1172278972813256,49.7926897876362,13.346786837793148,-0.6629307034063218,0.07862241417229744,130.57365794298858,23.65364415733413,0.0,1.0,0.0,0.0,1.0,Taxi
18.3,0.19479553787120574,2.5579033044215294,13.107456229661476,-0.6100005625630102,-0.05162476362641166,130.73219895506332,23.077943772889284,0.0,1.0,0.0,0.0,1.0,Taxi
18.400000000000002,0.017923235273000316,-59.065491735780334,12.49819490168864,-0.6086316359142212,0.8607698666616668,130.70764161988643,22.938458506672653,0.0,1.0,0.0,0.0,1.0,Taxi
18.5,-0.178099561397576,-49.78736156638346,12.912068285560599,-0.7867490626114514,-0.12484837082311104,130.68076172602593,23.963864236042888,0.0,1.0,0.0,0.0,1.0,Taxi
18.6,-0.054141269960711495,-41.411790984894964,13.624591499699516,-0.5669377647320823,0.35342981118483857,130.5309952697778,23.964568731272646,0.0,1.0,0.0,0.0,1.0,Taxi
18.7,-0.18913571965147438,14.379453221370433,12.943988115566862,-0.6986445183130923,0.5572614108135762,130.77523192374463,23.04182662160803,0.0,1.0,0.0,0.0,1.0,Taxi
18.8,-0.10620229529072372,41.5459256130531,13.452539409767848,-0.7409118558358981,0.8677360848090622,130.6377865536399,23.171780619014122,0.0,1.0,0.0,0.0,1.0,Taxi
18.900000000000002,0.1535883581045541,68.9924491091429,12.611149265851115,-0.8008121787203579,-0.46467371241691424,130.60553293683296,24.37950080076953,0.0,1.0,0.0,0.0,1.0,Taxi
19.0,0.15582652589424023,-1.1878017237629592,12.664178622064298,-0.7845129153958691,0.18544241749709972,130.6722042973998,22.592819642342466,0.0,1.0,0.0,0.0,1.0,Taxi
19.1,-0.11214130390953843,-41.567403681567995,12.813859120478014,-0.8380928371795827,0.28715693065578857,130.61298574667518,23.655588031843976,0.0,1.0,0.0,0.0,1.0,Taxi
19.200000000000003,-0.05424866030328578,12.29739771576728,13.180261244936233,-0.8048126131708905,-0.5211240398872781,130.7692233296135,23.132317171898478,0.0,1.0,0.0,0.0,1.0,Taxi
19.3,0.21731351447307673,-6.546292523900945,13.19402504099809,-0.847366019883182,0.08166722144666796,130.730210122357,23.548827515412565,0.0,1.0,0.0,0.0,1.0,Taxi
19.400000000000002,-0.14487276652904305,-3.951537364497083,12.070281517163693,-0.8994986738712067,0.33719686368837815,130.7186110520667,23.082863400860084,0.0,1.0,0.0,0.0,1.0,Taxi
19.5,-0.07400634712577109,-25.52798220301482,12.440427751352823,-1.1833922281019542,-0.049096208103898864,130.5362879156687,23.38214885649227,0.0,1.0,0.0,0.0,1.0,Taxi
19.6,0.08967360345800277,17.302777503517287,12.292638944601183,-0.9763421251967557,0.7998412759028753,130.60462132019046,23.978555217804644,0.0,1.0,0.0,0.0,1.0,Taxi
19.700000000000003,-0.05835887901145648,-1.6219363377112395,12.977071149068042,-0.7362786603485242,-0.4376678566700219,130.51607436533175,22.521320172888128,0.0,1.0,0.0,0.0,1.0,Taxi
19.8,-0.08211602881432714,-22.117537353740772,12.04144591223777,-0.4629944468924262,-0.04791863603237646,130.65488266533248,23.08445198620272,0.0,1.0,0.0,0.0,1.0,Taxi
19.900000000000002,-0.020914083310700965,-12.766731501620596,13.340045774178433,-0.8335180903710827,-0.29668677480906086,130.68618393665344,24.029601771636155,0.0,1.0,0.0,0.0,1.0,Taxi
20.0,-0.12219253651955933,29.063289050572774,12.31429037396523,-0.75827377618107,-0.6955845169176497,130.6375586896654,23.315552010152654,0.0,1.0,0.0,0.0,1.0,Taxi
20.1,0.06320041643853683,-8.97244139301752,13.214475248637527,-0.8089083626467256,0.10443129980151789,130.6580920121661,23.777749765041186,0.0,1.0,0.0,0.0,1.0,Taxi
20.200000000000003,-0.06577629027578845,44.85903594331946,12.524615717922803,-1.349707837826639,0.8820013334083769,130.9003434476203,22.91873768378717,0.0,1.0,0.0,0.0,1.0,Taxi
20.3,0.10210264319703805,4.0730413089005495,12.811809500435716,-0.6979780497884216,0.17926167632884377,130.85983106149422,24.249506220463072,0.0,1.0,0.0,0.0,1.0,Taxi
20.400000000000002,0.08356562298303966,63.66312273133793,12.387944031405185,-0.7020618187220946,-0.43296589864904095,130.56159427690773,23.82267896764492,0.0,1.0,0.0,0.0,1.0,Taxi
20.5,0.2525393233809013,-45.36816302353878,12.770954476864988,-0.3605611953019867,-0.5323077835852816,130.68094879823286,23.34079821779183,0.0,1.0,0.0,0.0,1.0,Taxi
20.6,-0.12473817192065571,-19.732629397059924,12.583814062269765,-0.8842533496740007,0.5719426331946468,130.7420592049835,22.71249900790339,0.0,1.0,0.0,0.0,1.0,Taxi
20.700000000000003,-0.01509752400225986,-35.57372215531407,13.575730700963845,-1.1334968625100244,-0.4431658630684859,130.3646388454764,23.20839713100694,0.0,1.0,0.0,0.0,1.0,Taxi
20.8,0.07467071260433104,-4.135963656919064,12.928261667124172,-1.0790984325790558,0.7048374526858985,130.53847443759594,23.665138943580693,0.0,1.0,0.0,0.0,1.0,Taxi
20.900000000000002,-0.14541799020525095,0.531775640388806,12.887715110652085,-0.39996136931666154,-0.8853606304662975,130.67404498444853,22.811556610230028,0.0,1.0,0.0,0.0,1.0,Taxi
21.0,-0.012438645800315763,-31.85638063220178,11.706602000390845,-0.6792175013905182,0.07326646079607975,130.76199027730138,23.193310903401173,0.0,1.0,0.0,0.0,1.0,Taxi
21.1,-0.08461119055667783,49.76326787264609,13.528212203238818,-0.8751524966445142,0.5687535540675013,130.63233221703138,22.831993039360913,0.0,1.0,0.0,0.0,1.0,Taxi
21.200000000000003,0.10339834915797955,-14.231321461194568,13.383528837976616,-0.8619567331424652,-0.14706521206121895,130.62413349143276,23.553374363797314,0.0,1.0,0.0,0.0,1.0,Taxi
21.3,-0.08359525310628854,-5.30156653063696,12.58685645874945,-0.6287578573214012,-0.17525383045503212,130.8113513788577,22.51504848881667,0.0,1.0,0.0,0.0,1.0,Taxi
21.400000000000002,-0.11111902320986256,-37.592338490776385,13.152014295085749,-0.8767498571663166,-0.2455757392388172,130.7880049168408,23.15770437336261,0.0,1.0,0.0,0.0,1.0,Taxi
21.5,-0.08456334329590227,4.92950563211006,12.646536407711743,-0.7586843086486634,-0.49343884061383414,130.55262885686375,24.05719840760117,0.0,1.0,0.0,0.0,1.0,Taxi
21.6,-0.05894772494573815,73.0182116195635,12.96096360867996,-0.9274688172936661,-0.12128273926206799,130.70839353595056,23.471600777500953,0.0,1.0,0.0,0.0,1.0,Taxi
21.700000000000003,0.25397203488795506,-4.971107831745949,12.54078048299388,-0.8794600279017775,0.43014924741818455,130.75554594189737,22.96441869144883,0.0,1.0,0.0,0.0,1.0,Taxi
21.8,-0.10941888245463197,-11.841805807397286,12.60244254620895,-0.7156303744503247,1.1057662849170764,130.5793482132617,22.99765143375691,0.0,1.0,0.0,0.0,1.0,Taxi
21.900000000000002,-0.1181567539827245,-44.94413432676873,13.516265697896586,-0.7754828220155328,-0.6948183925027652,130.60679120043864,23.72102419872385,0.0,1.0,0.0,0.0,1.0,Taxi
22.0,0.029251363254111463,19.183591374654714,13.386841941596142,-1.1230036069379752,-0.44869505379952923,130.63349346317136,22.934986367083862,0.0,1.0,0.0,0.0,1.0,Taxi
22.1,-0.01350092558135832,3.328136112607593,12.748384748870652,-0.6102125094833942,-0.27910883965053945,130.67874925350645,23.10550253409441,0.0,1.0,0.0,0.0,1.0,Taxi
22.200000000000003,-0.10151607341968645,8.022160614198645,12.951795087813009,-0.911033477011937,-0.49409249641240555,130.4974555395305,22.757965675292077,0.0,1.0,0.0,0.0,1.0,Taxi
22.3,0.0693621663251048,0.219231122405913,13.444426587718116,-0.6213831308135198,0.8921024244966204,130.60550231682464,22.534979428771592,0.0,1.0,0.0,0.0,1.0,Taxi
22.400000000000002,-0.012404769969328646,32.07495571532371,14.057344073862618,-0.8679867356599349,-0.4237739263962622,130.4933685974762,22.847741416190654,0.0,1.0,0.0,0.0,1.0,Taxi
22.5,0.05885870515693218,-35.28637249511848,12.330512991192284,-0.8807627736442506,-0.5282211649462865,130.45520365951336,23.06236663498215,0.0,1.0,0.0,0.0,1.0,Taxi
22.6,-0.1070696961504875,-6.1553083013452765,12.928436724909597,-0.6934652039312867,0.0760094154402872,130.56136977231722,24.305560333738686,0.0,1.0,0.0,0.0,1.0,Taxi
22.700000000000003,-0.04318131147605492,7.907949368835081,13.377656557445043,-0.6050000847923795,0.605716078187159,130.69854654889622,23.423067179638334,0.0,1.0,0.0,0.0,1.0,Taxi
22.8,0.09839845200110771,13.711528757150111,13.366594551994448,-0.6516733703531075,0.7502900322288482,130.46291919600003,23.311993798785544,0.0,1.0,0.0,0.0,1.0,Taxi
22.900000000000002,-0.03851205236473687,19.267168514287327,12.644645919122976,-1.0729124042452312,0.7270500869555023,130.729973609137,23.93679698356757,0.0,1.0,0.0,0.0,1.0,Taxi
23.0,0.05315453109538179,-8.38734409790349,12.242866861889652,-0.9838357741694198,-0.43052294971548866,130.69892788441678,24.07917690785034,0.0,1.0,0.0,0.0,1.0,Taxi
23.1,0.05646173151159032,35.280791366280894,14.187188095427057,-0.8467089509178503,0.30019670912849666,130.51990288362873,23.954023143174496,0.0,1.0,0.0,0.0,1.0,Taxi
23.200000000000003,0.1378919044666677,22.769585380166976,11.880434686068261,-0.9108225150866962,0.3280512035395168,130.49438356107783,23.560779604837396,0.0,1.0,0.0,0.0,1.0,Taxi
23.3,0.16700245799621677,-18.129641144393744,13.654381564616916,-0.8486714165315397,0.7377079954478343,130.553880667467,22.729738975210044,0.0,1.0,0.0,0.0,1.0,Taxi
23.400000000000002,-0.0341864742103783,-24.9127536647981,13.065960524404069,-0.6595942401934327,-0.2578037360031958,130.8003926406019,23.522927835271766,0.0,1.0,0.0,0.0,1.0,Taxi
23.5,0.013328136142677308,-70.22822853228875,13.97255947020994,-0.4765214117343156,0.11113445351930802,130.75685291808838,23.29383720589002,0.0,1.0,0.0,0.0,1.0,Taxi
23.6,-0.18413868466522684,25.662499916866963,13.230450400243146,-1.2554653579233908,-0.06125772612724217,130.51165373448322,23.109479182884744,0.0,1.0,0.0,0.0,1.0,Taxi
23.700000000000003,0.09412602537395659,28.371674520530075,13.259083849138054,-0.7075510094871149,-0.4680915020385995,130.73306004951462,24.255066384471455,0.0,1.0,0.0,0.0,1.0,Taxi
23.8,0.15518650874532774,47.78253552524041,13.192692724103978,-0.5973023409821929,-0.45203735985243915,130.58792161774124,24.54717864810481,0.0,1.0,0.0,0.0,1.0,Taxi
23.900000000000002,0.05477399296097532,-41.012558893931235,13.626079987278459,-0.789770357671373,0.03495239524696024,130.6327636887828,22.906004031995703,0.0,1.0,0.0,0.0,1.0,Taxi
24.0,-0.11093676909569952,-39.24078814397857,12.74078146460592,-0.8334000298330497,0.1240579232226032,130.56253864107293,23.420774497445553,0.0,1.0,0.0,0.0,1.0,Taxi
24.1,-0.04101743197456506,-18.68070510610302,13.671921672227258,-1.1140380559782899,-1.3789784919675345,130.49595345336752,23.185004875786696,0.0,1.0,0.0,0.0,1.0,Taxi
24.200000000000003,-0.03862953256953971,24.088688500605006,13.707877457201727,-0.6919526812713487,-0.14088176507435415,130.68908618541025,24.249532432114012,0.0,1.0,0.0,0.0,1.0,Taxi
24.3,0.009506673407325559,13.626456185979416,12.390980362264695,-0.9358918027597994,0.42726028872378796,130.56797384871652,23.356648950504898,0.0,1.0,0.0,0.0,1.0,Taxi
24.400000000000002,0.027114848955332067,9.168711318443767,13.097204240032392,-0.451770914326252,0.06284852644777288,130.58478487847663,23.662420562238744,0.0,1.0,0.0,0.0,1.0,Taxi
24.5,0.007214024022679177,-6.42690202128653,12.89749594967518,-0.7319694877129739,0.5142840580975563,130.59398586605255,23.071335344945805,0.0,1.0,0.0,0.0,1.0,Taxi
24.6,-0.022627836699107045,-2.9353981452724285,12.473361899136497,-0.7410859183953803,-0.06618783808528939,130.64298874149029,23.356645357241014,0.0,1.0,0.0,0.0,1.0,Taxi
24.700000000000003,0.012437858228969964,-31.472583818739697,13.084706200419122,-0.8755696933772326,-0.7438266510884018,130.59491323842292,22.14986709502482,0.0,1.0,0.0,0.0,1.0,Taxi
24.8,-0.15014889507101925,25.14008055920341,13.448545942424376,-0.4989021291951501,-0.6078746358386862,130.67103807492526,23.500823288424108,0.0,1.0,0.0,0.0,1.0,Taxi
24.900000000000002,0.10307256609691005,-4.006939228035004,12.197553986507089,-0.6758761680209868,-0.7935314491387551,130.51864618923764,24.120581818897506,0.0,1.0,0.0,0.0,1.0,Taxi
25.0,-0.007596837911205007,41.886678885564756,13.881627221202915,-0.7541062778279131,0.30635169030245835,130.63341103230243,23.883190412864668,0.0,1.0,0.0,0.0,1.0,Taxi
25.1,0.059284499356804576,6.01941967057482,13.173543139154619,-0.5037843005069695,0.6626341804774258,130.6177911433191,23.167018198671624,0.0,1.0,0.0,0.0,1.0,Taxi
25.200000000000003,0.1331696644497842,-0.23612768506638324,13.099216657577854,-0.46366661171244405,0.008000005311425532,130.5448736275627,23.795211751575774,0.0,1.0,0.0,0.0,1.0,Taxi
25.3,-0.008777476336536872,-26.813535523826122,13.004121691973836,-0.879971554543786,-0.6139793488312891,130.82077244956093,22.55591651383513,0.0,1.0,0.0,0.0,1.0,Taxi
25.400000000000002,-0.07478317826232599,-47.0419729718954,12.635080951590568,-0.9805115249593077,0.172191035990829,130.75562178345638,22.65517892095116,0.0,1.0,0.0,0.0,1.0,Taxi
25.5,-0.10204020040969274,14.134430061126105,13.74329629324056,-0.8539111038503608,-0.8838338588157622,130.70813456580947,22.444577942755938,0.0,1.0,0.0,0.0,1.0,Taxi
25.6,0.0618946739690937,11.268064160416358,12.51245772290811,-0.8545794687996889,0.14805480867471033,130.76252852782193,24.242862019781025,0.0,1.0,0.0,0.0,1.0,Taxi
25.700000000000003,-0.018442857460244145,12.134308716803297,12.66986683440254,-0.7243735553022295,-0.2936923555087294,130.80862939759788,23.409872269568773,0.0,1.0,0.0,0.0,1.0,Taxi
25.8,-0.0413686568256762,1.5902246556936959,13.502006796192804,-1.0730248057979108,0.39850142048969983,130.57378738755608,23.954318810194714,0.0,1.0,0.0,0.0,1.0,Taxi
25.900000000000002,0.06984579724756222,-5.044964259865995,12.6798224330867,-0.6936406362888785,0.2165334799556083,130.67971600393253,23.526522289374284,0.0,1.0,0.0,0.0,1.0,Taxi
26.0,-0.043667678759574086,0.6472226561291254,12.317998428531947,-0.9483014220216445,0.14822129348201393,130.65261749521665,23.142146979657248,0.0,1.0,0.0,0.0,1.0,Taxi
26.1,-0.03813254354503054,0.11286783302384625,13.10559356564548,-0.7609078122701396,-0.16397330793346027,130.4784865067753,23.877163182418727,0.0,1.0,0.0,0.0,1.0,Taxi
26.200000000000003,0.07041013641268148,-2.981223924355452,12.02234945633498,-0.9329673725368107,0.41797577038267025,130.65002311189374,23.2476279362355,0.0,1.0,0.0,0.0,1.0,Taxi
26.3,-0.05857379838135131,-6.27634867340556,12.815320934235531,-1.0710630183512686,0.0930457427631081,130.45794045898333,23.05877393387185,0.0,1.0,0.0,0.0,1.0,Taxi
26.400000000000002,-0.0695142869120583,4.164244762433053,11.369265469190323,-0.9295664465427051,0.1826280324743986,130.66237831501826,23.14285668370695,0.0,1.0,0.0,0.0,1.0,Taxi
26.5,0.09123136022484679,41.31640580498021,12.02517633735393,-0.7220648591259015,-0.7027781998477597,130.71997374324246,23.191333263395062,0.0,1.0,0.0,0.0,1.0,Taxi
26.6,0.14800823064354976,26.34441099399865,13.743556566920414,-0.518181647055364,-0.35590500023832883,130.4744559275689,23.244794413823072,0.0,1.0,0.0,0.0,1.0,Taxi
26.700000000000003,0.062207768057935015,-2.685095885743786,12.28576028626764,-0.654726457340195,-0.24690754779322882,130.58881166774609,23.308088014417766,0.0,1.0,0.0,0.0,1.0,Taxi
26.8,0.07780588079612792,-38.13897069602092,12.485128020001206,-0.8587950841623185,0.4503166171912833,130.59140862886068,23.133266850676296,0.0,1.0,0.0,0.0,1.0,Taxi
26.900000000000002,-0.0426866228365548,-31.73423357969479,13.348349138640044,-0.8401049638702554,0.11263695952574147,130.77354218473215,24.17881195766774,0.0,1.0,0.0,0.0,1.0,Taxi
27.0,-0.09646339984053891,-26.06006494441175,12.986899820042737,-0.8407889495056824,-1.0816979716754354,130.46388990625394,24.15836986420746,0.0,1.0,0.0,0.0,1.0,Taxi
27.1,-0.05249444392593077,-34.145251238476696,11.875661674102826,-0.8923771205261334,-0.40945915026259583,130.51091524709898,23.77902416998889,0.0,1.0,0.0,0.0,1.0,Taxi
27.200000000000003,-0.2134128790289382,-6.632319543502713,12.527888878888298,-0.3951634691166054,-0.5249097988080411,130.67283369726306,23.647234314679572,0.0,1.0,0.0,0.0,1.0,Taxi
27.3,-0.12962499755805243,17.553297352424106,13.15354072441804,-0.8707795615561212,0.19917349861143435,130.69600663732228,24.05836021605744,0.0,1.0,0.0,0.0,1.0,Taxi
27.400000000000002,0.035272042836189815,31.40929629695579,12.81330832750628,-0.9770311575374659,-0.5440463578875867,130.83238386822904,24.249628774062874,0.0,1.0,0.0,0.0,1.0,Taxi
27.5,-0.05636639754415917,42.74247257092708,13.617172489035301,-0.6535049543602318,0.4682044771321946,130.6646261611687,23.088239112734918,0.0,1.0,0.0,0.0,1.0,Taxi
27.6,0.08408736529658298,-28.54215709921317,13.326364987152507,-0.47986723842074896,-0.33879320533500745,130.72178763426814,24.12729035528231,0.0,1.0,0.0,0.0,1.0,Taxi
27.700000000000003,-0.10743874265987599,18.177757566506674,13.115296340660548,-0.8268047577327672,0.04932417117271839,130.6489226168847,22.902281527443467,0.0,1.0,0.0,0.0,1.0,Taxi
27.8,0.03452239028837426,-8.806960164587712,13.87981095478554,-1.0493740629013169,0.11173203494285396,130.4900137096172,22.867991286933087,0.0,1.0,0.0,0.0,1.0,Taxi
27.900000000000002,0.0400525644736445,37.57382613270969,12.694421483058749,-0.8861898135459118,0.6433962930293015,130.69123119643803,23.53609137594645,0.0,1.0,0.0,0.0,1.0,Taxi
28.0,0.08043038800367254,-0.005076996448738195,12.316647147063025,-0.5444867313256359,-0.009344404735045423,130.52881574970172,23.007940386401287,0.0,1.0,0.0,0.0,1.0,Taxi
28.1,0.03449700530613063,-7.933669865239839,13.940464753880097,-0.6281429549220687,0.11751064543837687,130.67279830321468,22.97238023382585,0.0,1.0,0.0,0.0,1.0,Taxi
28.200000000000003,0.0003842151474453621,-25.689786050502505,13.592429925245202,-0.9280756816385253,0.2782481844983565,130.7132020549165,24.162665772352515,0.0,1.0,0.0,0.0,1.0,Taxi
28.3,-0.04801854224883992,-26.191023230176523,13.690845512185922,-0.945539763743324,0.4456254719179907,130.64614775695009,23.30464864724538,0.0,1.0,0.0,0.0,1.0,Taxi
28.400000000000002,-0.09645811084475192,-14.525759842885469,13.44512624929604,-0.7227895036384785,-0.5810567015427491,130.67614101582387,24.088802286330353,0.0,1.0,0.0,0.0,1.0,Taxi
28.5,-0.07224458406698192,26.61870346065143,12.5066233171311,-0.539607234675163,-0.2728378795014237,130.6455327755076,23.58798423364733,0.0,1.0,0.0,0.0,1.0,Taxi
28.6,0.08507497505441732,16.852890771995412,13.377965516870459,-0.6818983849256977,0.42981510634542436,130.8479361379683,23.611730729601366,0.0,1.0,0.0,0.0,1.0,Taxi
28.700000000000003,-0.012193656984774773,4.73521630116625,13.401589759025326,-1.1040517878437068,-0.21171108676464587,130.63613370538474,23.53972118264844,0.0,1.0,0.0,0.0,1.0,Taxi
28.8,-0.048568502561150584,2.233920328730354,13.116135727779161,-0.8216778569054481,-0.03096342060282719,130.81437769852369,23.483840265200094,0.0,1.0,0.0,0.0,1.0,Taxi
28.900000000000002,0.09624457669806913,-27.212085183574317,13.68333598869486,-0.45793312258186264,1.3527877519987856,130.7969501217948,23.175717568727485,0.0,1.0,0.0,0.0,1.0,Taxi
29.0,-0.14825408290264633,16.67643581879516,13.091854030412438,-0.8579319127757925,-0.08698581141880153,130.83956586107797,22.75171320287705,0.0,1.0,0.0,0.0,1.0,Taxi
29.1,0.03481367653282525,-14.395493041447095,12.604981625884339,-0.5715153746535667,-0.4376701106904444,130.6830138547,23.81131019246981,0.0,1.0,0.0,0.0,1.0,Taxi
29.200000000000003,0.0242671114908337,60.74791634128015,12.391392829660395,-0.608956110084997,0.40632706904129623,130.69065008486484,22.989073635624337,0.0,1.0,0.0,0.0,1.0,Taxi
29.3,0.15548549880375448,6.108450409882326,13.434790392672141,-0.6230096936801313,-0.318274043479266,130.62612540290036,23.010742565521205,0.0,1.0,0.0,0.0,1.0,Taxi
29.400000000000002,0.06535592858223692,4.0588766486848264,13.30811163584659,-0.7570359651875218,-0.309619536768248,130.58053950380713,24.30012150932693,0.0,1.0,0.0,0.0,1.0,Taxi
29.5,0.04456149473425788,-47.066558752697155,13.010023068322589,-0.7396718699774943,-0.17639525298566078,130.7208071818082,23.1711937539597,0.0,1.0,0.0,0.0,1.0,Taxi
29.6,-0.07984729495973125,34.5470124955552,12.83958476229102,-0.6576447028142137,0.45445983119832445,130.68267495903945,23.688825312581766,0.0,1.0,0.0,0.0,1.0,Taxi
29.700000000000003,0.23809099106001297,-27.35556372344371,12.946517369278038,-0.7989010972694763,-0.0845278773952416,130.66080383057613,23.847597007505083,0.0,1.0,0.0,0.0,1.0,Taxi
29.8,-0.09221632388296057,-18.636125623384725,13.064976107300284,-1.0668076063745038,0.12985342236361105,130.66591004387993,23.118644655106277,0.0,1.0,0.0,0.0,1.0,Taxi
29.900000000000002,-0.1730279230766548,-29.876194201285358,12.276036506665656,-0.7654643395280717,0.052537484526051725,130.57147252344032,23.10304124328471,0.0,1.0,0.0,0.0,1.0,Taxi
30.0,0.08871002005358625,30.011882644950873,13.167153925552872,-1.0416976584937196,0.6846629029697126,130.70416813439095,23.907554026226823,0.0,1.0,0.0,0.0,1.0,Taxi
30.1,0.05784308934179383,20.71823392643526,13.25321955057755,-0.4258187867235846,0.26385838808839973,130.6033954543223,22.777473419359385,0.0,1.0,0.0,0.0,1.0,Taxi
30.200000000000003,-0.06943675344447843,-27.37011139425378,13.683110193558548,-0.6936274760368736,0.24548065003618783,130.62645057102378,22.672690291444376,0.0,1.0,0.0,0.0,1.0,Taxi
30.3,-0.048140536917682594,-58.357758521572386,12.645591585132403,-0.8127342171764023,0.6162345008449102,130.59732214639837,23.14456992426786,0.0,1.0,0.0,0.0,1.0,Taxi
30.400000000000002,-0.23394570326606803,2.119040259284693,13.158017687361909,-0.5740950099244537,-0.11309766473706588,130.62375307472723,23.243885318847667,0.0,1.0,0.0,0.0,1.0,Taxi
30.5,-0.0588415521480549,-4.1063266468936375,12.337643480235187,-0.7645406629838373,0.28776342120355813,130.70993708115566,24.155961609998446,0.0,1.0,0.0,0.0,1.0,Taxi
30.6,-0.06867217015215071,34.649472687249435,13.216070257316098,-0.7759383264006738,-0.6284556821912909,130.71149445988902,23.027703717623883,0.0,1.0,0.0,0.0,1.0,Taxi
30.700000000000003,-0.06069833982982081,2.347573141319939,13.474805762682,-0.6520043058034802,-0.13484435032886913,130.59686141459338,23.69770184077808,0.0,1.0,0.0,0.0,1.0,Taxi
30.8,-0.04710368644145513,8.717628069836678,13.135245352348731,-1.0748575957201238,-0.19499029476873223,130.71119367842562,22.85811061866315,0.0,1.0,0.0,0.0,1.0,Taxi
30.900000000000002,-0.025084029802967242,25.775112033142957,11.42362975190763,-0.9189789883185187,-0.5564126461598405,130.54196185585,23.67951907903605,0.0,1.0,0.0,0.0,1.0,Taxi
31.0,0.06817722033589405,28.31153433826134,13.322737332277633,-0.38568385904059976,0.6568307220292908,130.6181635288708,24.205128240015146,0.0,1.0,0.0,0.0,1.0,Taxi
31.1,0.09445398524985167,25.57837815619162,11.961616234937788,-0.8966525359139376,-0.25667759222761977,130.69254869598808,22.624813024398847,0.0,1.0,0.0,0.0,1.0,Taxi
31.200000000000003,0.10280786097799094,-31.07680443105524,12.753777935213122,-0.8177546151751917,-0.8349532230707714,130.61684672571664,23.203611124065937,0.0,1.0,0.0,0.0,1.0,Taxi
31.3,-0.08720680181938209,-30.83220853618934,12.963168176958582,-0.7127420583224917,-0.33954866432979136,130.77293659197102,23.03513438987969,0.0,1.0,0.0,0.0,1.0,Taxi
31.400000000000002,-0.05970705743109496,-33.2201734931136,12.753307489881296,-0.8155147201956456,-0.2586164783486496,130.68329717828072,22.837257203878387,0.0,1.0,0.0,0.0,1.0,Taxi
31.5,-0.063293006487577,-4.978668060995943,12.95176247710648,-0.9064271475713483,-0.36098478639968157,130.62681193950198,23.58145971627368,0.0,1.0,0.0,0.0,1.0,Taxi
31.6,-0.11210014212436173,-4.450079343244852,13.105886340716655,-0.9249457342634546,-0.4217940783053576,130.7517022678067,23.17040329045837,0.0,1.0,0.0,0.0,1.0,Taxi
31.700000000000003,-0.08195745414731914,-8.091944261785853,12.583450548686804,-0.9789890627994862,0.004076247731480289,130.42657736203626,23.128546465345433,0.0,1.0,0.0,0.0,1.0,Taxi
31.8,-0.1037527277965062,-35.98434046665935,12.373312193335245,-0.924748013406618,-0.5305922178844656,130.81617286257324,22.82281737110687,0.0,1.0,0.0,0.0,1.0,Taxi
31.900000000000002,-0.2920218444576584,47.37873943445906,13.92347206802773,-0.8704120313793883,-0.8486499408875506,130.50026328664467,22.63131817978907,0.0,1.0,0.0,0.0,1.0,Taxi
32.0,0.15493624302497622,64.77392877146316,12.249247939454305,-0.6838876286851437,0.2369960071205659,130.6597939845774,22.484244730856197,0.0,1.0,0.0,0.0,1.0,Taxi
32.1,0.22011691606080963,45.820919503356016,12.846120932287146,-0.7304971650420489,-0.011930638771296836,130.72066048929128,23.304043220292712,0.0,1.0,0.0,0.0,1.0,Taxi
32.2,-0.06291724694087816,-28.13929677877141,13.638223620908331,-0.8324327847780493,-0.5517516580702554,130.69282292987646,23.513517218931426,0.0,1.0,0.0,0.0,1.0,Taxi
32.300000000000004,0.014239759131119308,-58.24191858574752,13.682041113622212,-0.7190750955422822,0.17526251763964937,130.72016218282192,23.890055909604044,0.0,1.0,0.0,0.0,1.0,Taxi
32.4,-0.07109267686792782,16.61028784371835,13.342927067749919,-0.3888145592448854,0.12782977581564045,130.7184437328114,23.264311126107568,0.0,1.0,0.0,0.0,1.0,Taxi
32.5,0.020134192277713632,-26.002913652126153,13.736913837657655,-1.0262215056201998,0.31616197757813935,130.70106049746744,23.667612274081208,0.0,1.0,0.0,0.0,1.0,Taxi
32.6,-0.11577480912951142,20.301596754515753,12.043447967995892,-0.8317968241837456,0.31523226830777495,130.6085674968283,23.483107673389107,0.0,1.0,0.0,0.0,1.0,Taxi
32.7,0.030415306904650982,13.588218447522015,12.29089932196006,-0.7730343981881688,0.06745116567917661,130.70358491974753,22.825745883642448,0.0,1.0,0.0,0.0,1.0,Taxi
32.800000000000004,0.08807528451532375,22.09636134864083,12.861534325701067,-0.7943449369977492,-0.4478301086587025,130.74957465561738,24.799346680052942,0.0,1.0,0.0,0.0,1.0,Taxi
32.9,-0.005293002386307218,6.602469624691366,12.500700959757745,-0.8804416806782767,0.27317246686300906,130.6595127877141,22.72301220484312,0.0,1.0,0.0,0.0,1.0,Taxi
33.0,0.06342765502810785,-47.76691721649604,12.492152671407831,-0.6492072195222224,0.15333986967991,130.5028718747061,23.05766714457933,0.0,1.0,0.0,0.0,1.0,Taxi
33.1,-0.15075930156715645,32.30842086152563,12.718618613267436,-0.7878174929016023,0.8913993221990559,130.52770265652316,23.37850470500437,0.0,1.0,0.0,0.0,1.0,Taxi
33.2,0.1562491019213209,-13.502573079073153,13.419199998228923,-0.9445069277102739,0.7317860698889203,130.65252335511633,23.098151964696676,0.0,1.0,0.0,0.0,1.0,Taxi
33.300000000000004,-0.004085210367257952,10.088244329781224,12.508533168574125,-0.7345721167485333,-0.48604885485287624,130.70307691421976,22.941324344221705,0.0,1.0,0.0,0.0,1.0,Taxi
33.4,-0.10031807991825033,-60.62708727651779,12.028954038337144,-0.7231029193166514,0.08277644321781907,130.68108271434562,23.35314920115502,0.0,1.0,0.0,0.0,1.0,Taxi
33.5,-0.146886334461268,-4.552206663614872,13.377573942086965,-0.5689601299795333,0.8502949086994239,130.61847670757186,24.32392631304396,0.0,1.0,0.0,0.0,1.0,Taxi
33.6,-0.026846243685332245,67.69178352033863,12.379520325593559,-0.8213716418445635,0.5826694659012185,130.79465408932822,23.318630573833097,0.0,1.0,0.0,0.0,1.0,Taxi
33.7,0.2381408376834429,10.020948713678004,12.765869050124524,-0.5130450195172305,0.02799241281579531,130.80703963128565,24.539158975864733,0.0,1.0,0.0,0.0,1.0,Taxi
33.800000000000004,-0.09678159089287791,32.04847410504316,13.525106605428183,-0.7979595360286603,0.4880912763438547,130.7381534992802,22.346184371061234,0.0,1.0,0.0,0.0,1.0,Taxi
33.9,0.1333961268398836,-41.04938061747847,13.250188626952731,-0.9439001444650894,-0.3085096522767634,130.855063953441,24.26464149528911,0.0,1.0,0.0,0.0,1.0,Taxi
34.0,0.032893934596050604,30.20658563257045,13.26192790328641,-0.7498295604088745,-0.7843886122999704,130.76097377631856,23.708846564471454,0.0,1.0,0.0,0.0,1.0,Taxi
34.1,0.05425133726997439,-0.09606836593827477,13.273743455952825,-0.9102976967434675,-0.5852156128253303,130.66235922729027,23.641546034532652,0.0,1.0,0.0,0.0,1.0,Taxi
34.2,0.13291578501019227,-8.909188162357877,13.172087495848414,-0.6274871368506427,-0.12106262602958569,130.63931934681455,22.7151883965539,0.0,1.0,0.0,0.0,1.0,Taxi
34.300000000000004,-0.011652006215738725,-24.13933337829816,13.398043871323107,-0.979669763171113,1.0769907095574627,130.7922647841907,23.075360502676002,0.0,1.0,0.0,0.0,1.0,Taxi
34.4,-0.06644532962151638,-16.8684464072573,13.008699359602648,-0.6956257042776076,-0.5547152131708589,130.49352639518776,22.408553001572578,0.0,1.0,0.0,0.0,1.0,Taxi
34.5,0.04857355297390581,-11.635064055816182,12.7603037154547,-0.6251829364121553,0.09405501228539082,130.6843106211776,23.860485263088712,0.0,1.0,0.0,0.0,1.0,Taxi
34.6,-0.06982732649481961,-3.0067261283047237,12.28521208831673,-0.6338097775485425,0.3165006040801806,130.6966626698134,23.329552507681495,0.0,1.0,0.0,0.0,1.0,Taxi
34.7,-0.08147896026303997,-34.13553981101715,13.767407420103888,-0.5721858678410617,0.622713898372092,130.67346994464924,23.61153470879571,0.0,1.0,0.0,0.0,1.0,Taxi
34.800000000000004,-0.12210414608117992,-2.626706093411143,13.178102159857016,-0.5015385903245682,0.4568300930604236,130.65119962235167,23.130694334665197,0.0,1.0,0.0,0.0,1.0,Taxi
34.9,-0.08296085696187527,9.667553919630896,13.378539806399923,-1.150040195135346,0.12166453678614456,130.50822132643464,23.586998339750785,0.0,1.0,0.0,0.0,1.0,Taxi
35.0,-0.03314119066488543,40.48195632642729,12.76809863086033,-0.607839205154009,0.4438440256889547,130.79003599522702,23.2429215811417,0.0,1.0,0.0,0.0,1.0,Taxi
