time_s,altitude_ft,vertical_speed_fpm,ias_kt,pitch_deg,roll_deg,heading_deg,throttle_pct,afterburner_on,gear_down,flaps_deg,speedbrake_pct,weight_on_wheels,label
0.0,-2.332766518585855,-699.9330278003016,180.631220541586,2.921313980796352,1.771288601904668,102.95440176899734,30.719294963798944,0.0,1.0,14.710282315733657,4.80402171410709,0.0,Landing
0.1,-4.665876611253527,-940.0390037801521,181.11506929501965,2.7880291684177005,1.6607728446597565,102.64486573831846,30.23514549106095,0.0,1.0,14.710282315733657,4.80402171410709,0.0,Landing
0.2,-7.0329615374866155,-1420.964777324135,181.86905168812584,2.182147453840676,1.6374268140792634,102.50058752622778,31.07499022133997,0.0,1.0,14.710282315733657,4.80402171410709,0.0,Landing
0.30000000000000004,-9.43759040520653,-1408.4497284815359,181.19274490807763,2.9148766340406613,1.55044055613161,102.65672814404434,30.9778100975027,0.0,1.0,14.710282315733657,4.80402171410709,0.0,Landing
0.4,-11.708125253661207,-1408.9110764479065,180.26625702853732,2.755044903300131,1.5235282348914096,102.62751760367695,31.4148846353378,0.0,1.0,14.710282315733657,4.80402171410709,0.0,Landing
0.5,-14.077516919726147,-1384.6665331895092,179.36689263178636,2.7686597250543827,1.9431600875682822,102.5433055545256,31.447501257595892,0.0,1.0,14.710282315733657,4.80402171410709,0.0,Landing
0.6000000000000001,-16.360923071154076,-1386.8522950257745,180.02333326300135,2.484193217625575,1.6658026499568863,102.79009120120213,30.622494189350732,0.0,1.0,14.710282315733657,4.80402171410709,0.0,Landing
0.7000000000000001,-18.64238672879008,-1376.4398147901913,180.8963925836963,2.525653861111694,1.9456138329875792,102.84749208688982,30.747986677916458,0.0,1.0,14.710282315733657,4.80402171410709,0.0,Landing
0.8,-20.959715993677104,-1392.35703306472,181.8814173861637,2.814844251688821,1.5167957866865216,102.78769308370727,31.03998464107839,0.0,1.0,14.710282315733657,4.80402171410709,0.0,Landing
0.9,-23.322708236477677,-1395.3380240092438,178.88259234864546,2.792270300993866,1.785864293615214,102.79255343762526,30.30869417388739,0.0,1.0,14.710282315733657,4.80402171410709,0.0,Landing
1.0,-25.619076848836297,-1380.0379028513519,181.20147595766954,2.9140625124921122,1.5724915217574933,102.82031742254316,30.92200964978217,0.0,1.0,14.710282315733657,4.80402171410709,0.0,Landing
1.1,-27.859905507933863,-1365.5312050464481,180.50403663076477,2.6288774394511147,1.2279532190273685,102.77746921678147,30.41201749868197,0.0,1.0,14.710282315733657,4.80402171410709,0.0,Landing
1.2000000000000002,-30.150364261709917,-1365.4619089403816,179.2452731537858,2.808154055353061,1.4668055552791472,102.5597159010772,31.07593375717613,0.0,1.0,14.710282315733657,4.80402171410709,0.0,Landing
1.3,-32.446386393538205,-1375.644329634067,181.2702699713646,2.677573673976856,1.5349393736768326,102.87565559765403,31.138437353242033,0.0,1.0,14.710282315733657,4.80402171410709,0.0,Landing
1.4000000000000001,-34.7381271561042,-1367.452368781069,179.98253012054337,2.650336099896223,1.7138599088133466,102.51317976693383,30.772298642909302,0.0,1.0,14.710282315733657,4.80402171410709,0.0,Landing
1.5,-36.98762610561526,-1365.024389167253,179.9088689368304,2.626444598024197,1.3505757051643945,102.70959561356324,31.106417604833542,0.0,1.0,14.710282315733657,4.80402171410709,0.0,Landing
1.6,-39.27150833937447,-1376.4078061339671,180.10002825808377,2.6243570186263794,1.3774651712040207,102.63545943229963,30.741534565179034,0.0,1.0,14.710282315733657,4.80402171410709,0.0,Landing
1.7000000000000002,-41.620166186774036,-1386.235042036408,179.88414026378845,2.431077514826496,2.0913151823658898,102.63410898646652,30.831805714087963,0.0,1.0,14.710282315733657,4.80402171410709,0.0,Landing
1.8,-43.9188013157973,-1401.278979198574,179.63125047320267,2.812165280963962,1.6010655512398646,102.47797794941005,31.283421869293402,0.0,1.0,14.710282315733657,4.80402171410709,0.0,Landing
1.9000000000000001,-46.27790323536734,-1401.953794284131,180.7912825828536,2.4633474853088075,1.3817439108312857,102.57199903723222,30.544570714969396,0.0,1.0,14.710282315733657,4.80402171410709,0.0,Landing
2.0,-48.62993515819469,-1414.1077461213415,181.47646229053242,3.1307179056002408,1.3782498665194243,102.63243678486702,31.060247407949973,0.0,1.0,14.710282315733657,4.80402171410709,0.0,Landing
2.1,-50.98934004640401,-1388.103491125986,179.38406982803153,2.535683680983118,1.2547632093999823,102.6639614994566,30.706301981170853,0.0,1.0,14.710282315733657,4.80402171410709,0.0,Landing
2.2,-53.21842069099727,-1372.4620895536136,180.2705174932187,2.6345248803572545,1.5415157225480782,102.41686458818089,30.5333842353104,0.0,1.0,14.710282315733657,4.80402171410709,0.0,Landing
2.3000000000000003,-55.49224560596276,-1345.9249848363995,181.0542326237235,2.4735198532413865,1.6224519327090343,102.74473930299968,30.474060078149815,0.0,1.0,14.710282315733657,4.80402171410709,0.0,Landing
2.4000000000000004,-57.71896497058601,-1351.301452696488,180.46745036547648,2.8232265079304395,1.5275493325883818,102.49900033670906,30.50495959380256,0.0,1.0,14.710282315733657,4.80402171410709,0.0,Landing
2.5,-59.97492795447971,-1344.2070298722472,178.52787638659495,2.6326075851471398,1.5860499450852659,102.73379533947417,31.021976408248236,0.0,1.0,14.710282315733657,4.80402171410709,0.0,Landing
2.6,-62.21328075532399,-1356.158369004679,180.52097766669803,2.815923427644936,1.3871782092799638,102.68049822839771,30.67183295290254,0.0,1.0,14.710282315733657,4.80402171410709,0.0,Landing
2.7,-64.4997568156094,-1355.049805493053,180.69138230252875,3.0657991473903996,1.6110076846930124,102.63196539390901,31.142664796209456,0.0,1.0,14.710282315733657,4.80402171410709,0.0,Landing
2.8000000000000003,-66.75017698194497,-1372.4354643814393,179.42323382693922,2.8985480660850387,1.5648963863877337,102.48986811107602,30.893189579376813,0.0,1.0,14.710282315733657,4.80402171410709,0.0,Landing
2.9000000000000004,-69.07545807723119,-1366.8472165935782,180.25917212427225,2.6621415691480417,1.7380480159853358,102.70212775497822,30.373691467684758,0.0,1.0,14.710282315733657,4.80402171410709,0.0,Landing
3.0,-71.33399289857729,-1375.3142802075927,180.61511370388473,2.615007844536443,1.6126320508506498,102.69476605525091,30.806854342336038,0.0,1.0,14.710282315733657,4.80402171410709,0.0,Landing
3.1,-73.62674838298294,-1360.032817430775,180.66606784954095,2.837880111026499,1.844262110335762,102.95875403960719,30.934726408990702,0.0,1.0,14.710282315733657,4.80402171410709,0.0,Landing
3.2,-75.87562216438506,-1369.0170337325897,180.0058835033945,2.316728744346645,1.6644480746369161,102.42465465220204,31.0344142299749,0.0,1.0,14.710282315733657,4.80402171410709,0.0,Landing
3.3000000000000003,-78.17907806724024,-1359.4206500833677,178.96336750037736,2.7079002418324603,1.5898424960471962,102.78100342922647,31.044727852595628,0.0,1.0,14.710282315733657,4.80402171410709,0.0,Landing
3.4000000000000004,-80.42385163339978,-1361.8782808933104,179.58465596957402,2.8454202022959922,1.2447172296831792,102.77910936241597,31.31337988197658,0.0,1.0,14.710282315733657,4.80402171410709,0.0,Landing
3.5,-82.68501356885162,-1351.9027093980865,180.0554129500489,2.5099653320343758,1.7134958163465597,102.69603762301557,31.110957889758403,0.0,1.0,14.710282315733657,4.80402171410709,0.0,Landing
3.6,-84.93859161423067,-1347.6245885406825,180.98629128462963,2.0487049370980506,1.37311419161094,102.47789450922681,31.34039926510101,0.0,1.0,14.710282315733657,4.80402171410709,0.0,Landing
3.7,-87.16197457610319,-1333.919644996098,180.19117396676668,2.696097173216928,1.636672241574074,102.85349201733106,30.74224610712314,0.0,1.0,14.710282315733657,4.80402171410709,0.0,Landing
3.8000000000000003,-89.3546117938321,-1343.2015996425123,180.48414633663336,2.5319435917336537,1.6347510568934056,102.55598405098442,31.120559474650157,0.0,1.0,14.710282315733657,4.80402171410709,0.0,Landing
3.9000000000000004,-91.65459961244323,-1357.9103029004982,179.64590296736395,2.308326696026261,1.695657479698483,102.46706461960946,30.815995765526814,0.0,1.0,14.710282315733657,4.80402171410709,0.0,Landing
4.0,-93.95152609060568,-1387.677048944036,181.6230454936126,2.536252214156212,1.6580718672939605,102.72011655127488,30.786629094532614,0.0,1.0,14.710282315733657,4.80402171410709,0.0,Landing
4.1000000000000005,-96.29299703855229,-1372.8901946962053,180.27764978881223,3.0744382466284907,1.3931663935800231,102.65725186968587,30.647796985012295,0.0,1.0,14.710282315733657,4.80402171410709,0.0,Landing
4.2,-98.51905058592426,-1345.9764410922955,180.23962915997936,2.8512685448435904,1.4846268762916277,102.73706509412779,30.87735578399486,0.0,1.0,14.710282315733657,4.80402171410709,0.0,Landing
4.3,-100.68140829606716,-1324.1446722884036,179.5119444679172,2.8837483003313227,1.6527088617813472,102.6375444044462,30.619197594883907,0.0,1.0,14.710282315733657,4.80402171410709,0.0,Landing
4.4,-102.9137203999943,-1340.7906114456553,179.35933825915896,2.6014857697139324,1.707319062256581,102.62432170636367,30.74236208041972,0.0,1.0,14.710282315733657,4.80402171410709,0.0,Landing
4.5,-105.22300364315254,-1360.608422031976,181.34148408151128,2.601074440287595,1.4319549471579198,102.73958844034689,30.72432096580731,0.0,1.0,14.710282315733657,4.80402171410709,0.0,Landing
4.6000000000000005,-107.48445040622704,-1354.5729214068504,180.90150464444466,2.823483239474742,1.7348722349289871,102.70473094004177,30.62722697332003,0.0,1.0,14.710282315733657,4.80402171410709,0.0,Landing
4.7,-109.68658500702855,-1336.0900333404545,179.71241348198137,2.2849007844137876,1.7302488751179692,102.55912783646374,30.984722953599196,0.0,1.0,14.710282315733657,4.80402171410709,0.0,Landing
4.800000000000001,-111.90345380985481,-1347.596489380632,180.12777089791004,2.687206355193378,1.6351063619805546,102.56022231381075,30.89116278701908,0.0,1.0,14.710282315733657,4.80402171410709,0.0,Landing
4.9,-114.2224328531302,-1355.5683300500448,178.93026151618724,2.6093283588718807,1.5996002315813542,102.62387693062942,30.684536488250686,0.0,1.0,14.710282315733657,4.80402171410709,0.0,Landing
5.0,-116.46442665727878,-1361.359268911937,181.04431631701993,2.5346448699728565,1.6973787220894185,102.60483933492208,30.761305084911815,0.0,1.0,14.710282315733657,4.80402171410709,0.0,Landing
5.1000000000000005,-118.7102501544145,-1338.608992132424,180.07212811499056,2.8455724850810165,1.519173976270025,102.66697725929595,30.491295280092015,0.0,1.0,14.710282315733657,4.80402171410709,0.0,Landing
5.2,-120.91547781379232,-1316.8669606512622,179.3058458994071,2.9500416525877506,1.7498780557029296,102.43563542672052,30.696785195584656,0.0,1.0,14.710282315733657,4.80402171410709,0.0,Landing
5.300000000000001,-123.04876146053509,-1296.153279751482,178.9964601798629,2.7185787707506717,1.8064127152294147,102.68373859934349,31.053406168028143,0.0,1.0,14.710282315733657,4.80402171410709,0.0,Landing
5.4,-125.1910165531719,-1311.4726223078208,179.60066941723036,2.686645351509131,1.7150195689076702,102.77278553307724,31.22556137733748,0.0,1.0,14.710282315733657,4.80402171410709,0.0,Landing
5.5,-127.47284092533143,-1321.8168321752812,179.30857967948057,2.638530929244328,1.534821011653571,102.46524731749491,31.486147117508946,0.0,1.0,14.710282315733657,4.80402171410709,0.0,Landing
5.6000000000000005,-129.6578456214115,-1339.9748435670829,180.46825423180087,2.6186502149025337,1.7906984739962288,102.521133895697,31.350943104614803,0.0,1.0,14.710282315733657,4.80402171410709,0.0,Landing
5.7,-131.89089077100732,-1332.8290864919297,181.2520524979551,2.9804815267271283,1.6691807073477523,102.977655897776,30.731907836538472,0.0,1.0,14.710282315733657,4.80402171410709,0.0,Landing
5.800000000000001,-134.13698635779107,-1339.5517811164723,179.91383486408185,2.525425574940831,1.145949162297786,102.5576457039059,30.62176868025151,0.0,1.0,14.710282315733657,4.80402171410709,0.0,Landing
5.9,-136.35560452699386,-1333.605400024453,179.63313834892196,2.7236127263192844,1.6134661883834065,102.6353515428101,31.232465187647495,0.0,1.0,14.710282315733657,4.80402171410709,0.0,Landing
6.0,-138.5589177711296,-1314.9317104685451,179.9969200949024,2.5218362527259024,1.4089438280742224,102.83578271261342,31.35517050031088,0.0,1.0,14.710282315733657,4.80402171410709,0.0,Landing
6.1000000000000005,-140.7116449101338,-1320.2171376248884,182.52879737429882,2.5908581292942445,1.4352534291438448,102.61465328943154,30.61788177385629,0.0,1.0,14.710282315733657,4.80402171410709,0.0,Landing
6.2,-142.9566902151183,-1332.0011006989034,179.86936871608657,2.5030604826883263,1.5992911930218279,102.54500485174128,30.6682216682065,0.0,1.0,14.710282315733657,4.80402171410709,0.0,Landing
6.300000000000001,-145.2189232746241,-1340.725182585095,181.40289640316615,2.74437872674911,1.4705164856093274,102.4944159873616,30.856307358540853,0.0,1.0,14.710282315733657,4.80402171410709,0.0,Landing
6.4,-147.41527082305927,-1347.748624391403,178.7615462101317,2.576321529075208,1.625686262004415,102.69274637613205,30.79934517754686,0.0,1.0,14.710282315733657,4.80402171410709,0.0,Landing
6.5,-149.69543333707531,-1333.9753164494766,179.27576130613147,2.6093767476364085,1.8552189029273212,102.73976969071242,30.906193992325463,0.0,1.0,14.710282315733657,4.80402171410709,0.0,Landing
6.6000000000000005,-151.8887998568715,-1337.238180269219,180.35313754541627,2.4761655535338543,1.5099115363780482,102.76744467855349,30.936238201124436,0.0,1.0,14.710282315733657,4.80402171410709,0.0,Landing
6.7,-154.10146172440537,-1334.2037801754884,177.94008527240146,2.5826055929640552,1.6458950692880772,102.6687218682959,31.2448194514251,0.0,1.0,14.710282315733657,4.80402171410709,0.0,Landing
6.800000000000001,-156.36645223795276,-1355.9497315028182,178.96604540064055,2.624637586727896,1.6884957263415918,102.99038650280045,31.31192694649345,0.0,1.0,14.710282315733657,4.80402171410709,0.0,Landing
6.9,-158.66854851438558,-1353.381876549679,179.60237254526203,2.8036833881190995,1.5652182930357226,102.471907231861,31.31522671210046,0.0,1.0,14.710282315733657,4.80402171410709,0.0,Landing
7.0,-160.86837110715376,-1336.9163139022987,180.00045947933356,3.027507193782351,1.7079669590646223,102.88646410260799,30.630873957144072,0.0,1.0,14.710282315733657,4.80402171410709,0.0,Landing
7.1000000000000005,-163.05103380746425,-1323.8234802002296,178.92485835874336,2.489295668886924,1.4907649726629546,102.76882050706286,31.181482463397696,0.0,1.0,14.710282315733657,4.80402171410709,0.0,Landing
7.2,-165.28766591538673,-1333.4829863528796,178.78705225601092,2.540799616191189,2.016932120439648,102.38329086145859,30.80752866349257,0.0,1.0,14.710282315733657,4.80402171410709,0.0,Landing
7.300000000000001,-167.53578603891816,-1343.9699768752007,179.5496302299551,2.755412682977915,1.5578668575737527,102.75447955001187,31.134196180290335,0.0,1.0,14.710282315733657,4.80402171410709,0.0,Landing
7.4,-169.77088369184025,-1341.385243623597,179.1785981120187,2.788721361765691,1.6904995712900512,102.4783693530872,30.619970220535023,0.0,1.0,14.710282315733657,4.80402171410709,0.0,Landing
7.5,-171.9945921335047,-1321.9893286979016,181.26521412681382,2.7085069766582897,1.488657685313617,102.61198986706529,31.216262229702057,0.0,1.0,14.710282315733657,4.80402171410709,0.0,Landing
7.6000000000000005,-174.14573268240767,-1320.668188462713,178.74234113982567,2.535763562795436,1.427107128866719,102.80509536819716,31.032129728119692,0.0,1.0,14.710282315733657,4.80402171410709,0.0,Landing
7.7,-176.37422463415382,-1303.2429220837116,179.35873474790944,2.4753405222664737,1.5607054536077656,102.82479362796562,30.48494500103691,0.0,1.0,14.710282315733657,4.80402171410709,0.0,Landing
7.800000000000001,-178.51080674392327,-1312.889731892983,182.02880977557268,2.5091290846430225,1.4637014637130978,102.86082353288998,30.689198977504237,0.0,1.0,14.710282315733657,4.80402171410709,0.0,Landing
7.9,-180.71018134187258,-1300.195310467194,180.92764987652075,2.5810911854118954,1.5930177552801363,102.54824276573805,30.740919814472345,0.0,1.0,14.710282315733657,4.80402171410709,0.0,Landing
8.0,-182.8752011864898,-1311.0357718864122,178.32031594774818,2.501611587641136,1.4821094063813522,102.62634038842691,31.030391533264133,0.0,1.0,14.710282315733657,4.80402171410709,0.0,Landing
8.1,-185.06598560335533,-1323.2163273610183,179.86691292589256,2.8348058013770596,1.623483798659983,102.69052125844286,30.972084208170255,0.0,1.0,14.710282315733657,4.80402171410709,0.0,Landing
8.200000000000001,-187.32626297867768,-1339.9226718904913,180.44532756329068,2.366734671820149,1.9862146090159019,102.81600880126354,30.549267202567155,0.0,1.0,14.710282315733657,4.80402171410709,0.0,Landing
8.3,-189.57481454594225,-1341.5793966184935,180.86218858550473,2.1112794048374983,1.6109050934507947,102.78307038000185,31.201748749942006,0.0,1.0,14.710282315733657,4.80402171410709,0.0,Landing
8.4,-191.7738825864478,-1328.8761624103984,180.3246501536663,2.610658607567265,1.4056354513482363,102.52384437028348,31.170571296879608,0.0,1.0,14.710282315733657,4.80402171410709,0.0,Landing
8.5,-193.97064379072967,-1322.7715020664277,178.87146279736183,2.855769382793387,1.679269113684842,102.53550066220714,30.267191292634337,0.0,1.0,14.710282315733657,4.80402171410709,0.0,Landing
8.6,-196.18867205627438,-1334.157519896081,180.37087264562052,2.7471571183807058,1.4190505670257694,102.61720701763261,30.809594024314507,0.0,1.0,14.710282315733657,4.80402171410709,0.0,Landing
8.700000000000001,-198.4446701859282,-1349.839831969797,180.2842508616429,2.806427008605772,1.2016521063556653,102.56342639557022,30.392269059604832,0.0,1.0,14.710282315733657,4.80402171410709,0.0,Landing
8.8,-200.71984295057865,-1349.068932313719,180.3234870605722,2.8529807311896707,1.441272370396076,102.69183079115209,30.67713700500225,0.0,1.0,14.710282315733657,4.80402171410709,0.0,Landing
8.9,-202.93401671784298,-1357.4768662949054,179.28699533013761,2.869943922646751,1.262717120149906,102.78806907550393,30.7744342972499,0.0,1.0,14.710282315733657,4.80402171410709,0.0,Landing
9.0,-205.23205451740273,-1342.2905814741055,179.69096328187428,2.962482078128424,1.6436936845086205,102.69719130887114,30.78825924457587,0.0,1.0,14.710282315733657,4.80402171410709,0.0,Landing
9.1,-207.43129585794918,-1358.7604163204958,180.32018386836293,2.8065865895037154,1.460971782617453,102.94240310269038,30.875617670759933,0.0,1.0,14.710282315733657,4.80402171410709,0.0,Landing
9.200000000000001,-209.72781879944546,-1337.30597032216,180.2894834503717,2.917154244506865,1.5957463732760908,102.94473801827826,31.28576145760274,0.0,1.0,14.710282315733657,4.80402171410709,0.0,Landing
9.3,-211.91858436901353,-1321.6188850722745,181.68013143155423,2.46474708091728,1.7661070081773729,102.73836384494882,30.876188009230518,0.0,1.0,14.710282315733657,4.80402171410709,0.0,Landing
9.4,-214.03939028331055,-1303.0871186164688,177.24563731497227,3.0709601774289936,1.6081333741154205,102.89484580879696,31.66348116868968,0.0,1.0,14.710282315733657,4.80402171410709,0.0,Landing
9.5,-216.2432543925278,-1305.1591894964758,180.6282873402109,2.473544714818881,1.497248269044675,102.83537101803324,31.130636147107545,0.0,1.0,14.710282315733657,4.80402171410709,0.0,Landing
9.600000000000001,-218.4443803164959,-1329.6625714134905,179.66718277827965,2.602804044971549,1.8692472423646822,102.48168065311705,31.308320160608474,0.0,1.0,14.710282315733657,4.80402171410709,0.0,Landing
9.700000000000001,-220.687703140378,-1338.996771960268,180.25950256468067,2.9633242203514416,1.7780081591761103,102.96512132470934,31.14647561502983,0.0,1.0,14.710282315733657,4.80402171410709,0.0,Landing
9.8,-222.93823825232914,-1338.7442635191746,180.84832542254998,2.7810160341988035,1.1166244171907156,102.7452516437591,30.60345450959081,0.0,1.0,14.710282315733657,4.80402171410709,0.0,Landing
9.9,-225.13810163409178,-1309.9183492476016,178.98583867906018,2.885640532927142,1.5317006735944412,102.79495322861362,31.051289483481483,0.0,1.0,14.710282315733657,4.80402171410709,0.0,Landing
10.0,-227.237294886616,-1293.1927571535764,178.2982613423219,2.7284895419759243,2.052432263142306,102.75849823063953,30.532106740079215,0.0,1.0,14.710282315733657,4.80402171410709,0.0,Landing
10.100000000000001,-229.40420203809703,-1292.0225969466458,180.09566285245268,2.4999058947447335,1.5354051330954088,102.70035539005562,30.928068681522127,0.0,1.0,14.710282315733657,4.80402171410709,0.0,Landing
10.200000000000001,-231.598214618825,-1320.9921409804451,180.4134048075448,2.166536113265777,1.4876768140600685,102.7254891352539,30.57456518354203,0.0,1.0,14.710282315733657,4.80402171410709,0.0,Landing
10.3,-233.84225559151824,-1310.817269027092,180.6805217681079,2.1851677293777447,1.7376717971326199,102.66061462535839,30.713836521082815,0.0,1.0,14.710282315733657,4.80402171410709,0.0,Landing
10.4,-235.95828838323249,-1324.336145797082,180.62132765915484,2.5216001503704417,1.6987936068761096,102.79209537679077,30.563134651283036,0.0,1.0,14.710282315733657,4.80402171410709,0.0,Landing
10.5,-238.21989534781042,-1307.5722644774828,179.17017018604852,3.089819373029425,1.731287847658909,102.65365782374471,31.135778504877422,0.0,1.0,14.710282315733657,4.80402171410709,0.0,Landing
10.600000000000001,-240.38011691390565,-1312.4246343367474,180.20782517497733,2.4864453766759222,1.5823406015610262,102.61779584387534,30.81575792090985,0.0,1.0,14.710282315733657,4.80402171410709,0.0,Landing
10.700000000000001,-242.52041155491622,-1289.7529200072256,178.27023410585892,2.5914766149087085,1.5492392390069385,102.30748077597923,30.56456645889469,0.0,1.0,14.710282315733657,4.80402171410709,0.0,Landing
10.8,-244.66865994784655,-1307.2697785651656,179.84931208231538,2.9141787602760645,1.4828402139275143,102.80541412698858,31.128157515457744,0.0,1.0,14.710282315733657,4.80402171410709,0.0,Landing
10.9,-246.91646580673148,-1306.108591030403,180.05114097342405,2.309321720923993,1.2700859365624444,102.76214561172117,31.376920332053878,0.0,1.0,14.710282315733657,4.80402171410709,0.0,Landing
11.0,-249.05095451006824,-1328.388548889541,179.68028913997819,2.864979840221167,1.3597933724635012,102.87831101763373,30.906803504446387,0.0,1.0,14.710282315733657,4.80402171410709,0.0,Landing
11.100000000000001,-251.31060269229425,-1322.4094370138007,182.34275733242697,2.9712433600876693,1.5016691356204135,102.64689881287268,30.956881434855337,0.0,1.0,14.710282315733657,4.80402171410709,0.0,Landing
11.200000000000001,-253.52851299180048,-1329.4506068946987,180.0416148343905,2.51941783184135,1.7514477782244482,102.64116829155597,31.086553720699072,0.0,1.0,14.710282315733657,4.80402171410709,0.0,Landing
11.3,-255.69820754454173,-1317.9846361894872,179.70163990469663,2.738276900818084,1.5414217209197065,102.58004600316445,30.40367085758721,0.0,1.0,14.710282315733657,4.80402171410709,0.0,Landing
11.4,-257.9005258732417,-1307.5695910296756,180.11520993926538,2.610601715236705,1.4490499724197303,102.90254355785072,31.063695911098165,0.0,1.0,14.710282315733657,4.80402171410709,0.0,Landing
11.5,-260.06636094694886,-1316.1416362958446,178.36834570530976,2.5184351233574733,1.294573568482707,102.82699715387844,30.71396502958786,0.0,1.0,14.710282315733657,4.80402171410709,0.0,Landing
11.600000000000001,-262.27891572602095,-1295.2472774691614,180.8081319217146,2.127605265587281,1.5279760101020783,102.57515752782678,30.707154187807426,0.0,1.0,14.710282315733657,4.80402171410709,0.0,Landing
11.700000000000001,-264.3767622605875,-1280.3527676848717,179.59054704966,2.7604380426861654,1.735951027012109,102.67540765638245,30.562659369030612,0.0,1.0,14.710282315733657,4.80402171410709,0.0,Landing
11.8,-266.4681247853732,-1268.9412686589321,182.6364126476518,2.790464870998277,1.579308866143244,102.91476214064909,30.888601133890983,0.0,1.0,14.710282315733657,4.80402171410709,0.0,Landing
11.9,-268.6236220693156,-1297.9680983920277,179.818478571491,2.9570137563854177,1.4009709012067115,102.52688110415886,30.64513421428402,0.0,1.0,14.710282315733657,4.80402171410709,0.0,Landing
12.0,-270.86660275254764,-1311.0836325207517,180.48312334823822,2.693877262249869,1.3510065277875274,102.69715975981148,31.371187516418306,0.0,1.0,14.710282315733657,4.80402171410709,0.0,Landing
12.100000000000001,-273.023542947977,-1309.3007069902458,181.28583834264427,2.746060715030359,1.7147726946129551,102.57109330322749,30.83881593191771,0.0,1.0,14.710282315733657,4.80402171410709,0.0,Landing
12.200000000000001,-275.17012560426684,-1314.9098008484543,178.48393880642942,3.0222312587619053,0.9976072810629849,102.9463606569114,30.78119790762305,0.0,1.0,14.710282315733657,4.80402171410709,0.0,Landing
12.3,-277.4411517567899,-1301.716650696005,179.11995042341826,2.2642723560342843,1.4140463540213104,103.0762230197401,31.222597801919445,0.0,1.0,14.710282315733657,4.80402171410709,0.0,Landing
12.4,-279.532126201457,-1308.9075607149198,179.36809218470194,2.9994045338736113,1.3391390953779951,103.09487159414329,31.108641776076908,0.0,1.0,14.710282315733657,4.80402171410709,0.0,Landing
12.5,-281.71466340784144,-1294.922810609728,180.13009917507762,2.5867699663353783,1.4543425765291993,102.58704047670653,30.95845133182399,0.0,1.0,14.710282315733657,4.80402171410709,0.0,Landing
12.600000000000001,-283.91576580983855,-1327.4687352034223,180.0640572494444,2.692846609632759,1.532942604846737,102.83531202941919,31.10400667247067,0.0,1.0,14.710282315733657,4.80402171410709,0.0,Landing
12.700000000000001,-286.1694698774741,-1320.7744425417898,179.76891237657492,2.7056219512091273,1.4298455069363498,102.65980521856034,30.57905379650598,0.0,1.0,14.710282315733657,4.80402171410709,0.0,Landing
12.8,-288.3185356205504,-1296.043364523268,179.6155311896914,2.806706249803162,1.609330543545546,102.61556137427601,31.132824858079253,0.0,1.0,14.710282315733657,4.80402171410709,0.0,Landing
12.9,-290.3959826324549,-1267.6234704112514,179.84065284580313,3.2101680405833,1.484943931180398,102.73080928094322,31.511250490661933,0.0,1.0,14.710282315733657,4.80402171410709,0.0,Landing
13.0,-292.5075872295304,-1255.76482954541,179.98154971701237,2.9141653835271155,1.7348678808979938,102.69695748624122,30.924888411370446,0.0,1.0,14.710282315733657,4.80402171410709,0.0,Landing
13.100000000000001,-294.59735976827744,-1284.4668182554303,180.4323246748006,2.6241948963736568,1.4582834705008383,102.5684019894698,30.628453371875622,0.0,1.0,14.710282315733657,4.80402171410709,0.0,Landing
13.200000000000001,-296.81831672373204,-1290.4775984271055,182.43143530460546,2.734091291882676,1.5509130482112163,102.50393794112176,31.07763026386768,0.0,1.0,14.710282315733657,4.80402171410709,0.0,Landing
13.3,-298.9599752216659,-1317.3571155219977,180.97231571115435,2.886170101229501,1.6450072898988901,102.62134177270349,30.628847359464185,0.0,1.0,14.710282315733657,4.80402171410709,0.0,Landing
13.4,-301.18414534588743,-1306.4139317044348,179.24732211603384,2.8353367106648895,1.7594027807254844,102.52438746051678,31.088614060701342,0.0,1.0,14.710282315733657,4.80402171410709,0.0,Landing
13.5,-303.3503863822542,-1321.477330562209,182.6293298536922,2.4789620025712353,1.5873175218799807,102.80820060738819,31.09328065286919,0.0,1.0,14.710282315733657,4.80402171410709,0.0,Landing
13.600000000000001,-305.56736187447694,-1310.7270334697998,180.6936183986483,3.0843829667118685,1.797673474778313,102.54178489320469,30.67406195962296,0.0,1.0,14.710282315733657,4.80402171410709,0.0,Landing
13.700000000000001,-307.73778051323643,-1299.8900111856417,179.24099857638765,3.063895277216228,1.7903771816434009,102.76136135954488,30.856360325909055,0.0,1.0,14.710282315733657,4.80402171410709,0.0,Landing
13.8,-309.8498364381824,-1262.3196109073544,179.72183371835416,2.6441575832563164,1.8253655825747934,102.8434652000235,30.942487268725866,0.0,1.0,14.710282315733657,4.80402171410709,0.0,Landing
13.9,-311.8789599290137,-1242.7715342294393,180.02912890662557,2.42646765131697,1.4456418571313505,102.88847301352939,30.88006872868681,0.0,1.0,14.710282315733657,4.80402171410709,0.0,Landing
14.0,-313.9516381843836,-1248.8697171656668,180.8221673383423,2.594055560386307,1.3255229698160176,102.52486796477132,30.95125106465162,0.0,1.0,14.710282315733657,4.80402171410709,0.0,Landing
14.100000000000001,-316.09418502401076,-1263.7331090483374,178.72541244005856,2.6692852876090822,1.7176633970196526,102.87665753842072,31.138576187253545,0.0,1.0,14.710282315733657,4.80402171410709,0.0,Landing
14.200000000000001,-318.1976254742554,-1263.6614762012186,180.96031061813127,2.698378407442807,1.5630699512989976,102.30305079037635,30.217263565453905,0.0,1.0,14.710282315733657,4.80402171410709,0.0,Landing
14.3,-320.2699455653897,-1254.0892711887975,178.95107975378755,2.8155865362732766,2.1470417407844717,102.72157184897179,30.899482056877424,0.0,1.0,14.710282315733657,4.80402171410709,0.0,Landing
14.4,-322.36463137995474,-1260.6755462176352,180.99819962715873,2.5789977807834648,1.7484696367526031,102.68500988778942,30.99418840868257,0.0,1.0,14.710282315733657,4.80402171410709,0.0,Landing
14.5,-324.5010032053436,-1276.7728427848624,181.50142505984277,2.6338554889047234,1.470827333261322,102.84936976631388,30.660825323854173,0.0,1.0,14.710282315733657,4.80402171410709,0.0,Landing
14.600000000000001,-326.65380977931403,-1275.5302343120547,181.1104272132445,2.3196291646512783,1.9421542837464993,102.49867691970417,30.99074702787892,0.0,1.0,14.710282315733657,4.80402171410709,0.0,Landing
14.700000000000001,-328.742282551515,-1277.463417859519,179.4041020040287,2.2671173594727447,1.8007097566073855,102.82717907720894,31.2527045903419,0.0,1.0,14.710282315733657,4.80402171410709,0.0,Landing
14.8,-330.8883202946412,-1280.6432569078652,180.47348613509834,2.7413683538312794,1.6862847473235998,102.57358958074656,30.51221844948498,0.0,1.0,14.710282315733657,4.80402171410709,0.0,Landing
14.9,-333.05702606385336,-1279.9960951462253,179.86648520184082,2.818063681802404,1.4565602120206598,102.65243243031068,31.53983254852669,0.0,1.0,14.710282315733657,4.80402171410709,0.0,Landing
15.0,-335.14226302724614,-1260.7113116947519,181.00058226006382,2.669363278960978,1.7633440623425662,102.63087402276403,30.937343205459257,0.0,1.0,14.710282315733657,4.80402171410709,0.0,Landing
15.100000000000001,-337.19187685311493,-1263.777189427435,179.47643414435046,2.644620774140244,1.6157819938652374,102.9197972539298,30.94862983132662,0.0,1.0,14.710282315733657,4.80402171410709,0.0,Landing
15.200000000000001,-339.37591201099053,-1260.5731186207777,181.46336077684265,2.4937578134445193,1.4991342821832345,102.68185567118235,30.875702734194334,0.0,1.0,14.710282315733657,4.80402171410709,0.0,Landing
15.3,-341.44512862035003,-1270.5695316746298,178.43902657403805,2.6354283363052193,1.8173705327074299,102.70631238171887,31.29126140804943,0.0,1.0,14.710282315733657,4.80402171410709,0.0,Landing
15.4,-343.5447245114881,-1248.9220740894325,179.86520222507338,3.1270330902049,1.9168326387584222,102.79683067646067,31.038654097269823,0.0,1.0,14.710282315733657,4.80402171410709,0.0,Landing
15.5,-345.6205223814377,-1255.316274070583,180.13903762605423,2.618406079351977,1.4938946839036622,102.67833759775056,31.02276761442903,0.0,1.0,14.710282315733657,4.80402171410709,0.0,Landing
15.600000000000001,-347.72170999070295,-1268.3274960433553,179.95117205998227,2.8542966122279347,1.8775045818628924,102.47990158633138,31.140484279595515,0.0,1.0,14.710282315733657,4.80402171410709,0.0,Landing
15.700000000000001,-349.88636199170486,-1283.5034253076517,179.41468528557724,2.9469399855069214,1.6748797504132718,102.59885096152038,30.963324743285963,0.0,1.0,14.710282315733657,4.80402171410709,0.0,Landing
15.8,-352.03803950797595,-1287.934262543149,181.05430376263183,3.116949858488981,1.499003852467501,102.88692135170658,30.844721408604567,0.0,1.0,14.710282315733657,4.80402171410709,0.0,Landing
15.9,-354.1613813034187,-1275.7255299094595,182.08128073256606,2.9061017227655617,1.5201771716550443,102.68944287864883,30.58815254845152,0.0,1.0,14.710282315733657,4.80402171410709,0.0,Landing
16.0,-356.26498964125216,-1264.4670441822427,180.39412645581282,2.5916886337595484,1.2266079476275873,102.79469549722944,30.648293142862958,0.0,1.0,14.710282315733657,4.80402171410709,0.0,Landing
16.1,-358.36037472888717,-1269.3996796164356,182.1963119348074,2.685075188473993,1.4620387335883989,102.67998572203942,31.376615547967834,0.0,1.0,14.710282315733657,4.80402171410709,0.0,Landing
16.2,-360.50837970150087,-1260.5439208909047,180.5943646768786,2.6090584020202394,1.7279189880412114,102.54439388842775,30.437915977507867,0.0,1.0,14.710282315733657,4.80402171410709,0.0,Landing
16.3,-362.5677092457067,-1249.5360650205723,178.54548716090528,2.987255334214968,1.728356850856533,102.62943726151661,30.892951942288875,0.0,1.0,14.710282315733657,4.80402171410709,0.0,Landing
16.400000000000002,-364.60805505399003,-1238.0659636616429,179.65713148037466,2.53952534834028,1.4446826471917495,102.82080007353352,31.08511241280794,0.0,1.0,14.710282315733657,4.80402171410709,0.0,Landing
16.5,-366.6987095198091,-1255.182100927891,179.16143387266501,2.810513568728811,1.5379388417761606,102.67626705625821,31.004055448082557,0.0,1.0,14.710282315733657,4.80402171410709,0.0,Landing
16.6,-368.84361975034614,-1256.1361952635025,180.44517143295448,2.730818469061302,1.7741641632251126,102.53813640495366,31.06458514488709,0.0,1.0,14.710282315733657,4.80402171410709,0.0,Landing
16.7,-370.88873603030754,-1261.0136703310561,178.8038591788394,2.98091970307728,1.8579240548159044,102.5322385111491,30.593837889584464,0.0,1.0,14.710282315733657,4.80402171410709,0.0,Landing
16.8,-373.00377787146437,-1256.6124671240343,179.70315388243154,2.933352282781368,1.8904125318450127,102.73275331825198,30.648672208360903,0.0,1.0,14.710282315733657,4.80402171410709,0.0,Landing
16.900000000000002,-375.1266820859663,-1269.9544243691435,182.337872066256,2.574817556440459,1.6541646448302523,102.76641732219542,30.90998182890972,0.0,1.0,14.710282315733657,4.80402171410709,0.0,Landing
17.0,-377.23850815215326,-1256.305033307228,177.75796335047426,2.5187554066175593,1.7353082408944147,102.97696172875851,31.24559656883362,0.0,1.0,14.710282315733657,4.80402171410709,0.0,Landing
17.1,-379.2853030380005,-1265.8705941409607,179.45023699853303,2.58938256917783,1.6641588606118027,102.77734802342258,31.11739874376301,0.0,1.0,14.710282315733657,4.80402171410709,0.0,Landing
17.2,-381.4560350566711,-1273.8558256490023,180.51156756414994,2.5288951984156904,1.5107663181827964,102.95356206557466,31.006937621504342,0.0,1.0,14.710282315733657,4.80402171410709,0.0,Landing
17.3,-383.60778728039827,-1276.6431712211559,178.62690075850264,2.4582553308115216,1.3745801324382065,102.59589307038658,30.8864007263064,0.0,1.0,14.710282315733657,4.80402171410709,0.0,Landing
17.400000000000002,-385.6685188941063,-1254.1441642457246,179.83060406436533,2.844474086253695,1.441933779062403,102.67369926536992,30.569134881056897,0.0,1.0,14.710282315733657,4.80402171410709,0.0,Landing
17.5,-387.72675587789973,-1250.9291948070995,180.19615267003698,3.0632703124542253,1.387780458286934,102.68265397086276,30.96561731770506,0.0,1.0,14.710282315733657,4.80402171410709,0.0,Landing
17.6,-389.86243325443377,-1268.9109875933693,179.436957190476,2.791642583725076,1.714966787971786,102.63689442372134,30.98886883642872,0.0,1.0,14.710282315733657,4.80402171410709,0.0,Landing
17.7,-392.01307383207313,-1292.5209603968935,180.1478449068345,2.65143203624416,1.6377965013293476,102.38379277211868,30.946198386991927,0.0,1.0,14.710282315733657,4.80402171410709,0.0,Landing
17.8,-394.1893606798842,-1268.2785956733596,180.9296725993599,2.642309088876395,1.4804873208321792,102.5314653183703,30.589281288365015,0.0,1.0,14.710282315733657,4.80402171410709,0.0,Landing
17.900000000000002,-396.20382623280057,-1259.4198204029797,180.43876656114938,2.8214504980459703,1.412739236496739,102.75959202298196,31.404856091117278,0.0,1.0,14.710282315733657,4.80402171410709,0.0,Landing
18.0,-398.31017293408803,-1235.4534735882908,180.3314287446254,2.6051907164012063,1.5455269988251987,102.7167112371921,31.382674788232055,0.0,1.0,14.710282315733657,4.80402171410709,0.0,Landing
18.1,-400.36662804782566,-1241.4963393011137,180.24870766627745,2.501461159060625,1.7975182044261633,102.77442497430707,31.339033287845513,0.0,1.0,14.710282315733657,4.80402171410709,0.0,Landing
18.2,-402.41130792930613,-1242.0874077949975,178.3764689584648,2.413298755276222,1.752512788687945,102.9292360168273,31.090827992012855,0.0,1.0,14.710282315733657,4.80402171410709,0.0,Landing
18.3,-404.520609973063,-1245.5718228896674,180.5166569182298,2.7115268506203627,1.3988496073441063,102.82268936477647,30.391613094164626,0.0,1.0,14.710282315733657,4.80402171410709,0.0,Landing
18.400000000000002,-406.594487162274,-1257.2503412187982,178.69833221745458,2.993440474918704,1.3117791585831848,102.61350289886866,31.11503023194431,0.0,1.0,14.710282315733657,4.80402171410709,0.0,Landing
18.5,-408.6975596354001,-1251.0305420925079,180.037675073591,2.56496602582998,1.3279716792905774,102.60594462625755,30.98250380738796,0.0,1.0,14.710282315733657,4.80402171410709,0.0,Landing
18.6,-410.77576268352556,-1250.9480073084771,181.12636498462427,2.774608210690546,1.2726479094670267,103.06355175389325,30.76823857852138,0.0,1.0,14.710282315733657,4.80402171410709,0.0,Landing
18.7,-412.8492271988164,-1241.802936563613,180.15492492103778,2.6937836275672007,1.820726873672933,102.63947799033923,30.60604676914901,0.0,1.0,14.710282315733657,4.80402171410709,0.0,Landing
18.8,-414.9065743182182,-1247.3417336384045,178.7125388523997,2.526886250807234,1.7788016288147968,102.74671005722155,31.25477663070985,0.0,1.0,14.710282315733657,4.80402171410709,0.0,Landing
18.900000000000002,-417.0124713517176,-1251.0869277602867,178.8131549936446,2.7782113546964418,1.579800362919955,102.8083819970916,30.802700990669283,0.0,1.0,14.710282315733657,4.80402171410709,0.0,Landing
19.0,-419.1046618376178,-1252.3040472371465,180.2796203061704,2.7431004722027934,1.6942243912123447,102.30917999772294,30.947897730641678,0.0,1.0,14.710282315733657,4.80402171410709,0.0,Landing
19.1,-421.1680945544039,-1253.34973337649,181.88510273553823,2.652071406094642,1.6261058726795228,102.6821812137847,30.77165594321066,0.0,1.0,14.710282315733657,4.80402171410709,0.0,Landing
19.200000000000003,-423.27922001860003,-1235.7277789969087,183.94479739629463,2.4061066663604125,1.7546605452319377,102.73544946055961,30.9949620565554,0.0,1.0,14.710282315733657,4.80402171410709,0.0,Landing
19.3,-425.28330073260236,-1235.710786802838,179.60612550238258,2.6953245976285998,1.4573872454302967,102.53747701296174,30.535893182647612,0.0,1.0,14.710282315733657,4.80402171410709,0.0,Landing
19.400000000000002,-427.3466484884181,-1239.9585911891902,178.6000925913465,2.5673388047007677,1.7242625004717935,102.6369513912316,30.986194817156875,0.0,1.0,14.710282315733657,4.80402171410709,0.0,Landing
19.5,-429.479012974546,-1238.8432512728175,180.07204666705684,2.6195731753874774,1.7496750556405825,102.46895233772705,30.869583917963535,0.0,1.0,14.710282315733657,4.80402171410709,0.0,Landing
19.6,-431.47751698896644,-1232.371488354681,180.46088389462386,2.8274038520836076,1.401040836665829,102.96566487551979,30.868308452776596,0.0,1.0,14.710282315733657,4.80402171410709,0.0,Landing
19.700000000000003,-433.5085059301915,-1235.0183631972075,181.5873957306118,2.7086177849700697,1.4278982110356968,102.64944640911159,30.87664729801831,0.0,1.0,14.710282315733657,4.80402171410709,0.0,Landing
19.8,-435.654104790532,-1247.7756578306637,180.25057533170605,2.6425685997965056,1.3222639682495498,102.81919984956585,30.833358704084606,0.0,1.0,14.710282315733657,4.80402171410709,0.0,Landing
19.900000000000002,-437.71639527811976,-1246.2254864398008,179.5356573784208,2.6783422873691927,1.5218391714162136,102.52208097226247,31.250726810531415,0.0,1.0,14.710282315733657,4.80402171410709,0.0,Landing
20.0,-439.7396333623905,-1241.0378066373369,181.45757078555525,2.8536814812655065,1.644482432806102,102.74202009192328,30.65002229415667,0.0,1.0,14.710282315733657,4.80402171410709,0.0,Landing
20.1,-441.8592938237187,-1241.5818520908604,178.65556851486826,2.6699651831417817,1.577584590267643,102.65867742494373,30.344815132131878,0.0,1.0,14.710282315733657,4.80402171410709,0.0,Landing
20.200000000000003,-443.92430453857406,-1235.326373525788,178.13602042035163,2.3168882754800655,1.467110337249646,102.68400199229018,30.392080584927548,0.0,1.0,14.710282315733657,4.80402171410709,0.0,Landing
20.3,-445.91626523001946,-1218.3881653916726,180.56433898123933,2.4970796732694547,1.5507359547016726,102.39815476594384,30.874793387515837,0.0,1.0,14.710282315733657,4.80402171410709,0.0,Landing
20.400000000000002,-447.95123465067707,-1221.7491074655754,180.4217851160947,2.2232046474997214,1.9080478007285946,102.53883976083631,30.454255182149932,0.0,1.0,14.710282315733657,4.80402171410709,0.0,Landing
20.5,-450.03305007590194,-1219.7079193712852,179.74649592896617,2.8373312649336926,1.2817107594745762,102.7155436569758,30.587764395126708,0.0,1.0,14.710282315733657,4.80402171410709,0.0,Landing
20.6,-452.0148048268759,-1227.9185512135427,178.73254939755125,2.7219676765099647,1.9197652425261325,102.60914997908219,31.121091638873903,0.0,1.0,14.710282315733657,4.80402171410709,0.0,Landing
20.700000000000003,-454.0908274067448,-1224.1526711593906,180.28925606889177,2.1106751063148352,1.6502441527765603,102.46354577450848,30.353006463595328,0.0,1.0,14.710282315733657,4.80402171410709,0.0,Landing
20.8,-456.1538134316989,-1238.9555112257085,179.3716856263772,2.983646382941153,1.3459433054211463,102.818343349587,30.77430123358791,0.0,1.0,14.710282315733657,4.80402171410709,0.0,Landing
20.900000000000002,-458.20958238300443,-1234.3991639189087,179.60273459941595,3.010757857442163,1.1623054737280856,102.74067729099687,30.724983883615074,0.0,1.0,14.710282315733657,4.80402171410709,0.0,Landing
21.0,-460.2628232263393,-1253.8585498255543,179.6101676517238,2.7472009362938286,1.326998636103855,102.6589516617596,30.740398776792475,0.0,1.0,14.710282315733657,4.80402171410709,0.0,Landing
21.1,-462.42310618082666,-1252.8509015961733,180.6217244894166,2.709200608932877,1.5012964829506839,102.5615515803147,31.185600854794092,0.0,1.0,14.710282315733657,4.80402171410709,0.0,Landing
21.200000000000003,-464.4738368909853,-1245.8847159830611,181.68935535250145,2.8897335493565115,1.5996023833498432,102.68810661061042,30.851922615520767,0.0,1.0,14.710282315733657,4.80402171410709,0.0,Landing
21.3,-466.4922468062546,-1222.8194312138723,179.18553261743477,2.9080981823938066,1.6073942220679722,102.62357022989653,30.911597561942703,0.0,1.0,14.710282315733657,4.80402171410709,0.0,Landing
21.400000000000002,-468.537203336896,-1224.99810998263,178.7385244680864,2.6657326334070754,1.70881424976596,102.74682321524722,31.029152131159364,0.0,1.0,14.710282315733657,4.80402171410709,0.0,Landing
21.5,-470.59882744089845,-1221.3631126778976,180.70890376762358,2.509255440156883,1.6785956789311263,102.68008047547806,30.73263908522831,0.0,1.0,14.710282315733657,4.80402171410709,0.0,Landing
21.6,-472.5990623696441,-1215.4821396985653,180.85612710462473,2.7585067260476124,1.5340473100444199,102.72357040980972,30.963748389445996,0.0,1.0,14.710282315733657,4.80402171410709,0.0,Landing
21.700000000000003,-474.61461403538885,-1216.0549870314865,178.93186506246136,2.9899970091471864,1.6427894713107856,102.48235878184141,31.815126574181203,0.0,1.0,14.710282315733657,4.80402171410709,0.0,Landing
21.8,-476.6791023760559,-1225.3929513476467,180.1142783751871,2.7487394011065502,1.646734246136237,102.89426898208302,31.24721419709668,0.0,1.0,14.710282315733657,4.80402171410709,0.0,Landing
21.900000000000002,-478.72602712638235,-1224.8789854817576,179.3392996305449,2.8988401992085033,1.613789363591137,102.75745306664953,30.95608155097486,0.0,1.0,14.710282315733657,4.80402171410709,0.0,Landing
22.0,-480.73900896279764,-1226.637677102747,179.18673408124909,2.5203521275900074,1.622476071637443,102.71660411477313,30.826624568747846,0.0,1.0,14.710282315733657,4.80402171410709,0.0,Landing
22.1,-482.8122907615696,-1224.7719237154909,179.8374548126543,2.7508829270378636,1.8987442085138078,102.79786724191234,30.5776429688022,0.0,1.0,14.710282315733657,4.80402171410709,0.0,Landing
22.200000000000003,-484.8498867449598,-1215.2072923761918,180.4680498193098,2.630019151205506,1.5247843549095659,102.64470762189467,30.559683319576365,0.0,1.0,14.710282315733657,4.80402171410709,0.0,Landing
22.3,-486.8150454246786,-1197.2362725917947,182.15701520226378,2.656721923414543,1.5413811697764528,102.7633497800166,30.953143555781324,0.0,1.0,14.710282315733657,4.80402171410709,0.0,Landing
22.400000000000002,-488.7984721245286,-1192.8686701000859,179.53096380426356,2.686353894379148,1.610794222428545,102.61522921826605,30.976138182193644,0.0,1.0,14.710282315733657,4.80402171410709,0.0,Landing
22.5,-490.81423009546023,-1207.7737537062148,180.7881258097392,2.750248429275481,1.3043854900738134,102.78044755247663,30.674114772105806,0.0,1.0,14.710282315733657,4.80402171410709,0.0,Landing
22.6,-492.8539141932097,-1214.9302636959758,180.72110032338716,2.6303947722034393,1.2828154417863442,102.42797726882577,31.142125215634636,0.0,1.0,14.710282315733657,4.80402171410709,0.0,Landing
22.700000000000003,-494.87312344300847,-1217.1207343019887,180.5055072930258,2.9293635122553194,1.6132705661195232,102.56137828500056,31.417574734622793,0.0,1.0,14.710282315733657,4.80402171410709,0.0,Landing
22.8,-496.8998337669702,-1219.2039492553704,180.65424170354936,2.9935177597298264,1.5719391549686101,102.69526632081192,30.42428340631535,0.0,1.0,14.710282315733657,4.80402171410709,0.0,Landing
22.900000000000002,-498.9499339394865,-1231.0175810344278,179.7232002461829,2.340201788463515,1.7721610799438665,102.5995472066923,30.423072253698816,0.0,1.0,14.710282315733657,4.80402171410709,0.0,Landing
23.0,-501.0282113481806,-1223.872978242741,180.220488058724,2.74545208143227,1.6503375713505235,102.76981334910113,30.869967354513378,0.0,1.0,14.710282315733657,4.80402171410709,0.0,Landing
23.1,-503.0191986581839,-1230.8670600307212,182.15893161771794,2.747634096837242,1.433006134257915,102.45966210761554,30.909457294673746,0.0,1.0,14.710282315733657,4.80402171410709,0.0,Landing
23.200000000000003,-505.10426923964013,-1218.3903510387836,179.24510551724583,2.400941045647647,1.671119259771586,102.50666483164866,31.175876320466703,0.0,1.0,14.710282315733657,4.80402171410709,0.0,Landing
23.3,-507.1201631033745,-1233.4309185950249,181.31454731851724,2.624836600555318,1.5508736424483256,102.80101379149431,30.859230247647425,0.0,1.0,14.710282315733657,4.80402171410709,0.0,Landing
23.400000000000002,-509.186353251159,-1229.6609188529712,179.78330267943707,2.6760697962389175,1.5130345521924338,102.63975507098854,30.799932989320627,0.0,1.0,14.710282315733657,4.80402171410709,0.0,Landing
23.5,-511.252573833905,-1220.261073758081,179.52089211239186,3.00007064537258,2.0291370890852645,102.84253209562121,30.987047999557223,0.0,1.0,14.710282315733657,4.80402171410709,0.0,Landing
23.6,-513.2214684721649,-1216.1976872267244,180.6094363107635,2.399920722673823,1.376397304577754,102.55053650239392,31.021171694908055,0.0,1.0,14.710282315733657,4.80402171410709,0.0,Landing
23.700000000000003,-515.2673416872926,-1227.039596025179,181.11915484622983,2.581168857999963,1.4962199731395633,102.5999016478766,30.865322919172744,0.0,1.0,14.710282315733657,4.80402171410709,0.0,Landing
23.8,-517.3877718140309,-1236.0592395837784,180.28488091109855,2.3714795191625218,1.6355718687879106,103.02131008509241,31.535571428402108,0.0,1.0,14.710282315733657,4.80402171410709,0.0,Landing
23.900000000000002,-519.4017646700838,-1242.9658441467154,179.7698750539121,2.89012318310374,1.6512367777689299,102.78051550133091,31.059282518882867,0.0,1.0,14.710282315733657,4.80402171410709,0.0,Landing
24.0,-521.4821709080262,-1220.518776790368,181.63563531698222,2.560261685553657,1.44879971762094,102.39986404149244,30.488386952276972,0.0,1.0,14.710282315733657,4.80402171410709,0.0,Landing
24.1,-523.4903656979827,-1229.7733294518594,181.36025954209606,2.8514880475231856,1.4768607209339797,102.51397018066086,30.405857826802105,0.0,1.0,14.710282315733657,4.80402171410709,0.0,Landing
24.200000000000003,-525.5506313173431,-1213.5298528929297,181.28980624693764,2.355546541500005,1.864758709657519,102.85215582497239,30.82464475274934,0.0,1.0,14.710282315733657,4.80402171410709,0.0,Landing
24.3,-527.5498201724909,-1216.1468637497592,180.3399651859014,2.4757816595736566,1.3692918302636203,102.66765728113614,30.620884438420163,0.0,1.0,14.710282315733657,4.80402171410709,0.0,Landing
24.400000000000002,-529.5711000167315,-1202.879979959289,178.62232391176622,2.544426737625158,1.5184741624795712,102.67163802264315,30.46308872802082,0.0,1.0,14.710282315733657,4.80402171410709,0.0,Landing
24.5,-531.5650312171396,-1204.596051007229,180.5291830324684,2.5508659508702345,1.3423722824226108,102.55767345829906,31.402606827128622,0.0,1.0,14.710282315733657,4.80402171410709,0.0,Landing
24.6,-533.572800427527,-1194.8873085807236,178.76417832191333,2.3769090967759023,1.715865516119793,102.5701280735907,30.904665167508615,0.0,1.0,14.710282315733657,4.80402171410709,0.0,Landing
24.700000000000003,-535.5455365596351,-1205.5333005048396,180.65698180081665,2.923840212038386,1.6852965413636225,102.54519793637957,31.122111299435794,0.0,1.0,14.710282315733657,4.80402171410709,0.0,Landing
24.8,-537.5926977196638,-1191.798429222922,180.14963432775994,2.7062616678662756,1.6430866676891074,102.48623591151437,30.695891799492962,0.0,1.0,14.710282315733657,4.80402171410709,0.0,Landing
24.900000000000002,-539.5317925736416,-1196.1108327338252,180.13741080603717,2.9241948098909605,1.4377287315544838,102.87809302915741,30.322033264809075,0.0,1.0,14.710282315733657,4.80402171410709,0.0,Landing
25.0,-541.5260907233043,-1194.2076938242735,181.98894259395715,2.993848001014821,1.72756787628468,102.47703624945842,30.921473437828666,0.0,1.0,14.710282315733657,4.80402171410709,0.0,Landing
25.1,-543.5637361887851,-1205.8194082983619,180.72570249575878,2.9573887937716465,1.563399877525929,102.68378953033374,30.53985863367121,0.0,1.0,14.710282315733657,4.80402171410709,0.0,Landing
25.200000000000003,-545.5608896151334,-1188.1518994275211,181.66494105045697,2.546404959836319,1.740331575519417,102.90616108298923,30.64811016377369,0.0,1.0,14.710282315733657,4.80402171410709,0.0,Landing
25.3,-547.4668502204419,-1211.0691624956416,180.15236988657443,2.713071373197158,1.6060359190749556,102.66583468120768,31.010352878737343,0.0,1.0,14.710282315733657,4.80402171410709,0.0,Landing
25.400000000000002,-549.6190820012633,-1219.5287593766807,179.06591677390665,2.3511339180830815,1.5067983701960685,102.6014811735194,30.97009165276448,0.0,1.0,14.710282315733657,4.80402171410709,0.0,Landing
25.5,-551.6585334120168,-1241.758416856078,180.0568860525344,3.000011401885441,1.52882428047682,102.78526048555068,30.99049386396387,0.0,1.0,14.710282315733657,4.80402171410709,0.0,Landing
25.6,-553.6756423047223,-1199.931064869088,180.7743950577063,2.455062505871902,1.5242462061671913,102.7272074164095,30.61416474602992,0.0,1.0,14.710282315733657,4.80402171410709,0.0,Landing
25.700000000000003,-555.6187373256088,-1197.6363961338848,180.1815403100499,2.8737406248683848,1.6691148339985857,102.78493329618584,31.0262259508585,0.0,1.0,14.710282315733657,4.80402171410709,0.0,Landing
25.8,-557.6467153926862,-1194.570070398322,179.7328549649946,2.4824912120280915,1.4606458416556707,102.65549195344153,30.921397791434114,0.0,1.0,14.710282315733657,4.80402171410709,0.0,Landing
25.900000000000002,-559.6484926567139,-1196.2864060274796,179.5109843930643,2.800808232129986,1.2878535698170697,102.72964096553665,31.06037388319118,0.0,1.0,14.710282315733657,4.80402171410709,0.0,Landing
26.0,-561.6001693557462,-1176.0822999607853,180.4881754270413,2.8474889035624664,1.252696245889041,102.92445487569364,30.405420839573978,0.0,1.0,14.710282315733657,4.80402171410709,0.0,Landing
26.1,-563.5271268924902,-1182.520080659333,179.96849277519482,2.7251425647981278,1.8223119418470841,102.78489357084743,30.775554810684522,0.0,1.0,14.710282315733657,4.80402171410709,0.0,Landing
26.200000000000003,-565.5610930600105,-1198.1122039536558,178.85778841990592,2.8034869963027473,1.656393830874002,102.68823519463734,30.67635480493815,0.0,1.0,14.710282315733657,4.80402171410709,0.0,Landing
26.3,-567.5907303755145,-1216.3886040423677,180.90157365974986,2.4128247980321933,1.461742684355657,102.46934790216278,30.746483951325807,0.0,1.0,14.710282315733657,4.80402171410709,0.0,Landing
26.400000000000002,-569.609069912702,-1216.8663997753583,181.0012073988244,2.732784941110385,1.4903610805880754,102.69554523872722,31.133525023307275,0.0,1.0,14.710282315733657,4.80402171410709,0.0,Landing
26.5,-571.6454250588873,-1209.6493541933341,179.3950722983739,2.469364743580556,1.709199281488857,102.52389899191803,30.68420028034405,0.0,1.0,14.710282315733657,4.80402171410709,0.0,Landing
26.6,-573.6389771464811,-1192.8785055738672,180.50342255992427,2.929261390939247,1.7455923253035925,102.72633035111278,31.22389236649922,0.0,1.0,14.710282315733657,4.80402171410709,0.0,Landing
26.700000000000003,-575.5734624405713,-1172.4290392525745,180.3856361708241,2.8264938209924724,1.8269956141629122,102.5953933809107,30.709453678870677,0.0,1.0,14.710282315733657,4.80402171410709,0.0,Landing
26.8,-577.5075702551502,-1166.1605866524724,179.9845305659607,3.0737992229049254,1.6455916412423082,102.64611110074657,30.88793991646197,0.0,1.0,14.710282315733657,4.80402171410709,0.0,Landing
26.900000000000002,-579.4697800797435,-1169.476365498008,181.39024546564585,2.684649190700797,1.7875514993925976,102.76668052872537,30.747987605373524,0.0,1.0,14.710282315733657,4.80402171410709,0.0,Landing
27.0,-581.4208442680614,-1166.8916536415509,179.50817081306437,2.687570363988721,1.3057588160551958,102.74089151839217,31.242274545013537,0.0,1.0,14.710282315733657,4.80402171410709,0.0,Landing
27.1,-583.342028523358,-1166.043485542741,180.22894059669505,2.6523558611630493,1.3291017726210064,102.80342389083074,30.888653808107694,0.0,1.0,14.710282315733657,4.80402171410709,0.0,Landing
27.200000000000003,-585.2999975074572,-1165.9118223320093,179.95215515167692,2.427553950477755,1.504680502293427,102.79615145575514,30.929727010198143,0.0,1.0,14.710282315733657,4.80402171410709,0.0,Landing
27.3,-587.2504033797214,-1172.8700453451893,179.37080646995207,2.6505677237353864,1.462411341653737,102.69217195893884,31.335519151676642,0.0,1.0,14.710282315733657,4.80402171410709,0.0,Landing
27.400000000000002,-589.2063787500839,-1159.6302040001092,178.10343276868042,2.418049427643438,1.5674246274237313,102.61429324205636,31.38966001412834,0.0,1.0,14.710282315733657,4.80402171410709,0.0,Landing
27.5,-591.0981485274577,-1149.2490388069882,180.7632571100184,2.7214317869578744,1.7928239032268394,102.73276156264899,31.12853353858205,0.0,1.0,14.710282315733657,4.80402171410709,0.0,Landing
27.6,-592.9966485737564,-1154.22361193489,179.30215349906615,2.816860898329849,1.5591666607606245,102.92022690789304,30.858297336184712,0.0,1.0,14.710282315733657,4.80402171410709,0.0,Landing
27.700000000000003,-594.9774968097583,-1163.4929020626032,181.70472181090648,2.8654827085587957,1.8676943683554879,102.81952703483495,30.65836628333139,0.0,1.0,14.710282315733657,4.80402171410709,0.0,Landing
27.8,-596.9156130377708,-1176.759953658211,179.52002533225382,3.030326957297003,1.635121070566659,102.89639669203217,30.736720193085283,0.0,1.0,14.710282315733657,4.80402171410709,0.0,Landing
27.900000000000002,-598.8804483420474,-1163.185197971029,178.99833710359232,3.0066559156890467,1.2436282945374748,102.49009536582685,30.981431726001734,0.0,1.0,14.710282315733657,4.80402171410709,0.0,Landing
28.0,-600.7934227996135,-1167.9501893288034,180.76318272895261,2.4791845902896013,1.5049659987641526,102.72254088548596,30.71596265890318,0.0,1.0,14.710282315733657,4.80402171410709,0.0,Landing
28.1,-602.7553639844148,-1160.8805104174508,180.6981761185835,2.5803991660602175,1.5504294093528166,102.83718835155116,30.278490150141124,0.0,1.0,14.710282315733657,4.80402171410709,0.0,Landing
28.200000000000003,-604.6848508941347,-1175.5227791763446,180.62019472612164,2.6837342236252284,1.4819534057803239,102.71601774743385,30.66615380630656,0.0,1.0,14.710282315733657,4.80402171410709,0.0,Landing
28.3,-606.6710366954952,-1181.4875998166144,177.9736742629752,2.7475403079762244,1.6247239832549882,102.53827230310799,30.797659417440272,0.0,1.0,14.710282315733657,4.80402171410709,0.0,Landing
28.400000000000002,-608.6628019834978,-1218.35947043312,179.12346492697418,2.7007603558027724,1.6987911688273853,102.53383689660018,30.732028211777706,0.0,1.0,14.710282315733657,4.80402171410709,0.0,Landing
28.5,-610.7766482463003,-1216.626168398875,179.96716424075197,2.3369291725699517,1.6139102412351938,102.7964740555127,30.909977418677393,0.0,1.0,14.710282315733657,4.80402171410709,0.0,Landing
28.6,-612.7541675374896,-1218.9844672842582,181.00234849576316,2.932662331904779,1.3723477361303382,102.50464437521737,30.672812883787262,0.0,1.0,14.710282315733657,4.80402171410709,0.0,Landing
28.700000000000003,-614.7577243199191,-1197.5669005454392,181.28592696341994,3.0392717012231345,1.5513069586595052,102.54794822509416,31.132852122650583,0.0,1.0,14.710282315733657,4.80402171410709,0.0,Landing
28.8,-616.7644827490275,-1197.9149457484255,181.00465467602632,2.1881978656842236,1.5766565262428076,102.79844689947907,30.502477153843845,0.0,1.0,14.710282315733657,4.80402171410709,0.0,Landing
28.900000000000002,-618.7437422662317,-1197.884271031694,179.87820961743128,3.0379470419424615,1.5618253077346136,102.62872277001327,30.995732741269336,0.0,1.0,14.710282315733657,4.80402171410709,0.0,Landing
29.0,-620.7471456750776,-1179.7413785906201,181.1746707381859,2.5388701165027237,1.3814707459134479,102.65279023626613,31.130560517524696,0.0,1.0,14.710282315733657,4.80402171410709,0.0,Landing
29.1,-622.6631896419806,-1176.4804115935249,180.50412330608114,2.9713671052845685,1.5014893184025286,102.74854346112897,30.838508211530087,0.0,1.0,14.710282315733657,4.80402171410709,0.0,Landing
29.200000000000003,-624.6261443241993,-1172.3704221124308,180.46722437401948,2.5469133546297056,1.6085717960830657,102.7385695225372,30.83068409283581,0.0,1.0,14.710282315733657,4.80402171410709,0.0,Landing
29.3,-626.6089977856398,-1172.707230861488,180.2753255762879,2.8447641773211774,1.6980867820655137,102.49484575323902,31.17004734365165,0.0,1.0,14.710282315733657,4.80402171410709,0.0,Landing
29.400000000000002,-628.526725796288,-1155.729756145729,180.6653878704294,2.823159747684555,1.5534189505877225,102.56304110773584,30.516478273441724,0.0,1.0,14.710282315733657,4.80402171410709,0.0,Landing
29.5,-630.404793104928,-1144.7443080698577,180.4119757010675,2.474035809042047,1.665423089598182,102.59310252419021,30.458147309844414,0.0,1.0,14.710282315733657,4.80402171410709,0.0,Landing
29.6,-632.332719325989,-1160.345788237123,178.99413111177162,2.6667452749352636,1.9948162848781776,102.35472354718985,31.056593224148035,0.0,1.0,14.710282315733657,4.80402171410709,0.0,Landing
29.700000000000003,-634.3284547374736,-1159.3682490613674,179.94324877996414,3.060720882082604,1.4464267218589504,102.67479268573163,31.246795830260925,0.0,1.0,14.710282315733657,4.80402171410709,0.0,Landing
29.8,-636.2016343502348,-1167.2472516474045,179.86669786230846,2.9375936100284235,1.443485221270384,102.41210132393087,30.589346615928342,0.0,1.0,14.710282315733657,4.80402171410709,0.0,Landing
29.900000000000002,-638.1689555842261,-1141.836133112315,178.1270518303105,2.3753293630710948,1.599467548112384,102.7570459036121,30.819934857948883,0.0,1.0,14.710282315733657,4.80402171410709,0.0,Landing
30.0,-640.0376354030352,-1152.6647483987972,181.0957297678767,2.5020535408010764,1.5935123966080142,102.66903388791746,31.27055994979164,0.0,1.0,14.710282315733657,4.80402171410709,0.0,Landing
