time_s,altitude_ft,vertical_speed_fpm,ias_kt,pitch_deg,roll_deg,heading_deg,throttle_pct,afterburner_on,gear_down,flaps_deg,speedbrake_pct,weight_on_wheels,label
0.0,-1.8801202314939731,-562.7105658856954,186.2052350933533,3.1464800606732872,0.79925580796671,324.9507523047371,33.99097242702323,0.0,1.0,13.792620237037855,13.491280234058554,0.0,Landing
0.1,-3.7558221177796245,-744.8766768568416,187.57161300727708,3.116787105016892,1.2289952897840766,325.0392200227865,33.28036319996739,0.0,1.0,13.792620237037855,13.491280234058554,0.0,Landing
0.2,-5.604503615778182,-1122.9895011541237,189.61563531117073,2.823060883873093,1.1943623325770418,325.15704799790046,33.183605389911875,0.0,1.0,13.792620237037855,13.491280234058554,0.0,Landing
0.30000000000000004,-7.495067737264592,-1108.858331201862,187.0178383805338,2.8139834038993574,0.9790520340786752,325.18498716213185,33.46388273101564,0.0,1.0,13.792620237037855,13.491280234058554,0.0,Landing
0.4,-9.300113773788935,-1110.2522501903265,186.94006201247828,2.882069164696699,0.794901261051735,325.4165356452652,33.1404020040883,0.0,1.0,13.792620237037855,13.491280234058554,0.0,Landing
0.5,-11.155764866729815,-1094.6620594162537,187.83244473996547,2.9464939047395187,1.1195935701409263,325.08875553447433,33.544952432916446,0.0,1.0,13.792620237037855,13.491280234058554,0.0,Landing
0.6000000000000001,-12.96837803434586,-1103.6384560236347,187.1133403805171,3.070151574936367,0.9670650313349848,325.1533704665537,33.773818298407335,0.0,1.0,13.792620237037855,13.491280234058554,0.0,Landing
0.7000000000000001,-14.818306053907108,-1094.4280529541281,189.52636992191512,2.9044389369870993,1.0706303476630272,324.96759150851744,33.67722021289939,0.0,1.0,13.792620237037855,13.491280234058554,0.0,Landing
0.8,-16.627905131500455,-1104.5375385478592,186.9500525986685,3.0306778940080212,0.9296168699026781,325.0916428384535,33.53602406758797,0.0,1.0,13.792620237037855,13.491280234058554,0.0,Landing
0.9,-18.491065727085157,-1101.6262427980728,188.0612306037179,2.777985480367315,1.17232152022101,324.7979227665584,33.29127046669143,0.0,1.0,13.792620237037855,13.491280234058554,0.0,Landing
1.0,-20.32643726789747,-1108.0216750457319,187.69490293399616,2.688238642303376,1.2255201180836648,325.04997878772747,33.33076356049697,0.0,1.0,13.792620237037855,13.491280234058554,0.0,Landing
1.1,-22.168013506729114,-1102.618794834141,187.79195139328542,3.015947412959881,1.1946552031629907,324.94290516345575,33.83604287326665,0.0,1.0,13.792620237037855,13.491280234058554,0.0,Landing
1.2000000000000002,-24.004159701255862,-1109.8236688433183,186.4633154674615,2.996554660614056,0.49532029470440275,325.28791190600134,33.02282109997972,0.0,1.0,13.792620237037855,13.491280234058554,0.0,Landing
1.3,-25.875555612114063,-1124.9456657732424,187.45609369913126,2.76262159817137,1.0636611222499361,325.1104196293302,33.269480221459304,0.0,1.0,13.792620237037855,13.491280234058554,0.0,Landing
1.4000000000000001,-27.792741835595326,-1136.7488864814484,186.92893237279122,2.975766501119079,1.005140153186718,325.1908334736406,33.43299004773001,0.0,1.0,13.792620237037855,13.491280234058554,0.0,Landing
1.5,-29.687904133663103,-1128.1149376280218,187.43881685893217,3.1759055332507735,0.7861774385395013,325.15010608458306,33.35515834873204,0.0,1.0,13.792620237037855,13.491280234058554,0.0,Landing
1.6,-31.516130300254172,-1095.4432013566068,188.13132090800946,3.067855411556252,1.1400354993996964,325.62642529383083,33.42725877134463,0.0,1.0,13.792620237037855,13.491280234058554,0.0,Landing
1.7000000000000002,-33.26995784237836,-1072.6151804190438,187.1822150164126,3.028200087427586,1.1501252604364562,325.1345401641362,33.336412554724085,0.0,1.0,13.792620237037855,13.491280234058554,0.0,Landing
1.8,-35.05098003575832,-1057.1833325177229,188.02666612865582,2.899719525433794,1.2588305172031178,325.0667831105293,33.41590690668178,0.0,1.0,13.792620237037855,13.491280234058554,0.0,Landing
1.9000000000000001,-36.80204696284279,-1072.2191713792795,187.605735714007,2.9030721559329833,0.9614209922164132,325.21924930825264,33.88156368100544,0.0,1.0,13.792620237037855,13.491280234058554,0.0,Landing
2.0,-38.63105369927476,-1100.3783071375321,188.7598012565598,2.964427319225952,1.2732025655030466,325.2263108839196,33.44307236415514,0.0,1.0,13.792620237037855,13.491280234058554,0.0,Landing
2.1,-40.55287157144598,-1122.3015504196526,187.34414134510698,3.0988012356396495,0.951976485585003,325.3698216544283,33.85409609831709,0.0,1.0,13.792620237037855,13.491280234058554,0.0,Landing
2.2,-42.41355471494105,-1120.4654417314998,188.31084579716253,2.8437446128229023,1.3073386663538569,325.4268645396352,33.44597644530769,0.0,1.0,13.792620237037855,13.491280234058554,0.0,Landing
2.3000000000000003,-44.23338090793226,-1098.4116465197033,187.3100617079511,2.8918475320026436,0.8271572556078307,325.1058937894569,33.41350779448019,0.0,1.0,13.792620237037855,13.491280234058554,0.0,Landing
2.4000000000000004,-46.0449298040445,-1100.263711763182,187.18964147681513,2.6154675472227713,1.1075833158598567,325.0337781993006,33.889200247858525,0.0,1.0,13.792620237037855,13.491280234058554,0.0,Landing
2.5,-47.91487327375696,-1100.73581307242,186.4444788154155,3.0812284600031012,1.0667884021643648,325.0862354556315,34.14963381934031,0.0,1.0,13.792620237037855,13.491280234058554,0.0,Landing
2.6,-49.73705997329436,-1098.440974165419,188.20081625635427,2.833064483669106,1.2143043750256093,325.34258491273135,33.534279272439754,0.0,1.0,13.792620237037855,13.491280234058554,0.0,Landing
2.7,-51.537134674871595,-1099.1280704532571,187.59078614832902,3.2309128269412226,1.0030153251687108,325.0550995404657,34.050169417361715,0.0,1.0,13.792620237037855,13.491280234058554,0.0,Landing
2.8000000000000003,-53.410513626023246,-1092.9421654315574,188.30658953020057,3.121216624543457,0.960237091795762,325.0930768369499,32.8708745830348,0.0,1.0,13.792620237037855,13.491280234058554,0.0,Landing
2.9000000000000004,-55.201770800452145,-1104.1728937739947,188.03253439496402,3.2322553864544985,1.150105889936871,325.38554296517964,33.38796243746587,0.0,1.0,13.792620237037855,13.491280234058554,0.0,Landing
3.0,-57.05799914374157,-1091.6243905811443,187.12536694148474,2.705598295352858,0.8465424463522879,325.14879164909144,33.0760507903481,0.0,1.0,13.792620237037855,13.491280234058554,0.0,Landing
3.1,-58.868635578928966,-1108.4398780229421,185.59268605511141,2.9239308567022815,1.1919262633561192,325.37832559981257,33.082393389447155,0.0,1.0,13.792620237037855,13.491280234058554,0.0,Landing
3.2,-60.743970190566856,-1087.385290522691,187.14586211210758,3.221596838085975,1.191093652958864,325.0973908088001,33.21290058165958,0.0,1.0,13.792620237037855,13.491280234058554,0.0,Landing
3.3000000000000003,-62.494925596355024,-1089.6550879023052,189.17302409595544,3.1338964741875053,0.9215792516890894,325.34108713802266,33.67795788793721,0.0,1.0,13.792620237037855,13.491280234058554,0.0,Landing
3.4000000000000004,-64.31691101844049,-1074.672409629278,188.5058761589671,2.4112825569942253,0.9702502805504112,324.8891179846763,33.13607205601066,0.0,1.0,13.792620237037855,13.491280234058554,0.0,Landing
3.5,-66.11733223871325,-1078.0139268344144,187.49314909809928,2.6642243925286997,0.8193179114593526,325.16731599519267,33.41209880493763,0.0,1.0,13.792620237037855,13.491280234058554,0.0,Landing
3.6,-67.8849952305271,-1086.8173571682519,186.4919991522487,2.67088048078735,0.9016958303321405,325.05907133585106,33.372322881006134,0.0,1.0,13.792620237037855,13.491280234058554,0.0,Landing
3.7,-69.75099780428175,-1102.5198056061527,187.2888583923239,2.8351626958559644,0.919110902473047,325.03124094560246,33.55750346220516,0.0,1.0,13.792620237037855,13.491280234058554,0.0,Landing
3.8000000000000003,-71.62993126674401,-1124.3541545803398,187.00179828064515,3.014865539227751,1.0454655187038637,325.3432199304468,33.12685363613553,0.0,1.0,13.792620237037855,13.491280234058554,0.0,Landing
3.9000000000000004,-73.5067660034288,-1119.2786336233894,186.92881466901346,2.973604712456131,0.9529994302306757,325.0114786067039,32.915371416529354,0.0,1.0,13.792620237037855,13.491280234058554,0.0,Landing
4.0,-75.3473909723987,-1099.3651597407477,187.7434362652483,3.0032011333226833,1.2707989031364295,325.2540281965871,33.46754378132756,0.0,1.0,13.792620237037855,13.491280234058554,0.0,Landing
4.1000000000000005,-77.12675706544775,-1096.9307494640022,187.18739931621,3.0512222149132477,1.3255571636770982,325.18820772341485,33.9774694567386,0.0,1.0,13.792620237037855,13.491280234058554,0.0,Landing
4.2,-78.9914197507488,-1083.4976108463025,188.83948072296994,3.0501939832429565,1.182173875150437,325.06980478914375,33.141255041737,0.0,1.0,13.792620237037855,13.491280234058554,0.0,Landing
4.3,-80.76487902663021,-1095.2037918867347,187.41248489517412,2.893426069973361,1.4554782972045428,324.97306169558294,33.54784428661121,0.0,1.0,13.792620237037855,13.491280234058554,0.0,Landing
4.4,-82.60277602488142,-1096.0763761494718,187.63087187404082,3.015287388484366,1.0286702916166175,325.0877673826958,33.340210296170305,0.0,1.0,13.792620237037855,13.491280234058554,0.0,Landing
4.5,-84.47180163149616,-1091.5768329182954,187.5789475315646,2.9836739456846177,1.0050093298234155,325.1890299276105,33.49448660635325,0.0,1.0,13.792620237037855,13.491280234058554,0.0,Landing
4.6000000000000005,-86.22276319122169,-1072.8223123189252,186.44531914106597,3.102145446486368,1.1485151359448473,325.2804531091024,32.68567936794663,0.0,1.0,13.792620237037855,13.491280234058554,0.0,Landing
4.7,-87.96688758647605,-1055.9547658281047,186.2794138905243,3.0888162028603015,1.2624279519778892,325.0947460552188,33.43615612834136,0.0,1.0,13.792620237037855,13.491280234058554,0.0,Landing
4.800000000000001,-89.75157546063669,-1072.9640977939455,186.71716869129438,2.8824429493035892,0.5890879807928129,325.2856120715345,33.12762556689607,0.0,1.0,13.792620237037855,13.491280234058554,0.0,Landing
4.9,-91.58758368019141,-1090.5501879231906,188.39588783965914,3.005435492086363,1.0383284854832602,325.11553437781595,33.35789281253181,0.0,1.0,13.792620237037855,13.491280234058554,0.0,Landing
5.0,-93.419638526092,-1105.6760344839802,187.4036856018028,2.9336199409457144,0.9257827420160629,325.0476843414667,33.61637323315292,0.0,1.0,13.792620237037855,13.491280234058554,0.0,Landing
5.1000000000000005,-95.27995563305659,-1111.2277702344443,186.15011641030299,3.1577654763815755,1.2029085313255317,325.40558764784646,33.57694215668751,0.0,1.0,13.792620237037855,13.491280234058554,0.0,Landing
5.2,-97.14372253136364,-1116.950419424137,188.05472662242735,3.019081353715019,1.404160945221603,325.0523814166585,32.944633376832,0.0,1.0,13.792620237037855,13.491280234058554,0.0,Landing
5.300000000000001,-99.00439062321269,-1111.8572855933025,189.396399109159,3.073541925331298,0.8708265241350984,325.2292550270341,33.59063136890616,0.0,1.0,13.792620237037855,13.491280234058554,0.0,Landing
5.4,-100.8392420610231,-1077.6933599272409,187.19273228065904,2.879494799877064,0.9764571874669081,325.2274427353302,33.288338274546284,0.0,1.0,13.792620237037855,13.491280234058554,0.0,Landing
5.5,-102.53218933099984,-1075.9029405258245,187.68573150753656,2.732840499649642,0.9713879824341832,325.29248478381965,33.96327687063256,0.0,1.0,13.792620237037855,13.491280234058554,0.0,Landing
5.6000000000000005,-104.38390532584181,-1079.561526951241,186.8277120031126,3.039832180856425,0.9754745101517798,325.3804649923643,33.59975681990946,0.0,1.0,13.792620237037855,13.491280234058554,0.0,Landing
5.7,-106.2370496957793,-1105.1140541397074,188.9288207139735,2.7330766552986883,1.1836218151920104,325.09709955963945,33.80717273038166,0.0,1.0,13.792620237037855,13.491280234058554,0.0,Landing
5.800000000000001,-108.05775960169838,-1101.489540522698,187.30708077088482,2.934801286552021,1.0282275665821001,325.2638374596032,33.64613178631974,0.0,1.0,13.792620237037855,13.491280234058554,0.0,Landing
5.9,-109.8913530284553,-1084.440385625453,189.11808589928296,2.7659116624649522,1.165302849051043,325.27706682547523,33.72509327252929,0.0,1.0,13.792620237037855,13.491280234058554,0.0,Landing
6.0,-111.65925162390657,-1068.0508105689285,190.01557901778747,3.3147017135184704,1.5083991502604395,325.2242764610079,33.15254574582736,0.0,1.0,13.792620237037855,13.491280234058554,0.0,Landing
6.1000000000000005,-113.39801365454302,-1063.2809937932761,186.45548473738242,2.712662199969742,1.1981343519154746,325.2078235748364,33.22946746799802,0.0,1.0,13.792620237037855,13.491280234058554,0.0,Landing
6.2,-115.20775799742168,-1081.3718350804975,187.627040522932,3.0781815802793053,1.0403875975553425,325.06751819976193,33.96837124715171,0.0,1.0,13.792620237037855,13.491280234058554,0.0,Landing
6.300000000000001,-117.06611079930906,-1093.158898894734,187.16797822458398,2.9538435213581673,0.7875622262739472,325.0784904772006,33.015995586652664,0.0,1.0,13.792620237037855,13.491280234058554,0.0,Landing
6.4,-118.86380814901669,-1097.6338435256594,187.38895680833718,2.7195329060746407,1.0762036329270024,325.09146957797554,33.0858050850252,0.0,1.0,13.792620237037855,13.491280234058554,0.0,Landing
6.5,-120.69592721504998,-1080.7226652297486,188.26868969786213,2.934306609284666,1.2943540382347696,325.3641621632587,33.6841614100899,0.0,1.0,13.792620237037855,13.491280234058554,0.0,Landing
6.6000000000000005,-122.4697241254578,-1088.057300179139,186.01901861980772,2.816866093182801,1.3771996898046204,324.9744472562902,33.81257164629589,0.0,1.0,13.792620237037855,13.491280234058554,0.0,Landing
6.7,-124.30409464991239,-1084.6242594068344,188.44557625775883,3.1014123782640195,0.6117044747363143,325.0069907073829,33.38293698116121,0.0,1.0,13.792620237037855,13.491280234058554,0.0,Landing
6.800000000000001,-126.11904851208415,-1094.973321396924,186.79654390935949,3.0587115988009588,0.9124913396575975,325.4933631022253,33.34462766303807,0.0,1.0,13.792620237037855,13.491280234058554,0.0,Landing
6.9,-127.94459073244242,-1092.2133196008617,187.4370039210956,3.214608766411406,1.0560484752940782,325.4196500637498,33.69234844239529,0.0,1.0,13.792620237037855,13.491280234058554,0.0,Landing
7.0,-129.7651612479167,-1093.9202672599292,188.890805021253,2.8739753266245915,1.1624960940694662,325.3406255206098,33.73014078413867,0.0,1.0,13.792620237037855,13.491280234058554,0.0,Landing
7.1000000000000005,-131.5886498483838,-1097.0889556118293,188.77719938848173,3.2877921166184327,0.9965335018533211,325.2843429309737,33.283465204648834,0.0,1.0,13.792620237037855,13.491280234058554,0.0,Landing
7.2,-133.43003551050157,-1098.6722263258343,186.83900371680028,2.7635609922420667,0.7365792956749815,325.10011789607665,33.470242015072145,0.0,1.0,13.792620237037855,13.491280234058554,0.0,Landing
7.300000000000001,-135.25852237954587,-1073.8229207827487,186.81832661390038,2.7533718989608125,0.9476166547095712,325.0818269056356,33.627885846612536,0.0,1.0,13.792620237037855,13.491280234058554,0.0,Landing
7.4,-136.95776445229754,-1069.1037312106685,187.22230846388294,3.3547758551364946,0.7618511251916177,325.3907946526133,33.4797921921959,0.0,1.0,13.792620237037855,13.491280234058554,0.0,Landing
7.5,-138.7755541665549,-1068.6857448181115,187.46697685672885,3.1635138839129975,0.7637644975799189,324.9157148623085,33.74115912623099,0.0,1.0,13.792620237037855,13.491280234058554,0.0,Landing
7.6000000000000005,-140.60195110363642,-1100.304478725343,188.19295939109327,2.9901067668726307,1.0353134428031592,325.0266644667536,33.7398961128443,0.0,1.0,13.792620237037855,13.491280234058554,0.0,Landing
7.7,-142.45928684592425,-1091.3299356078426,187.95934518650756,2.8066574612087325,0.9329819220563509,325.12010548452145,33.57396405408673,0.0,1.0,13.792620237037855,13.491280234058554,0.0,Landing
7.800000000000001,-144.23220384459412,-1095.3960332886368,186.4279572959973,3.094962965550064,0.9894222472035439,325.2595771724857,33.02221678218635,0.0,1.0,13.792620237037855,13.491280234058554,0.0,Landing
7.9,-146.0789312700796,-1090.164757384025,186.83633440358557,3.140215284300136,0.8537135982308331,325.1846165014848,33.218555967676345,0.0,1.0,13.792620237037855,13.491280234058554,0.0,Landing
8.0,-147.91011063284438,-1093.299152964164,188.2099957698684,2.77427406931514,1.1520360885238636,324.86791347103053,32.90788256437804,0.0,1.0,13.792620237037855,13.491280234058554,0.0,Landing
8.1,-149.69869960941494,-1077.9329401511177,186.44348231892306,3.0685831789647455,0.8885992356569299,324.95155478080096,32.9265001372677,0.0,1.0,13.792620237037855,13.491280234058554,0.0,Landing
8.200000000000001,-151.4685959708352,-1063.7553310615942,188.7202358075522,3.019551690482734,1.4090563104208516,325.01865059034526,33.49921960139522,0.0,1.0,13.792620237037855,13.491280234058554,0.0,Landing
8.3,-153.22888728815235,-1069.701292820281,187.26614288869695,2.9645552543496354,1.0483658447538844,325.1191090691277,33.162601899930614,0.0,1.0,13.792620237037855,13.491280234058554,0.0,Landing
8.4,-155.04720607351635,-1074.2705252856979,188.71431370788605,2.8113683378836942,0.6495203503321472,324.9213939541662,33.001963352028966,0.0,1.0,13.792620237037855,13.491280234058554,0.0,Landing
8.5,-156.83994859726369,-1067.926635786387,186.95488868877928,3.2905802594656537,1.046286649949071,325.2557440238554,33.305373339052835,0.0,1.0,13.792620237037855,13.491280234058554,0.0,Landing
8.6,-158.56852046708428,-1058.5444605595114,187.4731265174385,3.0489982107245885,0.9836833031541935,325.2201594025553,33.53514484389864,0.0,1.0,13.792620237037855,13.491280234058554,0.0,Landing
8.700000000000001,-160.3399283763139,-1064.2368282149846,187.9965921151841,3.0055257842323497,1.0512381663507917,325.19529239552526,33.04741633083687,0.0,1.0,13.792620237037855,13.491280234058554,0.0,Landing
8.8,-162.1611327383386,-1083.8355331845435,187.93929847329719,2.8462660382971245,0.5981389958836296,325.1613802203756,32.96278483699724,0.0,1.0,13.792620237037855,13.491280234058554,0.0,Landing
8.9,-163.987698133007,-1098.8228960354093,187.31514765978096,3.2979946086019387,0.7355216244057832,325.1625198061315,33.22858729323714,0.0,1.0,13.792620237037855,13.491280234058554,0.0,Landing
9.0,-165.83404285649095,-1082.3040847005586,186.45977973449698,2.934442912567446,0.8070552198983884,324.88706351751864,33.59347524951955,0.0,1.0,13.792620237037855,13.491280234058554,0.0,Landing
9.1,-167.5726531618414,-1072.0788980956513,186.79638314130446,3.1140101915342533,0.8904045105895204,325.1974451142722,33.91892903460714,0.0,1.0,13.792620237037855,13.491280234058554,0.0,Landing
9.200000000000001,-169.34809262348526,-1076.873575633391,187.46790554350443,3.0224821005597953,1.13414233588666,324.9612718392086,33.44153405156526,0.0,1.0,13.792620237037855,13.491280234058554,0.0,Landing
9.3,-171.2184107346579,-1098.7545154784245,187.53713179211883,3.064662620002325,0.8094999977169498,325.30435195831694,33.34325372130001,0.0,1.0,13.792620237037855,13.491280234058554,0.0,Landing
9.4,-173.06642573923352,-1094.8002524615617,186.5864748830522,3.3657498662479335,0.78961873367727,325.0897582720463,33.43267467273085,0.0,1.0,13.792620237037855,13.491280234058554,0.0,Landing
9.5,-174.82209388579307,-1098.212109523638,188.44637396830694,3.2021379974398654,1.2095906312105873,325.27783839101653,33.422114429854844,0.0,1.0,13.792620237037855,13.491280234058554,0.0,Landing
9.600000000000001,-176.7094712822761,-1092.532238865476,186.7880034608389,2.694021153115265,0.8136834842981723,325.25785276018064,33.3216148789115,0.0,1.0,13.792620237037855,13.491280234058554,0.0,Landing
9.700000000000001,-178.5290869335609,-1106.6943623741338,188.15655856053777,3.018000344040481,0.7789157548518859,325.03528162781595,33.67223795599068,0.0,1.0,13.792620237037855,13.491280234058554,0.0,Landing
9.8,-180.35556569766374,-1076.651737906633,186.57655649440125,2.8377866955028077,1.0971486538591864,325.0156547824098,33.4689085822576,0.0,1.0,13.792620237037855,13.491280234058554,0.0,Landing
9.9,-182.09272997180926,-1044.337462260205,186.90158224911775,2.8041719654386132,1.5158139421278878,324.94944222224285,32.98789104622161,0.0,1.0,13.792620237037855,13.491280234058554,0.0,Landing
10.0,-183.75077424486193,-1045.7815170943093,188.7537853068452,2.71968852384433,1.0531908458265848,325.1060856700807,33.128675905728365,0.0,1.0,13.792620237037855,13.491280234058554,0.0,Landing
10.100000000000001,-185.58447328313528,-1056.9317352651979,186.79434319979572,2.674330278184883,1.3098198378657835,325.0277717870256,33.4271338565715,0.0,1.0,13.792620237037855,13.491280234058554,0.0,Landing
10.200000000000001,-187.37738864813525,-1067.1329257483933,189.4819445088586,2.9887021227019113,1.0113289344909422,325.1627027441598,33.14959359720144,0.0,1.0,13.792620237037855,13.491280234058554,0.0,Landing
10.3,-189.0864388736039,-1067.009960152575,189.51446070855664,2.9781173562052854,1.192382922312015,325.21409237356534,34.37364583319156,0.0,1.0,13.792620237037855,13.491280234058554,0.0,Landing
10.4,-190.91952308389816,-1075.6862017988624,187.4220763961938,2.7134951549718367,1.092892652940715,325.14997276687734,33.541457003022444,0.0,1.0,13.792620237037855,13.491280234058554,0.0,Landing
10.5,-192.75581965712956,-1096.6252174262424,188.09808441586918,2.998011168178976,0.8586677391385464,325.21778404058773,33.28570320828208,0.0,1.0,13.792620237037855,13.491280234058554,0.0,Landing
10.600000000000001,-194.5695649607351,-1093.21961633907,188.26426064181646,2.8759850926455712,1.2578646246744312,325.41909736528964,33.9698155942861,0.0,1.0,13.792620237037855,13.491280234058554,0.0,Landing
10.700000000000001,-196.3856211655935,-1078.7647838528017,186.7612876925829,2.653197424288636,1.460329545266562,325.09022840275134,33.76311848455515,0.0,1.0,13.792620237037855,13.491280234058554,0.0,Landing
10.8,-198.14964357639357,-1075.18787172599,188.10401176361918,2.707451513491171,0.8425491924604241,325.3362567230123,33.879495008208224,0.0,1.0,13.792620237037855,13.491280234058554,0.0,Landing
10.9,-199.94550431936506,-1084.9423030998762,187.4895775262986,3.050204648827091,1.255963038346286,325.3469167146782,33.062248195611566,0.0,1.0,13.792620237037855,13.491280234058554,0.0,Landing
11.0,-201.8103326810929,-1115.6006414020737,188.5116557364581,2.7048256871682144,0.7040306842395407,325.2737161893665,33.73813581399892,0.0,1.0,13.792620237037855,13.491280234058554,0.0,Landing
11.100000000000001,-203.72764678340394,-1107.0685318588971,186.1530588902769,2.9802815397158295,1.1198373443939365,325.2802071471933,33.378121555180826,0.0,1.0,13.792620237037855,13.491280234058554,0.0,Landing
11.200000000000001,-205.48084697865954,-1103.3775754012024,186.5760022636184,3.1478357912013055,1.037117889349784,324.9976298694853,33.821113099175506,0.0,1.0,13.792620237037855,13.491280234058554,0.0,Landing
11.3,-207.3272205580989,-1081.402232655273,187.70422986707072,2.7902194125709854,0.9592861500807225,325.20270385892195,33.05977516213358,0.0,1.0,13.792620237037855,13.491280234058554,0.0,Landing
11.4,-209.1346579466803,-1093.414049524057,188.93448867106738,3.0997035379170117,1.0086617778303717,325.18224389490854,33.290885927110814,0.0,1.0,13.792620237037855,13.491280234058554,0.0,Landing
11.5,-210.94791722627983,-1088.558583754235,186.64184004329874,3.2648442955075287,1.04963328570794,325.1951554041643,32.91793904624484,0.0,1.0,13.792620237037855,13.491280234058554,0.0,Landing
11.600000000000001,-212.77001347687008,-1081.387458955703,187.00559631001104,3.183882065166518,0.7472686279458727,325.0023875230411,33.35704820162303,0.0,1.0,13.792620237037855,13.491280234058554,0.0,Landing
11.700000000000001,-214.54159524145882,-1074.5997806469404,187.43864825445738,2.716678794055775,0.9091008998479067,325.1483514898491,33.69230363160926,0.0,1.0,13.792620237037855,13.491280234058554,0.0,Landing
11.8,-216.32091612951453,-1072.9092165607199,187.5042994552071,2.9366776202379006,0.8934311164233631,325.3074795428399,33.042696438361766,0.0,1.0,13.792620237037855,13.491280234058554,0.0,Landing
11.9,-218.13455955967368,-1072.2866140247902,187.4276711853395,2.420266889711095,1.0604038134512535,325.1222392214304,33.73837132389465,0.0,1.0,13.792620237037855,13.491280234058554,0.0,Landing
12.0,-219.90302831158277,-1067.5118895765536,188.3428607591503,2.7919001153533864,1.1206065775989715,325.0901601178423,33.28048051595172,0.0,1.0,13.792620237037855,13.491280234058554,0.0,Landing
12.100000000000001,-221.6584755773973,-1050.3190155898324,186.15779707275505,2.9857152479423346,0.8780845398533106,324.9937731347884,33.55620887590555,0.0,1.0,13.792620237037855,13.491280234058554,0.0,Landing
12.200000000000001,-223.38615463762284,-1066.466991801758,187.87231682715858,3.18650371650663,0.9659375266720074,325.37404765256997,33.1897948778732,0.0,1.0,13.792620237037855,13.491280234058554,0.0,Landing
12.3,-225.23536327059156,-1065.538110370153,186.92467787683003,2.938707748064196,0.8070180370940846,325.00456257215853,33.2924182661442,0.0,1.0,13.792620237037855,13.491280234058554,0.0,Landing
12.4,-226.98616612924806,-1101.828018099252,186.44036647030194,2.927308434553098,0.9875078774781236,325.0366915299685,33.19623904198086,0.0,1.0,13.792620237037855,13.491280234058554,0.0,Landing
12.5,-228.8952947281191,-1080.480879774808,187.91977751602838,2.7302408505711377,1.2577567601270718,325.0583006360281,33.13689946270816,0.0,1.0,13.792620237037855,13.491280234058554,0.0,Landing
12.600000000000001,-230.6377676694656,-1102.3844752895059,185.98164395152338,2.8926416639876944,1.2830655910304642,324.88941797067787,33.67202492406333,0.0,1.0,13.792620237037855,13.491280234058554,0.0,Landing
12.700000000000001,-232.4980885056956,-1060.7015301777608,188.1088767212858,3.0391981512572883,0.9346175427047758,325.1267695213804,33.39394316539081,0.0,1.0,13.792620237037855,13.491280234058554,0.0,Landing
12.8,-234.1988023790079,-1062.7606268261104,187.4968289106898,3.083401621526534,0.9581084270349705,325.3592755106247,34.06385866925137,0.0,1.0,13.792620237037855,13.491280234058554,0.0,Landing
12.9,-235.95157080359616,-1053.737840251506,187.028300236835,3.0374801577791675,1.001763556457359,325.17924209707746,33.68519340139958,0.0,1.0,13.792620237037855,13.491280234058554,0.0,Landing
13.0,-237.76677770695312,-1069.2953331680485,187.97709476171752,2.8274553159413927,0.8812509691397813,325.09544590183464,33.725718424360956,0.0,1.0,13.792620237037855,13.491280234058554,0.0,Landing
13.100000000000001,-239.54527904484814,-1081.5070044344907,188.25865243900444,2.884368303107313,1.191181911347043,325.31071803004147,33.53701180393866,0.0,1.0,13.792620237037855,13.491280234058554,0.0,Landing
13.200000000000001,-241.3591058257686,-1072.7224129471779,187.944851404557,3.0935688768182583,0.9554052762894009,325.14644746000613,34.0999266686277,0.0,1.0,13.792620237037855,13.491280234058554,0.0,Landing
13.3,-243.130389771689,-1054.2081906156795,185.92025631864604,2.8952022317708237,1.32888205889684,325.28361009961907,33.79222207719973,0.0,1.0,13.792620237037855,13.491280234058554,0.0,Landing
13.4,-244.81631999792654,-1049.960420474116,190.0795195505702,3.024494758861807,0.9277965711251552,325.26975448249016,33.14288101541916,0.0,1.0,13.792620237037855,13.491280234058554,0.0,Landing
13.5,-246.6089079281392,-1061.2621359809623,187.81781927862144,2.9561477276910204,0.7238359617970518,325.1091855805015,33.13284887742981,0.0,1.0,13.792620237037855,13.491280234058554,0.0,Landing
13.600000000000001,-248.43670045159382,-1069.4771548194637,188.18843148409255,2.9242899359181953,0.819975158402123,324.8891180993402,33.772403706724354,0.0,1.0,13.792620237037855,13.491280234058554,0.0,Landing
13.700000000000001,-250.16370577202386,-1065.4881348527454,187.72434816696534,2.866828983496405,0.9203788215072587,325.12399399362596,33.406278537246784,0.0,1.0,13.792620237037855,13.491280234058554,0.0,Landing
13.8,-251.93634860240292,-1042.5159960940164,190.86954019613339,3.0890262101701027,0.8451763288098262,325.15837052964935,33.56901157636206,0.0,1.0,13.792620237037855,13.491280234058554,0.0,Landing
13.9,-253.6492804320639,-1050.9251389639192,185.9457637138476,2.8751624828447544,1.018886272561664,325.1644108806656,33.60184494428224,0.0,1.0,13.792620237037855,13.491280234058554,0.0,Landing
14.0,-255.41833146684345,-1054.7152608712167,187.64559252867716,2.742245682408797,0.738612466064601,325.1611019086356,33.738699107367104,0.0,1.0,13.792620237037855,13.491280234058554,0.0,Landing
14.100000000000001,-257.209924906759,-1058.999384917206,187.510064510744,2.855737926381971,1.2806185583389702,325.163122715045,33.55176453595198,0.0,1.0,13.792620237037855,13.491280234058554,0.0,Landing
14.200000000000001,-258.94427735664993,-1040.484993816716,187.1994571932344,3.4048121864192367,0.8993404050754273,325.379033420675,33.65524988528437,0.0,1.0,13.792620237037855,13.491280234058554,0.0,Landing
14.3,-260.62075643592703,-1033.6830826494975,187.00164597702238,2.713768502910472,0.6444953757233803,325.18617063691613,33.22820742658113,0.0,1.0,13.792620237037855,13.491280234058554,0.0,Landing
14.4,-262.3783403200065,-1033.2348873801948,189.57750363014708,2.8391998325179366,1.1475367915016321,325.21569812621374,33.25917897176633,0.0,1.0,13.792620237037855,13.491280234058554,0.0,Landing
14.5,-264.1104517935509,-1051.5094593021217,188.3982417051062,2.9619722978426344,1.2064803720922856,325.0349272521082,33.52813928017201,0.0,1.0,13.792620237037855,13.491280234058554,0.0,Landing
14.600000000000001,-265.87830373243764,-1051.0280985728969,187.64977365571605,3.1812150654228017,0.7935609936229867,325.1523799487061,33.76178263718035,0.0,1.0,13.792620237037855,13.491280234058554,0.0,Landing
14.700000000000001,-267.63348081287097,-1066.7694896070202,188.0132554876628,3.2847276157432415,1.135079690050328,325.39178321904683,33.91496797721559,0.0,1.0,13.792620237037855,13.491280234058554,0.0,Landing
14.8,-269.444299241586,-1065.9786189283295,187.89084784202535,2.998032401850664,0.9462546030221546,325.2613636619549,33.41845260056052,0.0,1.0,13.792620237037855,13.491280234058554,0.0,Landing
14.9,-271.2081968270793,-1055.1547454481465,188.32700596381397,2.8469915323628308,0.9370392428149175,325.4354942169748,33.08390969016158,0.0,1.0,13.792620237037855,13.491280234058554,0.0,Landing
15.0,-272.9092545401117,-1046.4756245997592,186.61874385582013,3.0448348912337773,1.0828624105179143,325.21047422902393,33.13951258188576,0.0,1.0,13.792620237037855,13.491280234058554,0.0,Landing
15.100000000000001,-274.6766773645848,-1070.4155943325304,187.62310171928615,3.0191673079148704,1.3057534480885753,325.1341062774526,33.27073174652636,0.0,1.0,13.792620237037855,13.491280234058554,0.0,Landing
15.200000000000001,-276.56027479874194,-1070.9680670303328,187.13631717111957,3.325308890152399,1.348751126514435,325.0613126345668,33.73953900829864,0.0,1.0,13.792620237037855,13.491280234058554,0.0,Landing
15.3,-278.26409487526337,-1077.0345501261659,188.593858110601,2.9958825726228104,1.2348919733812465,325.4267516166087,34.37395530218923,0.0,1.0,13.792620237037855,13.491280234058554,0.0,Landing
15.4,-280.06185011521563,-1036.3014909335902,187.47952662920318,2.824961142406356,1.0063431198518202,324.7910235486995,32.952311831926274,0.0,1.0,13.792620237037855,13.491280234058554,0.0,Landing
15.5,-281.7417822534099,-1051.6049433848252,187.05195700275158,3.0394176417772067,0.8764991896950869,325.39082557175504,33.848110228875015,0.0,1.0,13.792620237037855,13.491280234058554,0.0,Landing
15.600000000000001,-283.5221195921875,-1040.1672625525407,187.98638424933037,2.954660068887442,0.9130672776099025,325.1046762473469,33.59668050608144,0.0,1.0,13.792620237037855,13.491280234058554,0.0,Landing
15.700000000000001,-285.26268642797834,-1050.0475249876786,185.84866267864032,3.26058964838404,0.7777373870530713,325.2435320990379,33.45112568921628,0.0,1.0,13.792620237037855,13.491280234058554,0.0,Landing
15.8,-286.9920198783483,-1046.2402435086005,187.08720071131745,3.0198072775499485,1.0211051645467124,325.34087635373226,33.49478721876079,0.0,1.0,13.792620237037855,13.491280234058554,0.0,Landing
15.9,-288.7533208097305,-1073.3734647040592,187.66039025585363,3.2652637682928103,0.9695009396927357,325.3199067606679,33.669430531070105,0.0,1.0,13.792620237037855,13.491280234058554,0.0,Landing
16.0,-290.62955375149863,-1081.3661879216852,186.7911245721424,3.4545840704075044,0.7533966025647777,325.15530167728593,33.37482128352205,0.0,1.0,13.792620237037855,13.491280234058554,0.0,Landing
16.1,-292.3988508179567,-1077.8300810067321,187.30900213856577,2.906671324780613,0.9739356496989473,325.0217653769662,32.70120801215527,0.0,1.0,13.792620237037855,13.491280234058554,0.0,Landing
16.2,-294.14247121476416,-1068.8669941901594,188.65381865073047,3.045848433811517,0.9026705688844675,325.21862398374924,33.32354201349027,0.0,1.0,13.792620237037855,13.491280234058554,0.0,Landing
16.3,-295.97388872244943,-1085.319708586951,188.7355357751827,3.4062477861313596,0.8512224233218005,325.1775217968642,34.07466174895124,0.0,1.0,13.792620237037855,13.491280234058554,0.0,Landing
16.400000000000002,-297.82544936089147,-1069.525692046193,187.25907799490068,3.372764459720677,1.3140586613873448,325.01762437796594,33.31195936666128,0.0,1.0,13.792620237037855,13.491280234058554,0.0,Landing
16.5,-299.4900996749951,-1079.6218079530263,187.79774545691464,2.710829466424139,1.0371431750505646,325.13897335005095,33.53317992542832,0.0,1.0,13.792620237037855,13.491280234058554,0.0,Landing
16.6,-301.37199776221456,-1067.121534091416,188.47513878355338,2.8699522315783996,1.0179816241454633,325.26770818985483,33.33104287398905,0.0,1.0,13.792620237037855,13.491280234058554,0.0,Landing
16.7,-303.16105703134855,-1078.7805470131389,189.67861171902442,3.0643307495865373,0.8999156432134322,324.95134433638145,33.691156267021825,0.0,1.0,13.792620237037855,13.491280234058554,0.0,Landing
16.8,-304.8840024100608,-1061.332824611236,187.25536039781633,3.1446076518307775,0.9917664265510054,325.3653779704907,33.405340065633915,0.0,1.0,13.792620237037855,13.491280234058554,0.0,Landing
16.900000000000002,-306.67866188527074,-1065.30469055391,188.27616341424877,3.281080782527189,1.3138316028681642,325.3120145265227,33.60543846321507,0.0,1.0,13.792620237037855,13.491280234058554,0.0,Landing
17.0,-308.4875804841181,-1073.6622531684475,187.5103857980282,3.1941865832721135,1.0139271126885285,325.1872099913053,33.75037709533988,0.0,1.0,13.792620237037855,13.491280234058554,0.0,Landing
17.1,-310.25231367590305,-1086.5730960367955,186.34501589809904,2.9984085684097455,1.1583558251580142,325.18577964275096,33.76046462830217,0.0,1.0,13.792620237037855,13.491280234058554,0.0,Landing
17.2,-312.1115273654547,-1080.3344307694374,186.84803296275427,3.106750140390859,0.821276643479972,325.1953069351081,33.911688976996444,0.0,1.0,13.792620237037855,13.491280234058554,0.0,Landing
17.3,-313.8892526379653,-1076.205165178078,186.9624285429522,3.1308900069095174,0.9301665398965129,325.3345888336387,32.77235249842474,0.0,1.0,13.792620237037855,13.491280234058554,0.0,Landing
17.400000000000002,-315.63333950179344,-1044.6432072798302,187.1504239046571,2.9400800997264396,0.7989772450859036,325.0446529160581,34.023462549741296,0.0,1.0,13.792620237037855,13.491280234058554,0.0,Landing
17.5,-317.33474340185387,-1056.3356306494484,189.28013899076373,3.112293326400537,0.9110173166488202,325.0948015475168,33.710530402976495,0.0,1.0,13.792620237037855,13.491280234058554,0.0,Landing
17.6,-319.1709307912125,-1056.1280209681172,188.1068757306286,2.689915515088953,1.3992871139176994,325.04103445800865,33.392461929126995,0.0,1.0,13.792620237037855,13.491280234058554,0.0,Landing
17.7,-320.91397960663403,-1050.0373239311557,187.13407062656512,2.8218862504156044,1.3370339656274761,325.1952136083719,33.21451985301973,0.0,1.0,13.792620237037855,13.491280234058554,0.0,Landing
17.8,-322.58493002150965,-1027.392613499444,187.54913742391045,3.1621793366065396,0.6688638868835098,325.3991039204791,33.590027056966264,0.0,1.0,13.792620237037855,13.491280234058554,0.0,Landing
17.900000000000002,-324.30789385870975,-1032.898121323376,187.645313004447,2.98422592810229,1.107542490158937,325.2683085092233,33.09297598359566,0.0,1.0,13.792620237037855,13.491280234058554,0.0,Landing
18.0,-326.0784702132509,-1067.6218793876274,187.8891122044094,3.0582973897195633,0.9547620005683453,325.1379583533219,33.64144351521279,0.0,1.0,13.792620237037855,13.491280234058554,0.0,Landing
18.1,-327.9230394184478,-1088.5622939179257,186.4631967059941,3.2046884912742923,1.1560487295520454,325.2904817789988,32.96720411311853,0.0,1.0,13.792620237037855,13.491280234058554,0.0,Landing
18.2,-329.7507053282994,-1093.8552000218124,185.96060837650577,2.7315809634308605,1.167921347114958,325.2059846713415,33.46956290121625,0.0,1.0,13.792620237037855,13.491280234058554,0.0,Landing
18.3,-331.54774621335997,-1079.3550996559702,187.2000889634612,3.018781461991811,0.7725196998696082,325.50454240753925,33.28803718926088,0.0,1.0,13.792620237037855,13.491280234058554,0.0,Landing
18.400000000000002,-333.31981491672764,-1058.0330838896998,188.88921961921298,3.1743697228248737,1.348873362988502,325.3103162224695,33.74676789093169,0.0,1.0,13.792620237037855,13.491280234058554,0.0,Landing
18.5,-335.0408707477479,-1050.476160325445,188.1113256763732,2.6898919472577703,0.9055893221591882,325.28545516773306,33.10642774360434,0.0,1.0,13.792620237037855,13.491280234058554,0.0,Landing
18.6,-336.8001270149872,-1053.4403638022582,189.6492768050601,2.7439393084601216,1.0693376630892653,324.9726967792111,33.52233608381156,0.0,1.0,13.792620237037855,13.491280234058554,0.0,Landing
18.7,-338.5870167357389,-1058.2040445511211,188.18908199406872,2.913757626288587,0.7376860985699182,325.0293431682352,33.466231017570074,0.0,1.0,13.792620237037855,13.491280234058554,0.0,Landing
18.8,-340.3318909705035,-1056.342241633422,188.66558822914516,2.9418629250013573,1.0492820094548558,324.9322074564634,33.9053467192937,0.0,1.0,13.792620237037855,13.491280234058554,0.0,Landing
18.900000000000002,-342.0818382231543,-1065.899574348873,187.65719403442486,3.0236115880790924,1.1280601484835693,325.08710801510415,33.51369468924461,0.0,1.0,13.792620237037855,13.491280234058554,0.0,Landing
19.0,-343.9165146074833,-1082.2744030641388,188.12140607713042,3.090996898571494,1.2329802672180823,325.26472874798276,33.5520037027776,0.0,1.0,13.792620237037855,13.491280234058554,0.0,Landing
19.1,-345.7432629858242,-1075.3192409959524,190.4161418291205,3.310147228411391,1.0126517841421074,325.1981359793426,33.3226148576963,0.0,1.0,13.792620237037855,13.491280234058554,0.0,Landing
19.200000000000003,-347.45843442813407,-1053.5519426895576,187.29657651604273,3.1849194213252696,0.8814560690407046,325.06445426559094,33.47861857796912,0.0,1.0,13.792620237037855,13.491280234058554,0.0,Landing
19.3,-349.1842743209311,-1040.6673826858878,188.50625718398305,3.0687541951675597,1.0862574898061608,325.05396142038126,33.339769593301625,0.0,1.0,13.792620237037855,13.491280234058554,0.0,Landing
19.400000000000002,-350.9465998992536,-1039.0738384261454,185.61233503056562,2.8211332225957597,0.8992062083104252,325.0137250695293,32.989781150876965,0.0,1.0,13.792620237037855,13.491280234058554,0.0,Landing
19.5,-352.6538036202648,-1038.9948704766766,189.91958039133166,3.098914276357281,1.0438182549296375,325.1162078424459,33.558681108725814,0.0,1.0,13.792620237037855,13.491280234058554,0.0,Landing
19.6,-354.37924867331446,-1034.8784761085085,185.5288567424187,2.9229733364347417,0.9616928667874536,325.27253483852223,33.498708137944966,0.0,1.0,13.792620237037855,13.491280234058554,0.0,Landing
19.700000000000003,-356.12099227979616,-1028.5645114653335,187.3826734623851,2.8001551803291216,1.149704853679504,325.1103809735296,33.50612324978232,0.0,1.0,13.792620237037855,13.491280234058554,0.0,Landing
19.8,-357.79662617759146,-1045.9161389583983,187.39720974079384,3.066000819533868,0.6761061153050807,325.1270408888961,32.981707557234294,0.0,1.0,13.792620237037855,13.491280234058554,0.0,Landing
19.900000000000002,-359.60882936810646,-1054.50167658895,186.7689924354438,3.1823025560134113,1.030123353578188,325.1673351545421,34.11217118629094,0.0,1.0,13.792620237037855,13.491280234058554,0.0,Landing
20.0,-361.3935006627409,-1058.8183852565976,187.92640410983256,2.8572040457871526,0.6620141618852489,325.2721441607067,33.34259165101204,0.0,1.0,13.792620237037855,13.491280234058554,0.0,Landing
20.1,-363.09071810387445,-1040.147601955789,187.72815504193431,2.806222756145233,1.3048881674846387,325.24517197309285,33.515644759197315,0.0,1.0,13.792620237037855,13.491280234058554,0.0,Landing
20.200000000000003,-364.8095673778854,-1029.0310727371661,189.08479167833724,2.8493218044048763,1.332258004301679,324.99420136209096,33.399855260547746,0.0,1.0,13.792620237037855,13.491280234058554,0.0,Landing
20.3,-366.53865602642674,-1032.5193543324076,188.42167668513636,3.047150559614975,0.789091008483199,325.2016935067986,33.54634379480777,0.0,1.0,13.792620237037855,13.491280234058554,0.0,Landing
20.400000000000002,-368.2533148755365,-1045.1463207517804,186.7017266949299,2.775982291144759,1.228382152420009,325.3030787819283,33.78770071233315,0.0,1.0,13.792620237037855,13.491280234058554,0.0,Landing
20.5,-370.0352989816443,-1055.836607060371,187.5480022998051,2.9719506206073314,0.9942827917266264,325.2947358572494,33.677363219577984,0.0,1.0,13.792620237037855,13.491280234058554,0.0,Landing
20.6,-371.8178390617286,-1054.0344544552568,187.1197222462872,2.9215089336307547,1.625024780917844,325.0857849856952,33.697560852149785,0.0,1.0,13.792620237037855,13.491280234058554,0.0,Landing
20.700000000000003,-373.5234871478128,-1023.3960772906698,189.82190502676826,2.863720773878055,0.9398797694168854,325.01347995894787,33.50702706834737,0.0,1.0,13.792620237037855,13.491280234058554,0.0,Landing
20.8,-375.15227936809765,-1023.353169340578,188.15023875136382,3.014654933462078,1.3456881013921724,325.2001562917228,33.34098087402495,0.0,1.0,13.792620237037855,13.491280234058554,0.0,Landing
20.900000000000002,-376.9346049084315,-1030.2506591779093,187.32891890390627,3.0390541330216223,1.2454091643532792,325.32917719954116,33.20465139963005,0.0,1.0,13.792620237037855,13.491280234058554,0.0,Landing
21.0,-378.6747404437023,-1049.5700766003552,188.75081933533696,2.961171709372487,1.155540031749447,325.0405551690767,34.02047405952125,0.0,1.0,13.792620237037855,13.491280234058554,0.0,Landing
21.1,-380.4001297510994,-1044.490981951276,189.23706883699148,2.772608636871725,1.1429352187815116,325.0947145489207,33.253312145751494,0.0,1.0,13.792620237037855,13.491280234058554,0.0,Landing
21.200000000000003,-382.15705981818786,-1036.2945813509214,187.34668163727764,3.0318456039783355,1.0335605755308994,325.0955658716458,33.53368587908953,0.0,1.0,13.792620237037855,13.491280234058554,0.0,Landing
21.3,-383.8562133504569,-1025.3866050938313,189.17131278853637,2.7932185050288387,0.9394936267905986,325.243782567411,33.71437692442079,0.0,1.0,13.792620237037855,13.491280234058554,0.0,Landing
21.400000000000002,-385.5270627765686,-1016.3803229923019,188.02523837067864,2.826530935805748,1.1156382901861481,324.976728859461,33.48886868449519,0.0,1.0,13.792620237037855,13.491280234058554,0.0,Landing
21.5,-387.23896143314937,-1013.1794947124035,187.2971922642312,2.9054989525433177,1.0408693833329645,325.21348403346633,33.27722705534223,0.0,1.0,13.792620237037855,13.491280234058554,0.0,Landing
21.6,-388.92211082401894,-1031.4654264794285,188.1932835826284,2.5870766097946536,0.5792661967953461,325.03613568945207,33.5162407188544,0.0,1.0,13.792620237037855,13.491280234058554,0.0,Landing
21.700000000000003,-390.6843899089657,-1052.9633277322318,187.0357538107768,2.7578827419066188,0.9431180465547075,325.13126739141444,33.521254435428716,0.0,1.0,13.792620237037855,13.491280234058554,0.0,Landing
21.8,-392.50377807181053,-1074.3793297140996,187.36318084616278,2.9665013061495937,0.9649288478591425,324.9198336329273,33.34521911454917,0.0,1.0,13.792620237037855,13.491280234058554,0.0,Landing
21.900000000000002,-394.29400747258944,-1066.2622709589527,188.06857513315012,3.324062135852301,0.8323646629646247,325.41579927458815,33.362872570099036,0.0,1.0,13.792620237037855,13.491280234058554,0.0,Landing
22.0,-396.0157012637605,-1045.565848925139,188.5316815902836,2.6714849938233045,1.0279605154129017,325.1657382011671,34.30640155883,0.0,1.0,13.792620237037855,13.491280234058554,0.0,Landing
22.1,-397.7316073164362,-1037.0109512701674,187.21952364497324,2.6894857972988904,1.0631791649026558,325.1997299675579,32.801243397377995,0.0,1.0,13.792620237037855,13.491280234058554,0.0,Landing
22.200000000000003,-399.4790622289403,-1031.1036091509663,187.11120163641337,2.7309056064804937,0.8473898234692475,325.0259219542402,33.8846580611594,0.0,1.0,13.792620237037855,13.491280234058554,0.0,Landing
22.3,-401.1712193095153,-1019.6842426022272,188.86645253829693,2.8515343238185853,1.5440904886505815,324.924814333761,33.54410172908026,0.0,1.0,13.792620237037855,13.491280234058554,0.0,Landing
22.400000000000002,-402.83002852944736,-1017.2212621421295,186.24732510813723,3.1458616891775404,0.835231706975934,325.160436485623,32.75686588859793,0.0,1.0,13.792620237037855,13.491280234058554,0.0,Landing
22.5,-404.5651685396509,-1030.570091253594,189.1986599781701,2.9468201206203535,0.7315673203928601,325.12921911221963,33.341340872922416,0.0,1.0,13.792620237037855,13.491280234058554,0.0,Landing
22.6,-406.3240697657833,-1040.3057266704877,186.36475544276317,2.8941116433546537,0.8084150326484257,325.1316834408276,33.03949388687202,0.0,1.0,13.792620237037855,13.491280234058554,0.0,Landing
22.700000000000003,-408.0315571627998,-1047.928038536952,185.69813477454656,2.9607149740743868,1.1207215668718145,324.95087166315204,34.07631664011665,0.0,1.0,13.792620237037855,13.491280234058554,0.0,Landing
22.8,-409.8048087323357,-1035.7827483861456,187.07275442988725,2.897059428992555,0.9080488832714393,325.3299823616568,33.91475731627203,0.0,1.0,13.792620237037855,13.491280234058554,0.0,Landing
22.900000000000002,-411.502983507714,-1051.5868408160145,188.39359171254657,2.7672017142896754,0.7140740118110644,325.28088232746154,33.61884320732421,0.0,1.0,13.792620237037855,13.491280234058554,0.0,Landing
23.0,-413.2894913668799,-1040.6318018818638,188.05817292204895,3.111562925599176,0.5012352406087832,324.9078656293648,33.675270593939494,0.0,1.0,13.792620237037855,13.491280234058554,0.0,Landing
23.1,-415.007967741745,-1039.9607029235767,187.10732644695148,2.975056806077974,0.8559503874838538,324.9364303851655,33.36952843176346,0.0,1.0,13.792620237037855,13.491280234058554,0.0,Landing
23.200000000000003,-416.7027870223319,-1034.0603103313356,187.87377772563764,2.77846318925007,1.3883833593165762,325.00996386511565,33.52674196442189,0.0,1.0,13.792620237037855,13.491280234058554,0.0,Landing
23.3,-418.45979291853655,-1040.7543690680768,189.0655380600349,2.844959859939603,1.2144015757524884,325.0763362350176,33.055779515700735,0.0,1.0,13.792620237037855,13.491280234058554,0.0,Landing
23.400000000000002,-420.2117395870854,-1029.9584053065587,187.37928652692833,2.948692657372451,1.1886967394375518,325.18800860192573,34.03451496757413,0.0,1.0,13.792620237037855,13.491280234058554,0.0,Landing
23.5,-421.8525790488647,-1022.6823272618844,186.87462815975016,3.1206650969036183,1.0587552562970899,325.3409192218817,33.58702324669338,0.0,1.0,13.792620237037855,13.491280234058554,0.0,Landing
23.6,-423.573204554846,-1016.8853782525957,189.2312639488957,2.9102056437982333,1.3106064296885362,325.29728817069883,33.06603305797585,0.0,1.0,13.792620237037855,13.491280234058554,0.0,Landing
23.700000000000003,-425.29616647834837,-1024.7731081716552,187.81294845404267,3.1517224750624027,0.7746887196284524,325.1661253536704,33.69822203142604,0.0,1.0,13.792620237037855,13.491280234058554,0.0,Landing
23.8,-426.976444589723,-1033.6459531762898,188.43669373443632,3.076912117362185,1.0513711258511067,325.09918926910063,33.912573619054086,0.0,1.0,13.792620237037855,13.491280234058554,0.0,Landing
23.900000000000002,-428.7414343207274,-1022.9289120392082,187.29031775716385,3.192222124536675,1.17832026230612,324.9499525232716,33.78994762991067,0.0,1.0,13.792620237037855,13.491280234058554,0.0,Landing
24.0,-430.4108110385444,-1018.4441906815778,188.73700578922637,2.9688701282656176,0.5956293519603907,325.06217543615253,33.78026692827316,0.0,1.0,13.792620237037855,13.491280234058554,0.0,Landing
24.1,-432.06866554313086,-1016.6857045148618,186.6535341134388,2.650066275119174,0.9011804445871356,325.2643084198712,33.984944039918204,0.0,1.0,13.792620237037855,13.491280234058554,0.0,Landing
24.200000000000003,-433.82486284330173,-1035.3594114576026,187.67335353408333,2.7647574800655765,1.0942713220967546,325.29834793748023,33.752297001738526,0.0,1.0,13.792620237037855,13.491280234058554,0.0,Landing
24.3,-435.5876080958324,-1052.5123792715704,187.57245429775392,3.1042664956693584,1.0546400682885082,325.2408053085144,33.86055646040197,0.0,1.0,13.792620237037855,13.491280234058554,0.0,Landing
24.400000000000002,-437.3312274394887,-1039.7449180114108,187.55973131062026,2.933939404778098,1.155199543394399,324.9802709651923,33.38687516698612,0.0,1.0,13.792620237037855,13.491280234058554,0.0,Landing
24.5,-439.0235874333588,-1032.1257886728176,188.48826655495895,2.762908719863216,0.903379950771296,325.1112756172886,33.15725696154292,0.0,1.0,13.792620237037855,13.491280234058554,0.0,Landing
24.6,-440.7482370391965,-1013.2216583814625,187.13339333982745,2.892684640765307,0.9166687996017079,325.43631968448585,33.29224936461265,0.0,1.0,13.792620237037855,13.491280234058554,0.0,Landing
24.700000000000003,-442.397335731396,-1021.0946868835094,187.65356856887607,3.2131922413924916,0.9579275704087167,325.0394721741503,33.41254645373367,0.0,1.0,13.792620237037855,13.491280234058554,0.0,Landing
24.8,-444.12906086777633,-1022.7500497006645,188.83769928693758,2.7115167426904847,1.1438026592733244,325.0088520215811,33.339798539210875,0.0,1.0,13.792620237037855,13.491280234058554,0.0,Landing
24.900000000000002,-445.86198728769983,-1039.5587101791193,188.87629747076986,3.2256436404658744,1.0615324374905717,325.27979764388465,33.50165901740089,0.0,1.0,13.792620237037855,13.491280234058554,0.0,Landing
25.0,-447.5951292822916,-1047.7726356484254,185.16394307314545,3.1525258965973815,1.2052243064834187,325.28087167948956,33.34571630520341,0.0,1.0,13.792620237037855,13.491280234058554,0.0,Landing
25.1,-449.36792404601846,-1049.1079755395162,186.96121936083364,3.2340482437370217,1.23583747828767,324.9632175163522,33.41255145837868,0.0,1.0,13.792620237037855,13.491280234058554,0.0,Landing
25.200000000000003,-451.1075271653974,-1054.6079320344347,187.5607362588524,2.7531290261008854,1.0413323514830355,325.068341289591,33.45733785314048,0.0,1.0,13.792620237037855,13.491280234058554,0.0,Landing
25.3,-452.8681689424638,-1037.7818416428909,187.53454028397798,3.0532748430501084,1.088586612979926,325.1376723111696,33.22378144013222,0.0,1.0,13.792620237037855,13.491280234058554,0.0,Landing
25.400000000000002,-454.5568332542329,-1038.3252865618033,188.2112407438837,2.883593953187688,0.7728297895128979,325.1163946248273,33.555102761312476,0.0,1.0,13.792620237037855,13.491280234058554,0.0,Landing
25.5,-456.29915359820643,-1019.5664244083673,184.87571610067909,2.979633398082979,0.9073830520366974,325.3394238583394,33.33994838348442,0.0,1.0,13.792620237037855,13.491280234058554,0.0,Landing
25.6,-457.96600106450563,-1024.8280445041587,187.7128563055893,2.923876579021934,1.1061377538658492,325.2433916143723,33.58696198764434,0.0,1.0,13.792620237037855,13.491280234058554,0.0,Landing
25.700000000000003,-459.6809734767537,-1002.0925939858103,189.07155760376116,2.9016707115821263,0.7363738024851705,325.09249710428116,33.539583055174944,0.0,1.0,13.792620237037855,13.491280234058554,0.0,Landing
25.8,-461.3096165681355,-991.8326350582674,186.3608439825086,2.8513149293702336,1.020006012091535,324.97326348109596,33.308322875860995,0.0,1.0,13.792620237037855,13.491280234058554,0.0,Landing
25.900000000000002,-462.92516423979697,-998.236023704078,188.46783856820431,2.950506875546245,1.1219281698776518,324.9137578939092,33.34718981206649,0.0,1.0,13.792620237037855,13.491280234058554,0.0,Landing
26.0,-464.6721535952741,-1027.6815254847747,186.89315443899605,3.0075496658130714,1.223054063455655,325.09446378769803,33.11854965858008,0.0,1.0,13.792620237037855,13.491280234058554,0.0,Landing
26.1,-466.44802419555936,-1029.9722411222774,188.3808719703839,2.7862793801965378,0.9023058696902018,324.9481468779095,33.52327557720159,0.0,1.0,13.792620237037855,13.491280234058554,0.0,Landing
26.200000000000003,-468.07502544540836,-1013.7577023020071,187.22535062678537,3.4921558482969695,0.6886528371349603,324.8657793381201,33.403556375127366,0.0,1.0,13.792620237037855,13.491280234058554,0.0,Landing
26.3,-469.74094210678413,-1004.9945869712246,185.80470408243693,2.787040314026709,1.1985994940372913,325.1336215165287,33.754819994590875,0.0,1.0,13.792620237037855,13.491280234058554,0.0,Landing
26.400000000000002,-471.4729971304155,-1016.2448457564778,186.20910885345947,2.9647668497624493,1.018937302360728,325.209021206153,33.57937825967146,0.0,1.0,13.792620237037855,13.491280234058554,0.0,Landing
26.5,-473.15624967419075,-1038.7213928126585,187.12098004177247,2.570755743194609,1.0078829179383813,325.18122506578106,33.048272519891356,0.0,1.0,13.792620237037855,13.491280234058554,0.0,Landing
26.6,-474.9345490708474,-1030.416569680233,187.57750936195066,3.0934431102008135,0.9602747233625821,325.12495054831015,33.37106609380081,0.0,1.0,13.792620237037855,13.491280234058554,0.0,Landing
26.700000000000003,-476.62507997881664,-1046.001160518506,186.4448079508366,2.872662339865257,1.35302975253581,325.1146842577309,33.58933645142793,0.0,1.0,13.792620237037855,13.491280234058554,0.0,Landing
26.8,-478.3862554767833,-1027.849879723044,186.00708667168698,2.8015488790654266,1.1368914974118807,325.22405823740587,33.60176369493971,0.0,1.0,13.792620237037855,13.491280234058554,0.0,Landing
26.900000000000002,-480.07379846946264,-1012.1726983479107,187.60416440249435,2.9499315864104503,1.0364903956109588,325.27438183965444,33.68348604367554,0.0,1.0,13.792620237037855,13.491280234058554,0.0,Landing
27.0,-481.6859434705562,-990.0508800612329,187.7192859566455,2.9149789239748873,1.430128937743897,325.1043189702817,33.857896848341106,0.0,1.0,13.792620237037855,13.491280234058554,0.0,Landing
27.1,-483.33650987708944,-1002.6958466885162,187.57352235216874,2.7113508707156817,1.1324145362637257,325.03422423628103,33.491470087249176,0.0,1.0,13.792620237037855,13.491280234058554,0.0,Landing
27.200000000000003,-485.0872777029052,-1024.200161374938,188.6166068407537,2.54491023172155,1.2482620927910633,325.0010453241189,33.80587420530261,0.0,1.0,13.792620237037855,13.491280234058554,0.0,Landing
27.3,-486.8069442774309,-1016.1866914891334,186.55118728188629,2.7777010557327193,0.9357214006901061,325.2720936837277,33.340213732548804,0.0,1.0,13.792620237037855,13.491280234058554,0.0,Landing
27.400000000000002,-488.4174433345351,-1010.7507085836005,187.68699234591608,2.9266107597207953,0.8237307775299143,324.90015871700166,33.86952573181513,0.0,1.0,13.792620237037855,13.491280234058554,0.0,Landing
27.5,-490.1410312458232,-996.4796677156073,186.10589101411824,2.9493451780798416,1.0458764384894752,325.31947257972956,34.11366495380671,0.0,1.0,13.792620237037855,13.491280234058554,0.0,Landing
27.6,-491.7893426160089,-1005.4104448638441,187.46334153379203,3.150505380581781,1.349333676466232,325.3061461116288,34.19085353206161,0.0,1.0,13.792620237037855,13.491280234058554,0.0,Landing
27.700000000000003,-493.4444955588543,-991.8593302981094,186.48554451309036,2.963714719618956,0.8779519420828296,325.02179712284146,33.19877659870865,0.0,1.0,13.792620237037855,13.491280234058554,0.0,Landing
27.8,-495.1003278973138,-987.4643954379394,188.3251103134478,3.015405345006697,1.0256348767322048,325.514105739928,33.102026714878974,0.0,1.0,13.792620237037855,13.491280234058554,0.0,Landing
27.900000000000002,-496.7266645931986,-1003.853748073368,187.6243073907634,3.161020056821638,1.1549938331955536,325.0758501986609,33.65974753024184,0.0,1.0,13.792620237037855,13.491280234058554,0.0,Landing
28.0,-498.46376429922117,-1018.8751090112987,187.90610236855798,3.1580733706236406,0.8591262629797105,325.2058369613362,33.09873000663487,0.0,1.0,13.792620237037855,13.491280234058554,0.0,Landing
28.1,-500.19470344237027,-1029.5028511440592,188.77437432772695,2.9612599858026196,0.8219145656855,325.22765988362016,33.51811507997708,0.0,1.0,13.792620237037855,13.491280234058554,0.0,Landing
28.200000000000003,-501.8741788489189,-1023.7273654910723,186.87132237240115,3.0862863214049443,0.8939907354165304,325.06169519617833,33.74607749946864,0.0,1.0,13.792620237037855,13.491280234058554,0.0,Landing
28.3,-503.58240112667653,-1008.4516259587531,187.52018871735646,3.004644797796782,1.1106535861812725,325.1804878749931,33.04568292635142,0.0,1.0,13.792620237037855,13.491280234058554,0.0,Landing
28.400000000000002,-505.23696157216403,-1027.7432500582336,187.56464084469278,2.9508122163293677,0.7644953497578271,325.0999116611051,33.581967041430126,0.0,1.0,13.792620237037855,13.491280234058554,0.0,Landing
28.5,-507.0128950992101,-1016.3863827079922,186.35456605861611,3.461499138625412,1.3069185793098523,325.05010874624384,33.43791874886486,0.0,1.0,13.792620237037855,13.491280234058554,0.0,Landing
28.6,-508.6643330402165,-1012.1062425533864,188.51036729597988,3.1967279116975535,0.89493247030329,325.0383030473307,33.547096479898315,0.0,1.0,13.792620237037855,13.491280234058554,0.0,Landing
28.700000000000003,-510.29749278493097,-990.672137358365,187.0988366571752,3.1282829854964644,0.9216284986596136,325.2024865019125,33.790572995891374,0.0,1.0,13.792620237037855,13.491280234058554,0.0,Landing
28.8,-511.9662557860019,-1007.1169708452203,186.92103727457445,2.9069636633428124,1.0233937699418356,325.08142836112313,33.659479661927286,0.0,1.0,13.792620237037855,13.491280234058554,0.0,Landing
28.900000000000002,-513.6999178944426,-1010.725921013875,187.44326532395937,2.718039667089911,1.0710814006122475,324.97444686253493,33.74296656952678,0.0,1.0,13.792620237037855,13.491280234058554,0.0,Landing
29.0,-515.3511223900003,-1012.5185406603237,185.492447430596,2.790062796811351,1.0321282031557102,325.0627493103043,33.48322673146732,0.0,1.0,13.792620237037855,13.491280234058554,0.0,Landing
29.1,-517.0288484893035,-997.5435461833285,186.81377705756066,2.9507023317443175,0.8508211936638596,325.1307053361452,33.66347294986429,0.0,1.0,13.792620237037855,13.491280234058554,0.0,Landing
29.200000000000003,-518.6876356253592,-1008.9942649059822,188.1757567284762,2.9831247691618064,1.0616971028905708,325.29796632079615,33.197921617575496,0.0,1.0,13.792620237037855,13.491280234058554,0.0,Landing
29.3,-520.3960937145303,-1021.2913152275178,187.68895015827377,2.9169026124752113,0.770536236046244,325.3369375799605,34.117906958275974,0.0,1.0,13.792620237037855,13.491280234058554,0.0,Landing
29.400000000000002,-522.1353050654411,-1023.8319025490227,187.28967729658604,2.5353515467398404,1.029653390930516,325.1257390837841,33.01420983563422,0.0,1.0,13.792620237037855,13.491280234058554,0.0,Landing
29.5,-523.8067951381043,-998.6452238759966,185.41266417515135,2.8770338709056915,1.089887519102736,325.2667026942181,33.74592910716996,0.0,1.0,13.792620237037855,13.491280234058554,0.0,Landing
29.6,-525.3893198339102,-1007.1656101470126,186.7282051123904,3.1358311509186474,1.1648989755727883,324.8969463365114,33.862401563397924,0.0,1.0,13.792620237037855,13.491280234058554,0.0,Landing
29.700000000000003,-527.1711331161762,-1024.4826088347509,187.86062899781882,2.8988701102288434,0.8868245602846055,325.123788896791,33.67199607837529,0.0,1.0,13.792620237037855,13.491280234058554,0.0,Landing
29.8,-528.9292081822781,-1038.3428430791355,186.88730814759072,2.7381460387138787,0.9532152756161851,325.171892530607,33.610020257177645,0.0,1.0,13.792620237037855,13.491280234058554,0.0,Landing
