time_s,altitude_ft,vertical_speed_fpm,ias_kt,pitch_deg,roll_deg,heading_deg,throttle_pct,afterburner_on,gear_down,flaps_deg,speedbrake_pct,weight_on_wheels,label
0.0,0.06094587395306205,-16.923907680324298,22.77732591411983,-0.5903566696475065,0.107238092740455,201.49054880936956,16.579341752834665,0.0,1.0,0.0,0.0,1.0,Taxi
0.1,0.004532848351981052,-38.89794850830543,22.124884493477495,-0.8045490300634756,-0.1528673626009961,201.4264306435773,15.835368974283245,0.0,1.0,0.0,0.0,1.0,Taxi
0.2,-0.1335438685884651,-19.425875068173323,23.552071192275903,-0.5207303434740399,-0.10807469404765337,201.5448721885365,15.998236402404487,0.0,1.0,0.0,0.0,1.0,Taxi
0.30000000000000004,-0.03618350138780454,-19.754693438278615,22.072341495864865,-0.6016853566962826,1.3598447119914872,201.61087158544285,15.941580189731368,0.0,1.0,0.0,0.0,1.0,Taxi
0.4,-0.09424061883941198,10.401012013740464,22.51807075731065,-0.8462927874317799,0.16004252818680073,201.45387726412253,15.976221612110834,0.0,1.0,0.0,0.0,1.0,Taxi
0.5,-0.08153880851976275,36.020056056804115,22.95807395765017,-0.21279911916189448,-0.05614661187280534,201.47851358114963,16.75801635993549,0.0,1.0,0.0,0.0,1.0,Taxi
0.6000000000000001,0.14391677889621604,-15.13483885829613,22.662378949347744,-0.47964829775910867,0.8733462916694054,201.42054488320775,15.774914854451904,0.0,1.0,0.0,0.0,1.0,Taxi
0.7000000000000001,-0.16991481313089266,28.52978104246277,23.217725028882327,-0.8864402600039959,0.6115910748447609,201.50902612914808,14.579912067494575,0.0,1.0,0.0,0.0,1.0,Taxi
0.8,0.061110096692551075,-39.616263747927114,22.502637155689403,-0.826399728880022,-1.216026232249474,201.44182650805055,16.1516726624659,0.0,1.0,0.0,0.0,1.0,Taxi
0.9,-0.05416453984341957,43.91151415335265,22.29685563930584,-0.6459042375557092,-0.6572105909484821,201.61124239956087,16.404296835706212,0.0,1.0,0.0,0.0,1.0,Taxi
1.0,0.04964275763587058,19.23946687577048,22.42066345163589,-0.405648021362855,0.2953812993109448,201.3504740242522,16.35949526329706,0.0,1.0,0.0,0.0,1.0,Taxi
1.1,0.15730743107140346,-0.8025854643071332,22.140040377158943,-0.8675434363571448,0.3826909901413545,201.60719496323463,16.795979129918646,0.0,1.0,0.0,0.0,1.0,Taxi
1.2000000000000002,-0.058177467164955254,-25.02252912138582,23.64777612523356,-0.779741316225372,0.25395383972092705,201.4467611954933,16.1554948826785,0.0,1.0,0.0,0.0,1.0,Taxi
1.3,-0.07546988797105852,-40.81966274289066,23.188130923879182,-0.5248961302942685,0.5277240324985725,201.60238148105088,15.332412211019541,0.0,1.0,0.0,0.0,1.0,Taxi
1.4000000000000001,-0.04679088264304984,6.800420403290118,24.376044802553913,-1.0012468983029852,-0.10676693286353073,201.46879030837056,17.052099201514327,0.0,1.0,0.0,0.0,1.0,Taxi
1.5,-0.024175365148504692,20.410863470962386,23.05221412490191,-0.8336531487625956,-1.3022350057694665,201.58033769646602,16.368205279094102,0.0,1.0,0.0,0.0,1.0,Taxi
1.6,0.026584429383753397,5.44156253304459,22.920515258697876,-1.041013602275293,0.2856850956791844,201.4796945926405,15.692793418505698,0.0,1.0,0.0,0.0,1.0,Taxi
1.7000000000000002,-0.019583069977826908,12.403641779680944,22.71441748148341,-0.8736248041520468,-0.11275469911252387,201.3586230337055,16.704476719825397,0.0,1.0,0.0,0.0,1.0,Taxi
1.8,0.037842843749900025,35.7604066345202,23.258617088174265,-0.2031858583364365,0.5484947794054165,201.30487771352534,16.97460660378172,0.0,1.0,0.0,0.0,1.0,Taxi
1.9000000000000001,0.2053864625563544,44.63504378993127,22.628822239942977,-0.6672069789275599,-0.6223351991418403,201.3473784795251,15.42728471099834,0.0,1.0,0.0,0.0,1.0,Taxi
2.0,0.20359214897182942,9.686945073663239,21.799138827436398,-0.765658513813136,0.1160511067128413,201.37797811367864,16.05448161213837,0.0,1.0,0.0,0.0,1.0,Taxi
2.1,0.08627756911821619,-35.01664971158893,22.07122278017255,-0.7732567507418341,-0.8835887994003941,201.47237782601815,16.399731020858944,0.0,1.0,0.0,0.0,1.0,Taxi
2.2,0.030303213998409698,-43.10041854312309,22.75857290684724,-0.7576786587074322,-0.19844904004644734,201.4598772792009,16.656191918816116,0.0,1.0,0.0,0.0,1.0,Taxi
2.3000000000000003,-0.011909943743786053,19.128784795238825,22.599049677095064,-0.4524449924839984,-0.6833463599822939,201.3174451199061,16.48973570796415,0.0,1.0,0.0,0.0,1.0,Taxi
2.4000000000000004,0.18192149309441027,10.577757189220899,22.905624957796068,-0.9652841287726088,0.1511756929988596,201.53782307645974,16.80261419692297,0.0,1.0,0.0,0.0,1.0,Taxi
2.5,0.08319199994451415,8.651357018947843,22.14656981723396,-0.47102614182893376,0.09013982039172604,201.4089825042388,15.686734176203684,0.0,1.0,0.0,0.0,1.0,Taxi
2.6,0.03134684135095313,-27.502727941154077,22.713420773391682,-0.5766431385758155,-0.4602094349038248,201.59969675381762,15.821639520375774,0.0,1.0,0.0,0.0,1.0,Taxi
2.7,0.04440785338863984,-16.327595440371184,24.38379244891195,-0.7557437930925519,1.2691005155267494,201.27465880575232,16.683571454742726,0.0,1.0,0.0,0.0,1.0,Taxi
2.8000000000000003,0.0015540227426582036,-23.999689244621653,21.525926273710663,-0.7873198460472741,-0.30535759018448655,201.39810974880027,16.35573327288182,0.0,1.0,0.0,0.0,1.0,Taxi
2.9000000000000004,-0.08865160487215518,-13.92508615898491,22.82150612636715,-0.3792048594592558,0.7246203330050353,201.5548922934363,16.203804238209717,0.0,1.0,0.0,0.0,1.0,Taxi
3.0,-0.025217577406284754,39.0994924123397,23.57613174221849,-0.7032042574791446,-0.7666604366742973,201.34007604780788,16.42378120002024,0.0,1.0,0.0,0.0,1.0,Taxi
3.1,0.19705148480435664,8.952655926891254,22.422197920716187,-0.8895975273620519,-0.8938684626921284,201.69001095271653,16.480791282835046,0.0,1.0,0.0,0.0,1.0,Taxi
3.2,-0.04388832523769895,-1.12779924202723,23.531106732580916,-0.8403649356141436,-0.3984243993735318,201.32225474072652,17.420810765561743,0.0,1.0,0.0,0.0,1.0,Taxi
3.3000000000000003,-0.030856573616420947,-37.79651881268703,22.317945389521327,-0.62234440231138,-0.6885844141574915,201.42184863347518,16.16027285027558,0.0,1.0,0.0,0.0,1.0,Taxi
3.4000000000000004,0.00806889074092145,6.555445191422147,23.344443004747628,-0.687462864367376,0.2370367302238045,201.48794327157646,17.55339801166702,0.0,1.0,0.0,0.0,1.0,Taxi
3.5,-0.011111099280588267,41.88774950371212,22.7260805955995,-0.5892813647663075,-0.2286586607919146,201.54471064978713,15.97548863609545,0.0,1.0,0.0,0.0,1.0,Taxi
3.6,0.17858217390213962,-8.189840596443693,22.694307281672504,-0.7780036488557396,0.08246716924642161,201.5036574199728,16.168372698845893,0.0,1.0,0.0,0.0,1.0,Taxi
3.7,-0.0328803122412971,11.877591957752704,22.016618461959705,-0.8206319266547933,0.27842520470694976,201.43192474706586,16.335143882833506,0.0,1.0,0.0,0.0,1.0,Taxi
3.8000000000000003,0.04827686050817517,-35.338935774228034,22.315540077908725,-0.8752576080856488,-0.08114105507576441,201.3650474170106,16.221991713771402,0.0,1.0,0.0,0.0,1.0,Taxi
3.9000000000000004,0.0018874950309993766,-13.765428095644898,21.618928592625664,-0.7064197406631063,-0.02335458407995162,201.49745339480114,15.518962612123884,0.0,1.0,0.0,0.0,1.0,Taxi
4.0,-0.10170745271952164,-42.94375666465166,21.887757326198273,-0.6952038011924673,0.1922874620142101,201.47810726818386,17.156463656923833,0.0,1.0,0.0,0.0,1.0,Taxi
4.1000000000000005,-0.1664419228150832,21.653930418496472,22.168396787904342,-0.5846562833116926,-0.09763393016493147,201.43658642215428,16.85470164459574,0.0,1.0,0.0,0.0,1.0,Taxi
4.2,0.11015714712348167,46.22039095294975,21.87283147062046,-0.9780418822799688,0.21868014492099358,201.45819130914617,16.478857820844933,0.0,1.0,0.0,0.0,1.0,Taxi
4.3,0.12939450204522707,25.413703168137562,23.080976037984417,-0.6896907334361198,-0.9179902027558468,201.36568249041989,16.331353974121846,0.0,1.0,0.0,0.0,1.0,Taxi
4.4,-0.0393734069743954,3.432128865001767,22.260491119393475,-0.901356530898287,0.3937727086954525,201.65191919886524,16.79033128760797,0.0,1.0,0.0,0.0,1.0,Taxi
4.5,0.12731779144849048,-33.22024825105856,21.92136269447482,-0.5495489373230333,0.3741284467649993,201.4627892143559,15.792976710146466,0.0,1.0,0.0,0.0,1.0,Taxi
4.6000000000000005,-0.036706739210065745,-10.96404203133642,22.16880567095676,-0.47171709621742974,0.5103988817307913,201.55022105265277,16.04551942186009,0.0,1.0,0.0,0.0,1.0,Taxi
4.7,-0.09419361713107754,-21.330025562949004,23.679229261499007,-0.3617416209564138,0.4722401470948817,201.5540148488367,16.13878081387011,0.0,1.0,0.0,0.0,1.0,Taxi
4.800000000000001,0.020667663633745434,-19.067043438486447,23.274737523752947,-1.17171999738612,-0.15386769693615734,201.51640729193616,17.04543720389617,0.0,1.0,0.0,0.0,1.0,Taxi
4.9,-0.13204195640249802,26.99224301233802,22.79826070731893,-0.7668550458644474,0.06280990405088092,201.57717267094915,16.72964628775408,0.0,1.0,0.0,0.0,1.0,Taxi
5.0,0.040767597930612506,-42.39690168536279,23.435983444629027,-0.6338734223577076,0.21201671616718384,201.5092928307712,17.10718933710973,0.0,1.0,0.0,0.0,1.0,Taxi
5.1000000000000005,-0.1913168447930686,27.708126853009293,22.326437792973927,-0.8965622479710941,1.1111705847942812,201.5365988396793,16.71377998464562,0.0,1.0,0.0,0.0,1.0,Taxi
5.2,0.006498677862548401,-49.840010838156275,22.13053552333226,-0.4893130226046672,0.803852778742557,201.45254732384456,16.623160486858744,0.0,1.0,0.0,0.0,1.0,Taxi
5.300000000000001,-0.20843245626016893,56.375192054119644,22.96295997334493,-0.9292292009864884,0.3368938279044546,201.78822726353815,17.019854501356875,0.0,1.0,0.0,0.0,1.0,Taxi
5.4,0.0905591154775295,-0.5462343178014208,22.707144804451538,-0.8534003194117168,0.3971997422977526,201.40972779982974,17.70779602242722,0.0,1.0,0.0,0.0,1.0,Taxi
5.5,0.0037675062735411987,38.66477161305943,22.831024499127757,-0.4864638224528594,0.3518748262817234,201.47637932866405,15.996774573244231,0.0,1.0,0.0,0.0,1.0,Taxi
5.6000000000000005,-0.015108598194871859,-24.78253733970314,21.805777667105556,-0.9192837400359337,0.3378791819376396,201.62035739975863,15.72005926887643,0.0,1.0,0.0,0.0,1.0,Taxi
5.7,-0.03335357122098628,-11.91596771151795,22.753148810421564,-0.8925797888712167,0.3421010109322712,201.45541506087238,15.520302367933297,0.0,1.0,0.0,0.0,1.0,Taxi
5.800000000000001,-0.05581233228404865,-35.334899195811694,22.13736596830345,-0.8627196975840041,0.3819674548497743,201.62769934392315,17.04779398254476,0.0,1.0,0.0,0.0,1.0,Taxi
5.9,-0.1917830941739304,14.250554548691952,22.512634697382815,-0.6313497511915145,0.5693063861671838,201.4115717396237,17.374494759598935,0.0,1.0,0.0,0.0,1.0,Taxi
6.0,0.03789920152247339,-13.798986435488084,21.892181837334217,-0.862814339490915,0.1444785399796436,201.39148646181513,16.960394022463316,0.0,1.0,0.0,0.0,1.0,Taxi
6.1000000000000005,-0.12480726446148914,56.66049189794137,22.96340653186677,-0.78014275397262,-0.43339944852040235,201.58782462497857,16.34017418317782,0.0,1.0,0.0,0.0,1.0,Taxi
6.2,0.09151936531577633,5.648807379754625,23.281407839853625,-0.5990312062513522,-0.09890828127877034,201.49788243850583,16.59101254048669,0.0,1.0,0.0,0.0,1.0,Taxi
6.300000000000001,0.0661432384212464,34.66770336399702,22.16856816528197,-0.48268027526556123,-0.3856143445470268,201.3850334453955,16.084644353380167,0.0,1.0,0.0,0.0,1.0,Taxi
6.4,0.04853125235849584,-44.16322920192405,22.772688925703513,-0.6931252150192136,0.40863384483282933,201.55138054269787,16.457939974348093,0.0,1.0,0.0,0.0,1.0,Taxi
6.5,-0.129296780693844,-4.317414793324882,22.985470226881564,-0.640896029024248,0.50600661568944,201.51823060173172,17.320401664027802,0.0,1.0,0.0,0.0,1.0,Taxi
6.6000000000000005,0.0445561644546219,-7.152319983571793,23.41998315951511,-0.6505697620275586,0.17857065753229617,201.59663528319936,16.413882627032347,0.0,1.0,0.0,0.0,1.0,Taxi
6.7,0.01276965244063677,3.652480797950654,23.421292564852887,-0.9691064750817895,-0.6501501503608139,201.4100870331406,16.136760693321918,0.0,1.0,0.0,0.0,1.0,Taxi
6.800000000000001,-0.11103437670409085,21.678236833523318,23.419863902346368,-0.6786405545812568,0.359428654803004,201.41492882904117,16.454620174092287,0.0,1.0,0.0,0.0,1.0,Taxi
6.9,0.15294734862223833,20.24509612121102,22.767622310083404,-0.8039491714104334,-0.06576153265732711,201.52127461703924,16.258738521856223,0.0,1.0,0.0,0.0,1.0,Taxi
7.0,0.11399513304669169,59.35805792322186,23.312174861270275,-0.8841067698617464,-0.6984337805351237,201.5175524467711,15.853816887698464,0.0,1.0,0.0,0.0,1.0,Taxi
7.1000000000000005,0.1857559129120183,-15.92049516403182,22.949103162675836,-0.741403183086428,0.21960997521467143,201.51985117604647,15.565111778466703,0.0,1.0,0.0,0.0,1.0,Taxi
7.2,0.07334487280207916,-35.90748978518794,22.621558771673136,-0.7754906673887773,0.5979739383844235,201.60548362848886,16.34985616605451,0.0,1.0,0.0,0.0,1.0,Taxi
7.300000000000001,-0.06554231587924812,-7.999512191305172,23.196453860401146,-0.9251706057961687,0.17726397458965762,201.43230212971093,15.85414647900841,0.0,1.0,0.0,0.0,1.0,Taxi
7.4,0.14575835195549233,-81.28507483196431,22.326013162500505,-0.5580994191620378,-0.09417230967189201,201.38454793934125,16.78709143360045,0.0,1.0,0.0,0.0,1.0,Taxi
7.5,-0.3330805013577425,5.168835604607864,23.283666678044916,-0.23086130464559412,-0.07374647074305779,201.4573137650791,16.212002098021948,0.0,1.0,0.0,0.0,1.0,Taxi
7.6000000000000005,-0.039698137856208855,-45.37780171189555,22.855537348275533,-0.8226116690680803,-0.36748299451898253,201.53472793835545,16.872132898606647,0.0,1.0,0.0,0.0,1.0,Taxi
7.7,-0.08113065660398547,83.56099657553584,23.22828148866179,-0.9963737575967023,-0.11141440736061829,201.49916206552564,16.78890885034675,0.0,1.0,0.0,0.0,1.0,Taxi
7.800000000000001,0.08472448151993664,25.291634968510895,22.709852200548855,-0.6232638141921608,-0.4776253795041152,201.44134892877832,16.955344647413124,0.0,1.0,0.0,0.0,1.0,Taxi
7.9,0.08676003698634553,34.165832491921265,22.789573144349717,-0.94246743247964,0.44320521502207433,201.39789363015586,16.047446136822096,0.0,1.0,0.0,0.0,1.0,Taxi
8.0,0.08969850585562078,10.82974175104581,22.472468170463614,-0.7495033870125045,0.2035271121544779,201.48927265193151,16.39914785824565,0.0,1.0,0.0,0.0,1.0,Taxi
8.1,0.13887319027516562,-13.152855621549657,23.457279563254996,-0.6234689010328033,-0.17905380568461501,201.4454239803481,16.706099619347057,0.0,1.0,0.0,0.0,1.0,Taxi
8.200000000000001,0.020995758878597198,0.09831810913184096,22.94512415189455,-0.8057019899213049,-0.43753900245645855,201.48197444371408,16.512770201855975,0.0,1.0,0.0,0.0,1.0,Taxi
8.3,0.09019009640127994,-56.18263486571959,21.986074795300453,-0.4951252441312122,0.2724638516838263,201.43774052042374,16.85683684973991,0.0,1.0,0.0,0.0,1.0,Taxi
8.4,-0.1420399840534324,-15.666421765366593,22.82947993324377,-0.5592997718374644,0.528985665581978,201.43162674028054,16.31179558580934,0.0,1.0,0.0,0.0,1.0,Taxi
8.5,-0.05733634994823587,-54.53351211750911,24.044345732503835,-0.5560687430108261,-0.23662767919947492,201.40317393625196,16.13949971386171,0.0,1.0,0.0,0.0,1.0,Taxi
8.6,-0.18247746418626576,48.24736880185276,21.398504181269537,-0.6528889142480969,0.6500233129604446,201.33905961920175,16.321473156024673,0.0,1.0,0.0,0.0,1.0,Taxi
8.700000000000001,0.09919685995583132,13.816019019969936,23.74815794094264,-0.5688430262617478,-1.1373450838094024,201.5489006500195,16.150671335887722,0.0,1.0,0.0,0.0,1.0,Taxi
8.8,0.011743745151613761,51.47964880329949,22.814977097369756,-1.024784357047265,-0.4531272128765863,201.35127187794842,16.03795587116937,0.0,1.0,0.0,0.0,1.0,Taxi
8.9,0.07492077983023165,3.7752426524246765,22.352370273400727,-0.7075216740394263,-0.4913498014599826,201.4984601705661,15.608320694618087,0.0,1.0,0.0,0.0,1.0,Taxi
9.0,0.11807307321795463,27.28759790866695,23.061859625955805,-0.7837563987984835,0.35702447052738223,201.67291163888024,16.719080340003824,0.0,1.0,0.0,0.0,1.0,Taxi
9.1,0.1481817346949484,4.26312536011628,22.594710556157413,-0.7243258411226579,-0.04344079166589689,201.57416376981018,16.330943555169195,0.0,1.0,0.0,0.0,1.0,Taxi
9.200000000000001,0.09623640663081298,-54.374054685784984,22.495001395714322,-0.35535081462963414,-0.7443423388992451,201.40638771017097,15.511809557369048,0.0,1.0,0.0,0.0,1.0,Taxi
9.3,-0.15379720021097035,-43.52926476352898,23.14808109047919,-0.7513316642109005,-0.1129375280736854,201.31017267125196,16.46253881718058,0.0,1.0,0.0,0.0,1.0,Taxi
9.4,-0.06946458912269658,-10.147338084473773,23.730259178929515,-0.6401117510389177,-0.34752903445584726,201.45533418974549,16.85147800086704,0.0,1.0,0.0,0.0,1.0,Taxi
9.5,0.04549971620844403,32.755236976066584,21.93853907558695,-0.4325892121330661,-0.14784037911424802,201.53276602259768,17.156531986957475,0.0,1.0,0.0,0.0,1.0,Taxi
9.600000000000001,0.0099789846693625,-4.9047146567002855,22.60840126066127,-0.27484907629434635,-0.01942548358862707,201.28780545081452,17.025902984161963,0.0,1.0,0.0,0.0,1.0,Taxi
9.700000000000001,-0.09398816240619809,-1.4942640585285858,23.118242234030365,-0.8106176872231441,0.430303322387194,201.4234583201146,16.096917817066675,0.0,1.0,0.0,0.0,1.0,Taxi
9.8,0.03802839591580098,-3.667777306143717,23.18041156303267,-0.6837426940971496,1.0528219753069141,201.299435190204,16.52035339931533,0.0,1.0,0.0,0.0,1.0,Taxi
9.9,-0.008359901861356201,36.943350834085926,22.536889655609958,-0.7187186752158519,0.5764913873742209,201.63700285175594,15.65586621285271,0.0,1.0,0.0,0.0,1.0,Taxi
10.0,0.09072859176423145,31.031283477749213,22.638288594394872,-0.9264635253377078,0.27710696060268075,201.52831016347875,16.39702578673382,0.0,1.0,0.0,0.0,1.0,Taxi
10.100000000000001,0.19318481330454693,-29.839584892528535,22.856197041950242,-0.6984142149495208,-0.4117400592261026,201.54822361446577,16.492536099576554,0.0,1.0,0.0,0.0,1.0,Taxi
10.200000000000001,-0.15755782632399895,-46.71717879175196,22.71958333952988,-0.5463723548907,-0.07480704375727348,201.67581781699334,17.020158897978575,0.0,1.0,0.0,0.0,1.0,Taxi
10.3,-0.14285730219452847,-18.59119208563318,23.07297506634356,-0.722125810365277,-0.5559980163008535,201.50128144101552,17.24110556888318,0.0,1.0,0.0,0.0,1.0,Taxi
10.4,0.10022885287638102,20.311846181906215,22.962585002900315,-0.514755284502832,-0.5030270445393477,201.4245647765705,17.047831952994315,0.0,1.0,0.0,0.0,1.0,Taxi
10.5,-0.05599859541446794,34.92725926348103,23.022227593294133,-0.6082493317221676,-0.19678712909300722,201.54702605499983,16.202024878797094,0.0,1.0,0.0,0.0,1.0,Taxi
10.600000000000001,0.03177899412287661,-18.361039573284184,24.406687241518146,-0.5075961555529981,-1.034165533237737,201.41558606017725,16.583004440859785,0.0,1.0,0.0,0.0,1.0,Taxi
10.700000000000001,0.008423655009959985,16.575036508836252,22.99991924196605,-0.3737138308279746,0.985057322968042,201.55790990328524,15.866879382770565,0.0,1.0,0.0,0.0,1.0,Taxi
10.8,0.026876587129713216,-7.402227330065618,21.965643170069317,-0.7800295675410194,-0.046091573689604766,201.35160190648253,15.914003204621004,0.0,1.0,0.0,0.0,1.0,Taxi
10.9,-0.005232142527451607,1.4450426176395201,22.104866976577597,-0.5605729435198246,0.6862800543267809,201.57812370420288,17.118010891729785,0.0,1.0,0.0,0.0,1.0,Taxi
11.0,0.01564886809815746,-9.537231656015777,22.657329331409844,-0.9183988487119044,-0.3539759805233861,201.32452964411016,16.609633197694944,0.0,1.0,0.0,0.0,1.0,Taxi
11.100000000000001,-0.020809571150365788,5.942192124979741,22.636400246087913,-0.7907234712415105,0.5076529496927991,201.49410131453817,16.454734707741945,0.0,1.0,0.0,0.0,1.0,Taxi
11.200000000000001,0.024478818097446984,-7.793257398868929,22.20553675583308,-0.4709221793505407,0.22221109001578365,201.4335640392502,16.756505975828443,0.0,1.0,0.0,0.0,1.0,Taxi
11.3,-0.023317418896187297,16.046319379817565,22.829085430851777,-0.4874651546972165,0.3644539218760821,201.55198448928832,16.262178324870966,0.0,1.0,0.0,0.0,1.0,Taxi
11.4,0.05942202574872191,3.0428328429423726,22.026707341501055,-0.5730979871224717,0.25724759737302505,201.4050150246967,16.49242390455488,0.0,1.0,0.0,0.0,1.0,Taxi
11.5,0.03969298231215872,-12.923248075430854,22.504424927976164,-0.5666644446165343,0.07272090774965972,201.42446949796226,16.70537545398906,0.0,1.0,0.0,0.0,1.0,Taxi
11.600000000000001,-0.08793365927334168,-53.299966034104614,23.161490208958153,-0.7325613498377037,-0.0888039956977845,201.54146707815357,16.655495826997882,0.0,1.0,0.0,0.0,1.0,Taxi
11.700000000000001,-0.20707780442180126,1.0954040968607615,22.5074812233738,-0.5883619596440763,-0.4202042368088458,201.53279130538954,16.412584741180936,0.0,1.0,0.0,0.0,1.0,Taxi
11.8,0.04517000279646239,19.849074335009934,22.88171376748803,-1.0663075434905274,0.011429981346245783,201.35351852629083,16.597372875109553,0.0,1.0,0.0,0.0,1.0,Taxi
11.9,0.011311712401707854,22.781080117906725,21.621512200043565,-0.6596581392045691,-0.1418749233523528,201.409710699622,15.756371360629117,0.0,1.0,0.0,0.0,1.0,Taxi
12.0,-0.0931724038322678,12.560150371767653,22.531010547984966,-0.7837147720819004,-0.8432983515758338,201.52077717765462,16.77355184673234,0.0,1.0,0.0,0.0,1.0,Taxi
12.100000000000001,0.10797075465530054,36.90365326891296,21.821648208015894,-0.4808163167070625,-0.22708923480808563,201.4180827162494,15.759986900759074,0.0,1.0,0.0,0.0,1.0,Taxi
12.200000000000001,0.19582997874627253,37.533026559113516,23.11812315397961,-0.9186274503251705,-0.47659536436660127,201.4896489293625,17.363414054662687,0.0,1.0,0.0,0.0,1.0,Taxi
12.3,0.09449272896329965,-26.76680868668504,22.525000182640596,-0.4814732032643825,0.42499426409383473,201.40413481811527,17.049007375568095,0.0,1.0,0.0,0.0,1.0,Taxi
12.4,-0.025863288778124712,-69.53526969578682,21.59625562082693,-0.5045659922732332,0.020643319660812297,201.5190675695652,16.557932188409254,0.0,1.0,0.0,0.0,1.0,Taxi
12.5,-0.1518463697326616,-19.43793245178757,22.90457659102552,-0.3674258548983881,0.6997125604218677,201.55048921158277,16.01421404390149,0.0,1.0,0.0,0.0,1.0,Taxi
12.600000000000001,-0.002696933295638278,-9.119356312970124,22.28670272550228,-0.7251919434732872,-0.5188584858725227,201.59504698123555,16.798138960576058,0.0,1.0,0.0,0.0,1.0,Taxi
12.700000000000001,-0.07146007034297545,39.72671060016821,22.382651325858834,-0.3163884263036718,0.7414726773639795,201.58711529617926,16.59330952644189,0.0,1.0,0.0,0.0,1.0,Taxi
12.8,0.04678718326817932,-11.637801387030777,23.123591000396193,-0.6685288087467948,-0.2542981124077134,201.52800044471348,16.193664525257233,0.0,1.0,0.0,0.0,1.0,Taxi
12.9,-0.06088594023079226,10.156956114484746,22.506511167694548,-0.4754068671800595,0.4107663403247798,201.51739698722065,16.625813668200433,0.0,1.0,0.0,0.0,1.0,Taxi
13.0,-0.02067528977055182,4.62406603558744,22.08881282004408,-0.4141723022271746,-0.23951619510275884,201.41381632823425,16.08002057895038,0.0,1.0,0.0,0.0,1.0,Taxi
13.100000000000001,0.06990751344611644,13.284383396554768,22.888426533696663,-0.42483141304755945,-0.48010587509513936,201.44360659514575,16.747725603772377,0.0,1.0,0.0,0.0,1.0,Taxi
13.200000000000001,0.005535976751981522,-21.930500261948335,22.431313868007244,-0.6447081429638637,-0.5033010945495859,201.52599867763206,16.65361665952967,0.0,1.0,0.0,0.0,1.0,Taxi
13.3,-0.13032779108029355,-2.137008712688735,24.17659567889404,-0.36849157200626775,0.3257229270744234,201.37135915806812,16.4313230382043,0.0,1.0,0.0,0.0,1.0,Taxi
13.4,0.05922246988267271,6.087445629076069,23.133584739615582,-0.6446296147478512,-0.12979288248277585,201.49865546331762,17.292631846437224,0.0,1.0,0.0,0.0,1.0,Taxi
13.5,0.0359732048973618,-25.401581186116953,22.295642842296218,-0.8844107167775941,0.6483655626479945,201.4610562839465,15.675636315467282,0.0,1.0,0.0,0.0,1.0,Taxi
13.600000000000001,-0.2573356970108784,-14.893051934753743,22.110083323205586,-1.028031705242701,-0.057890761631849565,201.63105496450646,15.914686915406941,0.0,1.0,0.0,0.0,1.0,Taxi
13.700000000000001,-0.015242789791096077,-20.369413179883455,22.29325173288305,-1.002407149339761,-0.04444939766768057,201.5925695697572,16.65084362052137,0.0,1.0,0.0,0.0,1.0,Taxi
13.8,-0.06587386100205556,19.58042206189413,22.644208256348872,-0.5408284056914243,-0.41342623137604195,201.57975230594172,17.212316438651715,0.0,1.0,0.0,0.0,1.0,Taxi
13.9,-0.1594335867014078,5.524137308066912,23.661321205889436,-0.7871551849650588,0.46841457799474895,201.43763403627838,16.079047388714454,0.0,1.0,0.0,0.0,1.0,Taxi
14.0,0.012377896749238391,17.660747397493704,22.857669737288813,-0.8828886340496793,0.23252818728311422,201.58341840291132,16.928488115615256,0.0,1.0,0.0,0.0,1.0,Taxi
14.100000000000001,0.02242987598541286,35.117542169097696,22.576286169246348,-0.7758451486746214,-0.6112857592606146,201.4704123089682,16.231698863332575,0.0,1.0,0.0,0.0,1.0,Taxi
14.200000000000001,0.016154124144080583,2.3982009986391297,22.858744739793924,-0.3084320350778351,-0.3583857448883994,201.45058752760963,16.44462311257271,0.0,1.0,0.0,0.0,1.0,Taxi
14.3,0.024368901742433967,-3.149760838827443,21.601503645047362,-0.44039682720062984,-0.13915356080051416,201.51173574556526,16.835057655613443,0.0,1.0,0.0,0.0,1.0,Taxi
14.4,0.006681071791275574,-12.350095220419348,23.482377106617204,-0.49785236981547554,-0.9750559655512765,201.31055313405534,15.616264954073213,0.0,1.0,0.0,0.0,1.0,Taxi
14.5,-0.045596351958016215,-32.27033501312129,23.435197233940467,-0.9367952873309877,-0.3789223776799551,201.5697057589781,16.32745967395439,0.0,1.0,0.0,0.0,1.0,Taxi
14.600000000000001,-0.13698277332317252,-8.748930852158828,23.3128384864012,-0.5946427505822897,-0.26448450186393285,201.52029343134552,16.382605833969084,0.0,1.0,0.0,0.0,1.0,Taxi
14.700000000000001,-0.03706358246951864,40.922328162718614,23.176093274846682,-0.3808507006055562,-0.01810803809302717,201.49077770221766,16.76937212106793,0.0,1.0,0.0,0.0,1.0,Taxi
14.8,0.15901528885557678,13.267184061208477,22.143071661521446,-0.5001552202412536,-0.08051070476072189,201.5768082712607,15.8825370455777,0.0,1.0,0.0,0.0,1.0,Taxi
14.9,-0.07064685301713024,9.23654369070281,23.517994943503822,-0.6538339415507136,-1.0272731994848219,201.54968651402623,15.751960068733222,0.0,1.0,0.0,0.0,1.0,Taxi
15.0,0.009119135983995323,-35.92205392018346,21.987761608345128,-0.6692121119604125,-0.3297415923368942,201.66385954798534,16.363263051073158,0.0,1.0,0.0,0.0,1.0,Taxi
15.100000000000001,-0.0205949807453406,32.86049631564554,23.935244289044608,-0.7283781694223905,1.2422341841535935,201.30559720377573,16.49772919927973,0.0,1.0,0.0,0.0,1.0,Taxi
15.200000000000001,0.0936556285610974,-14.892949963904114,22.82595973903602,-0.2582972937722912,-0.8957825439186896,201.5713124949001,16.14205598084518,0.0,1.0,0.0,0.0,1.0,Taxi
15.3,-0.0653456138355253,-4.673552821695961,22.033054334839687,-0.9060781126478585,0.48657293150306224,201.353598533104,16.556234371842294,0.0,1.0,0.0,0.0,1.0,Taxi
15.4,-0.043962744853820464,-20.982764013178308,22.43586820440183,-0.5626229159837589,0.1556344966308177,201.55855133043895,16.421753499561873,0.0,1.0,0.0,0.0,1.0,Taxi
15.5,-0.011258191504794197,22.494991146863597,21.769633173743884,-0.7266225023023588,-0.3618010979677122,201.4594702223925,15.841106348451175,0.0,1.0,0.0,0.0,1.0,Taxi
15.600000000000001,0.04712934189879258,25.683354812139324,21.517063933104904,-0.7249745279985776,0.11665845409954875,201.33417170424696,16.172946263595016,0.0,1.0,0.0,0.0,1.0,Taxi
15.700000000000001,0.08445402920687604,7.153867529761551,22.568674524876055,-0.89241200101468,0.5972323059418603,201.5701993484995,16.045390621423245,0.0,1.0,0.0,0.0,1.0,Taxi
15.8,0.024511146144013455,-16.289871521240226,23.369712738303683,-1.0152757277216633,0.21449048422469438,201.53890945147884,16.84113905717438,0.0,1.0,0.0,0.0,1.0,Taxi
15.9,-0.034320015707408634,-27.40814684850481,22.898571536648188,-1.1625490590545762,0.5818218733465658,201.47061864039983,15.34520559613496,0.0,1.0,0.0,0.0,1.0,Taxi
16.0,-0.052586705035648086,-11.943359564010573,22.684761540527646,-0.7377201423085065,1.1451477770100609,201.32217476553808,16.354212263007426,0.0,1.0,0.0,0.0,1.0,Taxi
16.1,-0.0352056516760395,-13.01878341587357,23.28645954025623,-0.5673966841844691,-0.5355550284382796,201.59898933909426,15.744148045706055,0.0,1.0,0.0,0.0,1.0,Taxi
16.2,-0.0994139327867766,17.347782388594563,21.303437162156648,-0.814389805581272,0.6426173171067503,201.5021749800443,17.608499895119675,0.0,1.0,0.0,0.0,1.0,Taxi
16.3,0.0341522069073246,-3.7593270026857915,22.22381426378138,-0.26588476327225724,-0.17372183249303702,201.52852591989642,16.810927671001632,0.0,1.0,0.0,0.0,1.0,Taxi
16.400000000000002,-0.05400228668946858,-9.900976474058401,22.634462072057463,-1.1332184557751634,0.1735298363901416,201.33377934990176,17.03382222445075,0.0,1.0,0.0,0.0,1.0,Taxi
16.5,-0.1489188151570687,1.6586248414520621,23.378894065001536,-0.8752985799460264,-0.32399828080166293,201.60543238573416,15.970178608695443,0.0,1.0,0.0,0.0,1.0,Taxi
16.6,0.0424453311145848,-5.063142280649463,23.1447173682782,-0.7283774053677329,1.4374631819273473,201.4510192837331,15.848058939574145,0.0,1.0,0.0,0.0,1.0,Taxi
16.7,-0.079317998092716,42.13105623008366,23.21507656643095,-0.5927269086038852,0.342013200438611,201.50434397006597,16.83347646219017,0.0,1.0,0.0,0.0,1.0,Taxi
16.8,0.06173646599334951,23.11878889299472,23.29845033809931,-0.5978796699405864,0.38552846992663314,201.6307579418584,15.918540914956695,0.0,1.0,0.0,0.0,1.0,Taxi
16.900000000000002,0.15803927557955832,40.74577499242796,23.173736212240506,-0.6325824903776822,-0.23575987448439334,201.2550574291056,15.988575508263617,0.0,1.0,0.0,0.0,1.0,Taxi
17.0,0.12441087686942372,10.757916832280591,21.850962845126755,-0.5828457151173304,0.49362004192502545,201.33684592022166,16.579681242438582,0.0,1.0,0.0,0.0,1.0,Taxi
17.1,0.11552605015475235,-73.9017363021026,23.2823027079157,-0.972842865676531,0.2818356710213153,201.51383596374671,16.907090164552137,0.0,1.0,0.0,0.0,1.0,Taxi
17.2,-0.21146940593095476,-34.8154846594446,22.176336951307352,-0.5335962439259305,0.12198762019695926,201.5442147519026,15.693865497343808,0.0,1.0,0.0,0.0,1.0,Taxi
17.3,-0.049666546427799316,-14.651281432296889,22.875048981190737,-0.673891777301953,-0.19418678315495055,201.4847654010117,16.59320133684792,0.0,1.0,0.0,0.0,1.0,Taxi
17.400000000000002,0.04226964299326785,55.27702619619571,23.45333166076888,-0.31565520664925384,0.6403256107656368,201.49331456388018,16.98273233839408,0.0,1.0,0.0,0.0,1.0,Taxi
17.5,0.06491572505002374,21.779714768318453,22.828741592876685,-0.6706296038169703,0.1374998774008999,201.46164538141431,15.879965531817795,0.0,1.0,0.0,0.0,1.0,Taxi
17.6,0.0592320274137929,1.9005606151556425,23.718043383649064,-0.8481040444745543,0.542787768052496,201.62291719945597,15.669232511996894,0.0,1.0,0.0,0.0,1.0,Taxi
17.7,0.05177244606904602,-36.681402462334745,23.30663130400362,-0.8147155253953048,-0.8383708144222276,201.4555545005884,15.952748972783185,0.0,1.0,0.0,0.0,1.0,Taxi
17.8,-0.11849128726165004,-38.8056816397556,23.16794104930926,-0.7902789731853808,0.2452347629937468,201.5920612895718,16.623637638354182,0.0,1.0,0.0,0.0,1.0,Taxi
17.900000000000002,-0.13479638078498515,-3.2012074486299156,21.710666212785753,-0.6782885997401239,0.41136348853513155,201.63407434322278,16.356556106672386,0.0,1.0,0.0,0.0,1.0,Taxi
18.0,0.03576640882589638,61.8807153765336,22.530796212527914,-0.7401194026111008,0.07348607056432134,201.47122385022953,17.055900685833176,0.0,1.0,0.0,0.0,1.0,Taxi
18.1,0.1909122896210179,20.026617741135812,22.213368353817632,-0.6636516634475174,0.19875185349376345,201.57324358614426,15.945747761523636,0.0,1.0,0.0,0.0,1.0,Taxi
18.2,-0.034663292079306095,-54.49224465460062,22.384225957948594,-1.08614288277039,-0.42110905140402605,201.49229493876635,16.124470927018205,0.0,1.0,0.0,0.0,1.0,Taxi
18.3,-0.23669481444710672,-63.928396000459735,22.014777591730272,-0.6031631600510342,-0.2541819260426914,201.50087392975138,17.17594305626935,0.0,1.0,0.0,0.0,1.0,Taxi
18.400000000000002,-0.1287296903812808,-5.289622695033678,22.97678961947496,-0.6582851539433545,0.13379685512378553,201.31926204595084,16.542846480316232,0.0,1.0,0.0,0.0,1.0,Taxi
18.5,-0.06111140555447452,60.04938104717602,23.8828959138743,-0.5900218146018416,-0.2897242929024631,201.49003719433574,16.128000577628768,0.0,1.0,0.0,0.0,1.0,Taxi
18.6,0.06355209078877341,7.106712598415707,23.09612288126919,-0.9651161110608348,0.3210182592862944,201.53881739274243,16.732081680432966,0.0,1.0,0.0,0.0,1.0,Taxi
18.7,-0.09319612738920224,61.21252038779566,22.345375344231403,-0.565699237026536,1.3405589789215007,201.65580792471303,16.911650274149796,0.0,1.0,0.0,0.0,1.0,Taxi
18.8,0.24495119638450383,4.908504245878594,22.723189398413393,-0.6149429708356754,1.3625544979144952,201.41875192189013,16.012587996220734,0.0,1.0,0.0,0.0,1.0,Taxi
18.900000000000002,0.08809461201816643,1.7424585629794034,22.31025187499032,-1.0291277894171282,-0.47933625505243665,201.33902699254986,15.939379440897238,0.0,1.0,0.0,0.0,1.0,Taxi
19.0,-0.08448383457430521,-71.90205329123009,22.03627877703675,-0.6020595239525919,-0.09163906784020394,201.53950532936835,16.011925616130682,0.0,1.0,0.0,0.0,1.0,Taxi
19.1,-0.11455907007164662,-15.10403535588,22.225274007788112,-0.23921355869999927,0.560850606235268,201.4802239717269,16.246937947954667,0.0,1.0,0.0,0.0,1.0,Taxi
19.200000000000003,0.012574435238766444,31.030202252870737,22.490329950250004,-0.9267936033698057,-0.3193448698662245,201.41630758073813,16.687239739889147,0.0,1.0,0.0,0.0,1.0,Taxi
19.3,0.07066717669004852,55.458451578011285,22.163796052656338,-0.7149807395932324,-0.7441894530100828,201.5603858942443,16.835656110568507,0.0,1.0,0.0,0.0,1.0,Taxi
19.400000000000002,0.16273318781840987,16.05075656137116,22.628093614512068,-0.6611281290144169,0.9550365085535505,201.67437432681163,16.214613670196115,0.0,1.0,0.0,0.0,1.0,Taxi
19.5,0.09282821804562227,-7.291725657224528,22.550043092993175,-0.5761940889948495,-0.2812239768143943,201.37365113806982,16.90048016898285,0.0,1.0,0.0,0.0,1.0,Taxi
19.6,0.034208548403925905,-84.87292790100936,22.25769464612175,-0.7968106041686887,1.0905951355152947,201.54790248182678,16.308973105983622,0.0,1.0,0.0,0.0,1.0,Taxi
19.700000000000003,-0.261631451686637,-19.618867115483322,23.582413081394577,-0.7084732182660404,0.46261207286438033,201.39969562579438,16.827996550108075,0.0,1.0,0.0,0.0,1.0,Taxi
19.8,-0.005266117531794401,-37.69162114929124,22.207667896895938,-0.9534039260461344,0.14908799360840536,201.48466572776158,15.321309728200298,0.0,1.0,0.0,0.0,1.0,Taxi
19.900000000000002,-0.15424955734253032,103.05318891017426,22.023586093150772,-0.9505224473074794,-0.1711201603694738,201.4921025730397,16.8963281700112,0.0,1.0,0.0,0.0,1.0,Taxi
20.0,0.25363449286423434,-19.22927252549336,23.339353012573152,-0.9644475144536664,-0.1201337925896724,201.54227111152352,16.401167594248935,0.0,1.0,0.0,0.0,1.0,Taxi
20.1,-0.10141248015926121,52.56722047375124,22.471048584659098,-0.4600303542158669,-0.0452043528549863,201.44003072366684,15.782923866469798,0.0,1.0,0.0,0.0,1.0,Taxi
20.200000000000003,0.10858654502622585,-56.63391550888574,22.490079447982446,-0.5798593023153207,-0.8862535196421585,201.47045702985304,15.937405510549318,0.0,1.0,0.0,0.0,1.0,Taxi
20.3,-0.029535084680194446,-37.03122080807096,22.68643789607615,-0.6427606731819118,0.23885367672527977,201.57766307465477,16.56205423721621,0.0,1.0,0.0,0.0,1.0,Taxi
20.400000000000002,-0.286568584199616,-15.55443328935173,22.82402839355278,-0.8015439449720635,0.4813932621803516,201.4869291385968,15.681146396521221,0.0,1.0,0.0,0.0,1.0,Taxi
20.5,0.030814378579467228,25.752081008612418,22.770936626889135,-0.6191963221491237,0.2085710069738088,201.38935474060122,16.240164800893172,0.0,1.0,0.0,0.0,1.0,Taxi
20.6,0.09922532036286767,61.94046769094786,22.435222299714052,-1.0187913297635611,-0.27259241793476124,201.35317381400455,16.30013106740211,0.0,1.0,0.0,0.0,1.0,Taxi
20.700000000000003,0.023133754255123345,0.9175136129809548,22.55728129402916,-0.829722084976721,-0.3821666930291973,201.5209610278797,16.481024168293732,0.0,1.0,0.0,0.0,1.0,Taxi
20.8,0.03540194664437202,-10.338717312157359,21.83613768438445,-0.9617037477537655,0.4051793707871054,201.45304319517118,16.3173730622321,0.0,1.0,0.0,0.0,1.0,Taxi
20.900000000000002,0.047531733802080894,20.298231454135742,22.764618828720675,-0.7068516616623134,0.6836000287505446,201.43660997298912,16.339207917448064,0.0,1.0,0.0,0.0,1.0,Taxi
21.0,0.12462491152580209,-13.75085553109363,22.679605525233292,-0.41893931907815385,-0.03229964681008384,201.35031769046157,17.03553381695748,0.0,1.0,0.0,0.0,1.0,Taxi
21.1,-0.03335233101109612,-1.5921227292162758,21.936496701506577,-0.5124625300752113,-0.3492658355089655,201.44509565980707,16.062711353164218,0.0,1.0,0.0,0.0,1.0,Taxi
21.200000000000003,0.03957112015599952,-53.13094169135825,23.092774438490284,-0.5812159316500033,-0.22086247671877818,201.6004221156419,16.915189898526226,0.0,1.0,0.0,0.0,1.0,Taxi
21.3,-0.14102979693098913,27.887126615229803,22.409076515909927,-0.4014577753571915,0.46834645361063143,201.43254492913343,16.351597687916804,0.0,1.0,0.0,0.0,1.0,Taxi
21.400000000000002,0.10608330206505295,-9.760703368436504,22.748868628705342,-0.8447593316645499,0.7457721768310456,201.67390883095538,16.18489031873955,0.0,1.0,0.0,0.0,1.0,Taxi
21.5,-0.009232396686182939,26.393672505332773,22.863872160046668,-0.5455003645562371,0.8588674645082313,201.57931306080934,16.21145020294585,0.0,1.0,0.0,0.0,1.0,Taxi
21.6,-0.009061434404325224,-35.76953410812879,22.92307533095639,-0.4388804757089787,-0.23942653417685922,201.50423629438853,16.238686750264048,0.0,1.0,0.0,0.0,1.0,Taxi
21.700000000000003,-0.07276436847559097,1.2016584670356163,22.579259031526185,-0.6578096393934074,0.8778964108734667,201.40239514764016,17.48445926375301,0.0,1.0,0.0,0.0,1.0,Taxi
21.8,-0.003224104351004824,-36.17080106298078,22.75164579253475,-0.47769407048829216,-0.03895991989820948,201.5469761738675,16.075476920153864,0.0,1.0,0.0,0.0,1.0,Taxi
21.900000000000002,-0.18991543971922908,8.255072675998179,22.511886436022976,-0.46497781290225104,-0.39087981176951087,201.4669220752628,16.328350781610464,0.0,1.0,0.0,0.0,1.0,Taxi
22.0,-0.031489005095600056,-19.901404507381653,22.972923238223853,-0.7862010897134667,-0.3844648688809465,201.4195095031099,17.19768244704851,0.0,1.0,0.0,0.0,1.0,Taxi
22.1,-0.10273112688791308,40.30129085348295,22.519260565618968,-0.960426153752071,0.5243502226617704,201.5074214996165,16.030419773970195,0.0,1.0,0.0,0.0,1.0,Taxi
22.200000000000003,0.011591014548185688,32.6010113615797,22.061832598064175,-0.6274495956365601,-0.15021926087030696,201.63320208309096,16.185099681065754,0.0,1.0,0.0,0.0,1.0,Taxi
22.3,0.13151605171229847,30.814259127803215,23.349463069312925,-0.8199232366218192,0.3847955509504435,201.449173642907,16.99158096194417,0.0,1.0,0.0,0.0,1.0,Taxi
22.400000000000002,0.051340168751103026,-28.638351788524776,22.416113961924456,-0.2848899404482522,-0.14313315712909344,201.40447851928286,16.571979808271887,0.0,1.0,0.0,0.0,1.0,Taxi
22.5,-0.13160074439443817,-18.826932876965717,22.621922044594655,-0.7998287535909006,-0.3176843848486504,201.20165097727602,16.48944088061849,0.0,1.0,0.0,0.0,1.0,Taxi
22.6,0.037381387327469935,-8.728025106524623,22.156765264750653,-0.5754387074176497,-0.10866123984999555,201.5101989278727,16.654635682763114,0.0,1.0,0.0,0.0,1.0,Taxi
22.700000000000003,0.007700043218479953,56.06083082913781,22.352098489446842,-0.611761297555919,-0.313921462432242,201.55582185579044,16.43503274439154,0.0,1.0,0.0,0.0,1.0,Taxi
22.8,0.14870340975125088,-1.7659758928299947,23.654205662602187,-0.45804327769103265,0.12857806989829612,201.61455553904057,16.333257599477335,0.0,1.0,0.0,0.0,1.0,Taxi
22.900000000000002,0.028551507863319992,-18.955547526154632,22.902303926645384,-0.6519811222664313,-0.1166031202142226,201.44677039154374,16.546507038012653,0.0,1.0,0.0,0.0,1.0,Taxi
23.0,-0.08707769441229318,-45.005551138765895,21.223883923046817,-0.7079927658033296,1.102273830167347,201.425572757876,16.675063231846078,0.0,1.0,0.0,0.0,1.0,Taxi
23.1,-0.07632434594257861,2.2588431972365206,22.771483241831266,-0.6596768611243374,0.44198174874243984,201.52297628397287,16.41445294012516,0.0,1.0,0.0,0.0,1.0,Taxi
23.200000000000003,0.0398457238495026,4.94374657861033,21.316939189318695,-0.6392043570980593,0.480863299933092,201.43513057365988,16.30884043129217,0.0,1.0,0.0,0.0,1.0,Taxi
23.3,-0.06235896151924151,40.185626324655686,22.769338058749,-0.39227813736938855,0.41458454280886736,201.50831488706172,16.76299933865201,0.0,1.0,0.0,0.0,1.0,Taxi
23.400000000000002,0.12460378568069985,13.10930866355576,22.146042560916417,-0.43304382749799597,0.024193687941582206,201.49902849684986,16.06469002647023,0.0,1.0,0.0,0.0,1.0,Taxi
23.5,0.10539226716728148,7.245944650285845,23.063165050468854,-0.30242103724083574,0.47030652310824067,201.4312323796123,16.15307900076023,0.0,1.0,0.0,0.0,1.0,Taxi
23.6,-0.026129238267812206,-32.32555383164574,22.85433924603338,-0.6301111462019457,-0.0573923253915175,201.242716581766,16.845433686577188,0.0,1.0,0.0,0.0,1.0,Taxi
23.700000000000003,-0.03702398347752881,-31.465982597640973,22.461136338293052,-0.8773977150353388,-0.9196043659836071,201.4420115816181,16.96203825625629,0.0,1.0,0.0,0.0,1.0,Taxi
23.8,-0.05193764582092334,56.86296331687004,22.573757411304225,-0.6127795701296819,0.4054263964781131,201.3668477018548,16.927359195996804,0.0,1.0,0.0,0.0,1.0,Taxi
23.900000000000002,0.25818557831653804,22.1474208920479,23.25797010995147,-0.45454038713461165,0.5733089009012625,201.59062690197732,15.942688910410327,0.0,1.0,0.0,0.0,1.0,Taxi
24.0,0.07371312098271078,17.796028992259867,22.56032724172847,-0.9359003596874378,-0.15626955474436405,201.41926928116413,16.2461419342333,0.0,1.0,0.0,0.0,1.0,Taxi
24.1,0.03704249914037607,-50.80585769167329,22.175394669439406,-0.5452554342271815,-0.11468976349026887,201.35012845924848,16.575820578968173,0.0,1.0,0.0,0.0,1.0,Taxi
24.200000000000003,0.004156289858171691,13.195302666186066,23.35743558618449,-1.1100923830272111,0.2516632082985538,201.66862028822334,16.177350413553956,0.0,1.0,0.0,0.0,1.0,Taxi
24.3,0.1396896343136412,-1.5681396980600486,22.651323053706406,-0.8811625957527978,-0.7752051680715875,201.3900042236735,16.872140022912127,0.0,1.0,0.0,0.0,1.0,Taxi
24.400000000000002,0.02920180065007591,8.837632055192548,23.28571332148051,-0.6450467333308274,-0.43650808173204103,201.4808273841768,15.788100709480988,0.0,1.0,0.0,0.0,1.0,Taxi
24.5,0.04834445013413451,-33.74924759935074,22.193231900202814,-0.7061030411341331,0.3908221263250948,201.4046516707923,16.482505081565375,0.0,1.0,0.0,0.0,1.0,Taxi
24.6,-0.029056603683112393,7.499620897862958,23.02174187092142,-0.7363499308315872,-0.37007144248664814,201.54755074443403,15.647817531272159,0.0,1.0,0.0,0.0,1.0,Taxi
24.700000000000003,0.0666999051393908,-5.097668706016339,22.252449505269706,-1.017841639212423,0.05846367306953347,201.37656550961572,16.213623386677842,0.0,1.0,0.0,0.0,1.0,Taxi
24.8,0.022856106604052906,5.2957527428136935,22.57477117357368,-0.7688535776142931,-0.5318393865662691,201.4898657472512,16.815164087872944,0.0,1.0,0.0,0.0,1.0,Taxi
24.900000000000002,-0.0025778399690438436,-35.84653807871844,22.634772327894567,-0.6741514548373734,0.3156049684129027,201.37902341386564,16.717349039767857,0.0,1.0,0.0,0.0,1.0,Taxi
25.0,-0.11253278525420132,12.593435247713842,22.253338435763812,-0.14649839216414307,0.4271446943537177,201.62029084186997,16.68536973963477,0.0,1.0,0.0,0.0,1.0,Taxi
25.1,0.0858232828426222,-13.654958026384085,22.8494237308292,-0.5269792631766999,0.6548862260464128,201.6021927911711,16.822222784707044,0.0,1.0,0.0,0.0,1.0,Taxi
25.200000000000003,-0.07085263010096415,17.20289095882202,22.251088058975995,-0.2823320254397892,-0.3248313603321971,201.46978410091572,15.371033900213702,0.0,1.0,0.0,0.0,1.0,Taxi
25.3,-0.026518330460091097,-19.990329539216194,22.893396851347568,-0.5350112791552563,0.711825250399251,201.695075626041,16.38799451815024,0.0,1.0,0.0,0.0,1.0,Taxi
25.400000000000002,-0.014128364853458659,7.6627278720869505,21.49552374452195,-0.5101807032927067,-0.24335495482679442,201.60455015496552,17.168124084067475,0.0,1.0,0.0,0.0,1.0,Taxi
25.5,-0.0325389907405293,-19.95188704989698,22.312255922529058,-0.5758500564122456,0.06662995091283344,201.49466691109876,16.458700698777264,0.0,1.0,0.0,0.0,1.0,Taxi
25.6,-0.12627776570957588,-21.838798560911684,21.863148160205657,-1.1355129817310872,-0.40683204391520705,201.48705163470242,16.96275217115602,0.0,1.0,0.0,0.0,1.0,Taxi
25.700000000000003,-0.12332235765801698,27.020533411720294,21.747625802845544,-0.9599609107526927,0.2701436305823965,201.5682657081527,16.036920989846703,0.0,1.0,0.0,0.0,1.0,Taxi
25.8,0.10256367631807228,12.940890202821228,22.671431360247855,-0.6594268715260992,-0.4165471560170639,201.63413678039342,16.246215830064287,0.0,1.0,0.0,0.0,1.0,Taxi
25.900000000000002,-0.061573314695469644,21.805290026684236,22.921197775883602,-0.8704256760599656,-0.8617680535342517,201.43422948176078,15.440305258221516,0.0,1.0,0.0,0.0,1.0,Taxi
26.0,-0.014295907524595704,-4.616332067743305,22.365602361612943,-0.7890130314595414,1.0412678190440594,201.4443247649035,16.578907085305726,0.0,1.0,0.0,0.0,1.0,Taxi
26.1,0.07948201597935586,22.179044810928247,22.349326604934053,-0.2965607211130734,0.5421388216725789,201.32288939484863,16.536005088451557,0.0,1.0,0.0,0.0,1.0,Taxi
26.200000000000003,0.04932190935917169,8.799028185336622,22.66437340859941,-0.5362839348207654,-1.3998736665802383,201.46223167051153,16.366550652762935,0.0,1.0,0.0,0.0,1.0,Taxi
26.3,0.029699233402087518,-53.10820233656283,22.40396950573468,-0.5982195605480682,-0.5947818321361529,201.55058562757654,16.183028686973373,0.0,1.0,0.0,0.0,1.0,Taxi
26.400000000000002,-0.1860589957034582,-15.446455510049674,22.344788266204464,-0.8255705039401875,0.47338757102396195,201.48293759939747,15.913461637117951,0.0,1.0,0.0,0.0,1.0,Taxi
26.5,-0.027910368191076586,15.182700437988482,23.506895074437892,-0.7058087148141536,-0.5491400985079005,201.43292639007075,16.013875907025646,0.0,1.0,0.0,0.0,1.0,Taxi
26.6,0.10561273559203,79.4486315313516,23.105673831782887,-0.8033815315491187,0.6794179165513189,201.48421563580246,16.560306251838462,0.0,1.0,0.0,0.0,1.0,Taxi
26.700000000000003,0.2111841619532998,24.996253974162823,22.474868316946242,-0.8377724916185758,-1.2409093576432635,201.39583312729462,16.295333314367074,0.0,1.0,0.0,0.0,1.0,Taxi
26.8,0.09707090167973755,8.982462854479671,22.97584755445654,-0.857310361183431,-0.2246978816963415,201.52532210217225,16.121322824606427,0.0,1.0,0.0,0.0,1.0,Taxi
26.900000000000002,0.15052504986442838,-48.097633496737764,22.198473186576233,-0.643328696500431,0.038225560559927214,201.46892391800566,16.491648168593787,0.0,1.0,0.0,0.0,1.0,Taxi
27.0,-0.029304005530388977,-30.545670497627267,22.57602755673501,-0.6483037450050929,0.06494935321239147,201.53507387236618,15.512198583831076,0.0,1.0,0.0,0.0,1.0,Taxi
27.1,-0.05565745080839871,-68.13032151171306,21.567714685685477,-0.5235815148591657,-0.31621717853612,201.61317103049964,16.90838913621788,0.0,1.0,0.0,0.0,1.0,Taxi
27.200000000000003,-0.1901265576941369,-13.157368378194333,22.15462212576311,-0.7134732582968483,0.04436670850720465,201.53087895908288,15.366975407184498,0.0,1.0,0.0,0.0,1.0,Taxi
27.3,-0.09509084742136056,50.05321890131032,23.9093826004913,-0.7205992980589477,-0.13559484625892781,201.47771390813728,16.472210363641253,0.0,1.0,0.0,0.0,1.0,Taxi
27.400000000000002,0.194608643698153,39.185515586506035,22.25302094938339,-0.5719856977415715,-0.13895014514725781,201.45183385209066,15.862599708145101,0.0,1.0,0.0,0.0,1.0,Taxi
27.5,0.0058010202383933385,7.224787576647789,22.229549932004208,-0.553693967540762,-0.4041008370645567,201.42821402413563,15.534830126152903,0.0,1.0,0.0,0.0,1.0,Taxi
27.6,-0.05896690953812154,-23.707616816016905,21.645604830758177,-0.6649426499621109,-0.036404006842110835,201.56226814154024,16.07492914591653,0.0,1.0,0.0,0.0,1.0,Taxi
27.700000000000003,0.07607055961806855,26.717188195748502,22.47037187179923,-1.0094032703922342,-0.36626105833094325,201.70627269143142,16.084863374710306,0.0,1.0,0.0,0.0,1.0,Taxi
27.8,0.13938696121713595,-1.8120704473881706,23.77559421724737,-0.6254589341557374,-0.18849396404488755,201.45673539533914,16.491505471723038,0.0,1.0,0.0,0.0,1.0,Taxi
27.900000000000002,-0.06802726177506231,19.13741425461299,21.77125697300802,-0.7344514900005074,-0.6954033847352549,201.22635307354187,16.216478701912187,0.0,1.0,0.0,0.0,1.0,Taxi
28.0,0.1717576308911336,-28.298510590737152,23.009954002113684,-1.015947652056505,-0.5500975775837949,201.51739961279532,15.639887429551194,0.0,1.0,0.0,0.0,1.0,Taxi
28.1,-0.0021055917365497413,52.074830626946714,22.32490128214699,-0.9313334062912683,-0.2359073280383613,201.4706198035683,16.08894828599682,0.0,1.0,0.0,0.0,1.0,Taxi
28.200000000000003,0.1923468913596713,-45.43942998509882,22.639688276827286,-0.7808236647429267,0.5585682268770142,201.4930986144194,15.712773576416447,0.0,1.0,0.0,0.0,1.0,Taxi
28.3,-0.055439519034360465,23.838182847652746,21.509788921321654,-0.7789841384906622,0.08279419247336592,201.48183588779807,16.40439709701169,0.0,1.0,0.0,0.0,1.0,Taxi
28.400000000000002,0.11708532250171402,-36.056400311841266,22.614289399390536,-0.7048521261499345,-0.6312052980872581,201.6000663962608,16.28234255847844,0.0,1.0,0.0,0.0,1.0,Taxi
28.5,0.012064889800465004,59.123573820017064,22.102813624120635,-0.700233398648367,-0.20514695878645195,201.43100644745982,16.116407005658353,0.0,1.0,0.0,0.0,1.0,Taxi
28.6,0.2401783500657249,-2.249097808836917,22.861073466203973,-0.5122986983271658,-0.08918252239510481,201.44113726894977,16.62115167409447,0.0,1.0,0.0,0.0,1.0,Taxi
28.700000000000003,0.10583983345752952,8.30708192442664,22.54857504278338,-0.705285746670242,0.23555513749415072,201.57578149533379,16.575739014889198,0.0,1.0,0.0,0.0,1.0,Taxi
28.8,0.0536002994225983,-57.489344987555,22.777237522802732,-0.9688849530309631,-0.01344914073816116,201.75175599724798,15.792509299977821,0.0,1.0,0.0,0.0,1.0,Taxi
28.900000000000002,-0.04726837487205002,-31.330492058627005,23.278840976313912,-1.0411552695394677,0.11796809258389895,201.4468725355464,17.449543160928627,0.0,1.0,0.0,0.0,1.0,Taxi
29.0,-0.05081262683560542,6.575719651572025,22.66521335163408,-0.8227333323977537,0.2704749307065461,201.4439875069827,16.517713550431054,0.0,1.0,0.0,0.0,1.0,Taxi
29.1,0.08647889768045852,3.2179030143392424,21.609317234001423,-0.5729973808062798,0.242412231606457,201.43566619265096,16.148959462269527,0.0,1.0,0.0,0.0,1.0,Taxi
29.200000000000003,-0.03117885980035371,18.11403583577035,23.520144979473855,-0.5757650850623144,0.3238805601277524,201.6354185855547,17.53084892767167,0.0,1.0,0.0,0.0,1.0,Taxi
29.3,0.03975755234324642,-23.57232254763761,23.076786951345383,-0.6356987484170692,-0.07216449603161604,201.34076568044952,15.807101945951231,0.0,1.0,0.0,0.0,1.0,Taxi
29.400000000000002,-0.03138271505772944,2.506833370180616,21.759163823742274,-0.724752183051068,1.438821490407211,201.26718706124848,17.016773289246547,0.0,1.0,0.0,0.0,1.0,Taxi
29.5,-0.01864469294945054,-5.822551083250484,21.818717410280076,-0.6802211646099232,0.10242704471072041,201.47906611461508,15.748636539076731,0.0,1.0,0.0,0.0,1.0,Taxi
29.6,0.0106447969269941,-4.2813754247160505,22.01886722810455,-1.0062023073225341,0.4828431667231613,201.3923136207626,16.727553812155577,0.0,1.0,0.0,0.0,1.0,Taxi
29.700000000000003,-0.05278959218130961,13.855801311184623,22.471553946861178,-0.7318459935221776,-0.5164839094497501,201.412524532333,17.077081358998246,0.0,1.0,0.0,0.0,1.0,Taxi
29.8,0.05063431360647265,-0.9807277954540226,21.27230879501857,-0.4887614434002724,-0.5310220292596352,201.50219751030693,15.919692759180029,0.0,1.0,0.0,0.0,1.0,Taxi
29.900000000000002,0.005741157949724067,-7.7392918642047634,22.661246300405004,-0.077990150577123,0.1020416731082983,201.3947759401085,16.18335876294843,0.0,1.0,0.0,0.0,1.0,Taxi
30.0,-0.09148605150233334,8.764139225671249,21.950949812492144,-0.6927910573859076,0.03656724818981106,201.6137991579908,17.076210728753175,0.0,1.0,0.0,0.0,1.0,Taxi
30.1,0.09445500973482895,-1.4852896710132033,23.147471154297317,-0.7934970348896875,-0.6454948856785601,201.492752368119,16.22586942719873,0.0,1.0,0.0,0.0,1.0,Taxi
30.200000000000003,-0.001685290405341892,17.506915350685208,22.837860172882017,-0.4047053789105222,-0.8003822108464527,201.5517003010625,16.371984409596134,0.0,1.0,0.0,0.0,1.0,Taxi
30.3,-0.0039514747489072435,-36.95723632062288,22.642458912351582,-0.8057824683648209,0.1907481003968449,201.3982069399052,16.26792031610695,0.0,1.0,0.0,0.0,1.0,Taxi
30.400000000000002,-0.09033117186828535,-34.45108104675106,22.763323600197694,-0.6643268571626454,-0.3669916581198407,201.46619731834517,16.541248804121043,0.0,1.0,0.0,0.0,1.0,Taxi
30.5,-0.1739406956390971,8.87757730189964,22.665636260493514,-0.5053507319321408,1.2197694666115726,201.55000241582525,17.014422692390408,0.0,1.0,0.0,0.0,1.0,Taxi
30.6,0.04043641176059105,16.123787188576383,23.951520956584268,-0.8133742610132669,-0.2618885355222509,201.48239940169276,16.4824033510084,0.0,1.0,0.0,0.0,1.0,Taxi
30.700000000000003,-0.009712235925403365,15.05622277259648,23.03998302307626,-0.4877492686221293,0.5705055062138557,201.58066758914651,16.30929191296858,0.0,1.0,0.0,0.0,1.0,Taxi
30.8,-0.09865958177611461,3.7515666561166845,23.191100645767413,-0.8704022683929858,-0.17423255399326693,201.44958005692,16.008051430842645,0.0,1.0,0.0,0.0,1.0,Taxi
30.900000000000002,0.059194245041174556,-6.2309684910389125,23.0336763970848,-0.7211423436531851,-0.38365282775218934,201.4434139142361,16.727145778944614,0.0,1.0,0.0,0.0,1.0,Taxi
31.0,-0.04086707838059783,20.32841512472449,22.77016958607367,-0.5406833356167614,-0.32008347101227136,201.6402955532426,16.768724196319223,0.0,1.0,0.0,0.0,1.0,Taxi
31.1,0.0029824938475079324,-9.507727571538902,22.30130001065963,-0.8428542239779258,0.4504500560710501,201.2995159871607,16.63831691917362,0.0,1.0,0.0,0.0,1.0,Taxi
31.200000000000003,0.011655607183480111,18.83732617524177,22.468657857388152,-0.5863028996457984,-0.30939068205591835,201.53387231441502,16.947866927259067,0.0,1.0,0.0,0.0,1.0,Taxi
31.3,0.05331955249561109,-18.290708896213957,23.60901424996068,-0.5758796338235982,0.28640075640949747,201.3665624791862,16.675836122455678,0.0,1.0,0.0,0.0,1.0,Taxi
31.400000000000002,-0.08847105063356177,-0.8159029200734812,23.111552120491588,-0.9062502807925457,-0.16540337586350334,201.51890897066448,16.621345972471296,0.0,1.0,0.0,0.0,1.0,Taxi
31.5,0.007576092583112783,-14.774321611296445,23.063657812666815,-0.6263744325046522,0.17195197822385117,201.39338309940945,15.776261750076884,0.0,1.0,0.0,0.0,1.0,Taxi
31.6,-0.02055205556087106,-3.810049083167977,22.568592599548406,-0.5316389345400871,-0.38656215186390064,201.390754974395,17.007935180072845,0.0,1.0,0.0,0.0,1.0,Taxi
31.700000000000003,-0.10752129604940158,17.628957250506925,23.49012895950902,-0.7033072345388818,0.1989397953172212,201.33001243578167,16.518543751939124,0.0,1.0,0.0,0.0,1.0,Taxi
31.8,0.0957208788356475,2.805190251300175,22.848627165918444,-0.7340077542135002,0.08897347637064765,201.36686359238274,15.468556503979759,0.0,1.0,0.0,0.0,1.0,Taxi
31.900000000000002,-0.006526104304370086,2.200595517511372,23.388973402890123,-0.6327101089159646,-0.14670152445100496,201.46126104238385,16.306524450406588,0.0,1.0,0.0,0.0,1.0,Taxi
32.0,-0.09651831846184464,-34.35360632936125,22.582452249622747,-0.7058059288409634,0.49454529712842127,201.3467612123908,16.302347422077236,0.0,1.0,0.0,0.0,1.0,Taxi
32.1,-0.07604715281115867,-59.61693233550545,21.97815739534617,-0.784064722476985,0.014953347465211337,201.2896907657647,16.617077975143644,0.0,1.0,0.0,0.0,1.0,Taxi
32.2,-0.3046107659818973,35.59926948036222,22.06908313238717,-0.5204605634480315,-0.3721405738840501,201.46312755425356,16.43191005965839,0.0,1.0,0.0,0.0,1.0,Taxi
32.300000000000004,0.08147802893996646,-2.315704818047209,22.24261669264754,-0.6780297140087913,0.25380457829231473,201.6763942497621,16.073135149461084,0.0,1.0,0.0,0.0,1.0,Taxi
32.4,-0.08762567690139472,86.90147124106541,23.367898040972165,-0.6941489658268226,0.30879214555636486,201.36494518526047,15.840767067973118,0.0,1.0,0.0,0.0,1.0,Taxi
32.5,0.1298965902234297,-18.673692722983926,22.971428287128816,-0.5424965819435102,0.01926598140637551,201.49076366246527,16.737437243539624,0.0,1.0,0.0,0.0,1.0,Taxi
32.6,-0.011890434674953147,47.48076748582215,23.307518057491844,-0.5066370047206881,0.33739421562923627,201.52083602056268,16.96041176288257,0.0,1.0,0.0,0.0,1.0,Taxi
32.7,0.14977816052771603,-37.756561087992125,22.816230096915678,-0.49970815033037186,0.15528473406854756,201.56625424032893,16.507185117642766,0.0,1.0,0.0,0.0,1.0,Taxi
32.800000000000004,-0.058886215216530896,-36.20122984022412,22.348209414151526,-0.5581026325888455,0.28829860817401703,201.53241963492883,16.08694718267408,0.0,1.0,0.0,0.0,1.0,Taxi
32.9,-0.1928965838760737,-22.69729781332262,22.660197421016324,-0.4661297570434907,0.9305911987548203,201.47120137408797,17.54082314024288,0.0,1.0,0.0,0.0,1.0,Taxi
33.0,0.03629167146110295,0.8603786132837902,22.24021570066664,-0.6058382573879239,0.09773308605439074,201.52852468384583,15.593141004690146,0.0,1.0,0.0,0.0,1.0,Taxi
33.1,-0.05458432215011188,48.220572760843744,21.98872079952955,-0.40688943666182376,0.47903536540341757,201.50329046781098,15.866665561748086,0.0,1.0,0.0,0.0,1.0,Taxi
33.2,0.048206279928145086,-16.839726774523765,22.800517098215366,-0.8228322766038656,-0.28260932619684287,201.5445812981817,16.537710342805156,0.0,1.0,0.0,0.0,1.0,Taxi
33.300000000000004,-0.047906962411515805,29.982854180484342,22.89223972583204,-0.814079697500423,-0.4402887792377458,201.41666448603974,16.542805838328025,0.0,1.0,0.0,0.0,1.0,Taxi
33.4,0.0953299487523099,5.533562538342203,22.65396412022146,-0.81177685092519,-0.9345346758738166,201.54877486696307,16.62902111326692,0.0,1.0,0.0,0.0,1.0,Taxi
33.5,0.07587409261985617,34.455870880141745,22.53182150386592,-0.8490295891591251,0.22272286855549694,201.26580570118574,16.305719404251718,0.0,1.0,0.0,0.0,1.0,Taxi
33.6,0.12437239198919298,-9.108384004832383,21.151720919697027,-0.8465149998158785,0.1928833813428928,201.48103865777557,17.27802103033229,0.0,1.0,0.0,0.0,1.0,Taxi
33.7,0.049788028728148054,4.958217401229796,22.626596947960103,-0.9140974442279476,-0.20089135875389957,201.49667509121764,16.897811421933074,0.0,1.0,0.0,0.0,1.0,Taxi
33.800000000000004,0.10066517962600521,-64.23923366409896,22.60359344630524,-0.7770577388278253,-0.8363383318821587,201.50699731152758,16.785181548446182,0.0,1.0,0.0,0.0,1.0,Taxi
33.9,-0.1968237763313018,-11.85291304631717,22.423011838829645,-0.8946583675639664,-0.5024125978672387,201.41707016059524,16.669445431179014,0.0,1.0,0.0,0.0,1.0,Taxi
34.0,-0.009476536503437783,-20.16289154291964,22.558584319831862,-0.5324019774435528,0.2663064154606872,201.44908304761884,17.26002647880667,0.0,1.0,0.0,0.0,1.0,Taxi
34.1,-0.00014927808859294234,44.04343801846863,22.61778671309115,-0.48544837275300234,-0.4363713595368348,201.60609033867013,16.19794465995802,0.0,1.0,0.0,0.0,1.0,Taxi
34.2,0.02339341376104136,-13.859277238678663,22.41998522810873,-0.4461231337979119,0.9390181095929807,201.55895522059404,16.50066685327391,0.0,1.0,0.0,0.0,1.0,Taxi
34.300000000000004,-0.07877292269683105,-6.91497435575767,21.791353482553426,-0.5187092606632127,0.30672536851517807,201.36424780171808,16.417494129871223,0.0,1.0,0.0,0.0,1.0,Taxi
34.4,-0.03472414986738125,37.52436902458996,21.957478835808182,-0.6291606576325676,-0.10968617492368363,201.38964579304695,16.32285207402111,0.0,1.0,0.0,0.0,1.0,Taxi
34.5,0.2110152588839912,20.489911191271688,22.380153396216734,-0.737166080586784,0.5568675825483366,201.57879823286225,16.457574120151403,0.0,1.0,0.0,0.0,1.0,Taxi
34.6,0.02367663325952745,6.260734515190987,23.74460009054529,-0.7325572276199588,-0.18617848088878136,201.56867483919712,15.768036502165304,0.0,1.0,0.0,0.0,1.0,Taxi
34.7,-0.0034204772914262515,-42.2388965171906,22.103091762544256,-0.6160794472545476,-0.5291176518533586,201.6664440353402,16.33718144593248,0.0,1.0,0.0,0.0,1.0,Taxi
34.800000000000004,-0.00017922370196175178,-9.578180540946434,23.127767281543658,-0.9079236138266353,-0.14548429722045567,201.59238617559242,16.346413007014455,0.0,1.0,0.0,0.0,1.0,Taxi
34.9,-0.024214269445204686,-6.256552048678425,22.28689574568879,-0.3815871322656148,0.2552004123188944,201.37796012323804,16.48501433909169,0.0,1.0,0.0,0.0,1.0,Taxi
35.0,-0.03470323753481834,-30.43908235661034,23.684546626449112,-0.6348802393922759,-0.44423472713141615,201.4957033237397,17.5040600403448,0.0,1.0,0.0,0.0,1.0,Taxi
35.1,-0.15237463548501343,22.353524469881297,22.40290543208381,-0.4854295381080411,0.3369921548908288,201.49587359242275,17.034506278720258,0.0,1.0,0.0,0.0,1.0,Taxi
