time_s,altitude_ft,vertical_speed_fpm,ias_kt,pitch_deg,roll_deg,heading_deg,throttle_pct,afterburner_on,gear_down,flaps_deg,speedbrake_pct,weight_on_wheels,label
0.0,-2.0689147794225935,-604.359912204229,171.2086034460919,0.8572252861620551,-3.79797276835487,300.4865183157822,35.434721088260005,0.0,1.0,19.030981551394376,9.537247426118569,0.0,Landing
0.1,-4.083447820103356,-816.2358090106196,168.51957045714053,0.6140615321997158,-3.967509631841406,300.5451144593965,35.52164050132502,0.0,1.0,19.030981551394376,9.537247426118569,0.0,Landing
0.2,-6.150093824475691,-1215.1981593369344,170.7867531175331,0.8176641350042716,-4.057191743003137,300.7498928578161,36.045606180693504,0.0,1.0,19.030981551394376,9.537247426118569,0.0,Landing
0.30000000000000004,-8.144905576107265,-1221.5193459979344,171.01701629571147,0.6218955374660216,-4.0408676799558645,300.81999529883933,35.130523110902324,0.0,1.0,19.030981551394376,9.537247426118569,0.0,Landing
0.4,-10.191044550093029,-1220.8608983648535,171.99591504336178,0.5391352719608444,-4.003426107567129,300.46638689118413,35.066758407092046,0.0,1.0,19.030981551394376,9.537247426118569,0.0,Landing
0.5,-12.254398316299959,-1244.6946782618809,171.75965513120545,0.8436196169087367,-4.179166600718783,300.5193943775688,34.90202509901032,0.0,1.0,19.030981551394376,9.537247426118569,0.0,Landing
0.6000000000000001,-14.36837896741667,-1235.4996838926033,169.75668588663228,0.41995134857341526,-3.9499646237982144,300.46070238491586,35.36505255428748,0.0,1.0,19.030981551394376,9.537247426118569,0.0,Landing
0.7000000000000001,-16.368542969556046,-1218.6346298371143,171.7185685318294,0.7675087770662045,-4.0070602030474,300.5479164148958,35.16655353951056,0.0,1.0,19.030981551394376,9.537247426118569,0.0,Landing
0.8,-18.34757146548553,-1201.0014447275896,172.25681062246733,0.6498626047442526,-3.9220219996952497,300.68229010695325,35.03204333903801,0.0,1.0,19.030981551394376,9.537247426118569,0.0,Landing
0.9,-20.373386191054617,-1204.7181187587823,170.15488736996767,0.7426560419603783,-3.9318974955819272,300.54163071288554,35.55043608414726,0.0,1.0,19.030981551394376,9.537247426118569,0.0,Landing
1.0,-22.392133563349958,-1223.414976689675,169.96599008906728,0.4827067635974101,-4.237303548810295,300.6141833331635,34.712151705101135,0.0,1.0,19.030981551394376,9.537247426118569,0.0,Landing
1.1,-24.464646348933904,-1227.4548000762024,170.9462917785582,0.7092669176748471,-3.7216329332801403,300.4733324186857,35.26739812810356,0.0,1.0,19.030981551394376,9.537247426118569,0.0,Landing
1.2000000000000002,-26.51066019143563,-1221.0854324045597,169.0803915602872,0.6898592866106934,-4.121276376071451,300.4203206617336,35.19049061761242,0.0,1.0,19.030981551394376,9.537247426118569,0.0,Landing
1.3,-28.497560725372757,-1216.2305244903591,169.47666302291248,0.6495332997842417,-3.968532114465337,300.45155838447636,35.24145891569787,0.0,1.0,19.030981551394376,9.537247426118569,0.0,Landing
1.4000000000000001,-30.5457989713857,-1222.4109376243925,170.24518265033922,0.7515882264968821,-3.9938573377748177,300.4987210927268,35.32328560213636,0.0,1.0,19.030981551394376,9.537247426118569,0.0,Landing
1.5,-32.62271487955759,-1212.7338582192904,170.5642108217119,0.6590401756823896,-4.246887767669762,300.35978062506615,35.372172156754594,0.0,1.0,19.030981551394376,9.537247426118569,0.0,Landing
1.6,-34.56123001646921,-1199.3983554011736,173.22465163492896,0.5123821534773269,-3.6648465205154026,300.5856604897124,35.11907173737159,0.0,1.0,19.030981551394376,9.537247426118569,0.0,Landing
1.7000000000000002,-36.54279074839157,-1194.7414259210134,168.97210352929696,0.7567012051588824,-3.7997940386445923,300.6228528223314,35.11709135634918,0.0,1.0,19.030981551394376,9.537247426118569,0.0,Landing
1.8,-38.59642200916266,-1205.8879801113321,170.3218111024806,0.8638277143981666,-4.352430946429673,300.5235860006435,35.796433749468946,0.0,1.0,19.030981551394376,9.537247426118569,0.0,Landing
1.9000000000000001,-40.59066991702587,-1213.6190870543203,171.05488229557997,0.6043447753514519,-3.80225782426817,300.640446426929,34.99543823478221,0.0,1.0,19.030981551394376,9.537247426118569,0.0,Landing
2.0,-42.61088618366317,-1204.7504407964382,171.48722977964786,0.7565682902791228,-3.4482555716983025,300.42589834332875,35.41986567327655,0.0,1.0,19.030981551394376,9.537247426118569,0.0,Landing
2.1,-44.62017421314485,-1218.791491411791,170.9493392056474,0.9951161504074424,-3.806640128473585,300.36577873104295,35.02740111891211,0.0,1.0,19.030981551394376,9.537247426118569,0.0,Landing
2.2,-46.684627374084826,-1236.9606401499539,169.16934698713996,0.6826167568329057,-4.183880446828151,300.35425438037487,35.45382284915407,0.0,1.0,19.030981551394376,9.537247426118569,0.0,Landing
2.3000000000000003,-48.79568938441294,-1247.3021288660434,171.92211432877465,0.6326004214192977,-3.591961082946298,300.3323180805037,35.25607045396732,0.0,1.0,19.030981551394376,9.537247426118569,0.0,Landing
2.4000000000000004,-50.85668485747507,-1246.0423122161728,172.93595199684427,0.38751053468112706,-3.721585423703881,300.5613289056771,35.30729339100104,0.0,1.0,19.030981551394376,9.537247426118569,0.0,Landing
2.5,-52.91483893516569,-1234.1851641487183,171.55768863083637,0.7982147120016513,-3.748014783765954,300.4852783218781,35.664601965825256,0.0,1.0,19.030981551394376,9.537247426118569,0.0,Landing
2.6,-54.96661520515653,-1217.4548761767269,169.99200193878272,0.9468045797048414,-3.9132888978894464,300.2523089375384,35.319758996046815,0.0,1.0,19.030981551394376,9.537247426118569,0.0,Landing
2.7,-56.9439592383587,-1214.979494579984,168.64336501801372,0.7785198433315759,-4.011532758146694,300.4259377536355,35.536709303581546,0.0,1.0,19.030981551394376,9.537247426118569,0.0,Landing
2.8000000000000003,-58.98973640806561,-1202.1166479263272,169.36501777803187,0.6552118809532702,-4.255001965089909,300.4073405479842,35.492093013600034,0.0,1.0,19.030981551394376,9.537247426118569,0.0,Landing
2.9000000000000004,-60.977198444788165,-1198.3355400507023,171.9335638860487,0.45197761404902315,-3.809901952854476,300.5655891774454,34.78757128948022,0.0,1.0,19.030981551394376,9.537247426118569,0.0,Landing
3.0,-62.93563693861221,-1196.6189154830886,169.04717727958445,0.5493758422289304,-3.776464163178057,300.4391061656081,35.44815918774517,0.0,1.0,19.030981551394376,9.537247426118569,0.0,Landing
3.1,-64.97283098548105,-1207.8730036217037,170.9530680695946,0.8857176906271743,-4.531121214878514,300.1188552462236,35.55137225110184,0.0,1.0,19.030981551394376,9.537247426118569,0.0,Landing
3.2,-67.01656346289668,-1225.3766417290492,170.16475466935913,0.8333784086123416,-3.9344008580076375,300.3768971779657,34.565320893053446,0.0,1.0,19.030981551394376,9.537247426118569,0.0,Landing
3.3000000000000003,-69.06252014725746,-1227.849953916052,171.72430627315887,0.5126566679330123,-3.8816977211483836,300.6202130665222,35.640814124198236,0.0,1.0,19.030981551394376,9.537247426118569,0.0,Landing
3.4000000000000004,-71.11208075506131,-1205.972364151384,170.9860598206861,0.6485853881006389,-3.9455769436392774,300.45251853129,34.854606376709114,0.0,1.0,19.030981551394376,9.537247426118569,0.0,Landing
3.5,-73.0464252836536,-1192.6711424392008,170.08881006631302,0.6230399942727523,-3.7478078468175218,300.26061236330975,35.15517418443349,0.0,1.0,19.030981551394376,9.537247426118569,0.0,Landing
3.6,-75.02587585945346,-1179.485131623838,170.84957391778605,0.8140799695448154,-4.177978733929735,300.40938271460766,35.12303784665579,0.0,1.0,19.030981551394376,9.537247426118569,0.0,Landing
3.7,-77.0095064131805,-1175.0115849299902,169.8594439493358,0.8063145756963706,-3.992616060011363,300.5090050881031,35.51378544640974,0.0,1.0,19.030981551394376,9.537247426118569,0.0,Landing
3.8000000000000003,-78.92148320830356,-1176.6438192022122,170.61483299156987,0.6490156736976233,-4.050771147487393,300.67320728082666,35.290528497467804,0.0,1.0,19.030981551394376,9.537247426118569,0.0,Landing
3.9000000000000004,-80.90909495546452,-1186.7166005862684,170.6111429192062,0.5213834701863167,-3.857105281370514,300.6130155762471,35.2025931326058,0.0,1.0,19.030981551394376,9.537247426118569,0.0,Landing
4.0,-82.94308941611185,-1185.5620210465504,171.18217522023537,0.6185382357031785,-3.9787891688326193,300.44567378978843,35.0005429834872,0.0,1.0,19.030981551394376,9.537247426118569,0.0,Landing
4.1000000000000005,-84.84929331353631,-1191.0727653330582,171.013039905002,0.1417742642451626,-4.006913837268326,300.31308609388213,35.452817804149596,0.0,1.0,19.030981551394376,9.537247426118569,0.0,Landing
4.2,-86.86445878212982,-1171.7562177357393,170.05173746618667,0.9467464075839991,-4.288451264123286,300.5534742264987,35.43631461414928,0.0,1.0,19.030981551394376,9.537247426118569,0.0,Landing
4.3,-88.80187050479054,-1185.4667199710464,168.66568051693642,0.652970053636398,-3.983693657522368,300.3330568659901,35.41336180015802,0.0,1.0,19.030981551394376,9.537247426118569,0.0,Landing
4.4,-90.77662691339154,-1187.0106627776522,169.90107428736098,0.6463946410207821,-4.645957200523494,300.5970205486178,35.15386308633278,0.0,1.0,19.030981551394376,9.537247426118569,0.0,Landing
4.5,-92.79951209601808,-1189.9805026427657,170.82111680525995,0.637952039913026,-4.223654160755025,300.53511088949006,35.50887478902004,0.0,1.0,19.030981551394376,9.537247426118569,0.0,Landing
4.6000000000000005,-94.75177301800437,-1182.0494548713668,170.46455528619742,0.6224288014249568,-4.16008495516973,300.6346091445989,35.60052661750702,0.0,1.0,19.030981551394376,9.537247426118569,0.0,Landing
4.7,-96.68687418774837,-1185.073027399693,170.94217849615896,0.4865051422336132,-4.341659143037317,300.4661227805809,35.28021285725916,0.0,1.0,19.030981551394376,9.537247426118569,0.0,Landing
4.800000000000001,-98.72487723301654,-1200.2329744034796,170.47825775916417,0.6479570094501876,-4.367781631071595,300.5242597131121,35.7493745459778,0.0,1.0,19.030981551394376,9.537247426118569,0.0,Landing
4.9,-100.75293789002177,-1187.8305596044413,171.4390209456321,0.8122183526262725,-3.8001932822912265,300.29138303669174,34.85933214206043,0.0,1.0,19.030981551394376,9.537247426118569,0.0,Landing
5.0,-102.62602698577058,-1177.3237289523793,170.6300462311447,0.5770700880696168,-4.052017825489518,300.0514471493991,35.41821540897306,0.0,1.0,19.030981551394376,9.537247426118569,0.0,Landing
5.1000000000000005,-104.61149587777844,-1178.6983582507758,169.16684653093515,0.8253450257475459,-3.978965430191874,300.53249064733745,35.59976423686021,0.0,1.0,19.030981551394376,9.537247426118569,0.0,Landing
5.2,-106.64642968127565,-1220.21618821924,169.91531570499745,0.8060879732186321,-3.996323364568932,300.45745129155034,35.33584046134443,0.0,1.0,19.030981551394376,9.537247426118569,0.0,Landing
5.300000000000001,-108.72710792686678,-1218.4749362527555,169.95451195325498,0.6120558956688815,-4.014468298472226,300.43495707455736,35.69312278077263,0.0,1.0,19.030981551394376,9.537247426118569,0.0,Landing
5.4,-110.70387055904222,-1199.2296676540548,168.7780908306468,0.8410659089692119,-3.791875739334311,300.6631131550205,35.38623390864103,0.0,1.0,19.030981551394376,9.537247426118569,0.0,Landing
5.5,-112.64257801954592,-1176.4391333655283,170.57835490890443,0.9248094344580498,-3.858131224038948,300.40942121930823,35.49383275818843,0.0,1.0,19.030981551394376,9.537247426118569,0.0,Landing
5.6000000000000005,-114.60930359369442,-1190.3071549024532,169.92356297133836,0.6420537556336705,-4.092885444242775,300.33285827231293,35.225254171903934,0.0,1.0,19.030981551394376,9.537247426118569,0.0,Landing
5.7,-116.65540633355448,-1206.4634634758875,170.22286509217852,0.6666659160579366,-3.8677936591620368,300.584569410893,35.20786504083411,0.0,1.0,19.030981551394376,9.537247426118569,0.0,Landing
5.800000000000001,-118.67489533692536,-1215.569830285338,169.97683397642973,0.5096263458162894,-4.094475306925645,300.6016735427255,35.7629420422231,0.0,1.0,19.030981551394376,9.537247426118569,0.0,Landing
5.9,-120.68715274512111,-1211.810196376598,170.17930477422507,0.5351955555140722,-4.111907853178011,300.49216693160724,35.21270474198545,0.0,1.0,19.030981551394376,9.537247426118569,0.0,Landing
6.0,-122.71445731543747,-1200.918753440834,170.64513104306857,0.7147176882739213,-3.7455673331904196,300.6035239687269,35.05919931623635,0.0,1.0,19.030981551394376,9.537247426118569,0.0,Landing
6.1000000000000005,-124.67948910412953,-1187.1821798529568,170.29007600958414,0.5594233776881179,-3.756044993109571,300.6203346950829,36.044917411327994,0.0,1.0,19.030981551394376,9.537247426118569,0.0,Landing
6.2,-126.6230636443859,-1173.139750750295,171.90049962513123,0.6159927174746546,-4.17762056811363,300.52933564426826,35.62477913206639,0.0,1.0,19.030981551394376,9.537247426118569,0.0,Landing
6.300000000000001,-128.58015606918894,-1189.5020897362629,170.9033142158308,0.7799838100615597,-4.122394087591534,300.62006751713056,35.79806668082791,0.0,1.0,19.030981551394376,9.537247426118569,0.0,Landing
6.4,-130.62699955281084,-1198.252362384011,170.59202885349387,0.58303391538835,-4.2799683942338085,300.4104717734997,35.539477815264895,0.0,1.0,19.030981551394376,9.537247426118569,0.0,Landing
6.5,-132.61432545630595,-1207.921079953627,171.7525930924116,0.5530028489347318,-4.03205213809729,300.3947844364867,35.57346015345479,0.0,1.0,19.030981551394376,9.537247426118569,0.0,Landing
6.6000000000000005,-134.61976146895708,-1187.1324429737454,170.46616975259312,0.8429739876606339,-3.866031256685995,300.65810525450945,35.16745754706587,0.0,1.0,19.030981551394376,9.537247426118569,0.0,Landing
6.7,-136.56266176767957,-1177.4435208972707,171.20974321140073,0.8322875494927415,-3.5297212677144607,300.48314407127805,34.91900918079784,0.0,1.0,19.030981551394376,9.537247426118569,0.0,Landing
6.800000000000001,-138.5015430607923,-1188.6171300883177,170.3765369821877,0.5731335495803724,-3.8566713724981443,300.41988719384926,35.55962013017615,0.0,1.0,19.030981551394376,9.537247426118569,0.0,Landing
6.9,-140.56284711939867,-1200.3745575858147,171.552723694742,0.7958164167934453,-3.8235701009908873,300.54001602511335,35.413774006844434,0.0,1.0,19.030981551394376,9.537247426118569,0.0,Landing
7.0,-142.56453455560865,-1193.713247318118,170.1363701153761,0.7648915119153249,-4.1892466620669415,300.55846015947054,35.489649187116,0.0,1.0,19.030981551394376,9.537247426118569,0.0,Landing
7.1000000000000005,-144.4701092973829,-1171.8192674444026,168.73293412425707,0.5105682513164239,-4.486443515399319,301.023709729988,35.09494103032428,0.0,1.0,19.030981551394376,9.537247426118569,0.0,Landing
7.2,-146.42194345662068,-1150.8607007822663,169.1615762078899,0.6691694686621011,-4.0271358309367145,300.33611762238843,35.387584141580476,0.0,1.0,19.030981551394376,9.537247426118569,0.0,Landing
7.300000000000001,-148.31883805951998,-1163.2456478998336,170.6187757503403,0.5835632781260169,-3.7788752996772117,300.6342497986975,35.543535048612306,0.0,1.0,19.030981551394376,9.537247426118569,0.0,Landing
7.4,-150.28633753688206,-1159.0044549391223,170.4935910413129,0.6804327535422119,-4.0450500067362265,300.67782083159057,35.3680700134231,0.0,1.0,19.030981551394376,9.537247426118569,0.0,Landing
7.5,-152.2169657313163,-1150.539548392544,168.5779731463367,0.9105682057182761,-4.143394613357791,300.6949669423259,35.881959209773854,0.0,1.0,19.030981551394376,9.537247426118569,0.0,Landing
7.6000000000000005,-154.0715358014827,-1161.9170069941845,170.85899234559787,0.5931259007484824,-3.6622347273252682,300.53011503819346,35.1994839394169,0.0,1.0,19.030981551394376,9.537247426118569,0.0,Landing
7.7,-156.09592257185298,-1156.7183521660638,169.48361719351178,0.5395134047718043,-4.141534172484559,300.0685105997778,35.4544494180763,0.0,1.0,19.030981551394376,9.537247426118569,0.0,Landing
7.800000000000001,-158.0005574921466,-1179.7751496416424,170.85449070734873,0.8489859662191999,-4.08348265667114,300.49861227964425,35.377524262889544,0.0,1.0,19.030981551394376,9.537247426118569,0.0,Landing
7.9,-159.9704115496909,-1173.6960671102509,170.24177775561833,0.42957606760838457,-3.7229105100698163,300.7109730279392,36.23122487461107,0.0,1.0,19.030981551394376,9.537247426118569,0.0,Landing
8.0,-161.96440290740424,-1179.9125455924752,169.68970857918495,0.7264190667169168,-3.6615448159617134,300.3856059354806,35.4451957801523,0.0,1.0,19.030981551394376,9.537247426118569,0.0,Landing
8.1,-163.900120220109,-1176.654961623717,171.49994558620054,0.540594089393538,-3.9570614742944388,300.58806913179546,35.79679911951248,0.0,1.0,19.030981551394376,9.537247426118569,0.0,Landing
8.200000000000001,-165.8536863578095,-1158.5257362208324,170.88773910685188,0.9164854720807706,-3.9726713470893205,300.52141755131174,35.91499467912975,0.0,1.0,19.030981551394376,9.537247426118569,0.0,Landing
8.3,-167.7570315885084,-1153.4615021952616,171.1708944488843,0.5436419061598354,-4.170844140633903,300.7001218883163,35.88324431637901,0.0,1.0,19.030981551394376,9.537247426118569,0.0,Landing
8.4,-169.6674277310853,-1147.7946470129496,172.16152745408098,0.5961822882075066,-3.999157695855104,300.622136439315,35.79733134939907,0.0,1.0,19.030981551394376,9.537247426118569,0.0,Landing
8.5,-171.59265959287424,-1152.4695473466124,170.79962740868896,1.0582351661261258,-4.397919300425138,300.6800932103822,35.310003645138046,0.0,1.0,19.030981551394376,9.537247426118569,0.0,Landing
8.6,-173.51937932524146,-1147.2826210721905,170.05419828202412,0.8755019759163006,-3.675105877669248,300.67099502973315,35.29212004043024,0.0,1.0,19.030981551394376,9.537247426118569,0.0,Landing
8.700000000000001,-175.40384083644625,-1153.8715913046588,170.68327756343402,0.8273831744094126,-3.9634690899902916,300.3995232945747,35.26638158924839,0.0,1.0,19.030981551394376,9.537247426118569,0.0,Landing
8.8,-177.36201754939754,-1155.9567368522155,171.39851933515342,0.9121512312180079,-3.9696522787348125,300.46321207776873,35.17695391523799,0.0,1.0,19.030981551394376,9.537247426118569,0.0,Landing
8.9,-179.29916300950254,-1156.0998411350283,170.67243304317662,0.8058633076068062,-4.021327993706324,300.653558599452,35.48270624116017,0.0,1.0,19.030981551394376,9.537247426118569,0.0,Landing
9.0,-181.1843400421214,-1151.5669348910367,170.81271031944692,0.770715183551006,-3.837476695941422,300.63441498868167,35.92663897334801,0.0,1.0,19.030981551394376,9.537247426118569,0.0,Landing
9.1,-183.11985222385272,-1151.0387936966083,170.56475029850492,1.098243740147978,-3.8239828771100908,300.699948732464,35.59105925684154,0.0,1.0,19.030981551394376,9.537247426118569,0.0,Landing
9.200000000000001,-185.05435697798558,-1164.5782450147806,169.51663109447207,0.7002073902789584,-3.752519132879316,300.3401201024735,35.19996621316889,0.0,1.0,19.030981551394376,9.537247426118569,0.0,Landing
9.3,-187.0072312671953,-1170.8829141474669,170.02467330159664,0.7993463086303767,-3.6952808653294666,300.4497927453092,35.51281126477726,0.0,1.0,19.030981551394376,9.537247426118569,0.0,Landing
9.4,-188.97426679459005,-1147.0454714673224,169.73429095140403,0.9386917194677256,-3.6799876560601206,300.59293322127974,35.39525998406598,0.0,1.0,19.030981551394376,9.537247426118569,0.0,Landing
9.5,-190.7895843353222,-1153.6550176406422,170.64110399001166,0.44491915076714417,-3.786612146401208,300.49385653996706,35.57980392018409,0.0,1.0,19.030981551394376,9.537247426118569,0.0,Landing
9.600000000000001,-192.7755063553985,-1157.558527725456,170.92134292574522,0.6518530692263456,-3.6959580413249657,300.5658764041143,35.71988270386416,0.0,1.0,19.030981551394376,9.537247426118569,0.0,Landing
9.700000000000001,-194.76205943321733,-1168.1450945511017,169.88153845651718,0.8002028878546293,-3.987554469982672,300.37969071691236,35.576662910310006,0.0,1.0,19.030981551394376,9.537247426118569,0.0,Landing
9.8,-196.6303098080777,-1164.0078477503664,171.5489984596093,0.8213450865355131,-4.095228331578031,300.4232393238517,35.05325339286698,0.0,1.0,19.030981551394376,9.537247426118569,0.0,Landing
9.9,-198.59554559415034,-1135.581265175,171.060516079993,0.5699679014697252,-3.686125231052908,300.5500068924065,35.123390438974695,0.0,1.0,19.030981551394376,9.537247426118569,0.0,Landing
10.0,-200.43996575909233,-1163.9193777078845,170.89354337724328,0.8873406501291587,-3.9754830763216242,300.5739303682252,35.282132256105356,0.0,1.0,19.030981551394376,9.537247426118569,0.0,Landing
10.100000000000001,-202.44990669661712,-1157.3417428205291,170.85521063578432,0.5650720540964255,-3.9634559233013817,300.4196259661667,35.01367061393175,0.0,1.0,19.030981551394376,9.537247426118569,0.0,Landing
10.200000000000001,-204.38225430825298,-1162.3201630265214,170.13558557095837,0.8402935358613697,-4.099249569762657,300.5458069307491,35.247008339044086,0.0,1.0,19.030981551394376,9.537247426118569,0.0,Landing
10.3,-206.25156657422494,-1144.010242445154,168.93332762717154,0.3545902799420128,-4.200138425009039,300.78901113244183,35.02580638139331,0.0,1.0,19.030981551394376,9.537247426118569,0.0,Landing
10.4,-208.1699579088429,-1151.3707637636628,170.57990397215534,0.584438493971515,-3.858011758277302,300.32326608089534,35.42436588271807,0.0,1.0,19.030981551394376,9.537247426118569,0.0,Landing
10.5,-210.1391081270713,-1163.1962310267113,169.96087342363975,0.7070255314211744,-4.064127642623378,300.24697309970963,35.29243675177891,0.0,1.0,19.030981551394376,9.537247426118569,0.0,Landing
10.600000000000001,-212.0675477293585,-1162.9047759656376,171.70664029455605,0.6219343314998076,-3.7005657200027553,300.65341369997975,35.69376228679124,0.0,1.0,19.030981551394376,9.537247426118569,0.0,Landing
10.700000000000001,-213.98448178867108,-1136.7142072954493,171.6837778335175,0.2939783432548003,-4.065401638920285,300.56305472471536,35.41720668842187,0.0,1.0,19.030981551394376,9.537247426118569,0.0,Landing
10.8,-215.82267916354854,-1147.7267799064975,170.54895972537264,0.7745268545861419,-4.210832269165904,300.6364339974208,35.165925660194716,0.0,1.0,19.030981551394376,9.537247426118569,0.0,Landing
10.9,-217.80618162889098,-1154.6145818092612,171.71452371469957,0.48103932178738895,-3.882972082811891,300.79420146028997,35.33750663027093,0.0,1.0,19.030981551394376,9.537247426118569,0.0,Landing
11.0,-219.75755469771738,-1149.6043568544792,171.0267862513581,0.5910240265044916,-4.066174261375543,300.6184704004346,35.54173213358182,0.0,1.0,19.030981551394376,9.537247426118569,0.0,Landing
11.100000000000001,-221.57070094782094,-1138.0701194463256,169.61444653059945,0.9648466960023021,-3.9789915925066093,300.62368594510895,35.694291036186314,0.0,1.0,19.030981551394376,9.537247426118569,0.0,Landing
11.200000000000001,-223.4965322261226,-1136.6085482062374,168.95310027766163,0.7037940615968094,-3.426595536762501,300.54492004910765,35.230719445918524,0.0,1.0,19.030981551394376,9.537247426118569,0.0,Landing
11.3,-225.44059743874857,-1165.1353123087858,169.09284273999683,0.6938279124597365,-3.5488254513857167,300.3753530091649,35.245350693159786,0.0,1.0,19.030981551394376,9.537247426118569,0.0,Landing
11.4,-227.39637750936487,-1150.796682091027,170.1373308729615,0.6756464294489842,-3.5527263290985127,300.6478000908339,35.4461975645717,0.0,1.0,19.030981551394376,9.537247426118569,0.0,Landing
11.5,-229.25051563657775,-1144.0301478209165,170.5300044152876,0.6490891052960325,-4.123416120105395,300.4496344784435,35.65676656362488,0.0,1.0,19.030981551394376,9.537247426118569,0.0,Landing
11.600000000000001,-231.16074817785315,-1125.155944445305,170.9945630066161,0.6308020005791126,-4.22409109648755,300.3511202170953,35.55065098643109,0.0,1.0,19.030981551394376,9.537247426118569,0.0,Landing
11.700000000000001,-233.0221572315914,-1125.094595872514,170.30393698556395,0.5886766941551032,-4.217006147996738,300.5609845274371,35.42395102433871,0.0,1.0,19.030981551394376,9.537247426118569,0.0,Landing
11.8,-234.87598861594032,-1120.5573480420867,169.69139623647797,0.49853607559490387,-3.929617213297006,300.7830858179784,35.01228962723045,0.0,1.0,19.030981551394376,9.537247426118569,0.0,Landing
11.9,-236.76353491806358,-1107.769383291128,170.97850939678696,0.6823426157340743,-3.751493333023785,300.57816151286625,35.238662884901736,0.0,1.0,19.030981551394376,9.537247426118569,0.0,Landing
12.0,-238.56100414804703,-1118.0084752132018,169.48648188813243,0.8719299843874573,-3.7541571316642988,300.6305080558161,35.058786300860135,0.0,1.0,19.030981551394376,9.537247426118569,0.0,Landing
12.100000000000001,-240.46603099200632,-1121.9444100583132,170.32381967749185,0.5434720955700089,-3.5744329781912536,300.6748761061059,35.606978542992124,0.0,1.0,19.030981551394376,9.537247426118569,0.0,Landing
12.200000000000001,-242.37325696835515,-1137.9735964100234,170.95645181807515,0.40478658812297136,-4.048381833025456,300.55632656747923,35.10469197453358,0.0,1.0,19.030981551394376,9.537247426118569,0.0,Landing
12.3,-244.25087213009715,-1134.0055896264175,168.79994511278716,0.684565539927391,-3.9414016746217695,300.34840042619794,35.23775606903722,0.0,1.0,19.030981551394376,9.537247426118569,0.0,Landing
12.4,-246.1360589401384,-1132.669194656546,169.63409856716012,0.7700676822776801,-4.1537861362594315,300.2832377579449,35.01129757590951,0.0,1.0,19.030981551394376,9.537247426118569,0.0,Landing
12.5,-248.03660294163788,-1161.284696342051,172.59092156704153,0.5080582239541057,-3.8315827165960967,300.5304990354981,34.47244112762723,0.0,1.0,19.030981551394376,9.537247426118569,0.0,Landing
12.600000000000001,-250.0572956118074,-1155.7683253732876,170.45823872200924,0.8165628014043391,-4.018248367554487,300.542568552421,35.53601319981227,0.0,1.0,19.030981551394376,9.537247426118569,0.0,Landing
12.700000000000001,-251.91490056700485,-1140.3217810515912,172.24129932337772,0.6659149962399984,-4.316240142699526,300.52250873870344,35.121673051059716,0.0,1.0,19.030981551394376,9.537247426118569,0.0,Landing
12.8,-253.73821184689584,-1118.083191739646,169.79022075595734,0.5938404792604837,-3.7496877416502987,300.5590256128845,35.37895525040775,0.0,1.0,19.030981551394376,9.537247426118569,0.0,Landing
12.9,-255.64771157050563,-1124.198269477347,172.65249769705784,0.5947348252461386,-4.033981808274891,300.6220176661602,35.55779569359202,0.0,1.0,19.030981551394376,9.537247426118569,0.0,Landing
13.0,-257.5358919143916,-1129.9386201575714,170.75854312639015,0.693402291149527,-4.1227606160672625,300.5920279440222,35.53780344589661,0.0,1.0,19.030981551394376,9.537247426118569,0.0,Landing
13.100000000000001,-259.3879049476837,-1139.8533988190477,170.1365026628011,0.7170441463895345,-4.331226330050494,300.49809624124373,35.44178360146218,0.0,1.0,19.030981551394376,9.537247426118569,0.0,Landing
13.200000000000001,-261.3469785646009,-1125.9962370019482,171.43561856971542,0.6941276872638027,-3.5394263961228107,300.5444740641493,35.50360267770275,0.0,1.0,19.030981551394376,9.537247426118569,0.0,Landing
13.3,-263.1658730994013,-1129.4311413335663,169.495658434883,0.5586897762807681,-3.782886383166859,300.85754482955815,35.34116751694933,0.0,1.0,19.030981551394376,9.537247426118569,0.0,Landing
13.4,-265.0350606543515,-1121.659267208054,171.72829394397306,0.63261668003116,-4.196324237790068,300.65482536383115,34.77137940565524,0.0,1.0,19.030981551394376,9.537247426118569,0.0,Landing
13.5,-266.95527490064114,-1141.6682029644562,172.19508413512335,0.6700444546035186,-4.25750241073032,300.5475216066809,35.592338234585455,0.0,1.0,19.030981551394376,9.537247426118569,0.0,Landing
13.600000000000001,-268.8742141142236,-1142.3324520431606,168.72377142060603,0.6749048963395576,-4.040154220217968,300.55155321820223,35.166360301894045,0.0,1.0,19.030981551394376,9.537247426118569,0.0,Landing
13.700000000000001,-270.74672291456733,-1141.3577181995718,170.9997956482519,0.5952560848769206,-3.850000249430382,300.36785319995874,34.961846871728056,0.0,1.0,19.030981551394376,9.537247426118569,0.0,Landing
13.8,-272.662063491639,-1118.4762494528968,171.05004716986218,1.278851559926334,-4.434507979918112,300.4498890478616,35.08935339909114,0.0,1.0,19.030981551394376,9.537247426118569,0.0,Landing
13.9,-274.4665953614881,-1112.7829279623372,171.32793438544388,0.5172634420486615,-3.7842146781760926,300.68931099641566,35.13907322477322,0.0,1.0,19.030981551394376,9.537247426118569,0.0,Landing
14.0,-276.310637554379,-1083.4224181693005,170.64399534805008,0.9018452224855663,-3.8495753574229012,300.3454830962903,35.27634756288956,0.0,1.0,19.030981551394376,9.537247426118569,0.0,Landing
14.100000000000001,-278.0791755824855,-1108.0021377323985,169.92441210993735,0.4372828527321137,-3.9145371952694417,300.49170522548025,35.72679643660509,0.0,1.0,19.030981551394376,9.537247426118569,0.0,Landing
14.200000000000001,-280.0066060501501,-1113.393553026128,170.57106265305964,0.4357745838451298,-3.779224090279926,300.7619419098435,35.71674956882099,0.0,1.0,19.030981551394376,9.537247426118569,0.0,Landing
14.3,-281.87760531950966,-1148.657829045328,170.8801662099169,0.8789766303752913,-4.141518857994676,300.3606954102718,35.11162998425724,0.0,1.0,19.030981551394376,9.537247426118569,0.0,Landing
14.4,-283.82246472771214,-1142.8036028706174,170.63841666536763,0.621904399938793,-3.7925648651719532,300.4590145896193,34.97790020353564,0.0,1.0,19.030981551394376,9.537247426118569,0.0,Landing
14.5,-285.72062406450317,-1130.131741123603,170.11199792651388,0.7387730848544034,-3.7353428146439964,300.2361390976919,35.53128222863593,0.0,1.0,19.030981551394376,9.537247426118569,0.0,Landing
14.600000000000001,-287.52826402512767,-1115.6901645559967,169.88614262984376,0.7681688640317503,-3.8616122321169337,300.58510451649977,35.30083601811343,0.0,1.0,19.030981551394376,9.537247426118569,0.0,Landing
14.700000000000001,-289.40091555049213,-1116.3160359266956,170.22359734993933,0.8948988090598291,-3.8080499073700844,300.3955877094173,35.11978578699807,0.0,1.0,19.030981551394376,9.537247426118569,0.0,Landing
14.8,-291.30220424413665,-1116.2491899967335,170.59719516093702,0.5011281679541327,-4.058838015838049,300.5134248639422,35.326028903218884,0.0,1.0,19.030981551394376,9.537247426118569,0.0,Landing
14.9,-293.10950997511134,-1113.263017731424,171.11708213967458,0.815929672593505,-4.0589913287534,300.2717403168606,35.305669335180625,0.0,1.0,19.030981551394376,9.537247426118569,0.0,Landing
15.0,-294.96723063914925,-1102.2786042477148,170.57400751355527,0.87883279254398,-4.25933775377301,300.2600670828622,35.33602336380477,0.0,1.0,19.030981551394376,9.537247426118569,0.0,Landing
15.100000000000001,-296.8135972653752,-1102.6085382738413,171.68536887109454,0.4999114531339238,-3.9034576809011523,300.61329922386403,35.01999560504135,0.0,1.0,19.030981551394376,9.537247426118569,0.0,Landing
15.200000000000001,-298.62255266648054,-1094.1345308297741,167.77297649793104,0.6765476672570725,-4.186056876926667,300.5788090092624,35.10246049867238,0.0,1.0,19.030981551394376,9.537247426118569,0.0,Landing
15.3,-300.4379032932981,-1081.138390622357,169.79601266464863,1.0092203100562274,-3.691154972799957,300.1779463619097,35.548792534474664,0.0,1.0,19.030981551394376,9.537247426118569,0.0,Landing
15.4,-302.219289218487,-1088.2357739747138,171.50176981864615,0.8503620191253053,-3.822955168877065,300.1709352596206,35.33641330383681,0.0,1.0,19.030981551394376,9.537247426118569,0.0,Landing
15.5,-304.0637315363541,-1094.486377476858,170.96476771466376,0.728046052975892,-4.277631642425789,300.41317543193884,35.408632748070886,0.0,1.0,19.030981551394376,9.537247426118569,0.0,Landing
15.600000000000001,-305.9103351806824,-1097.753614893918,169.39504503334828,0.7520255201672206,-4.132529532774063,300.48839662824776,35.5474997001891,0.0,1.0,19.030981551394376,9.537247426118569,0.0,Landing
15.700000000000001,-307.7080572929566,-1089.3587538042084,169.4189405850201,0.6923055281183919,-3.838418784040545,300.68616260103374,35.003442195951415,0.0,1.0,19.030981551394376,9.537247426118569,0.0,Landing
15.8,-309.51052530537515,-1088.2416956354857,169.88883590199632,0.8396078653804566,-4.037761011784607,300.28642421712266,35.733313378791465,0.0,1.0,19.030981551394376,9.537247426118569,0.0,Landing
15.9,-311.35154365885984,-1107.0308929396333,171.60354381279976,0.8972037451331752,-4.109052136244275,300.7305697730187,35.379194485456026,0.0,1.0,19.030981551394376,9.537247426118569,0.0,Landing
16.0,-313.24321175765476,-1113.6964692157562,170.42910801704565,1.1611927378797093,-4.307085854529874,300.47879661704803,35.379658436476646,0.0,1.0,19.030981551394376,9.537247426118569,0.0,Landing
16.1,-315.07900765145394,-1116.8356857701156,170.02948657124506,0.49186573340325457,-3.6239080021036427,300.6327209030421,35.482647183190856,0.0,1.0,19.030981551394376,9.537247426118569,0.0,Landing
16.2,-316.9357220877104,-1100.0511264407578,170.8844118765797,0.6506669295628763,-4.1021477234208366,300.44184072121857,35.48618265844241,0.0,1.0,19.030981551394376,9.537247426118569,0.0,Landing
16.3,-318.74346738985855,-1095.0658280643665,171.39183592424936,0.7724129808480337,-3.8848920354787646,300.7609380398703,35.0707758724989,0.0,1.0,19.030981551394376,9.537247426118569,0.0,Landing
16.400000000000002,-320.55433679177577,-1097.2669412505072,171.46151672033454,0.36581436911920706,-3.704166519825686,300.4933142899614,35.293801429819005,0.0,1.0,19.030981551394376,9.537247426118569,0.0,Landing
16.5,-322.42205679396295,-1109.359203386316,171.13791380167794,0.47445332723425754,-3.7947052979605944,300.4581421351479,35.490816737242206,0.0,1.0,19.030981551394376,9.537247426118569,0.0,Landing
16.6,-324.29026340679013,-1108.0645725372617,169.92997291140864,0.7145136692041016,-3.6706047422962107,300.4647505716939,34.84213140521716,0.0,1.0,19.030981551394376,9.537247426118569,0.0,Landing
16.7,-326.0946596544621,-1119.227734177889,170.54045542159076,0.721563650932419,-3.8104856725600076,300.424634428609,35.54727271560138,0.0,1.0,19.030981551394376,9.537247426118569,0.0,Landing
16.8,-328.0181954648524,-1096.6673415695595,170.85101750217362,0.6524521012399582,-3.937659633754311,300.43524913196654,35.32113097357772,0.0,1.0,19.030981551394376,9.537247426118569,0.0,Landing
16.900000000000002,-329.77360011463793,-1109.3123504399273,170.1887823269374,0.5509712507176622,-3.967869094529362,300.63063749179014,34.843528759232726,0.0,1.0,19.030981551394376,9.537247426118569,0.0,Landing
17.0,-331.6412214066617,-1090.6933630384628,171.13619660499447,0.9345667683482521,-3.8096562134188416,300.45626951354313,34.659875609154966,0.0,1.0,19.030981551394376,9.537247426118569,0.0,Landing
17.1,-333.4716622800447,-1102.298911187779,170.2480692096411,0.8004026354840823,-3.851121295693675,300.36050661728837,34.98493090967069,0.0,1.0,19.030981551394376,9.537247426118569,0.0,Landing
17.2,-335.2850946705768,-1117.3744745695558,171.2422405993754,0.525521727547929,-3.5858967313291195,300.53280016845656,35.7825967395909,0.0,1.0,19.030981551394376,9.537247426118569,0.0,Landing
17.3,-337.2280937795095,-1126.0292846712557,168.69566639740398,0.5803281665938604,-4.198087682396819,300.51687472124195,35.18860615307247,0.0,1.0,19.030981551394376,9.537247426118569,0.0,Landing
17.400000000000002,-339.101808703401,-1127.509036441461,170.41296811736404,0.6929425418160966,-3.5450181728857255,300.5365133898954,35.66042505873477,0.0,1.0,19.030981551394376,9.537247426118569,0.0,Landing
17.5,-340.92263985278413,-1114.241204643099,169.98057464107075,0.9371361312367052,-3.7406433835367663,300.5271764969391,35.46681047716044,0.0,1.0,19.030981551394376,9.537247426118569,0.0,Landing
17.6,-342.799299802725,-1108.2849984982092,172.20287339770562,1.1040169995386175,-4.069622014547458,300.56340882063137,34.974281261012464,0.0,1.0,19.030981551394376,9.537247426118569,0.0,Landing
17.7,-344.64323369589204,-1120.8660551329103,169.31410622820522,0.842844976786167,-4.090715101261468,300.5466279548507,35.66026292320017,0.0,1.0,19.030981551394376,9.537247426118569,0.0,Landing
17.8,-346.5269701284487,-1102.9067583196138,171.3615510237843,0.42011954485132535,-4.079256091551828,300.61072159638206,34.63666497926151,0.0,1.0,19.030981551394376,9.537247426118569,0.0,Landing
17.900000000000002,-348.31383359432306,-1105.7859298087462,171.12975356221864,1.0865304370525075,-4.040881925681384,300.3986996385215,35.73831139417749,0.0,1.0,19.030981551394376,9.537247426118569,0.0,Landing
18.0,-350.17216334493577,-1087.7963831118566,168.8922970857147,0.6637967059049883,-3.848425919448049,300.3381834017795,35.535926212306016,0.0,1.0,19.030981551394376,9.537247426118569,0.0,Landing
18.1,-351.96595204400796,-1104.0540713966038,169.8732131816253,0.8478687815859413,-3.7564988956641843,300.7806384212887,35.83781873223975,0.0,1.0,19.030981551394376,9.537247426118569,0.0,Landing
18.2,-353.8341039513061,-1081.5221361840713,168.86829166860036,0.8469560172939549,-4.079210642246231,300.5581214341098,34.986913428525376,0.0,1.0,19.030981551394376,9.537247426118569,0.0,Landing
18.3,-355.5797740258561,-1092.8905094312995,169.7335087759813,0.7964836105240123,-3.902941468707882,300.41156238984127,35.51177269692828,0.0,1.0,19.030981551394376,9.537247426118569,0.0,Landing
18.400000000000002,-357.43040459116446,-1081.342970303308,171.02287061108498,0.8508684326412184,-3.8877777758615357,300.27938069504194,35.24146802271741,0.0,1.0,19.030981551394376,9.537247426118569,0.0,Landing
18.5,-359.2408188028226,-1091.354766905704,168.6344298903956,0.5753377066400378,-3.633566682436614,300.56574274358195,35.339005570608094,0.0,1.0,19.030981551394376,9.537247426118569,0.0,Landing
18.6,-361.03654786038464,-1080.4667334081842,170.40987748194053,0.7626968643676728,-3.5575223900694994,300.7530848945323,34.88225296721118,0.0,1.0,19.030981551394376,9.537247426118569,0.0,Landing
18.7,-362.8327382582054,-1066.1041844914052,168.28905389562098,0.43731232532802256,-3.798651934335583,300.3315565928731,35.14245656333652,0.0,1.0,19.030981551394376,9.537247426118569,0.0,Landing
18.8,-364.57133972527964,-1065.980771341253,171.60316943777323,0.6196975589164936,-4.00579495032606,300.64828469872907,35.55140612596666,0.0,1.0,19.030981551394376,9.537247426118569,0.0,Landing
18.900000000000002,-366.3664517170909,-1055.459409792263,168.7871477115276,0.6387406985811307,-4.121969291803284,300.38146317482597,35.30067773066085,0.0,1.0,19.030981551394376,9.537247426118569,0.0,Landing
19.0,-368.1100353071667,-1054.9029936460217,170.4028999626122,0.6396487144257541,-3.4597016869806363,300.4047926024591,35.19988082595396,0.0,1.0,19.030981551394376,9.537247426118569,0.0,Landing
19.1,-369.84585469350975,-1058.1699394522618,169.50820836865518,0.5130278981292972,-3.8222066390151124,300.7552720411061,35.88314078235245,0.0,1.0,19.030981551394376,9.537247426118569,0.0,Landing
19.200000000000003,-371.6573014143522,-1066.5865065479127,170.61312331357414,0.7695539934630609,-3.8573392367341515,300.42846799832205,34.92569242379949,0.0,1.0,19.030981551394376,9.537247426118569,0.0,Landing
19.3,-373.44296783990626,-1088.8223668628825,169.91965625968933,0.6188768612661537,-4.1013772938766495,300.79733462137176,35.632596353588006,0.0,1.0,19.030981551394376,9.537247426118569,0.0,Landing
19.400000000000002,-375.28996652782416,-1093.807817928666,170.7609568268957,0.19350158309859067,-3.8540550036389982,300.3665275296037,35.12373545926367,0.0,1.0,19.030981551394376,9.537247426118569,0.0,Landing
19.5,-377.12634050399555,-1099.8892975772035,171.05706920456922,0.18310756923690374,-4.0111401200591805,300.51255874486264,35.42511330724074,0.0,1.0,19.030981551394376,9.537247426118569,0.0,Landing
19.6,-378.9424143277923,-1091.341882243739,168.45136837938168,0.47842942092855945,-4.180958521278338,300.6151910725939,35.2747565641506,0.0,1.0,19.030981551394376,9.537247426118569,0.0,Landing
19.700000000000003,-380.74667593904286,-1082.892796495196,169.57723508417104,0.4268269995442737,-4.261268786762812,300.475972214032,35.779780195752934,0.0,1.0,19.030981551394376,9.537247426118569,0.0,Landing
19.8,-382.54080448647153,-1069.6379910252062,171.0809466390383,0.8848257199555238,-3.9180604119662767,300.3447069887793,35.569676652824356,0.0,1.0,19.030981551394376,9.537247426118569,0.0,Landing
19.900000000000002,-384.2906042829183,-1058.8559650662207,171.51768569014453,1.0800873379187061,-3.8109632362734347,300.7269840894726,35.49486166952855,0.0,1.0,19.030981551394376,9.537247426118569,0.0,Landing
20.0,-386.04095576437396,-1044.8940893290228,170.15322265074923,0.5180433159381286,-3.8656660039026236,300.6441232838911,35.66317650762605,0.0,1.0,19.030981551394376,9.537247426118569,0.0,Landing
20.1,-387.76527493311664,-1049.1809848400862,172.2955497437391,0.9807929712367119,-3.9374433148215804,300.6041465246061,35.63597532101085,0.0,1.0,19.030981551394376,9.537247426118569,0.0,Landing
20.200000000000003,-389.53650920711874,-1057.0657829351376,169.47859445605206,0.8040984681379229,-3.8767567858599654,300.50436714521334,35.28841516112,0.0,1.0,19.030981551394376,9.537247426118569,0.0,Landing
20.3,-391.32628467904965,-1071.194073801007,170.60416366731633,0.6408735919557943,-3.961204349726102,300.4340744906922,35.55413247986604,0.0,1.0,19.030981551394376,9.537247426118569,0.0,Landing
20.400000000000002,-393.1212453021217,-1074.0596862984603,170.66863654193048,0.5255573787360356,-4.074948039656872,300.50317993833926,34.9008684060576,0.0,1.0,19.030981551394376,9.537247426118569,0.0,Landing
20.5,-394.90680763861104,-1059.8827785072672,171.164762712538,0.8094365440519633,-3.600020194239037,300.1723985180712,35.32135255188486,0.0,1.0,19.030981551394376,9.537247426118569,0.0,Landing
20.6,-396.625698571586,-1061.7067200230051,172.1094529700299,1.096265161160876,-4.072281889635106,300.4914897365652,35.34799661082109,0.0,1.0,19.030981551394376,9.537247426118569,0.0,Landing
20.700000000000003,-398.4297789022367,-1051.2516405330077,170.6411601029793,0.9845831331122505,-3.594524314569907,300.4569404173983,35.511612927375474,0.0,1.0,19.030981551394376,9.537247426118569,0.0,Landing
20.8,-400.1630658412761,-1087.6432598376025,170.05476019042501,0.5309366071299256,-3.963797617101105,300.6117298414531,35.52023394370871,0.0,1.0,19.030981551394376,9.537247426118569,0.0,Landing
20.900000000000002,-402.063914870774,-1075.9991887372962,170.19346955083063,0.7338782943743656,-3.7377984385942558,300.6926490439914,35.42999640689453,0.0,1.0,19.030981551394376,9.537247426118569,0.0,Landing
21.0,-403.8097748459232,-1100.2711823405434,172.17260124948504,0.44947003218307635,-3.70489296999475,300.58321754079,35.45459282725059,0.0,1.0,19.030981551394376,9.537247426118569,0.0,Landing
21.1,-405.6644217529788,-1061.379413466523,170.89024597694635,0.44721524582792793,-3.7228663115963285,300.26416460197356,35.33250192722582,0.0,1.0,19.030981551394376,9.537247426118569,0.0,Landing
21.200000000000003,-407.3708119381066,-1073.8272470145603,169.09121861742491,0.5964335201653261,-4.231806609424743,300.59353624412665,35.564093109320616,0.0,1.0,19.030981551394376,9.537247426118569,0.0,Landing
21.3,-409.178911080996,-1059.9143708441827,168.25504132004755,0.5101058089938071,-4.053813613562277,300.5589771833038,35.29634501198806,0.0,1.0,19.030981551394376,9.537247426118569,0.0,Landing
21.400000000000002,-410.9639936071997,-1067.841782481298,171.4147655707314,0.6101734145577347,-3.966204682269074,300.4434904125675,35.36570058685559,0.0,1.0,19.030981551394376,9.537247426118569,0.0,Landing
21.5,-412.7100208505131,-1041.8990296379095,170.85509647497588,0.5406033226289044,-3.964621463878928,300.69334820761344,35.81775076493946,0.0,1.0,19.030981551394376,9.537247426118569,0.0,Landing
21.6,-414.38840622918553,-1030.9624325836012,170.22061889847583,0.7591527159206621,-4.316479010848061,300.57419279086616,35.757813850356825,0.0,1.0,19.030981551394376,9.537247426118569,0.0,Landing
21.700000000000003,-416.1188057701177,-1041.2056039502545,169.42627811465644,0.40660047131130816,-3.901428808402003,300.636428414585,35.551597427422124,0.0,1.0,19.030981551394376,9.537247426118569,0.0,Landing
21.8,-417.9160488702644,-1061.4671182068832,170.72140961636907,0.22124310664059643,-3.6794067567462947,300.4740753372888,35.46879189723345,0.0,1.0,19.030981551394376,9.537247426118569,0.0,Landing
21.900000000000002,-419.69574182021995,-1068.263452586359,170.6401236687242,0.5461126265549779,-4.2669111191155835,300.65728778263156,35.044811077365445,0.0,1.0,19.030981551394376,9.537247426118569,0.0,Landing
22.0,-421.4601230330495,-1043.117081189041,171.0099892434149,0.7288456776159875,-3.9958229849952014,300.44144540868217,35.43327046276622,0.0,1.0,19.030981551394376,9.537247426118569,0.0,Landing
22.1,-423.1316342762096,-1022.309799517086,169.5578151593817,0.7230917789183808,-4.049427313998265,300.5713608958613,35.122790970366786,0.0,1.0,19.030981551394376,9.537247426118569,0.0,Landing
22.200000000000003,-424.8072908178054,-1022.7780147599333,169.62369904005868,0.6825714020952623,-3.949047995361632,300.34223377619185,35.0441900207764,0.0,1.0,19.030981551394376,9.537247426118569,0.0,Landing
22.3,-426.5740131068492,-1049.9110189436465,170.50182182952224,0.8499245510558522,-3.8517650428918233,300.450530436049,35.329098438332856,0.0,1.0,19.030981551394376,9.537247426118569,0.0,Landing
22.400000000000002,-428.3811893709278,-1073.8563693460037,171.0553871817039,0.5954072393128141,-4.116579519888141,300.35844232540285,35.65503121305398,0.0,1.0,19.030981551394376,9.537247426118569,0.0,Landing
22.5,-430.1765726645354,-1061.3209214810126,169.0213975947555,0.4984419165896248,-4.006827068829351,300.5029138655641,35.317912958343726,0.0,1.0,19.030981551394376,9.537247426118569,0.0,Landing
22.6,-431.88061771425424,-1055.3931959578563,169.70827563210483,0.8068466500590898,-3.8648354628107078,300.31802274577694,35.52457487880274,0.0,1.0,19.030981551394376,9.537247426118569,0.0,Landing
22.700000000000003,-433.6581553507171,-1064.332809887253,169.86683147415238,0.9411496794678167,-3.8463949116023017,300.58251796672164,35.844668859066985,0.0,1.0,19.030981551394376,9.537247426118569,0.0,Landing
22.8,-435.49823671397166,-1070.354446071292,169.3125537278813,0.8499371877863147,-3.934824696688711,300.5594394225915,35.530740953446006,0.0,1.0,19.030981551394376,9.537247426118569,0.0,Landing
22.900000000000002,-437.2323899446107,-1076.5025343344973,170.15380806418034,0.626864997114685,-4.009291595679289,300.45776711002554,35.40403806650295,0.0,1.0,19.030981551394376,9.537247426118569,0.0,Landing
23.0,-439.0406680223896,-1052.0286704227942,168.59408654851006,0.7869171088026239,-3.7165537677789815,300.39573340771744,35.42154650693783,0.0,1.0,19.030981551394376,9.537247426118569,0.0,Landing
23.1,-440.75838006608564,-1046.502128622717,173.3863035229388,0.8874701211209282,-4.1221242921144,300.5097581262298,35.39698255146527,0.0,1.0,19.030981551394376,9.537247426118569,0.0,Landing
23.200000000000003,-442.4649005877243,-1037.1583699159373,171.9963391586279,0.6990014751314997,-3.7702104772388423,300.7342791504809,35.23718434764671,0.0,1.0,19.030981551394376,9.537247426118569,0.0,Landing
23.3,-444.22645987196927,-1040.5733289009618,170.3919544607605,0.9929778717974134,-3.9994192264823267,300.78185687186647,35.32622788611678,0.0,1.0,19.030981551394376,9.537247426118569,0.0,Landing
23.400000000000002,-445.96124671059044,-1046.501842567045,171.22741623503362,0.876008371953604,-4.094092154697975,300.59966872930977,35.68946091380665,0.0,1.0,19.030981551394376,9.537247426118569,0.0,Landing
23.5,-447.6974098005595,-1038.5747333651352,171.14884825135934,0.559833548248392,-3.856087271055204,300.6613085002723,35.4497490181729,0.0,1.0,19.030981551394376,9.537247426118569,0.0,Landing
23.6,-449.41933353879494,-1040.4497898364525,170.4797094202749,0.6171928059259679,-3.842114138157119,300.541411220132,35.43048502148607,0.0,1.0,19.030981551394376,9.537247426118569,0.0,Landing
23.700000000000003,-451.1634956597727,-1036.398992587931,170.8007974052411,0.7090977401157492,-3.95408822161451,300.5239711410819,34.910504002009155,0.0,1.0,19.030981551394376,9.537247426118569,0.0,Landing
23.8,-452.87940476349917,-1048.5613901262923,171.40322898482884,0.08557360195873354,-3.608538478092071,300.6718503523525,35.20142426998908,0.0,1.0,19.030981551394376,9.537247426118569,0.0,Landing
23.900000000000002,-454.6621404894264,-1034.203565501889,169.00004909640174,0.31874627854827264,-3.7956525027053667,300.51242914205307,35.082233816433124,0.0,1.0,19.030981551394376,9.537247426118569,0.0,Landing
24.0,-456.33451348728215,-1041.4465021934916,170.44926091681103,0.5985249378890334,-3.821259673711477,300.4165289618634,35.32226663370326,0.0,1.0,19.030981551394376,9.537247426118569,0.0,Landing
24.1,-458.0866372744666,-1022.658719720755,172.42177831072146,0.9288985496371749,-3.793413636210262,300.50504794740505,35.33058483765337,0.0,1.0,19.030981551394376,9.537247426118569,0.0,Landing
24.200000000000003,-459.7754340880302,-1037.323632678897,168.95817223613892,0.8204426132327425,-3.7564522472082666,300.8910637640265,35.33796629373944,0.0,1.0,19.030981551394376,9.537247426118569,0.0,Landing
24.3,-461.52113165067664,-1022.6635541116252,169.45925277092485,0.5878016861242272,-4.138774505724525,300.29274349334446,35.00251747478126,0.0,1.0,19.030981551394376,9.537247426118569,0.0,Landing
24.400000000000002,-463.19995504502475,-1039.5354924091748,170.67402576524697,0.5520127476254366,-3.5384195071684865,300.4364915990287,35.12229322165843,0.0,1.0,19.030981551394376,9.537247426118569,0.0,Landing
24.5,-464.97311155007606,-1035.8079983095195,172.6626677853151,0.348769130823517,-3.9914298168024462,300.43617424649665,35.43667737887771,0.0,1.0,19.030981551394376,9.537247426118569,0.0,Landing
24.6,-466.70017164222423,-1049.770185208638,169.61842745471816,0.7231311293325193,-3.9582929688389346,300.3481410321209,35.16244114685179,0.0,1.0,19.030981551394376,9.537247426118569,0.0,Landing
24.700000000000003,-468.44880597106794,-1040.660479666269,169.29931360643457,0.7453750428839263,-4.251201051039102,300.47396919575044,35.82539724990729,0.0,1.0,19.030981551394376,9.537247426118569,0.0,Landing
24.8,-470.1764139484074,-1054.6149527612215,169.80228530385438,0.5594158694124163,-4.08429804707151,300.57036849095323,35.75030852785655,0.0,1.0,19.030981551394376,9.537247426118569,0.0,Landing
24.900000000000002,-471.97324640603034,-1040.6933002671508,170.1385712202102,0.6524221530891078,-4.389912393468064,300.3936968920052,35.05022725128027,0.0,1.0,19.030981551394376,9.537247426118569,0.0,Landing
25.0,-473.6522724724037,-1040.1086886689313,170.16731968694555,0.5132104558290909,-3.792688233177183,300.3502536219994,35.25683105934235,0.0,1.0,19.030981551394376,9.537247426118569,0.0,Landing
25.1,-475.37695739175206,-1036.9718217955324,171.19550811028353,0.5740938394154274,-3.79330530707489,300.42933295511193,35.30587289862244,0.0,1.0,19.030981551394376,9.537247426118569,0.0,Landing
25.200000000000003,-477.158105515008,-1038.3022754892636,171.65819231152946,0.9648177518238383,-3.9898513260759616,300.64781377402903,35.28375484414338,0.0,1.0,19.030981551394376,9.537247426118569,0.0,Landing
25.3,-478.84378384985,-1046.0180184081423,171.04938091055797,1.0414714928464308,-3.9416516292158574,300.3629523830216,35.21305584470357,0.0,1.0,19.030981551394376,9.537247426118569,0.0,Landing
25.400000000000002,-480.60704748379277,-1021.0758386627276,171.58736701938113,0.8364710641848587,-4.040348584422806,300.4490555886406,35.64897153954946,0.0,1.0,19.030981551394376,9.537247426118569,0.0,Landing
25.5,-482.26348470832164,-1010.2091033599891,172.0063447108694,0.3896161856643919,-3.8363560130211907,300.30816219024985,34.86432096397507,0.0,1.0,19.030981551394376,9.537247426118569,0.0,Landing
25.6,-483.89482936664996,-1006.7840889831359,171.766154560635,0.47759365498119577,-4.310812684799986,300.485398816782,35.55894579436223,0.0,1.0,19.030981551394376,9.537247426118569,0.0,Landing
25.700000000000003,-485.64096792870845,-1019.0305766510846,169.8688077831123,0.6689958688048963,-3.9927764263172816,300.68641698082047,35.66488437915205,0.0,1.0,19.030981551394376,9.537247426118569,0.0,Landing
25.8,-487.35863759157706,-1019.6443640258508,170.53086265343276,1.3430430529058333,-4.172312783066486,300.5390109471741,34.99827766909319,0.0,1.0,19.030981551394376,9.537247426118569,0.0,Landing
25.900000000000002,-488.9930511867792,-1010.0404859667606,170.8063613501989,0.6965152781607491,-3.867316102288853,300.59322446613294,35.3074497662979,0.0,1.0,19.030981551394376,9.537247426118569,0.0,Landing
26.0,-490.69117035854225,-1026.6336378889378,170.9869149432206,0.6188224933179586,-3.965271640333339,300.51007774891275,35.5124738151119,0.0,1.0,19.030981551394376,9.537247426118569,0.0,Landing
26.1,-492.49180578102175,-1044.9529747698534,171.72238032770986,0.9668408333154634,-4.059008899685251,300.38181506886906,35.45638889110564,0.0,1.0,19.030981551394376,9.537247426118569,0.0,Landing
26.200000000000003,-494.2178160606285,-1063.61075572579,169.84751933899307,0.7242612499859744,-3.902419180460063,300.3710344248432,35.09490581654431,0.0,1.0,19.030981551394376,9.537247426118569,0.0,Landing
26.3,-496.0092241371712,-1039.7982059431342,170.90069608674472,0.6575499319315021,-4.262197910271166,300.38235441732263,34.88689238807622,0.0,1.0,19.030981551394376,9.537247426118569,0.0,Landing
26.400000000000002,-497.6907968107374,-1036.839762054808,169.96954157442934,0.8309820399727547,-3.9801569851370107,300.63902670128505,35.67610285576641,0.0,1.0,19.030981551394376,9.537247426118569,0.0,Landing
26.5,-499.4020148709025,-1008.3123527703492,170.3617858492405,0.4867513260682892,-3.8589415075326734,300.3497300213402,35.41503350301464,0.0,1.0,19.030981551394376,9.537247426118569,0.0,Landing
26.6,-501.05078590102295,-1007.1964815091178,170.80870801750186,0.4632459157938996,-4.179940449707023,300.38853536115107,35.5923984220737,0.0,1.0,19.030981551394376,9.537247426118569,0.0,Landing
26.700000000000003,-502.726779218283,-995.6187033891297,170.7298201297075,0.8516294501745667,-4.205776532991244,300.628090961902,35.43788811937179,0.0,1.0,19.030981551394376,9.537247426118569,0.0,Landing
26.8,-504.38010838784817,-1023.2424643216973,171.18051631431084,0.6683105152826311,-3.8782347571315037,300.49969801956365,35.34011914251796,0.0,1.0,19.030981551394376,9.537247426118569,0.0,Landing
26.900000000000002,-506.16699822263143,-1038.7188523074656,170.28086139849134,0.6407225213581211,-3.8296612690586764,300.2819049505679,35.7007067998891,0.0,1.0,19.030981551394376,9.537247426118569,0.0,Landing
27.0,-507.92037347982034,-1059.341119294993,170.71779104076091,0.67438390262859,-3.8083620304880785,300.60097704499117,35.27125360074393,0.0,1.0,19.030981551394376,9.537247426118569,0.0,Landing
27.1,-509.67681398432313,-1038.6476145087386,173.15380696386478,0.5541408808481691,-3.9966440715083253,300.76360795797837,35.36456680545188,0.0,1.0,19.030981551394376,9.537247426118569,0.0,Landing
27.200000000000003,-511.3602362951751,-1028.27716118652,171.06193761864358,0.3135289762044491,-4.179316537002595,300.2090407654764,35.24180058147611,0.0,1.0,19.030981551394376,9.537247426118569,0.0,Landing
27.3,-513.0617592857529,-1015.2629859364538,170.14479028184593,0.7986646408508543,-3.8323748120966576,300.5901694441485,34.85387153038491,0.0,1.0,19.030981551394376,9.537247426118569,0.0,Landing
27.400000000000002,-514.7531289140054,-1021.7503021508492,170.79312428836104,0.9238245660384447,-3.7094823947848696,300.604447428248,35.413963015084086,0.0,1.0,19.030981551394376,9.537247426118569,0.0,Landing
27.5,-516.4689878059294,-1012.2568769314512,169.27085214724573,0.6304683900887078,-3.86039888962266,300.7173796381569,35.37519997081975,0.0,1.0,19.030981551394376,9.537247426118569,0.0,Landing
27.6,-518.1230436704102,-1023.2984405683283,170.11948124599817,0.6726042664433239,-3.66585419948145,300.45467855067284,35.28062219321475,0.0,1.0,19.030981551394376,9.537247426118569,0.0,Landing
27.700000000000003,-519.869621116847,-1024.8254107578532,171.52726799969673,0.6888643478395582,-4.015745269565258,300.2004867403425,35.82753318934265,0.0,1.0,19.030981551394376,9.537247426118569,0.0,Landing
27.8,-521.5931148597186,-1030.4533466230623,171.22327983263983,0.8896685937718488,-4.110634225984599,300.59574585693076,35.50553945566755,0.0,1.0,19.030981551394376,9.537247426118569,0.0,Landing
27.900000000000002,-523.2753104035255,-1018.191274620267,171.07012893140305,0.6492940546234877,-3.8661719127088077,300.64962611695785,35.18337233834742,0.0,1.0,19.030981551394376,9.537247426118569,0.0,Landing
28.0,-524.9605774899484,-1019.9311832100648,170.2744754874525,1.0596788826091352,-3.876766472528212,300.5190208827489,35.511827899809994,0.0,1.0,19.030981551394376,9.537247426118569,0.0,Landing
28.1,-526.692770775769,-1026.5108781964727,172.31402867899476,0.37990571569480236,-4.025334538040477,300.5766943036888,34.914041576145586,0.0,1.0,19.030981551394376,9.537247426118569,0.0,Landing
28.200000000000003,-528.4078647945079,-1032.7559086254496,168.3677409183875,0.8330476665046888,-3.8732661861855466,300.560039992817,35.169172036327474,0.0,1.0,19.030981551394376,9.537247426118569,0.0,Landing
28.3,-530.1243570330756,-1012.0022627727849,169.1580928357806,0.4790525832934598,-3.8470506430342315,300.7548059250264,35.09351373039612,0.0,1.0,19.030981551394376,9.537247426118569,0.0,Landing
28.400000000000002,-531.7527820896329,-1000.2826789664368,171.29138302206815,0.8393981464428396,-4.022530446723662,300.46141026399266,35.34698772674661,0.0,1.0,19.030981551394376,9.537247426118569,0.0,Landing
28.5,-533.4092781893401,-996.0338214249077,169.38817622461346,0.6235595232195625,-4.057291857754335,300.5451311256335,35.12730439385224,0.0,1.0,19.030981551394376,9.537247426118569,0.0,Landing
28.6,-535.1045261402002,-1004.4780793296695,170.1450021434424,0.660452038150481,-4.046890288085459,300.62425248949626,35.25435558988759,0.0,1.0,19.030981551394376,9.537247426118569,0.0,Landing
28.700000000000003,-536.7751724862812,-1008.0439048222615,170.45447320610518,0.6182956883471025,-3.7391025380806777,300.32811897363445,35.70154061162064,0.0,1.0,19.030981551394376,9.537247426118569,0.0,Landing
28.8,-538.4494977134514,-995.3946866277647,171.92311028472994,0.5999425714707854,-4.069472688632033,300.71517794350154,34.59012873080456,0.0,1.0,19.030981551394376,9.537247426118569,0.0,Landing
28.900000000000002,-540.081499573339,-975.0855157817568,169.21304558184318,0.5482869862733208,-3.681985689160896,300.9749306720478,34.52869114517026,0.0,1.0,19.030981551394376,9.537247426118569,0.0,Landing
29.0,-541.65060006519,-979.285872010837,171.32610216837975,0.40967369967535366,-3.8935746145881818,300.4140598885299,35.05920111445541,0.0,1.0,19.030981551394376,9.537247426118569,0.0,Landing
29.1,-543.3459270735055,-988.1776145715094,170.76899770804368,0.21097905486876806,-3.831005409070951,300.2927628015027,35.13177722258334,0.0,1.0,19.030981551394376,9.537247426118569,0.0,Landing
29.200000000000003,-545.0223876461965,-991.9963580460944,172.1053268187719,0.4765168408427611,-4.32565480208958,300.48583732037355,35.30200608214179,0.0,1.0,19.030981551394376,9.537247426118569,0.0,Landing
29.3,-546.6105818554205,-995.3212250325805,171.447698175807,0.48031700096440866,-4.294554516699309,300.56987006702127,35.078820189084425,0.0,1.0,19.030981551394376,9.537247426118569,0.0,Landing
29.400000000000002,-548.3225331986685,-1001.3631533147645,170.65622365031487,0.6544968451970793,-3.6783635355903517,300.2336179022925,35.10760966160709,0.0,1.0,19.030981551394376,9.537247426118569,0.0,Landing
29.5,-550.0292034127704,-1012.3549343560398,171.40026802443433,0.7598940154588683,-3.9250814031965113,300.571873526889,35.68535818603902,0.0,1.0,19.030981551394376,9.537247426118569,0.0,Landing
29.6,-551.6723565272007,-1024.9442450200831,169.9406648108576,0.7668718010102121,-3.8789829007410854,300.39298230352824,35.670224457513484,0.0,1.0,19.030981551394376,9.537247426118569,0.0,Landing
29.700000000000003,-553.4472544237689,-1029.0387996304844,171.46776494326528,0.6649001599277413,-3.796240868128823,300.3990473523065,35.69800204929631,0.0,1.0,19.030981551394376,9.537247426118569,0.0,Landing
29.8,-555.1743974109228,-1038.1281273337208,169.75657631655264,0.5456302551771338,-3.884878611301973,300.5200025725924,35.45566541856269,0.0,1.0,19.030981551394376,9.537247426118569,0.0,Landing
