time_s,altitude_ft,vertical_speed_fpm,ias_kt,pitch_deg,roll_deg,heading_deg,throttle_pct,afterburner_on,gear_down,flaps_deg,speedbrake_pct,weight_on_wheels,label
0.0,-0.04047331018232576,36.49063484255353,11.251678369052378,0.6588499211743929,0.5789381704682056,300.3474277716009,12.032042131221322,0.0,1.0,0.0,0.0,1.0,Taxi
0.1,0.08116213929285268,8.793394338125358,11.48541499352993,0.8071637331846523,-0.1362004600229895,300.2180919202058,12.33333950272269,0.0,1.0,0.0,0.0,1.0,Taxi
0.2,0.003493661508301027,18.587460280333975,9.836744677763274,0.9917421427025517,-0.39269342535838236,300.3131908886319,12.608058654575116,0.0,1.0,0.0,0.0,1.0,Taxi
0.30000000000000004,0.052463991219344114,-57.3118416793861,11.022670187291286,0.767516873134097,0.8744393035628732,300.2450437183859,12.260284148824775,0.0,1.0,0.0,0.0,1.0,Taxi
0.4,-0.20539706910407782,-29.10863052281554,10.668921944198585,0.879542799734678,-0.027743695759669788,300.4651261363706,11.242238754520898,0.0,1.0,0.0,0.0,1.0,Taxi
0.5,-0.14204949110577664,-57.85219179178167,9.986939577148426,1.2293068838829155,-0.8704047018871895,300.3140042774669,13.072411260462712,0.0,1.0,0.0,0.0,1.0,Taxi
0.6000000000000001,-0.23679696773956418,78.98449188393728,9.643483372711279,0.6514383508263648,0.31074284780945444,300.38899486791,11.922931391141477,0.0,1.0,0.0,0.0,1.0,Taxi
0.7000000000000001,0.1895253903156086,47.68429912985443,11.278769786557216,0.7751362123767784,-0.11176529351579861,300.24895436889096,12.274342656854415,0.0,1.0,0.0,0.0,1.0,Taxi
0.8,0.09637200454349554,62.00761942236803,10.008587652058713,0.8312729859087008,0.6021070137842317,300.44112260774466,12.375018865604297,0.0,1.0,0.0,0.0,1.0,Taxi
0.9,0.0732411293722759,1.5415860852063663,11.133373846639952,0.8790262553164562,-1.0071721117682413,300.22103403168035,11.48951522965675,0.0,1.0,0.0,0.0,1.0,Taxi
1.0,0.1972333207416405,-18.472292810286678,12.027125447243817,1.1740823485606056,0.4233350977884672,300.52658292349065,12.415598695608669,0.0,1.0,0.0,0.0,1.0,Taxi
1.1,0.004010540492062216,-56.51629675835758,11.547166922701097,0.7079666158373191,-0.37089814660226333,300.4053091118574,12.527137078255187,0.0,1.0,0.0,0.0,1.0,Taxi
1.2000000000000002,-0.20934035441951193,-92.81819804909092,10.486983489072935,0.657220009894432,-0.15085185542011656,300.25241079147736,11.364795581599084,0.0,1.0,0.0,0.0,1.0,Taxi
1.3,-0.266857669503814,26.62229447889619,10.964580762208989,0.792933910194392,0.07711306067662899,300.27724582228325,11.69881761253215,0.0,1.0,0.0,0.0,1.0,Taxi
1.4000000000000001,0.13712201288654316,59.8588539825817,11.41969486740806,0.8739513443864899,0.4787920493804344,300.32204396287807,12.32525141669858,0.0,1.0,0.0,0.0,1.0,Taxi
1.5,0.0899539154933966,60.18280543791445,10.87675479342288,0.951525870813094,0.10259477361125457,300.27702260208616,11.996303080233826,0.0,1.0,0.0,0.0,1.0,Taxi
1.6,0.034056357685758314,-18.312843186014245,10.851697035108193,1.1367828002592821,-0.18842788655216397,300.3693365593135,12.12667385563205,0.0,1.0,0.0,0.0,1.0,Taxi
1.7000000000000002,0.045557796956472024,-12.280142973412252,9.85937210664693,0.9796618006368248,-0.37720024754094555,300.19595105341364,12.19575313414967,0.0,1.0,0.0,0.0,1.0,Taxi
1.8,0.028553200626335436,-14.123162156452073,9.44784675622657,0.9018196610720033,-0.19111489782287353,300.23410906291383,11.713723902749981,0.0,1.0,0.0,0.0,1.0,Taxi
1.9000000000000001,-0.036559453096501965,-33.416102741171706,10.70416377869064,0.7032534276718393,-0.7125526647403353,300.2635348551903,12.134957817203059,0.0,1.0,0.0,0.0,1.0,Taxi
2.0,-0.12152271674938644,6.320626485277084,10.319848008793043,0.7324193614122464,0.41337625640007214,300.2535473647108,11.895094661562943,0.0,1.0,0.0,0.0,1.0,Taxi
2.1,0.0601563330527209,-10.71941034193216,10.386622881254977,0.6653026600174086,-0.8370199956138225,300.2533118014379,11.88661953830706,0.0,1.0,0.0,0.0,1.0,Taxi
2.2,-0.09015650480616272,57.176430970581016,11.148277962194376,0.9238983741513584,-1.4388794865987964,300.3452963617269,12.343215634453612,0.0,1.0,0.0,0.0,1.0,Taxi
2.3000000000000003,0.16435943810351863,-7.282057677489912,10.093457958960649,0.5173843000914066,-0.4105201485112724,300.3533598957622,11.745741665504154,0.0,1.0,0.0,0.0,1.0,Taxi
2.4000000000000004,0.023746044665271335,-6.426474980410437,10.045560082228455,1.0137860957206264,-0.21160654000738957,300.3381664306387,12.50422022413964,0.0,1.0,0.0,0.0,1.0,Taxi
2.5,-0.12228887970821489,-48.00208139787773,10.187627377851435,0.5469175917261739,-0.5834211200704721,300.2060309507799,11.79779729581924,0.0,1.0,0.0,0.0,1.0,Taxi
2.6,-0.07565096888586996,-24.297544674771046,10.669082147355702,0.7917796676920733,-0.10772074087646134,300.1004933547781,11.810212915244026,0.0,1.0,0.0,0.0,1.0,Taxi
2.7,-0.09774167870858384,26.369325071964862,9.523748491576619,0.7816418505802077,0.417573363284462,300.22342276658264,11.792682049349999,0.0,1.0,0.0,0.0,1.0,Taxi
2.8000000000000003,0.009557745651609467,1.9637613204251754,10.182803431404523,0.7160694391113989,-0.4656488691518539,300.1748366493464,11.377427552330264,0.0,1.0,0.0,0.0,1.0,Taxi
2.9000000000000004,-0.06583216228374403,51.6127778331099,10.743431393729022,0.8320266512548344,-0.9979974605246176,300.2042811088759,11.758749224845577,0.0,1.0,0.0,0.0,1.0,Taxi
3.0,0.1603222104569657,-8.665203426177584,10.908204397436187,0.580524264946027,0.3193175922896968,300.16682498600665,11.621455599165996,0.0,1.0,0.0,0.0,1.0,Taxi
3.1,-0.03376827147927842,16.216914102550277,11.249276760882092,1.0927071213785888,-0.6836366649772333,300.28913604568595,11.740873018697854,0.0,1.0,0.0,0.0,1.0,Taxi
3.2,0.015252408229007378,-31.329888732986465,9.910050611703397,0.6693124764792606,0.14366765969202003,300.15322969055205,11.136867245281735,0.0,1.0,0.0,0.0,1.0,Taxi
3.3000000000000003,0.003672766792033419,11.294456106360345,11.489829886038656,0.4949865354074852,0.3309405593848947,300.28003597793065,12.132590126511678,0.0,1.0,0.0,0.0,1.0,Taxi
3.4000000000000004,0.022704009052523358,22.023275015334136,10.639290140600805,0.7599601637670671,-0.8868069689121337,300.2921578371613,12.583810030360192,0.0,1.0,0.0,0.0,1.0,Taxi
3.5,0.1253687833056781,-8.391683043206365,10.254984074314104,0.8213220884157216,0.3618697396824101,300.1271539079539,12.229582606457841,0.0,1.0,0.0,0.0,1.0,Taxi
3.6,-0.038285648423998356,-48.922269951853686,10.48569695816836,0.9464598959421808,0.1537513146212003,300.18030693693834,11.685536923866295,0.0,1.0,0.0,0.0,1.0,Taxi
3.7,-0.22190734070674503,-42.461465533621634,9.548634621107011,1.001823738357407,0.42545112322687373,300.2292365838082,11.595255852763266,0.0,1.0,0.0,0.0,1.0,Taxi
3.8000000000000003,-0.08693854436243002,-1.1182880344568258,10.312900036348767,0.9071193691284364,0.28310542770463937,300.2311239520076,11.683170953719623,0.0,1.0,0.0,0.0,1.0,Taxi
3.9000000000000004,-0.043877088596282476,43.40107627066436,10.391096670268515,0.7034353365877525,0.21383691667842056,300.2148722521615,12.634300026329818,0.0,1.0,0.0,0.0,1.0,Taxi
4.0,-0.004901959353423231,30.934842575904195,9.93786886341929,0.9962813207453334,0.36944792887118216,300.0866918214808,11.944088999922377,0.0,1.0,0.0,0.0,1.0,Taxi
4.1000000000000005,0.067735668517091,22.335928787913748,10.603342841657975,0.7018425011864671,-0.07106621218970587,300.3737979303703,11.676263386965449,0.0,1.0,0.0,0.0,1.0,Taxi
4.2,0.06780255534328632,11.418680778552513,11.243116825465028,0.6580325310146062,0.6617747835875797,300.1455978848137,12.481854426797629,0.0,1.0,0.0,0.0,1.0,Taxi
4.3,0.052191444539339396,-5.684420277075559,11.22181270900227,0.5963020177180346,-0.13056556435777508,300.23784682555447,11.203988894953776,0.0,1.0,0.0,0.0,1.0,Taxi
4.4,0.039313567131713245,17.550421355992878,10.001818287454416,0.6865488954475267,0.28208685398429845,300.24469545550255,11.710674994591404,0.0,1.0,0.0,0.0,1.0,Taxi
4.5,0.15555466212325075,-33.389192153447986,10.459067097480546,0.7053306440039115,0.2671988961275111,300.3165744772115,12.403966819656652,0.0,1.0,0.0,0.0,1.0,Taxi
4.6000000000000005,-0.11475451622790044,-13.858750187674827,10.892644283607957,0.8173490048677365,-0.3448629158727294,300.31931017388365,11.848633891589456,0.0,1.0,0.0,0.0,1.0,Taxi
4.7,-0.029980183806660794,-18.746631275573893,10.161841637595083,0.8348625859902856,-0.3340409216836281,300.37588776201426,12.532567468495115,0.0,1.0,0.0,0.0,1.0,Taxi
4.800000000000001,0.06182150574538138,54.9205114049634,10.978870166512044,0.9412597308394526,-0.25106174492624794,300.1793590932774,12.736054029432307,0.0,1.0,0.0,0.0,1.0,Taxi
4.9,0.15984804079691659,3.3187389486849384,9.852823795656365,0.7542886846364774,-0.3577371595893083,300.2708022144245,12.111174132570603,0.0,1.0,0.0,0.0,1.0,Taxi
5.0,-0.013386489063236051,-12.440712652719832,11.402290742015458,0.9241084974540245,-0.10774933262017583,300.2582171161414,12.233357560326228,0.0,1.0,0.0,0.0,1.0,Taxi
5.1000000000000005,-0.000382057518217742,-6.01164127912304,9.481444455826253,0.7688229193159776,-0.010941067778992527,300.2072371182371,13.478691718851262,0.0,1.0,0.0,0.0,1.0,Taxi
5.2,0.1297898344013014,19.936262991046032,9.626012194482636,0.9429371813515385,-0.9339603978806015,300.2082243857019,12.019453192128505,0.0,1.0,0.0,0.0,1.0,Taxi
5.300000000000001,0.08629482589199411,12.152278428050247,11.723632640921771,0.7080665786877427,-0.5864287522024939,300.2541205422839,11.463968926764409,0.0,1.0,0.0,0.0,1.0,Taxi
5.4,0.060379334622033515,-17.871212596318056,10.730246017569597,0.7868533656020823,1.0558483990583205,300.2388532438581,11.766855546554472,0.0,1.0,0.0,0.0,1.0,Taxi
5.5,0.04043377141971114,-55.811317786587615,11.567357639139287,1.0925533640473142,-0.4819555872123192,300.2405192847276,12.06076315213259,0.0,1.0,0.0,0.0,1.0,Taxi
5.6000000000000005,-0.19276176304094397,-29.49321457802401,11.220313938609596,0.6951033525266778,-0.3974371368967572,300.102386344636,12.335882432560537,0.0,1.0,0.0,0.0,1.0,Taxi
5.7,-0.08708673826808654,-40.64289255193537,10.954147602598832,0.2661832841761155,-0.11061373934395147,300.1076209579835,12.146892049088438,0.0,1.0,0.0,0.0,1.0,Taxi
5.800000000000001,-0.16278069133996567,27.882556121602363,10.580082706978725,0.948550865751491,0.09654520961251695,300.2203530313609,12.868720185775953,0.0,1.0,0.0,0.0,1.0,Taxi
5.9,-0.05334898243293214,5.19262423538179,11.882795819179037,0.7412266322679908,-0.27089067419188123,300.2131882198862,11.397559702940063,0.0,1.0,0.0,0.0,1.0,Taxi
6.0,-0.061123617091177564,28.64473368145018,10.00191197145381,0.8356691652878298,0.1893448482788664,300.1583001889393,12.142539048271976,0.0,1.0,0.0,0.0,1.0,Taxi
6.1000000000000005,-0.019557022932714746,9.541001398504301,11.241853354538925,0.602480437394735,-1.5852853655402577,300.1611839289785,12.312599297408536,0.0,1.0,0.0,0.0,1.0,Taxi
6.2,-0.005643975440410638,-3.5755968671006095,11.15986172761315,0.5446950600215136,0.245161771865786,300.24776909702166,12.806804471305327,0.0,1.0,0.0,0.0,1.0,Taxi
6.300000000000001,-0.07900160142668061,-11.861806959755855,12.408476653400681,0.8849083749915859,0.14479645253215767,300.2229749506249,12.546981718368219,0.0,1.0,0.0,0.0,1.0,Taxi
6.4,-0.07886605773149402,33.55504528621717,10.64987991460563,0.74433376133048,0.07458743924283742,300.43186004807,11.375176019206465,0.0,1.0,0.0,0.0,1.0,Taxi
6.5,0.16213125099067524,19.321557665468518,11.058368649050527,0.7685209848681893,0.4266842345612373,300.2841416581507,11.952314648205805,0.0,1.0,0.0,0.0,1.0,Taxi
6.6000000000000005,0.017606186900662006,25.91345846804955,10.101258158321542,0.2974136742808168,0.7176014647079519,300.2847774935242,11.697622528181034,0.0,1.0,0.0,0.0,1.0,Taxi
6.7,0.05070123460875375,9.214228987786754,11.033610996434593,1.1106913563846843,-0.09456260167302824,300.3316617309074,12.300233109603933,0.0,1.0,0.0,0.0,1.0,Taxi
6.800000000000001,0.208202395929609,-8.4029080871655,11.35300588901956,0.9842761892364397,-0.3492172491477946,300.3676473833309,13.164659820762708,0.0,1.0,0.0,0.0,1.0,Taxi
6.9,-0.024408353535165503,-8.573273109910382,9.830052661877513,0.860392665699607,-0.1603986295772769,300.143406712712,12.262894487228822,0.0,1.0,0.0,0.0,1.0,Taxi
7.0,0.00783486905920183,-13.569676098839969,10.000173009131712,0.4458210767762331,-0.163631690649346,300.0443942113383,11.487420447114898,0.0,1.0,0.0,0.0,1.0,Taxi
7.1000000000000005,0.14035401543540918,16.952316770387917,10.092727548921284,0.9029199815026895,0.6274209349672372,300.1277070609634,12.414633753651678,0.0,1.0,0.0,0.0,1.0,Taxi
7.2,0.060353230316774066,-36.48754876893583,10.727836928218563,1.122994235183932,-0.33772435972065584,300.30575313472195,12.63859796969716,0.0,1.0,0.0,0.0,1.0,Taxi
7.300000000000001,-0.1746028747854773,1.9408812805683624,9.99849457680698,0.6837630608347643,-0.28449587578417884,300.3401942374876,11.793429315856125,0.0,1.0,0.0,0.0,1.0,Taxi
7.4,0.150058421838251,7.888333147254426,10.446265851724554,0.9056415518977886,-0.20637249899637972,300.2076757595539,12.36979342759282,0.0,1.0,0.0,0.0,1.0,Taxi
7.5,0.09979489605304616,48.492319005713306,10.016162672166159,0.9511590293719754,-0.5799315408076671,300.4985737658541,12.10805669918563,0.0,1.0,0.0,0.0,1.0,Taxi
7.6000000000000005,0.06785872024308914,19.565292804826452,10.537151799569111,0.8144409958069172,0.48936306679938774,300.01667176166995,11.828139759274567,0.0,1.0,0.0,0.0,1.0,Taxi
7.7,0.2478848858623832,-27.834853628198886,9.917072230074933,0.6540165900072409,0.9919837881092869,300.0596077558862,11.734134049596625,0.0,1.0,0.0,0.0,1.0,Taxi
7.800000000000001,-0.03937937208794833,-32.17138108820476,11.280295568654452,0.9297212156302885,0.052401692585474946,300.39658638555227,12.699816009567858,0.0,1.0,0.0,0.0,1.0,Taxi
7.9,-0.09299818519793474,-65.25857434986285,10.921049339319849,0.8932688530521754,0.3697744337108872,300.0470148823031,11.986475563942344,0.0,1.0,0.0,0.0,1.0,Taxi
8.0,-0.0784079858869311,8.20912241478741,11.243107203636589,1.0190515293659388,-0.598398389320742,300.1678648806062,11.84408948088427,0.0,1.0,0.0,0.0,1.0,Taxi
8.1,0.0016662399859886678,26.745970064751933,10.212404319999383,1.0828205322742155,-0.013745385680098456,300.418889186653,11.58961847817325,0.0,1.0,0.0,0.0,1.0,Taxi
8.200000000000001,0.04073166512582488,7.830872230508196,11.277337017980111,0.49798267713987665,0.6299432252740256,300.32583617439695,12.362467982393806,0.0,1.0,0.0,0.0,1.0,Taxi
8.3,-0.03925362473439018,44.49594338706162,10.81496899098624,0.829962228214201,0.6233057792019845,300.24829048235847,11.802459873235872,0.0,1.0,0.0,0.0,1.0,Taxi
8.4,0.22414595692129669,-22.490288971148388,11.306145121473067,0.623524169698679,1.3178492199762142,300.29369761339376,12.686724605608873,0.0,1.0,0.0,0.0,1.0,Taxi
8.5,-0.07171977972991714,-4.889323717215876,10.650114101183107,0.5161771042166114,-0.2544296722464761,300.2711352811234,13.532935446075957,0.0,1.0,0.0,0.0,1.0,Taxi
8.6,-0.06370024332046963,-6.620676894460132,10.903872313136233,1.3879134558359567,-0.1621481842263763,300.1631004316075,10.403100650614878,0.0,1.0,0.0,0.0,1.0,Taxi
8.700000000000001,0.19104257244899597,33.50711828682562,11.16391869920416,1.0940438047174097,0.3458058658440098,300.1761890829556,11.997103743060194,0.0,1.0,0.0,0.0,1.0,Taxi
8.8,0.09581581170421091,11.395264583665318,11.224777666432402,1.1265849128326786,0.4797706461014918,300.2774609006849,11.715785534608257,0.0,1.0,0.0,0.0,1.0,Taxi
8.9,-0.006723920402143093,-8.301041681046707,10.838460694838961,0.8895951527222883,0.04106712300575847,300.3668396714377,12.722277275125334,0.0,1.0,0.0,0.0,1.0,Taxi
9.0,0.1495373640437624,8.464109713386803,9.593603653228778,0.779135874321549,0.33366959760579584,300.35669025343486,11.958653938265519,0.0,1.0,0.0,0.0,1.0,Taxi
9.1,0.13813636027114487,20.9583741816358,11.093342480161816,0.9067270407705452,-0.5554554199934123,300.31138532772457,12.195057340719561,0.0,1.0,0.0,0.0,1.0,Taxi
9.200000000000001,0.09806795050603584,-6.778633631208183,10.813551398418536,0.9767315950676866,-0.39552866171110695,300.3254895622073,11.480126042578174,0.0,1.0,0.0,0.0,1.0,Taxi
9.3,0.11564419588772142,-35.656292387310124,10.504686063576555,0.6334028070516617,0.31036011625629295,300.17515436595204,11.120638834308378,0.0,1.0,0.0,0.0,1.0,Taxi
9.4,-0.040145101665405795,24.705958832521674,9.867695217758083,1.0723282790957582,0.4520150882962898,300.39757959327676,12.200891182841584,0.0,1.0,0.0,0.0,1.0,Taxi
9.5,0.22159774466864418,-29.338257075131377,9.756176051627259,0.7204016152138302,-0.7726089515700104,300.12799261902455,11.840793621621904,0.0,1.0,0.0,0.0,1.0,Taxi
9.600000000000001,-0.03104708948793547,31.083123538700246,11.482816580212436,0.7058394790420489,0.0380385124207412,300.26812837148896,13.006455302138777,0.0,1.0,0.0,0.0,1.0,Taxi
9.700000000000001,0.1152705160280954,-49.956617963922135,11.933761470855604,1.0442959357528296,-0.11053921220963125,300.33897142427907,12.350405683634227,0.0,1.0,0.0,0.0,1.0,Taxi
9.8,-0.028185345150966615,-10.238743334821296,10.58075542830621,0.900891313121006,0.32680966178690984,300.2422207058414,11.525165080643088,0.0,1.0,0.0,0.0,1.0,Taxi
9.9,-0.08224080616204207,-33.48346067722709,10.716416423320181,0.7499546018985079,-0.5618580248047352,300.37126925467464,12.164870052139003,0.0,1.0,0.0,0.0,1.0,Taxi
10.0,-0.052146787358040174,30.7076133057089,10.48610230967812,0.8670552551044007,-0.012317455230021132,300.4953556174005,11.841372579857277,0.0,1.0,0.0,0.0,1.0,Taxi
10.100000000000001,0.12535272137757777,8.168107337220789,10.762495883930413,0.894425957810522,-0.05933160957328946,300.279556247752,11.853329603099253,0.0,1.0,0.0,0.0,1.0,Taxi
10.200000000000001,-0.04140026947593825,15.963635297294402,11.015761050431305,0.5491420784181762,0.7835536675247756,300.300033452457,12.579945445887033,0.0,1.0,0.0,0.0,1.0,Taxi
10.3,0.027671389128431714,-10.849292097632585,10.491942458810929,0.6609909284487661,0.1912817339379608,300.1971044845674,12.584777216900175,0.0,1.0,0.0,0.0,1.0,Taxi
10.4,0.07110626088941474,-2.8893901071491825,10.583833055343172,1.1258965622152128,0.18269337247620504,300.1226390135346,12.762854499563922,0.0,1.0,0.0,0.0,1.0,Taxi
10.5,-0.05584722001168427,-29.11984204171201,9.848634365688469,1.0269225393091812,0.16460045418783098,300.2535877369629,12.974735780385569,0.0,1.0,0.0,0.0,1.0,Taxi
10.600000000000001,-0.11792782108012843,-4.698296608205372,9.679481855825921,0.6173902391335141,-0.32067893062753206,300.2999791067043,12.048730591711195,0.0,1.0,0.0,0.0,1.0,Taxi
10.700000000000001,0.04761477784838779,30.016831726240607,11.527229782688126,0.5370973221778249,-0.1750218765718507,300.1597641101464,10.836322802586887,0.0,1.0,0.0,0.0,1.0,Taxi
10.8,0.09423693861951868,34.45760556844154,11.060108455336001,0.7600925033432213,0.017696651039573238,300.40304017822837,12.092401331522304,0.0,1.0,0.0,0.0,1.0,Taxi
10.9,0.05436020676207917,0.033691919131453606,10.608254718627522,0.5179474303449618,-0.7529492040961631,300.281223811833,11.989397245420216,0.0,1.0,0.0,0.0,1.0,Taxi
11.0,0.04778323744404496,-33.83640055886762,9.914306540299185,0.7508750364700627,-0.9446943217112916,300.2138778905679,12.460378800678109,0.0,1.0,0.0,0.0,1.0,Taxi
11.100000000000001,-0.07494506417481953,7.070493719431009,11.095463963735785,0.6695719840893406,-0.19599291164442906,300.3265175998963,12.201053988748939,0.0,1.0,0.0,0.0,1.0,Taxi
11.200000000000001,0.08971267535923412,-33.931810434418836,11.99016138190174,0.4809948573768502,-0.4492470591497859,300.3158068130265,12.248221449558304,0.0,1.0,0.0,0.0,1.0,Taxi
11.3,-0.1218758147280493,10.079208234935377,10.894773246077053,1.2411853958855694,-0.09535509167670592,300.4691521012635,12.23163497007525,0.0,1.0,0.0,0.0,1.0,Taxi
11.4,-0.02454902300014274,-22.510489510246362,10.570440519271791,0.9562972659191998,0.6892728523743019,300.1669797177385,12.465125742307954,0.0,1.0,0.0,0.0,1.0,Taxi
11.5,-0.02283977219199779,3.471211360681856,10.276106352172146,0.8050844748292312,-0.030025592641285757,300.13302930180566,11.628015400544502,0.0,1.0,0.0,0.0,1.0,Taxi
11.600000000000001,-0.10451975792464013,-14.91722563843537,10.246079962398602,0.9529950990203979,0.26168009083851146,300.0156372673533,11.654010795473205,0.0,1.0,0.0,0.0,1.0,Taxi
11.700000000000001,-0.09913515119231969,-16.156791608689982,10.556301949883112,0.6324407737526702,-0.21839878268187124,300.3384514282268,12.293890173699037,0.0,1.0,0.0,0.0,1.0,Taxi
11.8,-0.1036237302354478,27.43174688838077,9.444134949189705,1.1895417318063348,0.4426434455940979,300.19425469039993,11.671460303335838,0.0,1.0,0.0,0.0,1.0,Taxi
11.9,0.032638976517263614,20.130841652590654,10.907527072618802,0.9589333307539609,-0.37020788254297043,300.29435095503686,12.621098295573233,0.0,1.0,0.0,0.0,1.0,Taxi
12.0,0.0015190570706334963,31.37042483527506,11.138859595247075,0.7305613805179725,0.7230839718382102,300.27003558757565,12.5445647019121,0.0,1.0,0.0,0.0,1.0,Taxi
12.100000000000001,0.05322839394092743,-8.644274058708385,10.121129765773999,0.6077315180290919,-1.1456059724738465,300.1728909454291,12.163558164143334,0.0,1.0,0.0,0.0,1.0,Taxi
12.200000000000001,-0.01058239377627843,40.63615583270101,11.152038490432464,0.9304601676767411,-0.38982710165052337,300.36672279852655,12.042495944267639,0.0,1.0,0.0,0.0,1.0,Taxi
12.3,0.20469983623413845,-5.7954068849328495,10.602931775119174,0.9538397337317522,-0.020409648954629142,300.3043096349156,12.785883090046624,0.0,1.0,0.0,0.0,1.0,Taxi
12.4,0.024251359516263116,19.830945161614803,11.457390658638941,0.8494583254984073,0.12299058107664708,300.2350297438153,11.827454822276726,0.0,1.0,0.0,0.0,1.0,Taxi
12.5,0.08857233203179551,-35.99274651501538,10.204133476101793,0.8503114516142707,-1.1015438777890432,300.3067303147759,11.459409194490467,0.0,1.0,0.0,0.0,1.0,Taxi
12.600000000000001,0.024736103659061474,-2.326788848805681,10.690018800743958,0.7196598572329536,-0.52085902218735,300.37701365569046,12.736092850837203,0.0,1.0,0.0,0.0,1.0,Taxi
12.700000000000001,0.012617415272234611,-57.98739971489133,10.728175218448715,1.0344256692737712,-0.31596093863453284,300.2297607352689,12.291786426242071,0.0,1.0,0.0,0.0,1.0,Taxi
12.8,-0.20136466654266127,-29.341814039315896,10.781563218613568,0.8797624930361281,0.5349786518660995,300.2404468186819,11.661694245786974,0.0,1.0,0.0,0.0,1.0,Taxi
12.9,-0.12197296653751806,-34.489113772289635,9.831469619907617,0.7640518704066273,-0.6159536114351131,300.2567832423057,12.287840697230711,0.0,1.0,0.0,0.0,1.0,Taxi
13.0,-0.15982815358921362,21.42196817801526,11.17439715581405,0.8860672955381637,-0.30474863319687007,300.10783625554905,11.98630577243484,0.0,1.0,0.0,0.0,1.0,Taxi
13.100000000000001,-0.09425482565258506,-3.4565175837133246,11.371669286230343,0.7569435416509922,-0.303271914332747,300.07318487738075,11.223652620870965,0.0,1.0,0.0,0.0,1.0,Taxi
13.200000000000001,-0.13925555445608476,61.03653886169676,10.195662077621723,0.9194403927605674,0.7427708057524127,300.3879507153338,12.272851090006926,0.0,1.0,0.0,0.0,1.0,Taxi
13.3,0.14535454071927006,-2.6875571347480425,11.94676951972382,0.9147870381997172,-0.041986080599550626,300.3179930036092,11.995042987885109,0.0,1.0,0.0,0.0,1.0,Taxi
13.4,-0.1076926113263254,25.30086891227889,10.547578011651192,1.0315765423072591,-0.24077522025060508,300.2531333523684,12.468329597670461,0.0,1.0,0.0,0.0,1.0,Taxi
13.5,-0.012751209894690436,-36.68204786528366,10.890004060638935,1.0078029519948681,-0.14631153179819326,300.2541776867603,11.971636359065123,0.0,1.0,0.0,0.0,1.0,Taxi
13.600000000000001,-0.03805569860714833,29.093487520818496,11.10701949567107,0.8731036933102099,-0.027559378520388436,300.3225032797478,11.931642327461027,0.0,1.0,0.0,0.0,1.0,Taxi
13.700000000000001,0.037774826277766974,0.2391745017195331,10.559389040947975,0.9296511573429672,-0.085528331769454,300.3259047322181,11.986497873165744,0.0,1.0,0.0,0.0,1.0,Taxi
13.8,-0.011555337386092874,32.64357681590236,10.793030289164202,1.2763623341561654,0.28028801606526,300.29857213078617,11.61186918279381,0.0,1.0,0.0,0.0,1.0,Taxi
13.9,0.12516218547236332,16.16211244324629,11.711982813052405,0.9670396477687166,0.3544718138400093,300.2245653206619,11.68335173554967,0.0,1.0,0.0,0.0,1.0,Taxi
14.0,0.11858538849399831,8.835230043202792,10.352113174707199,1.0007644794721586,-0.04954519079210468,300.0760165906753,12.408414584603795,0.0,1.0,0.0,0.0,1.0,Taxi
14.100000000000001,0.032620812829920964,-21.143564185486824,10.911888274719793,0.8293174734543429,0.6455658662469913,300.2642373120093,12.329803194180748,0.0,1.0,0.0,0.0,1.0,Taxi
14.200000000000001,0.0194443645449291,-49.409799709886755,10.323127279832082,0.9811076370991484,-0.6562321456533943,300.25426247552423,13.334069827373,0.0,1.0,0.0,0.0,1.0,Taxi
14.3,-0.12846361005543555,6.664504836882121,11.193033516402513,1.2405155379123811,0.37831210633268786,300.1204997495646,11.851439755843742,0.0,1.0,0.0,0.0,1.0,Taxi
14.4,0.06594333701433144,1.8540042755270594,10.280700990016832,1.0668706728137012,-0.30657430558591026,300.16186960399955,11.2956268836685,0.0,1.0,0.0,0.0,1.0,Taxi
14.5,0.028714385922564284,38.8753684230822,11.299308433887006,0.8389211767810532,0.09807467939434818,300.18988655608246,11.915449298950255,0.0,1.0,0.0,0.0,1.0,Taxi
14.600000000000001,0.06591323205997532,-26.88843710280132,10.367554935499358,0.5876864548783631,-0.4801231125159127,300.20349939204993,11.605580883328782,0.0,1.0,0.0,0.0,1.0,Taxi
14.700000000000001,-0.06849884849967526,-31.955365213445734,10.924321247220934,1.139999417157843,-0.22058116909324785,300.3217071894592,11.904360981128226,0.0,1.0,0.0,0.0,1.0,Taxi
14.8,-0.1310624401446645,-47.50809163352559,11.307710330190359,0.9355527005476494,-0.4915358683553631,300.29235645137453,11.474324528912186,0.0,1.0,0.0,0.0,1.0,Taxi
14.9,-0.17162722610765274,-6.1091113131242,9.98316553141916,0.7819145324744127,0.43674121814236816,300.35063918502465,12.57158951858445,0.0,1.0,0.0,0.0,1.0,Taxi
15.0,-0.09904440506529638,23.572303095428353,10.702070410492091,0.8005278851321047,0.31721788544149576,300.29482047788906,12.07736542342308,0.0,1.0,0.0,0.0,1.0,Taxi
15.100000000000001,-0.013200924667522857,29.141859217241556,10.537785104437868,0.6441233560396029,0.5222769578126134,300.23137685325594,12.152499517105804,0.0,1.0,0.0,0.0,1.0,Taxi
15.200000000000001,-0.02591793002144508,25.91944384696937,11.322274993812446,1.0339922416392582,-0.14972455175751187,300.1718121762058,11.250299733931188,0.0,1.0,0.0,0.0,1.0,Taxi
15.3,0.03055281416955033,-1.4431935079633658,11.432510300494396,0.8139881825594362,0.48983434188273084,300.0830250734946,12.046005203338812,0.0,1.0,0.0,0.0,1.0,Taxi
15.4,-0.0204168922073398,11.62857219101735,11.340507608942612,0.5198869867628084,-0.3613794135940962,300.37662190387255,13.124132910319451,0.0,1.0,0.0,0.0,1.0,Taxi
15.5,0.03222493093364156,-5.480272800485955,9.56312493877341,0.8860292241213154,0.46502328568781026,300.23617442978434,12.045592169236745,0.0,1.0,0.0,0.0,1.0,Taxi
15.600000000000001,0.003151450167120448,8.623445956798278,11.331098265733448,0.7895025074377449,-0.23248808899532403,300.2029868301397,11.125469001077018,0.0,1.0,0.0,0.0,1.0,Taxi
15.700000000000001,0.022700337576651478,-16.341164749502777,10.701275892008258,0.8327578506280398,-0.3089648250219787,300.26088451724195,11.564060263004388,0.0,1.0,0.0,0.0,1.0,Taxi
15.8,-0.04948089281387244,-1.370254551340609,11.16503100086015,0.8374240759980309,0.09093325836137214,300.36530075565497,13.123381812415461,0.0,1.0,0.0,0.0,1.0,Taxi
15.9,-0.0036998225895827084,-9.845799326522222,10.583997686567221,1.248172232893648,-0.07278978668794775,300.4868939731398,12.346741443989755,0.0,1.0,0.0,0.0,1.0,Taxi
16.0,-0.026528659055959743,-4.464473007215015,10.743612439309292,0.9554261144313807,0.9640914831930933,300.1363179233098,12.323444701131695,0.0,1.0,0.0,0.0,1.0,Taxi
16.1,-0.07180325784994764,-4.483982434405038,10.729745219788628,1.035449856060602,0.3333332215255288,300.44953951023354,12.537981995937244,0.0,1.0,0.0,0.0,1.0,Taxi
16.2,-0.026119734761608022,24.6047519212478,10.336835064241425,1.0049895099688222,0.11241351663411278,300.3042668897717,12.585866963339315,0.0,1.0,0.0,0.0,1.0,Taxi
16.3,0.09649510055027916,27.089863939327657,11.305037217722814,0.6424801169143319,0.7010664193964347,300.32806647019765,13.508121880312373,0.0,1.0,0.0,0.0,1.0,Taxi
16.400000000000002,0.06364606184669055,14.676600848449239,10.198745749548955,0.5547445348779958,0.4947747185145784,300.23266248248024,11.716936091627336,0.0,1.0,0.0,0.0,1.0,Taxi
16.5,0.04726326948063806,2.1875806431767586,10.636632095200975,0.6753791753183821,-0.2805302322151327,300.4306847990795,11.935793409887962,0.0,1.0,0.0,0.0,1.0,Taxi
16.6,0.10743300376616283,-6.1295155014345175,10.630491080320411,0.7829139620507571,-0.1168695135247762,300.30467737535855,13.05589034179317,0.0,1.0,0.0,0.0,1.0,Taxi
16.7,0.032998484339517846,-18.555217673456507,10.009169742631606,0.9388471379488944,-0.2546833291241421,300.26640596925165,12.372051376511575,0.0,1.0,0.0,0.0,1.0,Taxi
16.8,-0.045512818886644615,-19.986077508131718,10.459042486767746,0.5243131956553542,-0.9101941767173441,300.27313856080684,12.169502350871133,0.0,1.0,0.0,0.0,1.0,Taxi
16.900000000000002,0.007502616225504114,23.289002679218687,11.053116877002042,0.6956759723561827,0.27886142260128133,300.35917414557366,11.765546577834575,0.0,1.0,0.0,0.0,1.0,Taxi
17.0,0.14944349773561116,20.45091640860861,11.276196321859395,0.5826326848989705,-0.1873922179999168,300.26216446463764,11.300564971966422,0.0,1.0,0.0,0.0,1.0,Taxi
17.1,0.0567417631563983,24.070691967514733,11.226083083128296,0.8264816550578025,-0.7228593121337306,300.27528094483716,12.863945783642574,0.0,1.0,0.0,0.0,1.0,Taxi
17.2,0.12785607606307767,-48.951373471118735,11.51023179481042,0.8918825777532422,-0.0012213200723263401,300.2326143193517,13.360089881743663,0.0,1.0,0.0,0.0,1.0,Taxi
17.3,-0.09531336961998262,5.92686822788535,11.608711978056036,0.5248271113652638,0.5129703897304411,300.0384686440593,12.150285176842859,0.0,1.0,0.0,0.0,1.0,Taxi
17.400000000000002,0.08637610429582493,-19.007866960420177,10.59298087293302,1.106908629489219,0.11305985418978065,300.36803117827833,11.90705142424883,0.0,1.0,0.0,0.0,1.0,Taxi
17.5,0.03281674126097666,52.11834699721562,11.796823439176523,0.7706700458788742,-0.7780150044242161,300.2781841972437,11.308397787286715,0.0,1.0,0.0,0.0,1.0,Taxi
17.6,0.1652783653660954,-50.26438708538266,10.439613064888984,0.9212428830774348,0.6874748536107915,300.45756787944663,11.74759377511117,0.0,1.0,0.0,0.0,1.0,Taxi
17.7,-0.1649458311310885,-27.546390318513904,11.52985059278197,0.8256717953376894,-0.8372319981525347,300.29686855651187,12.560203441492652,0.0,1.0,0.0,0.0,1.0,Taxi
17.8,-0.10491521033159297,-24.177931460401698,9.699009985344684,0.7732554029696068,0.5012140327602063,300.3662680115201,11.323987600948639,0.0,1.0,0.0,0.0,1.0,Taxi
17.900000000000002,0.044388708064086756,-10.202330774719181,10.580528931060865,1.208847666909204,0.1915235469283683,300.4469913694892,11.873822572693895,0.0,1.0,0.0,0.0,1.0,Taxi
18.0,-0.2159574850046845,6.63943736743651,9.382310974633933,0.6513646660473678,0.5085416363753247,300.42351727334153,11.556992187019103,0.0,1.0,0.0,0.0,1.0,Taxi
18.1,-0.07171802349441053,-12.648975195233573,11.121004176782352,1.173091025832912,0.6307064038801609,300.3110257377384,13.376582388586453,0.0,1.0,0.0,0.0,1.0,Taxi
18.2,-0.018856167912081244,35.732786077650516,10.737243184391906,0.7673374031445088,0.25301146122374285,300.2040067338554,12.767289344516568,0.0,1.0,0.0,0.0,1.0,Taxi
18.3,-0.0372935546164321,9.679735848776136,10.97245313558332,0.9823442453764647,0.8497882120858767,300.17535259320925,11.495699138705161,0.0,1.0,0.0,0.0,1.0,Taxi
18.400000000000002,-0.023319344250530002,-19.346844276030684,10.195189862493892,0.9462148960120663,0.25523132551481675,300.17209285441936,12.860507952518688,0.0,1.0,0.0,0.0,1.0,Taxi
18.5,-0.11559038929223482,31.76001216263707,9.4168837736852,0.8392309926059327,-0.6313338803605333,300.37794792032867,12.124642237151615,0.0,1.0,0.0,0.0,1.0,Taxi
18.6,0.12150650619675314,-29.154354510585133,10.190038893943663,0.7895313633018776,0.14088371480373654,300.15956542313916,11.452438482886308,0.0,1.0,0.0,0.0,1.0,Taxi
18.7,-0.1690911168034558,36.82063354557257,11.089550036756295,0.8460625471730151,0.4256738735640153,300.2660757674479,13.229393018437205,0.0,1.0,0.0,0.0,1.0,Taxi
18.8,0.06851277843562789,4.499492392464731,10.581619113600663,0.9130435664710481,0.30658737342852643,300.3337142253106,12.986121203773342,0.0,1.0,0.0,0.0,1.0,Taxi
18.900000000000002,0.14400396815907665,51.77955698311547,10.676776012333287,0.9969366791829817,-0.0271142319420132,300.0554026355187,12.776041644097916,0.0,1.0,0.0,0.0,1.0,Taxi
19.0,0.0898066681121214,-3.3490841279259578,10.10653436253251,0.6732324943530854,0.26512976573657704,299.9852092981905,12.148167137400788,0.0,1.0,0.0,0.0,1.0,Taxi
19.1,0.05176735779599796,-49.697687385651534,11.16642443399387,0.7945792586694113,-0.13576789266356845,300.2020159459114,12.338370373196904,0.0,1.0,0.0,0.0,1.0,Taxi
19.200000000000003,-0.10448446876918112,-34.2250081266938,9.480741277529601,0.7920797137637117,-0.4347874862321718,300.4380704536021,11.915732367732105,0.0,1.0,0.0,0.0,1.0,Taxi
19.3,-0.0813183725213477,18.51157069655717,10.987164884566333,0.7224300545092113,0.060770705330716664,300.20849938984077,12.668850052852335,0.0,1.0,0.0,0.0,1.0,Taxi
19.400000000000002,0.1443252112787837,13.36800655930812,10.798389037793166,0.7917722889067219,-0.8557595254653697,300.3400455106596,12.629120231627885,0.0,1.0,0.0,0.0,1.0,Taxi
19.5,-0.03764443597264061,41.907682696445136,10.41484882790937,0.8825996599044459,0.5408034030947614,300.2695836196483,11.854808371622862,0.0,1.0,0.0,0.0,1.0,Taxi
19.6,0.12822004096087786,-12.00112559543347,11.414822028381558,0.669404239131127,-0.0452339904504635,300.26186484917,12.619867251282963,0.0,1.0,0.0,0.0,1.0,Taxi
19.700000000000003,0.0843195833016162,-8.469052108236289,9.925941251538712,1.0679398533556093,-0.042394967556383695,300.1501276255864,12.433291719379302,0.0,1.0,0.0,0.0,1.0,Taxi
19.8,-0.07998969651382222,-26.77066004302725,10.462575908430246,1.221307870516142,-0.007053741142562195,300.17864522537866,12.741203320649916,0.0,1.0,0.0,0.0,1.0,Taxi
19.900000000000002,-0.00563325925425855,-23.034241455255067,10.69887675883098,1.0987083376726516,0.6083860259388053,300.1612005132789,11.00991406770817,0.0,1.0,0.0,0.0,1.0,Taxi
20.0,-0.03085162397465927,-17.413493983149014,11.303229190896067,0.871259432428684,0.21200044618292987,300.36369903614684,12.253268871636392,0.0,1.0,0.0,0.0,1.0,Taxi
20.1,-0.16705716642956742,12.928193741514045,9.396037091424258,1.2055341835568587,0.33936783469600085,300.128371638124,12.62257673581125,0.0,1.0,0.0,0.0,1.0,Taxi
20.200000000000003,0.05900770945331159,-16.00301289182323,10.676407105093794,0.6115932652138114,0.15736406178865894,300.24848722028855,12.894376131621513,0.0,1.0,0.0,0.0,1.0,Taxi
20.3,-0.11086668843377548,29.680372592645114,10.7237126884283,1.2040431524857713,0.4085243593687705,300.27787643333556,12.361944598963948,0.0,1.0,0.0,0.0,1.0,Taxi
20.400000000000002,-0.01865530346634194,-37.382226886719856,10.581522385572661,0.924460357874353,-0.3700246283794393,300.2419995156604,11.911535589916035,0.0,1.0,0.0,0.0,1.0,Taxi
20.5,-0.12790342498028784,39.72490907576926,10.595097758851042,0.9700371234749707,0.10713373683702665,300.0997389533036,12.286740278314028,0.0,1.0,0.0,0.0,1.0,Taxi
20.6,0.08775785694507064,33.170758319167625,11.76559998107382,0.8718439615203543,-0.10304183938474648,300.3578842045156,11.734604299854489,0.0,1.0,0.0,0.0,1.0,Taxi
20.700000000000003,0.14719848812949599,56.246316122108645,11.294551232034825,0.8978853823312698,-0.22941010942332984,300.2214973063885,12.350662770008224,0.0,1.0,0.0,0.0,1.0,Taxi
20.8,0.15332815563025523,-9.21500520292227,10.057662701252994,0.691918571893899,0.007883573623408713,300.1436906723252,11.886017773922495,0.0,1.0,0.0,0.0,1.0,Taxi
20.900000000000002,0.04168283093045916,-65.02353837381882,10.14245802428148,0.5154521216867889,0.5002230933773272,300.4083969346523,12.276787894047171,0.0,1.0,0.0,0.0,1.0,Taxi
21.0,-0.17791920373959821,-29.604352210982,9.352102350313404,0.9227920643870845,-0.01297375127961199,300.1384652774145,12.729132220478661,0.0,1.0,0.0,0.0,1.0,Taxi
21.1,0.0053063945753450935,-9.045653614037617,11.7156372071355,0.8180454846957571,-0.7356606918603644,300.43430567858536,12.792881862220561,0.0,1.0,0.0,0.0,1.0,Taxi
21.200000000000003,-0.003545437139729038,-1.7518250064313652,10.38004879856101,0.5606706491805267,-0.26996400104602514,300.46946000871435,12.905596177990372,0.0,1.0,0.0,0.0,1.0,Taxi
21.3,-0.18667832877175522,6.173630381318787,10.886021990427846,0.8469263235370841,-0.157750840616077,300.34671685027797,11.998273712350631,0.0,1.0,0.0,0.0,1.0,Taxi
21.400000000000002,0.036174546481938824,-25.691155012846526,10.426227992288783,1.0040301867207029,0.857069438736768,300.2712961145453,11.594638430733486,0.0,1.0,0.0,0.0,1.0,Taxi
21.5,-0.13200121220396185,34.35945931427384,10.071756775575317,0.6264501404862259,0.2730528650240754,300.2564228849276,11.321384532115276,0.0,1.0,0.0,0.0,1.0,Taxi
21.6,-0.01488103220038615,-20.016345900211242,10.553580756475487,0.882508030761164,0.6862874533079375,300.21793447662276,12.104986300580434,0.0,1.0,0.0,0.0,1.0,Taxi
21.700000000000003,-0.0639071830191175,21.10787447339925,11.342596745226864,0.5835792435226931,0.42270332588224285,300.1933143589363,12.795726058151075,0.0,1.0,0.0,0.0,1.0,Taxi
21.8,-0.02646183983696574,29.684112233334428,10.498691240100408,1.015086274638254,0.18652243285082726,300.1975209866372,12.444616152845342,0.0,1.0,0.0,0.0,1.0,Taxi
21.900000000000002,0.13353952896628585,4.857282985150519,10.100873130807077,1.1530518078621155,-0.3626310294138197,300.37782828375884,12.391681515589504,0.0,1.0,0.0,0.0,1.0,Taxi
22.0,-0.03962076809336505,20.970848281062846,10.569999846173717,0.9817830000635763,0.07712183751817261,300.46824077030874,11.969321629069087,0.0,1.0,0.0,0.0,1.0,Taxi
22.1,0.07839240156834837,-15.826261976766693,10.97729290905907,0.8707424679632718,0.023062174316809195,300.376248414688,12.037211445435544,0.0,1.0,0.0,0.0,1.0,Taxi
22.200000000000003,0.05440821908245225,26.058698472811002,10.948236445546351,1.0521775392756632,-0.13889620993827917,300.138330367825,11.978432176013998,0.0,1.0,0.0,0.0,1.0,Taxi
22.3,0.09067272427068981,-16.55707386579955,9.85890973371785,0.500192628706178,0.08790003286807502,300.1463099365859,11.805635599224741,0.0,1.0,0.0,0.0,1.0,Taxi
22.400000000000002,-0.004392967760649532,18.73866499706696,9.310358025306288,0.6124471333517748,-0.8035416848965424,300.25932049223456,12.54363874602829,0.0,1.0,0.0,0.0,1.0,Taxi
22.5,0.1481015440677869,-36.80662538196528,10.632663359200373,0.9431469465837105,0.9627345153925395,300.282359116045,11.351896881076298,0.0,1.0,0.0,0.0,1.0,Taxi
22.6,-0.09336040263913675,-16.18847071182982,9.914372769163636,0.6741326556585125,-0.6613609562158332,300.1666975596429,11.966268648281897,0.0,1.0,0.0,0.0,1.0,Taxi
22.700000000000003,-0.08533532131979879,-8.73632106351385,10.276646679967113,0.7669256100584707,0.678835074751407,300.1698616274939,11.696523890099174,0.0,1.0,0.0,0.0,1.0,Taxi
22.8,0.10441993875021745,18.095605401784628,10.008502095659223,0.8086598268172626,-0.028897997621424754,300.208058537429,11.059128676216046,0.0,1.0,0.0,0.0,1.0,Taxi
22.900000000000002,-0.002882375630213772,2.6912857719865073,11.104977332562628,0.8018097501431293,-0.818378568861409,300.2723268334214,11.186677155054717,0.0,1.0,0.0,0.0,1.0,Taxi
23.0,-0.07187889245986642,-42.70839230190398,9.780958730495904,1.132117578944492,0.16445519016539004,300.42806675412317,12.317684335477406,0.0,1.0,0.0,0.0,1.0,Taxi
23.1,-0.10912202275930259,-10.174672216416122,10.004576643787944,0.9289439097377671,-0.06249624092158372,300.3146229015041,11.963257192566171,0.0,1.0,0.0,0.0,1.0,Taxi
23.200000000000003,-0.05375573671229453,35.45525087564199,9.610004226104465,1.0452450125037305,-0.14445376804837579,300.1177230439256,11.817543843490448,0.0,1.0,0.0,0.0,1.0,Taxi
23.3,0.1053973619183434,38.11654746948118,9.890703972004745,0.5267748724775134,0.6745662941837516,300.07500318023244,13.010413305134017,0.0,1.0,0.0,0.0,1.0,Taxi
23.400000000000002,0.0814607145881032,52.187276141145816,10.605418460010306,1.1572220603035681,-0.8108159511126067,300.1401814571627,11.382953246262808,0.0,1.0,0.0,0.0,1.0,Taxi
23.5,0.20718064399343442,-17.805625561249894,11.80401385556809,0.5346564055110858,0.2374977119342938,300.40781801648143,11.745031367361598,0.0,1.0,0.0,0.0,1.0,Taxi
23.6,0.0163692341120938,-2.276261320388523,11.002887945791901,1.080603722934097,0.3863536678009084,300.17390094149573,12.063907234521722,0.0,1.0,0.0,0.0,1.0,Taxi
23.700000000000003,0.07007940798616046,-64.01172137147357,10.52247174913062,0.9518265027648748,-0.25931373677520314,300.375890896732,11.649005647670172,0.0,1.0,0.0,0.0,1.0,Taxi
23.8,-0.11287796286393348,-19.269345558829446,11.082045744338092,0.8376669858763593,0.49473436370781193,300.17423874849146,12.312345339446695,0.0,1.0,0.0,0.0,1.0,Taxi
23.900000000000002,-0.07997749368205351,-24.96864080763315,11.069706477146358,1.077871740090896,0.033813403473619885,300.1696613787137,10.911814990377808,0.0,1.0,0.0,0.0,1.0,Taxi
24.0,-0.054763796052005376,54.237374595119974,10.736853695301411,1.0667828667717763,0.10272047627471642,300.33726374559956,11.08391632676491,0.0,1.0,0.0,0.0,1.0,Taxi
24.1,0.15830891011166626,28.459720584162465,9.159269222436784,0.9838862239097232,0.11837503262390439,300.34919519062623,11.260968744425334,0.0,1.0,0.0,0.0,1.0,Taxi
24.200000000000003,0.06232110923875868,40.8283771323778,10.226102557814299,0.8614741691489166,0.21757513783961882,300.35214295731384,11.227737239204446,0.0,1.0,0.0,0.0,1.0,Taxi
24.3,0.14937808960988352,-50.35554553811905,9.82734913201211,1.1072778492772526,0.4141802259850091,300.18178536052574,11.604255368296137,0.0,1.0,0.0,0.0,1.0,Taxi
24.400000000000002,-0.09346881757892905,-7.968687861681549,10.863720493332503,0.7268819663677097,-0.5092738441785858,300.16251017280547,11.885689570081732,0.0,1.0,0.0,0.0,1.0,Taxi
24.5,0.022477669930350875,-25.126155571020444,9.879481165413036,1.5057216662716972,-0.4693251239359839,300.3073526171561,12.371290449655769,0.0,1.0,0.0,0.0,1.0,Taxi
24.6,0.023747311754781248,23.018073360100303,11.310311367219263,0.9355654880052006,-0.25835204968120945,300.33286512477173,12.514267124616016,0.0,1.0,0.0,0.0,1.0,Taxi
24.700000000000003,0.021621549221572375,-37.14732547752469,11.105852112697404,0.8560691381705746,-0.07807615045821825,300.37221069118937,11.86863270893716,0.0,1.0,0.0,0.0,1.0,Taxi
24.8,-0.16325895745727265,-11.191810808614207,10.589910477446658,1.016508953414704,0.1646732071365327,300.32652033876593,12.305374181907421,0.0,1.0,0.0,0.0,1.0,Taxi
24.900000000000002,-0.03221174228828985,0.5302706650520411,11.679091009067347,0.6593595085825406,-0.2561512693594242,300.16661749408763,11.723322594240415,0.0,1.0,0.0,0.0,1.0,Taxi
25.0,0.02427290254683251,34.02024043052887,9.842586790538327,1.037311199771391,-0.6957035103497252,300.17773224731104,11.440548541841633,0.0,1.0,0.0,0.0,1.0,Taxi
25.1,0.0068422446953716526,20.687994532802907,10.773825534889715,0.741606034104776,-0.19291679081099677,300.2839561357573,12.205896668153812,0.0,1.0,0.0,0.0,1.0,Taxi
25.200000000000003,0.07122823037572458,3.462129148570648,11.922230047266739,0.7955948125227723,-0.37376640692008267,300.31495559242285,12.310161701830186,0.0,1.0,0.0,0.0,1.0,Taxi
25.3,0.041583548289685655,7.648431044604972,11.01350179619131,1.077614637463845,0.8744960102068376,300.1871949851097,11.379027525620398,0.0,1.0,0.0,0.0,1.0,Taxi
25.400000000000002,0.04508439991839642,-30.59247874119367,11.460261134620641,1.21455311354313,-0.7645229499096007,300.3094787860739,12.555285263304574,0.0,1.0,0.0,0.0,1.0,Taxi
25.5,-0.08173416333024386,-12.266980397112604,10.227707092374192,0.8964593377809636,0.2686353459181022,300.29439430871787,12.297175593914108,0.0,1.0,0.0,0.0,1.0,Taxi
25.6,-0.019751353695877466,-9.59615480398024,10.175572093765561,0.8606669806177758,-0.5725646889148626,300.191873186006,11.948701700779178,0.0,1.0,0.0,0.0,1.0,Taxi
25.700000000000003,-0.002896374101504878,-15.497879062043829,11.126766159168895,0.7198156520139604,-0.40273634458310065,300.42728437492667,12.50006053632999,0.0,1.0,0.0,0.0,1.0,Taxi
25.8,-0.1592235586404631,36.425170011050206,10.119374693021562,0.9422824677967603,0.08844655347662156,300.2356840167172,12.532049349782787,0.0,1.0,0.0,0.0,1.0,Taxi
25.900000000000002,0.16237449635937348,-18.763980616682915,11.290654027836323,0.871918938621249,-0.1653209635121124,300.2392611439109,12.14131197835597,0.0,1.0,0.0,0.0,1.0,Taxi
26.0,-0.09671627718491954,24.646172019302696,10.120506330856768,0.86856607324242,-0.5492726576865928,300.17353504578614,12.460590525495205,0.0,1.0,0.0,0.0,1.0,Taxi
26.1,-0.03599269854394974,22.82875099847224,9.495519875851265,0.952142629040728,-0.3827957219190656,300.2489626124675,11.426886537753632,0.0,1.0,0.0,0.0,1.0,Taxi
26.200000000000003,0.2765182513517345,6.9727799052898645,10.716822983793369,1.0909614041834872,-0.2396063578616543,300.31186027643366,12.251796257247886,0.0,1.0,0.0,0.0,1.0,Taxi
26.3,-0.061852377658470375,5.075672748243267,10.28905048498502,0.9494011527983972,0.3928978501038677,300.14059364663683,13.111928672606428,0.0,1.0,0.0,0.0,1.0,Taxi
26.400000000000002,-0.010614334802733556,-34.39576934414062,10.569903036905195,0.4855960112772002,-0.39905180832399495,300.2420462093014,11.891371867828727,0.0,1.0,0.0,0.0,1.0,Taxi
26.5,0.10453940463103131,16.053736730622205,10.319788589846995,0.9907473913991259,-0.08256909375420324,300.36526973478203,12.41376832797525,0.0,1.0,0.0,0.0,1.0,Taxi
26.6,0.01841630599464056,-10.01511233170353,10.474384234876885,1.0002645579920433,0.5319351339498543,300.26830280403397,11.0926257118709,0.0,1.0,0.0,0.0,1.0,Taxi
26.700000000000003,-0.060689896461251315,6.543781574852853,11.077985195042254,0.8400835676518812,-0.5111627615538903,300.228198726204,11.234236212216597,0.0,1.0,0.0,0.0,1.0,Taxi
26.8,0.13725831250529547,6.6282299466077745,11.371627571732068,1.081754209764966,0.14655316664311055,300.2303576638185,12.452551445765591,0.0,1.0,0.0,0.0,1.0,Taxi
26.900000000000002,0.051557455727679315,24.38628302252009,11.27561583521909,0.8178254923811451,0.23556121453893344,300.307210344796,11.422062359156484,0.0,1.0,0.0,0.0,1.0,Taxi
27.0,0.06124151865134904,-23.160238140617036,10.600202494973656,1.0464008913601726,-0.2432240539577141,300.18002123984184,10.837747101110718,0.0,1.0,0.0,0.0,1.0,Taxi
27.1,0.021457121802210172,-25.26439422332706,10.680540737153803,0.8809962606714473,0.0078880372529904,300.2339354682722,11.691151099551629,0.0,1.0,0.0,0.0,1.0,Taxi
27.200000000000003,-0.07476451538895611,-44.89385758742887,11.067605711147685,0.8016568285062127,-0.029469774189430493,300.1368329638267,12.698607869917218,0.0,1.0,0.0,0.0,1.0,Taxi
27.3,-0.16322776928579544,-3.262177277497557,9.465601908074966,0.5664858528518939,0.2284566999844361,300.3112723351626,11.409170097331753,0.0,1.0,0.0,0.0,1.0,Taxi
27.400000000000002,0.005146235414722273,4.475520476882771,9.780723042983261,0.9631167305987142,-0.23917189248680265,300.2099419466349,12.988426566985169,0.0,1.0,0.0,0.0,1.0,Taxi
27.5,-0.05238691300454238,63.00526009311409,10.445982902719944,0.9327132039613542,-0.21900061312975755,300.3063898275967,12.243637277317868,0.0,1.0,0.0,0.0,1.0,Taxi
27.6,0.15179853117977493,6.301299482009161,9.900230094853478,0.6722764228474084,0.6611353756538305,300.20009275934945,11.828467006051337,0.0,1.0,0.0,0.0,1.0,Taxi
27.700000000000003,0.03665273282476796,1.2465888425137237,11.191170974469562,0.9874120760648091,0.11806175955660021,300.18555443792604,11.969162357862317,0.0,1.0,0.0,0.0,1.0,Taxi
27.8,-0.04615396879197388,-51.15639407240243,9.99150417633678,0.9809122719397647,0.7975046195439865,300.4275214853342,12.495147605103783,0.0,1.0,0.0,0.0,1.0,Taxi
27.900000000000002,-0.10398343918223729,-29.790392016603437,11.461828388701068,0.9186260756301131,0.024074293795881604,300.33640277206837,12.50238358479199,0.0,1.0,0.0,0.0,1.0,Taxi
28.0,-0.11229922725824935,-6.624972465182239,11.15922861753604,1.003900580611345,-0.3782642340136594,300.1847084307799,11.955224371686613,0.0,1.0,0.0,0.0,1.0,Taxi
28.1,-0.0792788311178852,0.8487995656106371,9.969417640035172,0.5291730301032227,-0.20540693142381455,300.19639663699775,12.852815768489021,0.0,1.0,0.0,0.0,1.0,Taxi
28.200000000000003,-0.09973944135418424,41.77947164289876,10.750935174469717,0.7316507015736686,0.00027531085139459064,300.2482401632544,11.691245165053461,0.0,1.0,0.0,0.0,1.0,Taxi
28.3,0.09659813095624431,10.599474201460604,10.502719433235905,0.6600340304524994,0.315532324532232,300.1604390976777,11.837127915457879,0.0,1.0,0.0,0.0,1.0,Taxi
28.400000000000002,-0.026281460110582328,-2.865836228393732,10.6246987403911,1.2064275025934892,0.3136731721691805,300.2797954901964,12.44043617873758,0.0,1.0,0.0,0.0,1.0,Taxi
28.5,-0.11406862249615304,-10.207574573571321,10.276733599821318,0.8097983399294116,0.2986696876672762,300.30245032207006,12.560530102399904,0.0,1.0,0.0,0.0,1.0,Taxi
28.6,0.04556025808838753,5.216605016150402,9.902648902434683,1.1120722890289616,0.6528935098862146,300.0990510645936,11.843931434083109,0.0,1.0,0.0,0.0,1.0,Taxi
28.700000000000003,-0.00019843502983048667,10.839918819116255,11.358954072562977,1.0189435278344083,0.9768898244751238,300.2641429392727,12.14827241866515,0.0,1.0,0.0,0.0,1.0,Taxi
28.8,-0.05986902840057195,-3.7066941418945683,10.953247549874439,1.029774912818827,0.1359385630556383,300.3067063812266,11.879834757468865,0.0,1.0,0.0,0.0,1.0,Taxi
28.900000000000002,0.027026787378914535,17.96153090085973,10.5362863151275,0.8274831486773859,-0.5196966521076841,300.4074925880998,12.550655497565042,0.0,1.0,0.0,0.0,1.0,Taxi
29.0,0.08960921947446802,1.728707593598737,10.320344516772476,0.963027339609394,-0.5617157605240775,300.1583233236745,11.887727240190458,0.0,1.0,0.0,0.0,1.0,Taxi
29.1,-0.05122549043257843,2.129901611672613,10.473403792601761,0.8307043600419384,-0.3877990202369356,300.2126164865074,11.328382951273765,0.0,1.0,0.0,0.0,1.0,Taxi
29.200000000000003,0.037676295437277435,-35.273542917368935,10.909324773947699,0.7349968900642109,0.1564907055834516,300.1578514416542,12.5429311415502,0.0,1.0,0.0,0.0,1.0,Taxi
29.3,-0.08675849511237682,4.342243023284077,10.58481623976111,1.004528532530525,-0.16202948705498915,300.14004505689945,12.078557937211146,0.0,1.0,0.0,0.0,1.0,Taxi
29.400000000000002,-0.029514275316158207,-8.345679784240616,10.54509305999893,0.40950636684874053,0.0013103338696332986,300.32804226979044,11.651898496149926,0.0,1.0,0.0,0.0,1.0,Taxi
29.5,-0.004052103483925806,4.729366899087384,9.904792095053137,0.9337845967853089,-0.4743553060587557,300.30367976894445,12.878136544614266,0.0,1.0,0.0,0.0,1.0,Taxi
29.6,-0.06311166061694005,39.361276013976315,10.778413133154682,0.5444133914927676,0.5713909134143975,300.22435897038054,12.038024796841308,0.0,1.0,0.0,0.0,1.0,Taxi
29.700000000000003,0.1672921047537232,-9.270029233611714,10.38782791095556,0.8852704066959574,0.14610807764631142,300.2044861612437,11.108221419748215,0.0,1.0,0.0,0.0,1.0,Taxi
29.8,-0.050402249651984525,25.816469525905603,11.323907149801482,1.0164446610340496,0.5868622968212905,300.36688592462656,12.377147989268428,0.0,1.0,0.0,0.0,1.0,Taxi
29.900000000000002,0.06597068701258783,-45.96940033586674,10.952711527317643,0.7719222766712253,0.02116238025564225,300.2774016256318,11.812523223064328,0.0,1.0,0.0,0.0,1.0,Taxi
30.0,-0.0625548969256106,-1.2597501269627,11.16166609983609,0.5452487047920858,0.15493454545664967,300.25439018383815,12.412289769686723,0.0,1.0,0.0,0.0,1.0,Taxi
30.1,-0.056701000286798156,-8.933202535780268,10.097436386165004,0.7409549510474079,-0.44823669008105826,300.0686438519001,11.82888258155349,0.0,1.0,0.0,0.0,1.0,Taxi
30.200000000000003,0.021304674333686352,28.280330140384905,10.764493199041636,0.8188143077144889,0.10466234958066929,300.3398997162701,12.20352826747916,0.0,1.0,0.0,0.0,1.0,Taxi
30.3,0.0788467537763138,9.649914876452803,10.939176178935021,0.900544527050795,-0.1712402507102718,300.27110922493057,11.827210764217996,0.0,1.0,0.0,0.0,1.0,Taxi
30.400000000000002,-0.008451425904534295,-22.195788794036684,10.356386956320765,1.229108708443202,0.3219155276929817,300.08644501364574,11.72218657652505,0.0,1.0,0.0,0.0,1.0,Taxi
30.5,-0.0896742696364972,-20.628025967706403,11.163689018766439,0.45329475369540945,0.2818236911894926,300.46623537632377,11.695518830099445,0.0,1.0,0.0,0.0,1.0,Taxi
30.6,-0.024293376062218368,-4.431393006101599,11.236082167615038,0.5039564805943844,0.57196434724352,300.3977447295555,12.537807510305766,0.0,1.0,0.0,0.0,1.0,Taxi
30.700000000000003,-0.030608390935042435,-2.3314095799701158,10.531207545310757,0.6460585731418784,0.02947359071623705,300.35732906222165,12.632010934321553,0.0,1.0,0.0,0.0,1.0,Taxi
30.8,-0.10133131753634793,-21.363482449117555,10.683523268733461,1.0550308200971499,-0.08970232264820827,300.39623332500923,12.30597616047197,0.0,1.0,0.0,0.0,1.0,Taxi
30.900000000000002,-0.1311107883078063,-58.00456748520477,11.181578804230872,0.6646358044456205,0.06099353588971889,300.195267394711,11.945227054260169,0.0,1.0,0.0,0.0,1.0,Taxi
31.0,-0.3206312283610664,55.97563917096485,10.184871415865189,0.6110486571686102,0.05136949624205367,300.3814458575714,11.719226236836782,0.0,1.0,0.0,0.0,1.0,Taxi
31.1,0.17854687831847615,22.97941561756944,11.166531147526078,0.6069353868612667,0.9609165308027985,300.170760390415,13.374119868966543,0.0,1.0,0.0,0.0,1.0,Taxi
31.200000000000003,-0.016213710219959255,67.67958455292,9.795657575378955,0.7657936522189654,-1.007952005100222,300.28360004968613,11.80882311566121,0.0,1.0,0.0,0.0,1.0,Taxi
31.3,0.017766694403533463,-76.41218823298783,10.141032782416431,0.8654805769871886,0.7548300962900121,300.2445548837069,11.971929593184637,0.0,1.0,0.0,0.0,1.0,Taxi
31.400000000000002,-0.20351406284646317,29.807201611533674,11.326489875955964,0.9682361782217674,0.47753206016679367,300.2171867024117,12.915398009805001,0.0,1.0,0.0,0.0,1.0,Taxi
31.5,0.13282229783770896,-30.556850907534482,9.947967349190517,0.6941534316015803,-0.23152155831234092,300.24295948427607,12.433893805755863,0.0,1.0,0.0,0.0,1.0,Taxi
31.6,-0.13501756013413907,54.002117258618576,10.667332212753973,1.026568685014777,0.48932562059690954,300.27304207041163,11.730578543332706,0.0,1.0,0.0,0.0,1.0,Taxi
31.700000000000003,0.06649652344662962,0.8317177354098675,9.978377598885302,0.7140436913202169,-0.40862009201745475,300.01730858342785,11.85089670343875,0.0,1.0,0.0,0.0,1.0,Taxi
31.8,0.1369808865147582,46.19127907527653,9.375787466989932,0.8858744145801023,-0.07675092297233266,300.3128461018348,12.671909304784915,0.0,1.0,0.0,0.0,1.0,Taxi
31.900000000000002,0.09593883524224346,-26.033051047529124,11.45318117716999,0.8514143087875042,0.14428783161020034,300.43868043732004,12.052727179083753,0.0,1.0,0.0,0.0,1.0,Taxi
32.0,-0.0636687317910161,-38.14574035719651,11.226120975073634,0.9820021630009528,-0.34190142808775753,300.1834931531905,11.130345017552239,0.0,1.0,0.0,0.0,1.0,Taxi
32.1,-0.053747815271224436,-51.57740179260756,10.2814164908881,0.8027113564828455,0.1988912796701834,300.13293690720946,12.153340440913038,0.0,1.0,0.0,0.0,1.0,Taxi
32.2,-0.16194817372079442,62.184132056356844,11.404774895298301,0.8722331166186804,-0.4263783875873745,300.2982305444465,11.438673038760884,0.0,1.0,0.0,0.0,1.0,Taxi
32.300000000000004,0.24725192849076805,-0.0727175914200681,10.162074709371062,0.8913387923500027,0.1753977000927405,300.19719055048813,12.318642393747453,0.0,1.0,0.0,0.0,1.0,Taxi
32.4,-0.054111403228324854,33.31597983540097,10.085514923446336,1.1209120306361755,-0.538081773832031,300.1973480075011,11.744885933164749,0.0,1.0,0.0,0.0,1.0,Taxi
32.5,0.004631725456210317,-40.64753772230903,10.265817113195055,0.848631488325984,0.20778149320363176,300.4946244021455,12.4252570191651,0.0,1.0,0.0,0.0,1.0,Taxi
32.6,0.04401423987922283,3.3926476816161775,9.413806048740033,1.0351443441548935,0.8191722036401208,300.12700705281645,11.053922826300193,0.0,1.0,0.0,0.0,1.0,Taxi
32.7,-0.03714816482024404,-13.275902029380617,11.48952739283275,0.6644239056052459,-0.016781247960825085,300.23867373597557,11.831779396420188,0.0,1.0,0.0,0.0,1.0,Taxi
32.800000000000004,-0.06174778469069284,-8.536306497228347,11.292790234558723,0.7533078111865275,-0.5328571352720693,300.27034377082657,12.060044151077047,0.0,1.0,0.0,0.0,1.0,Taxi
32.9,0.0013327073930810202,-19.972928373469202,11.364238417878191,0.7885673366801612,-0.0835281954141641,300.18081870646165,11.304560363923501,0.0,1.0,0.0,0.0,1.0,Taxi
33.0,-0.1370128066875901,14.299188792233954,11.286374355966272,0.9999544530405752,-0.2785783632665545,300.2593562697407,12.558070181543192,0.0,1.0,0.0,0.0,1.0,Taxi
33.1,0.009748159270476862,-23.9918889222283,11.18466151514072,0.9794723335360312,0.16807405973540757,300.1845823641613,12.67717509059385,0.0,1.0,0.0,0.0,1.0,Taxi
33.2,-0.11862673721806052,19.359334872778195,9.626721572735569,0.5477004378858144,-0.45337250964622383,300.45417810726474,13.044916327207375,0.0,1.0,0.0,0.0,1.0,Taxi
33.300000000000004,-0.0402161323236992,-34.32144041236473,11.233243925147638,0.7835586022479262,-0.031497942002853385,300.25183821988526,12.160737103578679,0.0,1.0,0.0,0.0,1.0,Taxi
33.4,-0.16185904279134686,-8.643915999428645,10.160066995936388,1.0845892963334014,-0.35563226565213907,300.1837279970555,12.543443457933078,0.0,1.0,0.0,0.0,1.0,Taxi
33.5,-0.16184631721520382,-17.03514563408701,10.112652523599037,0.9309978111247422,-1.6616307570305382,300.26775100119823,12.559474400142594,0.0,1.0,0.0,0.0,1.0,Taxi
33.6,-0.1253918604941343,23.24048874761473,11.133700643000873,0.5364504789245788,-0.7634744522308223,300.13028597816924,11.937858685975355,0.0,1.0,0.0,0.0,1.0,Taxi
33.7,-0.04565659905327329,71.409743351829,10.629328601302147,1.099617450496949,-0.9918998003132903,300.20962882139156,11.765388790358635,0.0,1.0,0.0,0.0,1.0,Taxi
33.800000000000004,0.1952023995439411,16.92270841311816,10.520327197993723,0.8525903251457919,-0.2934964938191465,300.3194892569097,11.9673069960764,0.0,1.0,0.0,0.0,1.0,Taxi
33.9,-0.04077831842854361,50.29955597332656,11.170000530943778,0.7917023230411222,-0.24877229526810637,300.2183137933881,12.6608626030534,0.0,1.0,0.0,0.0,1.0,Taxi
34.0,0.20584118081335948,-47.81959933995881,11.107440059152623,0.9907965003811301,0.36986494694923516,300.19628090746664,13.044056460930868,0.0,1.0,0.0,0.0,1.0,Taxi
34.1,-0.04389559715585297,-16.63965423561004,11.524027586300186,1.0371728243620701,0.7751730038997762,300.2782767729293,11.179960532683605,0.0,1.0,0.0,0.0,1.0,Taxi
34.2,-0.1239765896065938,-41.92771726228626,10.19672959174083,0.7783328522669773,0.47103771394984234,300.2102551475157,11.347815828482057,0.0,1.0,0.0,0.0,1.0,Taxi
34.300000000000004,-0.0037974054980718856,5.28965244398702,10.54027738003432,0.5520462694702812,0.5638532153105305,300.12656415908805,11.635571878897554,0.0,1.0,0.0,0.0,1.0,Taxi
34.4,-0.01744733493591795,10.364476688565405,11.353290823557133,0.6085170816304892,0.930505436257454,300.19698323875,11.343677405933699,0.0,1.0,0.0,0.0,1.0,Taxi
34.5,-0.07215420616376683,2.3218018484580987,10.164013445291934,1.0240574317335969,0.42400421902408864,300.28629951306107,13.246849780966295,0.0,1.0,0.0,0.0,1.0,Taxi
34.6,0.007811603744218578,2.5754816197226944,9.494410741378623,0.7722751520219444,-0.18557545900970684,300.2538405532068,11.577354231333416,0.0,1.0,0.0,0.0,1.0,Taxi
34.7,-0.004569926837304506,-10.306034764687901,10.458177758328167,1.1904422997066086,0.42860219918558284,300.2556084420096,12.12577965657851,0.0,1.0,0.0,0.0,1.0,Taxi
34.800000000000004,-0.12368437998720638,10.31870925689725,11.542504806526185,0.8960136215544632,-0.5078184313646816,300.02266959734686,13.190845742608229,0.0,1.0,0.0,0.0,1.0,Taxi
34.9,0.05940515002870477,18.82996073062534,10.524188280140269,0.9542129092631413,-0.5595679923969205,300.39848827657397,11.423230469875474,0.0,1.0,0.0,0.0,1.0,Taxi
35.0,0.08957987681582213,2.047295640775772,10.23729304286002,0.8324556880994101,0.06389944816723875,300.32214239044663,11.474505498856871,0.0,1.0,0.0,0.0,1.0,Taxi
35.1,-0.11344790178332756,-4.2789482961060985,9.63996345937604,1.1086475844714931,-0.8728057021297798,300.32607796976083,12.67765166511659,0.0,1.0,0.0,0.0,1.0,Taxi
35.2,0.03801040854817425,8.880067664854181,10.724209334947238,1.0667024989355394,-0.4083972046783825,300.39803529312724,12.372218188313626,0.0,1.0,0.0,0.0,1.0,Taxi
35.300000000000004,0.133980215140093,8.701238467467022,9.007909158167516,0.7232434491507923,-0.7361197686590659,300.1417069464203,12.013561295583619,0.0,1.0,0.0,0.0,1.0,Taxi
