time_s,altitude_ft,vertical_speed_fpm,ias_kt,pitch_deg,roll_deg,heading_deg,throttle_pct,afterburner_on,gear_down,flaps_deg,speedbrake_pct,weight_on_wheels,label
0.0,-2.3515477832634804,-701.753412795851,186.56059287332516,1.7908746262281847,-4.09742592826214,57.42964499017393,42.877150728773174,0.0,1.0,13.443389396807834,7.153087274200727,0.0,Landing
0.1,-4.690725825916317,-935.5516744930159,187.1612866745643,1.5446479823101238,-4.424858999209526,57.4685748910066,42.46846120348584,0.0,1.0,13.443389396807834,7.153087274200727,0.0,Landing
0.2,-7.02930615572856,-1385.489649872147,186.7994739806805,1.7985883313615587,-4.496999996532732,57.05761905204719,42.53606763570431,0.0,1.0,13.443389396807834,7.153087274200727,0.0,Landing
0.30000000000000004,-9.278996032624216,-1379.5596325521144,184.32838905222658,1.4614872928193092,-4.261365753200418,57.11338533275023,42.76069437276844,0.0,1.0,13.443389396807834,7.153087274200727,0.0,Landing
0.4,-11.58852398867689,-1350.3672352693084,186.43844295549752,1.8878731599351168,-4.666680304701746,57.47160917401226,42.932602476544325,0.0,1.0,13.443389396807834,7.153087274200727,0.0,Landing
0.5,-13.781142332075103,-1366.100165451664,186.70987903072702,1.8598443064380663,-4.39260106284932,57.344537575023764,43.142817632952685,0.0,1.0,13.443389396807834,7.153087274200727,0.0,Landing
0.6000000000000001,-16.109496859882537,-1348.7967621296193,185.24009038528524,1.7596101044292647,-4.833868189997302,57.13337371323382,42.78087299228042,0.0,1.0,13.443389396807834,7.153087274200727,0.0,Landing
0.7000000000000001,-18.332507799324986,-1389.8100052859243,186.50391816190046,1.931818865455071,-4.092165203294484,57.16068900090721,42.67882677254977,0.0,1.0,13.443389396807834,7.153087274200727,0.0,Landing
0.8,-20.730192358504723,-1380.5416086801388,186.09341616339435,1.6483618619262832,-4.528636983649428,57.184556420864624,42.43615115612083,0.0,1.0,13.443389396807834,7.153087274200727,0.0,Landing
0.9,-23.01220490328323,-1388.8211718562204,187.4665125973588,2.2078029916442903,-4.694576751194241,57.06374294908977,42.591605882241126,0.0,1.0,13.443389396807834,7.153087274200727,0.0,Landing
1.0,-25.276613658606088,-1366.8328774635738,185.42867722196704,2.2875461005228823,-4.346551678455966,57.18753808772851,42.38929149272055,0.0,1.0,13.443389396807834,7.153087274200727,0.0,Landing
1.1,-27.564356745822593,-1372.405074563898,185.91678265775718,1.7594754726769806,-4.72233939834744,57.35268820356032,42.56285872955126,0.0,1.0,13.443389396807834,7.153087274200727,0.0,Landing
1.2000000000000002,-29.874230276102722,-1371.6103489904383,187.5067671750915,1.6858152783153013,-4.526527953120735,57.443513719008195,42.77388729147695,0.0,1.0,13.443389396807834,7.153087274200727,0.0,Landing
1.3,-32.13466540355828,-1364.8357765574247,186.55791112212643,2.0334689589314765,-4.318740171021343,57.204093714320265,42.8214351254164,0.0,1.0,13.443389396807834,7.153087274200727,0.0,Landing
1.4000000000000001,-34.388535628609716,-1334.988102294021,186.54699028195384,1.7837809968072234,-4.727492127287709,57.321377170739254,42.3542340379738,0.0,1.0,13.443389396807834,7.153087274200727,0.0,Landing
1.5,-36.54917078757283,-1335.1895474714622,187.0934525039185,1.8297657854855045,-4.751754447465793,57.22170432077348,42.65605888091314,0.0,1.0,13.443389396807834,7.153087274200727,0.0,Landing
1.6,-38.81061314091559,-1364.5949018308145,185.17696397293153,1.8774927667344588,-4.508849284154332,57.249535714344574,42.10358839298692,0.0,1.0,13.443389396807834,7.153087274200727,0.0,Landing
1.7000000000000002,-41.21151013776379,-1381.5281304582086,186.6667991815262,1.9538118067783543,-4.5151998322961475,57.4480172868964,43.16826638179304,0.0,1.0,13.443389396807834,7.153087274200727,0.0,Landing
1.8,-43.45681143986387,-1388.5494774309975,187.04782719438998,1.9996325673589603,-4.699169495764558,57.086430760704445,43.41464718472723,0.0,1.0,13.443389396807834,7.153087274200727,0.0,Landing
1.9000000000000001,-45.75336052807058,-1374.9646316605977,184.86341001272672,1.8094135407561505,-4.603074703138537,57.11105601278132,42.734134238050274,0.0,1.0,13.443389396807834,7.153087274200727,0.0,Landing
2.0,-48.086333296066776,-1374.47339380371,185.13773800692564,1.6135681066964984,-4.589792059465207,57.321496835404105,42.61627648717095,0.0,1.0,13.443389396807834,7.153087274200727,0.0,Landing
2.1,-50.32917840888242,-1354.4685287307573,185.254361338425,1.922656000964797,-4.554400574831944,57.09267023506652,42.66355580215414,0.0,1.0,13.443389396807834,7.153087274200727,0.0,Landing
2.2,-52.525703171724366,-1336.5968629568854,188.15852072902692,1.6755134149072244,-4.559234312557119,57.14224161198803,42.92658060685482,0.0,1.0,13.443389396807834,7.153087274200727,0.0,Landing
2.3000000000000003,-54.7693176108512,-1348.283226610532,186.94284574927931,1.5975267932968347,-4.45398634764191,57.21544496983262,43.01811631241891,0.0,1.0,13.443389396807834,7.153087274200727,0.0,Landing
2.4000000000000004,-57.07059454193508,-1365.963350344853,185.9237411564115,2.1471308987580335,-4.596632699720885,57.32394291993705,42.60195495229789,0.0,1.0,13.443389396807834,7.153087274200727,0.0,Landing
2.5,-59.35551992344863,-1351.4814586910932,185.77918668787302,1.75927208826856,-4.287287939411634,57.487369683641305,42.06683234145227,0.0,1.0,13.443389396807834,7.153087274200727,0.0,Landing
2.6,-61.52672490430667,-1355.2161024040913,185.2074205315492,1.566235815056927,-4.621906188154557,57.54684996334697,42.527622114596966,0.0,1.0,13.443389396807834,7.153087274200727,0.0,Landing
2.7,-63.846675053955536,-1349.1074014883409,185.94498266397622,1.5665586488116872,-4.495114413454256,57.03573121592382,42.91296050856345,0.0,1.0,13.443389396807834,7.153087274200727,0.0,Landing
2.8000000000000003,-66.10105693089034,-1355.808548931641,186.7413539374152,1.766759684002285,-4.36351624953101,57.363609010708046,43.2873073935471,0.0,1.0,13.443389396807834,7.153087274200727,0.0,Landing
2.9000000000000004,-68.30576764896487,-1344.5339270049574,186.73136081826786,1.9674281125049564,-4.008442892611445,57.33207168051473,42.08443524238196,0.0,1.0,13.443389396807834,7.153087274200727,0.0,Landing
3.0,-70.56934468898032,-1340.0156097224283,186.46612941062392,1.6930561156869608,-3.953121910354536,57.11268044819229,42.723620931287705,0.0,1.0,13.443389396807834,7.153087274200727,0.0,Landing
3.1,-72.80113497950248,-1346.1136121405473,187.1451223429205,2.060103250412289,-4.455741529182441,57.387839661608666,42.59987372830022,0.0,1.0,13.443389396807834,7.153087274200727,0.0,Landing
3.2,-75.03633570966761,-1335.3917041816658,187.74737249175786,2.0801812615666746,-4.417100015421575,57.082467305323576,43.235064376779576,0.0,1.0,13.443389396807834,7.153087274200727,0.0,Landing
3.3000000000000003,-77.24630320988865,-1336.02917333873,186.45286831378766,1.554072562100419,-4.617657890949644,56.97064217947178,42.6022454855288,0.0,1.0,13.443389396807834,7.153087274200727,0.0,Landing
3.4000000000000004,-79.48128084619613,-1325.79890740127,185.75555570545953,1.8191104557366036,-4.419747593012395,57.170020129872626,42.86935971727318,0.0,1.0,13.443389396807834,7.153087274200727,0.0,Landing
3.5,-81.66533024667396,-1317.4866093374192,185.80593223196618,1.8421123959211934,-4.344005824022117,57.10235860417367,42.56388041863297,0.0,1.0,13.443389396807834,7.153087274200727,0.0,Landing
3.6,-83.83373625657575,-1318.1706994500587,186.9659866440575,2.110691468497054,-4.588633521025439,57.53064679507776,42.505833431764636,0.0,1.0,13.443389396807834,7.153087274200727,0.0,Landing
3.7,-86.07213434344642,-1344.3116698428496,186.03294727831477,1.7282144926340106,-4.59634254068574,57.43052712827722,43.360118909068156,0.0,1.0,13.443389396807834,7.153087274200727,0.0,Landing
3.8000000000000003,-88.38688859588821,-1359.676126920749,185.35060983301832,1.9106488417310015,-4.57320916117551,57.55361575174868,42.60645537149164,0.0,1.0,13.443389396807834,7.153087274200727,0.0,Landing
3.9000000000000004,-90.63211689117949,-1353.6245478212322,187.06704393810847,1.8841548463373348,-4.464890079124472,57.366675743393216,42.58010022546051,0.0,1.0,13.443389396807834,7.153087274200727,0.0,Landing
4.0,-92.84025708255258,-1339.977522934092,184.24931022799913,2.202180235834396,-4.717418707303177,57.00261649437283,43.026772394586736,0.0,1.0,13.443389396807834,7.153087274200727,0.0,Landing
4.1000000000000005,-95.08677621055867,-1315.6116979398946,185.19334417271725,1.7646868377612965,-4.434396219101318,57.19037992877645,42.71946245848158,0.0,1.0,13.443389396807834,7.153087274200727,0.0,Landing
4.2,-97.21017538087897,-1309.8921026875332,186.0248135432208,1.8510719534965723,-4.338011954388587,57.32282082252732,42.674005714892395,0.0,1.0,13.443389396807834,7.153087274200727,0.0,Landing
4.3,-99.38971759599025,-1296.410262864734,186.00442018392215,1.9258806310034058,-4.660995900842615,56.94793795799512,43.14927899150276,0.0,1.0,13.443389396807834,7.153087274200727,0.0,Landing
4.4,-101.56882752488234,-1321.6519229830085,186.209181677437,1.6471702024876127,-4.3787630263314234,57.01157650020264,42.573265723803885,0.0,1.0,13.443389396807834,7.153087274200727,0.0,Landing
4.5,-103.81843499579401,-1322.2620057662596,186.53949731302768,1.8007645267826378,-4.722819375844358,57.461188155806724,42.479074938648765,0.0,1.0,13.443389396807834,7.153087274200727,0.0,Landing
4.6000000000000005,-106.00102762482155,-1310.8264016100948,187.30597018729966,1.7525397989711782,-4.513051670729568,57.290719847245896,42.64025545119902,0.0,1.0,13.443389396807834,7.153087274200727,0.0,Landing
4.7,-108.12295953293281,-1314.6331736404336,186.41970799938665,1.8531310036711388,-5.019658494203606,57.03554530449986,43.38531287663155,0.0,1.0,13.443389396807834,7.153087274200727,0.0,Landing
4.800000000000001,-110.39160086399617,-1333.8203454223135,185.7175870917369,1.8369714127375842,-4.6221285279563284,57.557027224070396,42.53888897205948,0.0,1.0,13.443389396807834,7.153087274200727,0.0,Landing
4.9,-112.67012935193311,-1341.5140534756374,185.86766202917872,1.905068774684764,-4.296064010879262,57.61959734376745,42.56851902199674,0.0,1.0,13.443389396807834,7.153087274200727,0.0,Landing
5.0,-114.830529800311,-1320.5766035517372,187.7027796518906,1.8662471154410794,-4.735707208926201,57.35665336996874,43.14145111319915,0.0,1.0,13.443389396807834,7.153087274200727,0.0,Landing
5.1000000000000005,-116.99448388175486,-1298.1888822535693,186.05347540241988,1.892692422854916,-4.241242790268229,57.1640206994922,42.91277509760534,0.0,1.0,13.443389396807834,7.153087274200727,0.0,Landing
5.2,-119.16107376320096,-1290.0038160208794,187.14706587476246,1.7623975364950228,-4.293413825904417,56.88282899108344,42.41246077364495,0.0,1.0,13.443389396807834,7.153087274200727,0.0,Landing
5.300000000000001,-121.2805488804154,-1291.9998538444331,187.0861118122626,1.7383827993255396,-4.4872452936762866,56.893172569995045,42.89713546909852,0.0,1.0,13.443389396807834,7.153087274200727,0.0,Landing
5.4,-123.45448315097703,-1294.8478356506569,186.75734585485256,1.7069762263101338,-4.164099571377004,57.05438263741911,43.03207523596037,0.0,1.0,13.443389396807834,7.153087274200727,0.0,Landing
5.5,-125.63531294145425,-1322.7925343428524,184.67188300952665,2.0064209736702345,-4.459901511105331,57.509139412123886,42.57166745789526,0.0,1.0,13.443389396807834,7.153087274200727,0.0,Landing
5.6000000000000005,-127.89451155212966,-1316.918786372443,187.09410237854786,1.5046427380016605,-4.733181468683606,57.1111337039531,42.97984690323961,0.0,1.0,13.443389396807834,7.153087274200727,0.0,Landing
5.7,-130.03907708283924,-1328.6821381779164,184.82849087268838,1.7920196666506687,-4.6077113685216124,57.11808772193399,42.51790767395644,0.0,1.0,13.443389396807834,7.153087274200727,0.0,Landing
5.800000000000001,-132.27872363234383,-1289.8391985291228,184.5935853171305,1.926040122034659,-4.690530696194172,57.34366150263901,42.88929234169503,0.0,1.0,13.443389396807834,7.153087274200727,0.0,Landing
5.9,-134.34370754477527,-1300.1003820416715,184.94024852193652,2.117884824049679,-4.67578787348786,57.418728790572686,42.80052982716609,0.0,1.0,13.443389396807834,7.153087274200727,0.0,Landing
6.0,-136.5395789930476,-1283.376242559035,183.1378901954817,1.7979014120343533,-4.643719269912238,57.41160160701895,42.38019656554925,0.0,1.0,13.443389396807834,7.153087274200727,0.0,Landing
6.1000000000000005,-138.695604845139,-1319.6124266891445,185.08513941990427,1.995853847231953,-4.803071797256705,57.21336017030649,42.77374693412349,0.0,1.0,13.443389396807834,7.153087274200727,0.0,Landing
6.2,-140.941769678221,-1306.9422404550096,185.92784656138326,1.8765524516244654,-4.326144081636133,57.385507551438934,42.71591466521834,0.0,1.0,13.443389396807834,7.153087274200727,0.0,Landing
6.300000000000001,-143.07429019532265,-1321.2486692894345,185.56526009575836,1.5196717870050032,-4.879364771360819,57.27399298354288,42.70608368650178,0.0,1.0,13.443389396807834,7.153087274200727,0.0,Landing
6.4,-145.30184819158617,-1305.1648152212124,185.5919267811015,1.830995120137585,-4.344205859690769,57.09509707498279,42.282598876869706,0.0,1.0,13.443389396807834,7.153087274200727,0.0,Landing
6.5,-147.46759375432705,-1302.5880906516193,186.17978946680546,2.1766788685367104,-4.30453381303726,57.26221601445911,42.821658634235284,0.0,1.0,13.443389396807834,7.153087274200727,0.0,Landing
6.6000000000000005,-149.58723064858074,-1286.6188059154865,187.35194270969575,2.3760695285980478,-4.361790762778761,57.408201590338535,42.73038170989368,0.0,1.0,13.443389396807834,7.153087274200727,0.0,Landing
6.7,-151.7349422211636,-1298.7655986348443,187.08467870638097,1.6988158248133345,-4.429842224079617,57.40413675284026,42.80504834435954,0.0,1.0,13.443389396807834,7.153087274200727,0.0,Landing
6.800000000000001,-153.96142174750128,-1295.275192532273,184.71813114426135,1.6591250960169794,-4.384180325667065,57.44005562205393,43.10735127826224,0.0,1.0,13.443389396807834,7.153087274200727,0.0,Landing
6.9,-156.0636066112421,-1314.4152902696533,183.45522074844723,2.1974040800634427,-4.610293818372034,57.227816270204244,42.630056534334344,0.0,1.0,13.443389396807834,7.153087274200727,0.0,Landing
7.0,-158.30701867251187,-1291.4153753152277,185.73362714894918,2.2108657936471,-4.485399515899834,57.13784832465086,42.336675190517944,0.0,1.0,13.443389396807834,7.153087274200727,0.0,Landing
7.1000000000000005,-160.41849862407742,-1302.6502882258285,185.00324672209197,2.056390110961053,-4.497007384701596,57.558229592062276,43.281710239402415,0.0,1.0,13.443389396807834,7.153087274200727,0.0,Landing
7.2,-162.57685805237125,-1291.3077163082164,186.88724953684078,1.533360790680121,-4.528897404291235,57.35701531853442,42.28228441853297,0.0,1.0,13.443389396807834,7.153087274200727,0.0,Landing
7.300000000000001,-164.76355725405296,-1294.6296801198287,186.90334723701574,1.6475135778283785,-4.621867925959729,57.31571740572741,42.12547138145865,0.0,1.0,13.443389396807834,7.153087274200727,0.0,Landing
7.4,-166.89164702467656,-1294.2343040683681,187.31381793208428,1.684964538745203,-4.375708081732317,57.33987508525394,42.76832482602853,0.0,1.0,13.443389396807834,7.153087274200727,0.0,Landing
7.5,-169.0480295727131,-1311.8281017269226,186.34676979015308,1.796094705988581,-4.485349985132971,57.32847799306745,42.86766431276124,0.0,1.0,13.443389396807834,7.153087274200727,0.0,Landing
7.6000000000000005,-171.32269776268757,-1326.3560576319662,185.95218662208896,1.5991559731544727,-4.580556380405154,57.45836124540824,42.897388244045885,0.0,1.0,13.443389396807834,7.153087274200727,0.0,Landing
7.7,-173.5234273128364,-1304.7547599290112,185.09529286427676,1.782799295786789,-4.700380821226847,57.29246383264473,42.79802667593366,0.0,1.0,13.443389396807834,7.153087274200727,0.0,Landing
7.800000000000001,-175.57180337235815,-1272.0004444681877,186.30479179787494,1.809623659377759,-4.770963523328786,57.1118952365473,42.442383220953516,0.0,1.0,13.443389396807834,7.153087274200727,0.0,Landing
7.9,-177.6826999850285,-1256.7582417657945,184.96503419493496,1.5782804248699067,-4.399616750855328,57.01579138878583,42.59912973175192,0.0,1.0,13.443389396807834,7.153087274200727,0.0,Landing
8.0,-179.80721852166536,-1279.6821711430312,186.37971695339138,1.7205897428280956,-4.623870178540638,57.49583553510115,42.58707388364399,0.0,1.0,13.443389396807834,7.153087274200727,0.0,Landing
8.1,-181.9702142280733,-1285.120330987121,185.9393553287473,1.9858592054249102,-4.37196435193172,57.322086841429496,42.38958264715822,0.0,1.0,13.443389396807834,7.153087274200727,0.0,Landing
8.200000000000001,-184.1083016399641,-1291.5787391198023,186.4225209944997,1.5865316967907561,-4.499267186246233,57.365874576491876,42.943216533462845,0.0,1.0,13.443389396807834,7.153087274200727,0.0,Landing
8.3,-186.26511221726437,-1274.0903110265037,184.94914519000093,1.6445228025692273,-4.600435782436361,57.23253309370398,42.81054580286834,0.0,1.0,13.443389396807834,7.153087274200727,0.0,Landing
8.4,-188.34066578320582,-1266.257023555903,186.72424122074793,1.9454299379147189,-4.222691523442545,57.086149513849136,43.122893008686574,0.0,1.0,13.443389396807834,7.153087274200727,0.0,Landing
8.5,-190.43958675774363,-1260.5265997803485,187.644029664649,1.4901082106633063,-4.757315013377451,57.255497366925226,43.126410678548595,0.0,1.0,13.443389396807834,7.153087274200727,0.0,Landing
8.6,-192.56774521616612,-1262.842362777161,185.60374053997268,1.768844260371167,-4.504938977181588,57.10774415354814,42.52141845510145,0.0,1.0,13.443389396807834,7.153087274200727,0.0,Landing
8.700000000000001,-194.65487759709163,-1259.3502908694632,185.08155775177394,1.8693396276661711,-4.703841169481233,57.41609407114771,43.44027582358103,0.0,1.0,13.443389396807834,7.153087274200727,0.0,Landing
8.8,-196.73633821209094,-1258.2428192799512,185.9068173743415,1.601221520404054,-4.397626154247093,57.30554464658968,42.41272232968406,0.0,1.0,13.443389396807834,7.153087274200727,0.0,Landing
8.9,-198.85895931256587,-1260.3853080165493,184.62651565357302,1.6966854621682952,-4.493971147535085,57.47612738188377,42.5283962975518,0.0,1.0,13.443389396807834,7.153087274200727,0.0,Landing
9.0,-200.95680413717437,-1258.8027370879217,185.25832082934923,2.3678660539427607,-4.149009989294051,57.312882290420646,42.437643248763365,0.0,1.0,13.443389396807834,7.153087274200727,0.0,Landing
9.1,-203.03035189753055,-1245.5540257818939,184.8538418018057,2.1497255332621417,-4.743814790836694,57.34313284112875,43.183202467272416,0.0,1.0,13.443389396807834,7.153087274200727,0.0,Landing
9.200000000000001,-205.08672944147534,-1241.9015883688019,185.14789660401922,1.5481397493419857,-4.595953467630364,57.45061807650336,43.043056958243156,0.0,1.0,13.443389396807834,7.153087274200727,0.0,Landing
9.3,-207.16631207901838,-1241.320163824514,185.55662199651434,1.941575697648052,-4.350444581540178,57.176922219787514,42.47659214025092,0.0,1.0,13.443389396807834,7.153087274200727,0.0,Landing
9.4,-209.23695271665312,-1245.0263427133336,184.73169272767774,1.8457705845147139,-4.434214142350885,57.282524769638144,42.93871055957612,0.0,1.0,13.443389396807834,7.153087274200727,0.0,Landing
9.5,-211.311861155042,-1234.8516815381856,187.06991903809663,1.797415286189523,-4.54144030831776,57.197955945441436,42.41998620571033,0.0,1.0,13.443389396807834,7.153087274200727,0.0,Landing
9.600000000000001,-213.3405704867093,-1223.4966725425238,187.24269946048315,1.7672252416035374,-4.411210678591356,57.20415891775872,43.140108551525124,0.0,1.0,13.443389396807834,7.153087274200727,0.0,Landing
9.700000000000001,-215.35443607936574,-1241.4981473470505,186.80279855874917,1.5678591402280828,-4.255243986013053,57.0177212854893,42.79400110268047,0.0,1.0,13.443389396807834,7.153087274200727,0.0,Landing
9.8,-217.51935189177726,-1260.9111004294675,186.26543837361032,1.7314112196896974,-4.409985025181086,57.594667920790016,43.354514045514364,0.0,1.0,13.443389396807834,7.153087274200727,0.0,Landing
9.9,-219.64512598885665,-1269.4156437840036,187.40230263680792,1.8126617099000328,-4.386827546513864,57.479480017790706,43.10329987566205,0.0,1.0,13.443389396807834,7.153087274200727,0.0,Landing
10.0,-221.70151429828576,-1247.7050118439365,186.07604370195818,2.0150864375343187,-4.391719360564345,57.454309706951676,42.765725652103974,0.0,1.0,13.443389396807834,7.153087274200727,0.0,Landing
10.100000000000001,-223.75787695099694,-1243.119131742577,186.65918262124214,1.5025237748566551,-4.236035282728868,57.35286817273334,43.09794226484658,0.0,1.0,13.443389396807834,7.153087274200727,0.0,Landing
10.200000000000001,-225.86072164756953,-1263.6290740012782,186.17496511544812,1.8764235185083797,-4.565216590776774,57.24753159525551,42.423174370798534,0.0,1.0,13.443389396807834,7.153087274200727,0.0,Landing
10.3,-228.01965966829215,-1265.0685842696248,184.54632578144745,1.7763517375002311,-4.160114257085862,57.42368203933569,42.74141336018112,0.0,1.0,13.443389396807834,7.153087274200727,0.0,Landing
10.4,-230.08321987234507,-1262.8543664150186,187.37795594076275,1.8131485839985322,-4.487879303850793,57.419329936592135,42.64787120625761,0.0,1.0,13.443389396807834,7.153087274200727,0.0,Landing
10.5,-232.17499347964463,-1243.8774520502648,186.0835385723173,1.9120308255430734,-4.654390923661192,57.44135168427897,42.67561667167971,0.0,1.0,13.443389396807834,7.153087274200727,0.0,Landing
10.600000000000001,-234.23904692854347,-1249.728820814272,188.12744578040395,1.8723639126243148,-4.672870406226434,57.446221760971014,42.454391153492864,0.0,1.0,13.443389396807834,7.153087274200727,0.0,Landing
10.700000000000001,-236.33186397641643,-1263.7453681530758,185.8676523931856,2.0278262909456246,-4.053250101435575,57.324621251546034,42.61477647245181,0.0,1.0,13.443389396807834,7.153087274200727,0.0,Landing
10.8,-238.49372032041,-1265.3028288665726,188.4560944567881,1.7334258070857105,-4.322309823296573,57.43957289119243,42.40696638724834,0.0,1.0,13.443389396807834,7.153087274200727,0.0,Landing
10.9,-240.56556107287633,-1259.8622529546788,186.3590785057231,1.9244763029359144,-4.450791153850521,57.393931206192974,42.9344467916923,0.0,1.0,13.443389396807834,7.153087274200727,0.0,Landing
11.0,-242.63117524118982,-1210.4284459031533,185.2115561144593,2.1960611327327073,-4.150703066864006,57.18797159934991,42.41129471238262,0.0,1.0,13.443389396807834,7.153087274200727,0.0,Landing
11.100000000000001,-244.54586254992577,-1230.0026937764471,186.05935857280446,1.8667698975378142,-4.4028940414211135,57.492131487252834,42.86985292927813,0.0,1.0,13.443389396807834,7.153087274200727,0.0,Landing
11.200000000000001,-246.71557454175857,-1231.2483901815142,186.0691770278729,1.836641562796892,-4.664103129314441,57.43908017373616,42.613289357820314,0.0,1.0,13.443389396807834,7.153087274200727,0.0,Landing
11.3,-248.7874171920974,-1253.2613051274097,184.78300378376653,1.5277528659500277,-4.205921368721079,57.463611134261555,42.821971630010374,0.0,1.0,13.443389396807834,7.153087274200727,0.0,Landing
11.4,-250.81216907556282,-1226.8771280609997,187.7885404468712,1.5168696960605472,-4.390789512406614,57.22273496853501,42.83041371568971,0.0,1.0,13.443389396807834,7.153087274200727,0.0,Landing
11.5,-252.84996018206357,-1207.7741819217636,186.3195669826614,1.7300144875752241,-4.567450473601083,57.08794636132444,43.2292757261298,0.0,1.0,13.443389396807834,7.153087274200727,0.0,Landing
11.600000000000001,-254.8262881017062,-1215.7207770881143,187.47833215220464,1.7522162320744492,-4.410183278304199,57.04714843949222,42.36321362869967,0.0,1.0,13.443389396807834,7.153087274200727,0.0,Landing
11.700000000000001,-256.8907729610034,-1226.6012203826676,187.84906483330988,1.618998175355259,-4.520570650426839,57.19443021635095,41.94787571426027,0.0,1.0,13.443389396807834,7.153087274200727,0.0,Landing
11.8,-258.9829662839769,-1229.4393669727697,185.5927307193046,1.7300849544677823,-4.853511590640461,57.41019208252146,42.576122444094516,0.0,1.0,13.443389396807834,7.153087274200727,0.0,Landing
11.9,-260.97348493657006,-1227.3604938718108,186.0890634669198,1.7168765339757122,-4.5574160342934835,57.20811731202764,42.44376542840519,0.0,1.0,13.443389396807834,7.153087274200727,0.0,Landing
12.0,-263.02757543036245,-1217.6524820579289,187.13990166859656,2.0405023353393204,-4.744726209254407,57.348446177937035,42.061081680992864,0.0,1.0,13.443389396807834,7.153087274200727,0.0,Landing
12.100000000000001,-265.07122869426655,-1231.3752462217392,186.18378873044006,1.855491726128802,-4.534438417577026,57.11557058813929,42.635152940227925,0.0,1.0,13.443389396807834,7.153087274200727,0.0,Landing
12.200000000000001,-267.13036116767876,-1230.717857546358,185.97965799410446,1.8806870514123186,-4.667291914438821,57.4045558200022,42.66694468289946,0.0,1.0,13.443389396807834,7.153087274200727,0.0,Landing
12.3,-269.18116471809424,-1231.8865346918528,186.49497429777867,1.692851635183879,-4.302814733291039,57.23442933604008,42.8722026575512,0.0,1.0,13.443389396807834,7.153087274200727,0.0,Landing
12.4,-271.2306613677258,-1229.2701490758761,186.25661085830535,2.03110186222841,-4.503855314770487,57.353373682370545,42.9981350883508,0.0,1.0,13.443389396807834,7.153087274200727,0.0,Landing
12.5,-273.27671191305814,-1237.6093377207897,183.75180675428345,1.6583899926269248,-4.63976447853482,57.30834321194044,42.5175489525115,0.0,1.0,13.443389396807834,7.153087274200727,0.0,Landing
12.600000000000001,-275.3692114066982,-1241.307954797935,187.5635294226153,1.86684759110994,-4.421303099060978,57.33600291359187,43.35322335229876,0.0,1.0,13.443389396807834,7.153087274200727,0.0,Landing
12.700000000000001,-277.4372011417155,-1233.7584760760365,187.3474792408485,1.8097781297493465,-4.19732631360893,57.13835637025335,42.21497233021526,0.0,1.0,13.443389396807834,7.153087274200727,0.0,Landing
12.8,-279.4455042934383,-1213.0486295136052,185.9629540229239,1.640500684922618,-4.52500059758696,57.18237856674915,42.318318236051134,0.0,1.0,13.443389396807834,7.153087274200727,0.0,Landing
12.9,-281.4344545542662,-1201.904244444063,187.08667678398925,1.8549089710028324,-4.355777426367784,57.33487451043936,42.25782652775702,0.0,1.0,13.443389396807834,7.153087274200727,0.0,Landing
13.0,-283.4467223639358,-1207.0618350656332,185.28700263076877,1.923913431870769,-4.801652814057249,57.06078758114796,42.655942787372275,0.0,1.0,13.443389396807834,7.153087274200727,0.0,Landing
13.100000000000001,-285.4808134687665,-1195.569782516509,186.39230161352486,1.7652894188314556,-4.494204635924909,57.17256526330874,42.54563425569951,0.0,1.0,13.443389396807834,7.153087274200727,0.0,Landing
13.200000000000001,-287.41230346684875,-1190.0191639289576,186.60156809390284,2.1051763259113447,-4.718485737527755,57.396366276891,42.32564149349947,0.0,1.0,13.443389396807834,7.153087274200727,0.0,Landing
13.3,-289.3968181835806,-1196.766441529462,185.37459922164913,1.7602583205512718,-4.536191888560766,57.345454010957155,42.55617669838525,0.0,1.0,13.443389396807834,7.153087274200727,0.0,Landing
13.4,-291.4646456764138,-1206.6343070394169,185.28794557334143,1.643877150011317,-4.928155031734682,57.25593154988894,42.57840089629563,0.0,1.0,13.443389396807834,7.153087274200727,0.0,Landing
13.5,-293.44547500204584,-1204.9951051968264,186.54294818032344,1.4854111967733972,-4.534348132995378,57.251342325692406,42.34650550547646,0.0,1.0,13.443389396807834,7.153087274200727,0.0,Landing
13.600000000000001,-295.4217937095647,-1191.3585427149767,186.5043562269257,1.8864226385173963,-4.470212878942589,57.30110096845698,43.09823718001921,0.0,1.0,13.443389396807834,7.153087274200727,0.0,Landing
13.700000000000001,-297.4214383899887,-1214.9318034587734,185.23883603989862,1.807328495851258,-4.085719460582391,57.35502337857827,42.427501826813184,0.0,1.0,13.443389396807834,7.153087274200727,0.0,Landing
13.8,-299.5201340193397,-1225.048735697271,186.93965314688526,1.6894073573558204,-4.405275760970676,57.39715910728779,42.809614211998394,0.0,1.0,13.443389396807834,7.153087274200727,0.0,Landing
13.9,-301.5470373880511,-1224.475092096816,184.75250843706254,1.822511321453281,-4.44030095738932,57.11641888275693,42.43353271307638,0.0,1.0,13.443389396807834,7.153087274200727,0.0,Landing
14.0,-303.54381385047276,-1205.6624174889293,183.11738573707345,2.044220208796194,-4.55663580398412,57.408277463718036,42.67838550030155,0.0,1.0,13.443389396807834,7.153087274200727,0.0,Landing
14.100000000000001,-305.54844610678435,-1206.9970932448884,186.72323796049497,1.8973181495035438,-3.898499773908579,56.992996968575085,42.89852767006731,0.0,1.0,13.443389396807834,7.153087274200727,0.0,Landing
14.200000000000001,-307.5820228542755,-1211.5152692614174,186.74457745471489,1.8035075141673185,-4.483185458396872,57.484951706385004,42.811848337777725,0.0,1.0,13.443389396807834,7.153087274200727,0.0,Landing
14.3,-309.60139019677985,-1207.0728582367226,184.29831371739908,1.3022366731654682,-4.36310103809161,57.53658584188156,42.80738118139906,0.0,1.0,13.443389396807834,7.153087274200727,0.0,Landing
14.4,-311.58381039796797,-1208.0132507026176,186.72627314633635,1.5673257967115564,-4.635906525655972,57.249101374315615,42.749417939569334,0.0,1.0,13.443389396807834,7.153087274200727,0.0,Landing
14.5,-313.6220891077886,-1208.124760514704,185.33050353185928,1.7382005337884703,-4.481295511747199,57.36141443764444,42.66821540284001,0.0,1.0,13.443389396807834,7.153087274200727,0.0,Landing
14.600000000000001,-315.64201399935337,-1218.299529641183,185.06328199317346,1.5715429649454944,-4.435873907204767,57.27256599778855,42.27033750100284,0.0,1.0,13.443389396807834,7.153087274200727,0.0,Landing
14.700000000000001,-317.6753080461739,-1207.6970688758365,185.35324434215843,1.991773082727316,-4.546081396663392,57.124242892068025,42.78965380924998,0.0,1.0,13.443389396807834,7.153087274200727,0.0,Landing
14.8,-319.6605744521678,-1194.809385104634,185.11742452648167,1.9458234102211394,-4.716913538385682,57.48170804729216,42.837929352004345,0.0,1.0,13.443389396807834,7.153087274200727,0.0,Landing
14.9,-321.61606092487654,-1178.7860626384145,186.22493075667063,1.646100714974084,-4.230993861533621,57.127104578427634,42.79441264407464,0.0,1.0,13.443389396807834,7.153087274200727,0.0,Landing
15.0,-323.56923835936595,-1168.535928327492,185.52237345691904,1.8897982622508682,-4.799290836251165,57.31359879203478,42.671015164774325,0.0,1.0,13.443389396807834,7.153087274200727,0.0,Landing
15.100000000000001,-325.50325409380525,-1160.784370124736,187.4069705052759,1.7146084211706545,-4.6134513871841785,57.36629430721081,43.32419626790179,0.0,1.0,13.443389396807834,7.153087274200727,0.0,Landing
15.200000000000001,-327.4199827755002,-1179.810458805662,186.84756751948615,1.4952944297960373,-4.38259692740438,57.21219656559509,42.56958946442284,0.0,1.0,13.443389396807834,7.153087274200727,0.0,Landing
15.3,-329.46829065339426,-1191.968993551609,186.37565947008937,1.5618530459745765,-4.1575114131594155,57.44631038653375,42.38857753164337,0.0,1.0,13.443389396807834,7.153087274200727,0.0,Landing
15.4,-331.4630990615633,-1216.255210178372,186.13406745020546,1.5015089098890504,-3.8573993287064607,57.10688146438656,42.883902384985774,0.0,1.0,13.443389396807834,7.153087274200727,0.0,Landing
15.5,-333.5012588263921,-1191.0371506366118,186.53998627258363,1.9302239412612705,-4.2737215824064405,57.13131311739846,42.37912246839785,0.0,1.0,13.443389396807834,7.153087274200727,0.0,Landing
15.600000000000001,-335.4234764065773,-1188.4578292239328,186.3483323160664,1.3544326617486537,-4.580169891162473,57.27275437507285,42.70302797321366,0.0,1.0,13.443389396807834,7.153087274200727,0.0,Landing
15.700000000000001,-337.40538820768296,-1174.0626561465433,186.61329047702955,1.7178020936141456,-4.6430792152369245,57.31540317359264,42.34206880312061,0.0,1.0,13.443389396807834,7.153087274200727,0.0,Landing
15.8,-339.3715721071248,-1177.8504713512348,187.16633309017107,1.792230325187619,-4.820399872674889,57.218388967046735,42.796224287669496,0.0,1.0,13.443389396807834,7.153087274200727,0.0,Landing
15.9,-341.3127287633335,-1164.1192917326064,186.96316475290277,1.6329574221468233,-4.337923612570705,57.25784568963206,43.310517943430774,0.0,1.0,13.443389396807834,7.153087274200727,0.0,Landing
16.0,-343.225984666346,-1152.3341770040245,186.50312330800247,2.036007224135498,-4.226461256734194,57.366562834444665,42.89871200670834,0.0,1.0,13.443389396807834,7.153087274200727,0.0,Landing
16.1,-345.1332429921449,-1149.1843719299595,184.8230668966724,1.970257560894043,-4.721302964546546,57.3591898118176,42.02679964215947,0.0,1.0,13.443389396807834,7.153087274200727,0.0,Landing
16.2,-347.0586506229833,-1161.1547038954202,187.04331571954432,1.6799742415146688,-4.495568200419806,57.28088703812159,42.86956203864774,0.0,1.0,13.443389396807834,7.153087274200727,0.0,Landing
16.3,-349.0317581858231,-1165.0458558314085,186.63116224673755,2.0092278285416327,-4.33938163216437,57.27521466740683,42.46866025552952,0.0,1.0,13.443389396807834,7.153087274200727,0.0,Landing
16.400000000000002,-350.95847227130196,-1162.9098750010028,186.19041221194936,1.8559514561908208,-4.3558608132432886,57.17004490454684,42.574911983097614,0.0,1.0,13.443389396807834,7.153087274200727,0.0,Landing
16.5,-352.8731999979883,-1163.4935212452774,186.50873779211722,1.9996156237621956,-4.3913353685669625,57.62688403753356,42.34567008668351,0.0,1.0,13.443389396807834,7.153087274200727,0.0,Landing
16.6,-354.8492257920495,-1151.084203831704,184.8245981820307,2.2009499051780606,-4.861607711265257,57.31173180552639,42.77332070931727,0.0,1.0,13.443389396807834,7.153087274200727,0.0,Landing
16.7,-356.7138932904605,-1150.6516911943324,186.09003489189442,1.362753193524171,-4.6897960963013805,57.02479567616882,43.12820557074888,0.0,1.0,13.443389396807834,7.153087274200727,0.0,Landing
16.8,-358.62645845395997,-1142.4761028226385,186.32719816081325,2.1523959018289722,-4.598207418146054,57.560066955512184,42.74635977864096,0.0,1.0,13.443389396807834,7.153087274200727,0.0,Landing
16.900000000000002,-360.5616063061627,-1155.8413867691343,187.96913844192053,1.7327110356255948,-4.2026879912745105,57.07988517617389,42.82914863231746,0.0,1.0,13.443389396807834,7.153087274200727,0.0,Landing
17.0,-362.49310022430615,-1157.709942194424,184.78624123027814,1.475466741279282,-4.5480422822037685,57.352343327005144,42.660475423209554,0.0,1.0,13.443389396807834,7.153087274200727,0.0,Landing
17.1,-364.4150081649321,-1146.3905951608695,185.3632420993709,1.7474813439905892,-4.744688230344504,57.20510842691829,42.76058467066371,0.0,1.0,13.443389396807834,7.153087274200727,0.0,Landing
17.2,-366.293559281967,-1139.9740812804905,185.33454717468774,1.6179228071640441,-3.920736413992974,57.36716569560451,43.061202512782124,0.0,1.0,13.443389396807834,7.153087274200727,0.0,Landing
17.3,-368.1929706307086,-1143.571011823644,186.00613311802144,1.6283354523030096,-4.47340242241997,57.15723630624183,42.91771287449435,0.0,1.0,13.443389396807834,7.153087274200727,0.0,Landing
17.400000000000002,-370.1328632240503,-1165.760713063014,187.89816564494404,1.8426695680435652,-4.438850979103537,57.316557285449505,42.688793439291516,0.0,1.0,13.443389396807834,7.153087274200727,0.0,Landing
17.5,-372.1223628472821,-1170.2454763047172,187.15541290386824,1.915297761774042,-4.3105076802744335,57.38186057105497,42.839898108930626,0.0,1.0,13.443389396807834,7.153087274200727,0.0,Landing
17.6,-374.0441980122322,-1143.6251629086316,186.0910254912041,1.6066364563270505,-4.4798200066174045,57.3339422962149,42.73214227034595,0.0,1.0,13.443389396807834,7.153087274200727,0.0,Landing
17.7,-375.85098903859347,-1139.261390853778,186.34285715094555,1.8270348465015318,-4.435079703780677,57.469599613314415,43.31997635254052,0.0,1.0,13.443389396807834,7.153087274200727,0.0,Landing
17.8,-377.818669801551,-1144.898176659956,184.7112472006438,1.9152222221449628,-4.412996184469517,57.22018051452136,42.83224874739932,0.0,1.0,13.443389396807834,7.153087274200727,0.0,Landing
17.900000000000002,-379.76868889553197,-1173.0052481481264,185.99741661299456,1.856231968570922,-4.82070258408101,57.04515698416793,42.946525992426466,0.0,1.0,13.443389396807834,7.153087274200727,0.0,Landing
18.0,-381.7160152793341,-1165.2808624345314,185.71749740885693,2.1203784731651787,-4.62333503153248,57.213110587408664,42.524573057287675,0.0,1.0,13.443389396807834,7.153087274200727,0.0,Landing
18.1,-383.64507411372364,-1156.529380731092,185.7839351415103,1.9624514791790098,-4.489282791104069,57.05514453731564,42.93622624653846,0.0,1.0,13.443389396807834,7.153087274200727,0.0,Landing
18.2,-385.5513357991874,-1163.0998956803978,185.44010583929904,1.828877862921524,-4.911379775008295,57.09474103714143,42.33042686454562,0.0,1.0,13.443389396807834,7.153087274200727,0.0,Landing
18.3,-387.5315147577361,-1172.3380838308342,186.177510568305,1.876576395647915,-4.329381115379379,57.47430704310136,42.746447027813225,0.0,1.0,13.443389396807834,7.153087274200727,0.0,Landing
18.400000000000002,-389.5067645328778,-1172.5940031267555,185.6528883420847,1.9133069279412147,-4.378436229841354,57.24770395668622,42.82446668817711,0.0,1.0,13.443389396807834,7.153087274200727,0.0,Landing
18.5,-391.4143058148212,-1145.7006711847953,186.9334194275652,1.6960735266440223,-4.646347992365634,57.334264648261694,42.892034478531116,0.0,1.0,13.443389396807834,7.153087274200727,0.0,Landing
18.6,-393.26001811366007,-1145.584053452194,186.22561381953042,1.9999507639272354,-4.648184880907921,57.30660549233647,42.629229515209865,0.0,1.0,13.443389396807834,7.153087274200727,0.0,Landing
18.7,-395.2346848001388,-1122.1625726714365,187.20609255552375,1.674377230772655,-4.655502405509953,57.31136636687643,43.122014801621155,0.0,1.0,13.443389396807834,7.153087274200727,0.0,Landing
18.8,-397.0251186781784,-1138.2477507828414,188.15853311227698,1.8404541102703695,-4.305283899965053,57.31427121535904,42.8964912889926,0.0,1.0,13.443389396807834,7.153087274200727,0.0,Landing
18.900000000000002,-398.9512568675743,-1141.129631744309,186.69373428293758,1.544751145663087,-4.161664781307755,57.168692443400516,42.30861199474058,0.0,1.0,13.443389396807834,7.153087274200727,0.0,Landing
19.0,-400.9403329588603,-1158.8598272549805,185.8590107881605,2.047125556815422,-4.814848054594069,57.09598573386643,42.74339370426252,0.0,1.0,13.443389396807834,7.153087274200727,0.0,Landing
19.1,-402.8194178144533,-1152.4945578517872,186.77131793027343,1.5469249112803405,-4.603849710731754,57.17636697427179,42.831527981767195,0.0,1.0,13.443389396807834,7.153087274200727,0.0,Landing
19.200000000000003,-404.7137296568332,-1125.1473113646282,184.85186100865346,1.6064983046839159,-4.611526058006561,57.16478324887305,42.743387525135475,0.0,1.0,13.443389396807834,7.153087274200727,0.0,Landing
19.3,-406.56606951568347,-1123.7899946845457,185.61643094468525,2.230157078652684,-4.294992183665416,57.22645816994145,43.02187071130968,0.0,1.0,13.443389396807834,7.153087274200727,0.0,Landing
19.400000000000002,-408.438367787876,-1131.431324910045,185.49020178328166,1.8216841772716794,-4.301860229079903,57.26157975264175,42.2933848816872,0.0,1.0,13.443389396807834,7.153087274200727,0.0,Landing
19.5,-410.37088628138343,-1134.326796796745,184.70588766666404,1.4697395396919266,-4.378367213028072,57.127395746607135,42.97720875390497,0.0,1.0,13.443389396807834,7.153087274200727,0.0,Landing
19.6,-412.2377034996672,-1116.2182584432346,185.8386182629526,1.6918429186848438,-4.396935631047262,57.30203092646741,42.517914296633435,0.0,1.0,13.443389396807834,7.153087274200727,0.0,Landing
19.700000000000003,-414.0194590800922,-1097.450819737912,186.6070274783628,1.8438341497259392,-4.566579894667376,57.39124848390105,42.89246498837344,0.0,1.0,13.443389396807834,7.153087274200727,0.0,Landing
19.8,-415.858140380073,-1091.7922437124732,187.23908807586662,1.7219381890568126,-4.34953998253702,57.26771560247778,42.45019346448659,0.0,1.0,13.443389396807834,7.153087274200727,0.0,Landing
19.900000000000002,-417.69666471822956,-1103.1584992533565,185.92442933395247,1.6375794490410327,-4.422720658306495,57.199688044058746,42.67043585923293,0.0,1.0,13.443389396807834,7.153087274200727,0.0,Landing
20.0,-419.535251576359,-1100.9152407751117,187.33158718793058,1.646418678380943,-4.376757446781049,57.53507641747353,42.42364083624459,0.0,1.0,13.443389396807834,7.153087274200727,0.0,Landing
20.1,-421.36271658394855,-1117.9966425845234,186.89276364624726,1.5131098625111001,-4.883986564996846,57.389109887422876,42.61054352155027,0.0,1.0,13.443389396807834,7.153087274200727,0.0,Landing
20.200000000000003,-423.2866479311522,-1114.504986622228,187.4607617753841,1.8259718016600373,-4.400118763995673,57.382493761732405,42.18235907051629,0.0,1.0,13.443389396807834,7.153087274200727,0.0,Landing
20.3,-425.1077765094701,-1128.2449543193595,186.81844005379548,1.764907653026118,-4.099066387841261,57.255430354457644,42.07249055881089,0.0,1.0,13.443389396807834,7.153087274200727,0.0,Landing
20.400000000000002,-427.00394135554535,-1126.3689878689547,185.36878168372036,1.6687523114402385,-4.335651761272551,57.33256000630621,42.76169884666916,0.0,1.0,13.443389396807834,7.153087274200727,0.0,Landing
20.5,-428.91849287049695,-1138.872920294614,185.24910810209389,1.949750074272578,-4.8175665303538056,57.280931107792696,42.99690410724655,0.0,1.0,13.443389396807834,7.153087274200727,0.0,Landing
20.6,-430.8021411109432,-1125.3160898609278,186.4103734111023,1.773254312564864,-4.665762011064794,57.08395825117259,42.47815077195553,0.0,1.0,13.443389396807834,7.153087274200727,0.0,Landing
20.700000000000003,-432.63052180485,-1099.3472788036686,186.95407717777042,1.9392305780270422,-4.433501993897784,57.26053433245846,42.840314256096626,0.0,1.0,13.443389396807834,7.153087274200727,0.0,Landing
20.8,-434.4152292645153,-1078.6759949147265,185.50930940335107,1.849919066456551,-4.479178029475346,57.469122778741166,42.86954966997475,0.0,1.0,13.443389396807834,7.153087274200727,0.0,Landing
20.900000000000002,-436.1955210855168,-1079.024385429875,187.66321774503237,1.7740300014583903,-4.335491495648624,57.15073447744987,42.896962780075924,0.0,1.0,13.443389396807834,7.153087274200727,0.0,Landing
21.0,-438.02564373199937,-1100.2475681603073,187.02448967999223,1.6729970228649893,-4.616190467711102,57.39526929997879,42.98390689332007,0.0,1.0,13.443389396807834,7.153087274200727,0.0,Landing
21.1,-439.9164671053168,-1117.9773281192183,185.9997331205279,2.245507719047157,-4.854736885129569,57.24769012375435,43.25082774930488,0.0,1.0,13.443389396807834,7.153087274200727,0.0,Landing
21.200000000000003,-441.7854077261129,-1111.320431648767,184.8758893080968,1.705333811285831,-4.783945444727979,57.050484926990976,42.48260228684456,0.0,1.0,13.443389396807834,7.153087274200727,0.0,Landing
21.3,-443.5822458902432,-1097.1556649806416,186.33138904666603,1.8614466368253224,-4.512616666020243,56.98015583221144,42.63109308976206,0.0,1.0,13.443389396807834,7.153087274200727,0.0,Landing
21.400000000000002,-445.40224543022003,-1100.400730027991,187.27214083082328,1.5962504897846634,-4.785694898342738,57.28777936105308,42.59874955241286,0.0,1.0,13.443389396807834,7.153087274200727,0.0,Landing
21.5,-447.28741137625286,-1103.8845272618346,185.90178421393017,2.0627572029578514,-4.4771053028030385,57.41477705739163,43.33050698596125,0.0,1.0,13.443389396807834,7.153087274200727,0.0,Landing
21.6,-449.1016685265524,-1119.4644414699153,187.38468710022966,1.8497900386701511,-4.718759399116604,57.07028436305649,42.86253657036814,0.0,1.0,13.443389396807834,7.153087274200727,0.0,Landing
21.700000000000003,-450.9995676375696,-1106.4724243162573,185.99737368552388,1.7825077430770881,-4.799563544911233,57.301229817082,42.423388387201655,0.0,1.0,13.443389396807834,7.153087274200727,0.0,Landing
21.8,-452.81977349783415,-1091.9037644950322,186.65639172908124,1.842635137699557,-4.454749008345236,57.28288280248893,42.96339616188526,0.0,1.0,13.443389396807834,7.153087274200727,0.0,Landing
21.900000000000002,-454.56118734902753,-1095.2086255284257,185.5222293097977,1.7432835375205606,-4.587601424462151,57.31504970593858,42.70252992705826,0.0,1.0,13.443389396807834,7.153087274200727,0.0,Landing
22.0,-456.47561076521174,-1096.3358732115012,185.52812978820845,1.2349894818397487,-4.687195864630192,57.28195253247907,43.01340423925898,0.0,1.0,13.443389396807834,7.153087274200727,0.0,Landing
22.1,-458.30145286389165,-1122.9433416419508,186.84945509730306,1.952823299468971,-4.505284228053861,57.33774864502334,42.947269774049154,0.0,1.0,13.443389396807834,7.153087274200727,0.0,Landing
22.200000000000003,-460.1759040572373,-1111.663320359071,187.860115444848,1.6870936739849764,-4.527504405243462,57.39381888470132,43.05648660785303,0.0,1.0,13.443389396807834,7.153087274200727,0.0,Landing
22.3,-462.0339273670071,-1112.050596400343,186.2160444154061,2.1534570217974904,-4.422713786344936,57.42780076553697,43.371752303949805,0.0,1.0,13.443389396807834,7.153087274200727,0.0,Landing
22.400000000000002,-463.86170584589337,-1100.5721426019136,185.45618970686476,2.129881430057155,-4.453403218202506,57.344486737462034,42.96812731231386,0.0,1.0,13.443389396807834,7.153087274200727,0.0,Landing
22.5,-465.67876477024686,-1095.7995286502753,187.86573128309752,1.515040655949814,-4.317621759188278,57.54235208819182,43.11062715094329,0.0,1.0,13.443389396807834,7.153087274200727,0.0,Landing
22.6,-467.51292501025847,-1086.300787003006,187.31587235291832,1.5459391254421713,-4.068242437368332,57.43542726038186,42.636759577471125,0.0,1.0,13.443389396807834,7.153087274200727,0.0,Landing
22.700000000000003,-469.2932097809084,-1090.4364192294568,186.09594539377193,2.1220245763302477,-4.618713072666743,57.4874764497697,42.61234515451467,0.0,1.0,13.443389396807834,7.153087274200727,0.0,Landing
22.8,-471.13094686639414,-1086.7229239218432,185.84170805096235,1.6294966446687398,-4.758188701728067,57.043141423759096,42.75001627489097,0.0,1.0,13.443389396807834,7.153087274200727,0.0,Landing
22.900000000000002,-472.9465396298677,-1093.542761272931,185.74011424264026,1.736109574782307,-4.145379842804514,57.317936583907056,42.781968836294006,0.0,1.0,13.443389396807834,7.153087274200727,0.0,Landing
23.0,-474.76092358727306,-1104.1989654494046,187.75676724147183,1.6772066644274928,-4.289947999871758,56.89042946141711,43.25629888361433,0.0,1.0,13.443389396807834,7.153087274200727,0.0,Landing
23.1,-476.65194169364116,-1101.3770992289776,185.85848918967463,1.7852416660252517,-4.587053071401819,57.32842049471617,42.91104713837817,0.0,1.0,13.443389396807834,7.153087274200727,0.0,Landing
23.200000000000003,-478.4534251260126,-1107.1159159529998,186.68949178715602,2.039188299630871,-4.415592210922391,57.1463890675908,42.41712307893157,0.0,1.0,13.443389396807834,7.153087274200727,0.0,Landing
23.3,-480.29650316703805,-1102.2556792107707,187.33234022785388,1.648786988542259,-4.530919148186368,57.04184438437835,42.523228945438625,0.0,1.0,13.443389396807834,7.153087274200727,0.0,Landing
23.400000000000002,-482.163220089695,-1106.1106474495662,184.28097642146253,1.6865936576999876,-4.431780805048012,57.12695827757216,42.54241215606446,0.0,1.0,13.443389396807834,7.153087274200727,0.0,Landing
23.5,-483.9839783632604,-1079.0673151044757,185.41979633365045,2.0687106312071397,-4.311304832868492,57.3375653053356,42.72129037629308,0.0,1.0,13.443389396807834,7.153087274200727,0.0,Landing
23.6,-485.69183974256043,-1044.7502879424064,184.99972189998732,1.7012089759965414,-4.68138787728219,57.38252383995638,42.897441381943096,0.0,1.0,13.443389396807834,7.153087274200727,0.0,Landing
23.700000000000003,-487.38697152940705,-1028.021247138031,187.08397263231336,2.0403983254385283,-4.394497365984585,57.06251730829325,42.891020972896094,0.0,1.0,13.443389396807834,7.153087274200727,0.0,Landing
23.8,-489.12408459895056,-1053.1447407428686,186.58946833489287,1.8700995432440726,-4.356415298053685,57.020345723790115,42.53077078246323,0.0,1.0,13.443389396807834,7.153087274200727,0.0,Landing
23.900000000000002,-490.9575634462748,-1058.696226638972,187.44476721722972,1.8092885699452324,-4.5607781521416495,57.384747112169805,43.015208597433805,0.0,1.0,13.443389396807834,7.153087274200727,0.0,Landing
24.0,-492.6804526626019,-1069.6594042131096,185.7994353023638,1.650694333031439,-4.674117609734715,57.449112463773076,42.54752741368277,0.0,1.0,13.443389396807834,7.153087274200727,0.0,Landing
24.1,-494.4723816200161,-1056.8937912815386,186.86580706079963,1.8974056621776996,-4.520561347786179,57.379660269781596,42.81227227488667,0.0,1.0,13.443389396807834,7.153087274200727,0.0,Landing
24.200000000000003,-496.24203240268247,-1060.9774189650352,185.71787523977721,1.9466004822840979,-4.301888797735823,57.49477785839116,42.94334292034321,0.0,1.0,13.443389396807834,7.153087274200727,0.0,Landing
24.3,-497.9853397574271,-1059.9695186430608,185.91984589363938,1.6363390151837929,-4.349206619004555,57.46805969461411,42.6189055408514,0.0,1.0,13.443389396807834,7.153087274200727,0.0,Landing
24.400000000000002,-499.7722292132314,-1048.894015339772,186.79097540962985,1.5753492610994735,-4.73273369374637,57.41071969352413,42.65345045636876,0.0,1.0,13.443389396807834,7.153087274200727,0.0,Landing
24.5,-501.48650247938133,-1051.1087186840427,185.6610476207485,1.5962474120523122,-4.694259230075784,57.202525428394665,42.922576124799505,0.0,1.0,13.443389396807834,7.153087274200727,0.0,Landing
24.6,-503.2408833508473,-1058.30052751038,186.1553940433827,2.053769662504453,-4.508509443624384,57.31030903461311,42.56466994247425,0.0,1.0,13.443389396807834,7.153087274200727,0.0,Landing
24.700000000000003,-505.0637318507833,-1066.9765827477136,185.15282933534937,1.8245931567197389,-4.3381575804893275,57.12828299078865,43.25708640005519,0.0,1.0,13.443389396807834,7.153087274200727,0.0,Landing
24.8,-506.8213853931199,-1060.4576226326117,185.82804013689707,2.0875492703007072,-4.272685625417289,57.408616144734765,42.306004795934356,0.0,1.0,13.443389396807834,7.153087274200727,0.0,Landing
24.900000000000002,-508.54317146401036,-1043.051755545855,186.06174236828656,1.974803118016057,-4.401731497933948,57.35825815856839,42.95993620747226,0.0,1.0,13.443389396807834,7.153087274200727,0.0,Landing
25.0,-510.2789906285126,-1050.3225966151717,185.430901315831,1.8155721076827405,-4.7882397516876685,57.422605947977615,42.39778692046343,0.0,1.0,13.443389396807834,7.153087274200727,0.0,Landing
25.1,-512.0729983761958,-1074.0968993444767,186.6870126852068,1.7622492906526437,-4.497591495255943,56.98914782730475,43.12347695450972,0.0,1.0,13.443389396807834,7.153087274200727,0.0,Landing
25.200000000000003,-513.9136559607327,-1073.0200790803565,187.40947403057135,1.9422425684272753,-4.578831568890973,57.52325469090033,42.15195905977572,0.0,1.0,13.443389396807834,7.153087274200727,0.0,Landing
25.3,-515.6440910239144,-1054.194012346079,187.08296128672097,1.6185331551409177,-4.611668950797433,57.400639977798505,42.47670773240277,0.0,1.0,13.443389396807834,7.153087274200727,0.0,Landing
25.400000000000002,-517.3439684379262,-1028.0888034764757,185.31471625229292,1.6266657166288783,-4.5356157760726665,57.08010769698899,43.211267477225896,0.0,1.0,13.443389396807834,7.153087274200727,0.0,Landing
25.5,-519.0540999781151,-1047.5661561712286,184.7002010058795,1.6331755764810003,-4.4373901194517895,57.500651129143876,42.62181074557787,0.0,1.0,13.443389396807834,7.153087274200727,0.0,Landing
25.6,-520.8819218047705,-1045.6357488058075,185.03178721249017,1.8425788558655687,-5.09409984704717,57.20125430846417,42.64982101142895,0.0,1.0,13.443389396807834,7.153087274200727,0.0,Landing
25.700000000000003,-522.5721471819552,-1054.2222589432868,187.57107781059554,1.4784942026729577,-4.726456119784112,57.22271204438522,42.83369721714932,0.0,1.0,13.443389396807834,7.153087274200727,0.0,Landing
25.8,-524.3252112728316,-1049.4638576531997,186.6300622628282,2.0325831242271026,-4.730397247742898,57.253275758846996,43.038032394976874,0.0,1.0,13.443389396807834,7.153087274200727,0.0,Landing
25.900000000000002,-526.1292410930365,-1067.154993720942,186.64590279348656,1.7492416956103383,-4.457148340149895,57.364050607773265,42.90945080293496,0.0,1.0,13.443389396807834,7.153087274200727,0.0,Landing
26.0,-527.9079221505599,-1048.813658905533,188.29008736856684,1.8163946837147282,-4.542735103051292,57.07310126507605,42.41501484599174,0.0,1.0,13.443389396807834,7.153087274200727,0.0,Landing
26.1,-529.5692795673592,-1045.0244219647175,186.21654999856008,1.9158952794122674,-4.512615815143673,57.154313341319266,42.48670104587263,0.0,1.0,13.443389396807834,7.153087274200727,0.0,Landing
26.200000000000003,-531.3543632028601,-1018.1660288353669,187.42280584128062,1.6415396982892192,-4.76176406532431,57.466920210611136,42.775473001766564,0.0,1.0,13.443389396807834,7.153087274200727,0.0,Landing
26.3,-532.9987522947367,-1017.8810537525123,187.0255548310325,1.8498843664327667,-4.57706539621607,57.209482086314836,42.56045731867526,0.0,1.0,13.443389396807834,7.153087274200727,0.0,Landing
26.400000000000002,-534.6586848361218,-1001.6761251418529,186.73702969098613,1.9464349837125465,-4.621856373677415,57.450635386752026,42.83409640623908,0.0,1.0,13.443389396807834,7.153087274200727,0.0,Landing
26.5,-536.3627438285694,-1026.534449224323,186.74456069042958,1.7715809568390186,-4.868739853186659,57.24539688937938,42.4783646167446,0.0,1.0,13.443389396807834,7.153087274200727,0.0,Landing
26.6,-538.1314245408583,-1034.9749605956276,187.49748788039687,1.7150262201465931,-4.106500132406255,57.145521800936365,42.63869948884463,0.0,1.0,13.443389396807834,7.153087274200727,0.0,Landing
26.700000000000003,-539.8335596390999,-1036.1093609461932,187.13173589306587,1.6918255567295335,-4.391944586274954,57.48682217976642,42.12635977901208,0.0,1.0,13.443389396807834,7.153087274200727,0.0,Landing
26.8,-541.5432906333003,-1032.2040532783376,186.43306722611388,1.8759633093703092,-4.809289967859677,57.32814343794314,43.26833954331273,0.0,1.0,13.443389396807834,7.153087274200727,0.0,Landing
26.900000000000002,-543.29244480725,-1037.4843255616042,186.48554021369927,1.941472228931954,-4.5322722935461055,57.296255204193585,42.97251134223941,0.0,1.0,13.443389396807834,7.153087274200727,0.0,Landing
27.0,-545.0209812669079,-1035.3024094524471,186.9277744611667,2.0097645885638813,-4.813948416054492,57.376810338892426,42.3657104022893,0.0,1.0,13.443389396807834,7.153087274200727,0.0,Landing
27.1,-546.7198026805626,-1033.839076902018,187.72892351583116,1.6541852527388543,-4.229074689823098,57.35526331506139,42.48407315760987,0.0,1.0,13.443389396807834,7.153087274200727,0.0,Landing
27.200000000000003,-548.4616401917601,-1047.983455537792,187.3758287557769,1.9000376126232779,-4.840792321423599,57.132882314062726,42.96108404049357,0.0,1.0,13.443389396807834,7.153087274200727,0.0,Landing
27.3,-550.2608985445969,-1037.6775289504849,187.713647075099,1.741439675331238,-4.25397005246622,57.18093557511253,42.66272259186989,0.0,1.0,13.443389396807834,7.153087274200727,0.0,Landing
27.400000000000002,-551.908190325315,-1022.5694583873974,185.3477307385511,1.6006246997948939,-4.709493175505134,57.16433224164581,42.53608552307212,0.0,1.0,13.443389396807834,7.153087274200727,0.0,Landing
27.5,-553.5744874836971,-990.9171289267988,187.04611517674857,1.9037829100451402,-4.63559559900008,57.21660135343569,42.80853329847765,0.0,1.0,13.443389396807834,7.153087274200727,0.0,Landing
27.6,-555.2154841892309,-990.9649934566687,187.86620459627903,2.315770353999188,-4.600325303368393,57.34134699497099,42.48773017670793,0.0,1.0,13.443389396807834,7.153087274200727,0.0,Landing
27.700000000000003,-556.8630152925983,-991.7189305593411,184.23633293218415,1.6368798029338196,-4.370884920962673,57.33829856574357,42.287887203117705,0.0,1.0,13.443389396807834,7.153087274200727,0.0,Landing
27.8,-558.5330821364938,-1023.6644663749303,186.5740425727001,1.711255849334564,-4.633452006580825,57.19744029370912,43.19783458604064,0.0,1.0,13.443389396807834,7.153087274200727,0.0,Landing
27.900000000000002,-560.3338065211055,-1038.0810622032186,185.9044273188776,1.5612536083801194,-4.466327753261403,57.24852702984231,42.79728569272842,0.0,1.0,13.443389396807834,7.153087274200727,0.0,Landing
28.0,-562.0534206036144,-1058.6795522149032,183.87417286203683,1.8453606868551176,-4.194402252023464,57.207021391949354,42.78580458716797,0.0,1.0,13.443389396807834,7.153087274200727,0.0,Landing
28.1,-563.8264798975683,-1049.619007847923,186.42810747224598,2.0384296651030582,-4.4471142118118046,57.443906183184026,42.287867896482034,0.0,1.0,13.443389396807834,7.153087274200727,0.0,Landing
28.200000000000003,-565.5819015603452,-1044.228673842872,185.96441870990444,1.7692691023321137,-4.508374121128552,57.29647011361993,43.00878991424263,0.0,1.0,13.443389396807834,7.153087274200727,0.0,Landing
28.3,-567.2745639728288,-1007.6889180375701,184.2611411959608,1.9298923973513344,-4.324771439148504,57.29218970346,42.360598774939426,0.0,1.0,13.443389396807834,7.153087274200727,0.0,Landing
28.400000000000002,-568.8649244877562,-993.8946044680733,186.74242698025893,1.6720548874231334,-4.664069365443453,57.35422565141994,42.58357833622592,0.0,1.0,13.443389396807834,7.153087274200727,0.0,Landing
28.5,-570.5513745826855,-980.8026552980664,188.45001667405904,1.8448326470364704,-4.572879824253522,57.371730835572635,42.89413978121726,0.0,1.0,13.443389396807834,7.153087274200727,0.0,Landing
28.6,-572.1785772493191,-988.179316338119,187.07435521224488,1.9793705388464542,-4.560843743456785,57.37123324161331,42.21117597413522,0.0,1.0,13.443389396807834,7.153087274200727,0.0,Landing
28.700000000000003,-573.8058210694468,-984.1180691772934,185.82568810028508,1.9929165687040604,-4.87490619368183,57.353694943793755,43.41560133484765,0.0,1.0,13.443389396807834,7.153087274200727,0.0,Landing
28.8,-575.471964928572,-1002.0134107587182,186.33729633572113,1.9048538671302973,-4.37848823443805,57.25958079889881,42.86885507862379,0.0,1.0,13.443389396807834,7.153087274200727,0.0,Landing
28.900000000000002,-577.1886443031127,-1007.5023850264415,186.67577624406033,1.6567196941942992,-4.403905724566789,57.22435354098815,42.44781876039238,0.0,1.0,13.443389396807834,7.153087274200727,0.0,Landing
29.0,-578.843332994579,-1017.2484727811252,185.3438016584099,2.1162818338407527,-4.352944218452405,57.49941574552827,42.66694356711135,0.0,1.0,13.443389396807834,7.153087274200727,0.0,Landing
29.1,-580.5582072924776,-1009.257251862141,187.44096534706205,1.9300409979475532,-4.708510419158136,57.58045570079349,42.658277500219455,0.0,1.0,13.443389396807834,7.153087274200727,0.0,Landing
29.200000000000003,-582.2349305624234,-997.4246106531155,184.6810184669204,1.8548510697828398,-4.617061516571186,57.532988701204715,42.626331441266906,0.0,1.0,13.443389396807834,7.153087274200727,0.0,Landing
29.3,-583.8304560478446,-984.4117827587752,187.68379513035518,2.165426829316647,-4.253893513108674,57.51258856294987,42.56641878973488,0.0,1.0,13.443389396807834,7.153087274200727,0.0,Landing
29.400000000000002,-585.4802662062715,-978.2670769447122,185.77713261490027,1.8932238028717359,-4.313955969340931,57.473082692877256,42.613546365580284,0.0,1.0,13.443389396807834,7.153087274200727,0.0,Landing
29.5,-587.126265947147,-992.8966863796404,186.9423517734785,1.4334249683411158,-4.501933001234135,57.42065564840425,42.9593014206911,0.0,1.0,13.443389396807834,7.153087274200727,0.0,Landing
29.6,-588.7949394797428,-989.881649502604,186.51807682414633,1.8157676837466954,-4.430498795173226,57.25150854456621,42.75830491339002,0.0,1.0,13.443389396807834,7.153087274200727,0.0,Landing
29.700000000000003,-590.4296744537845,-1012.8094691947126,186.31499720032687,1.983127450777584,-4.37761788411918,57.193757802302514,42.39948498098356,0.0,1.0,13.443389396807834,7.153087274200727,0.0,Landing
29.8,-592.1903132931205,-993.8488559445204,187.61171831647292,1.9820282951826533,-4.693083100354842,57.71739680482534,43.026258611276184,0.0,1.0,13.443389396807834,7.153087274200727,0.0,Landing
29.900000000000002,-593.7641837594654,-1005.3952038068928,183.0893498556315,1.6024202568510253,-4.463726459299614,57.16993204449574,43.28716506929553,0.0,1.0,13.443389396807834,7.153087274200727,0.0,Landing
30.0,-595.456650472819,-967.6613004264709,188.06388923170869,1.760357457781814,-4.308653090278606,57.17717727417863,42.675412685808475,0.0,1.0,13.443389396807834,7.153087274200727,0.0,Landing
