time_s,altitude_ft,vertical_speed_fpm,ias_kt,pitch_deg,roll_deg,heading_deg,throttle_pct,afterburner_on,gear_down,flaps_deg,speedbrake_pct,weight_on_wheels,label
0.0,0.07120615533985285,-1.9836468250878467,21.823384945217864,-0.24256159987900397,0.32472143622418814,25.498318427061804,19.853198564434386,0.0,1.0,0.0,0.0,1.0,Taxi
0.1,0.06459399925622669,5.408676818033492,21.173958884959912,-0.1796571578146837,0.08904269877367717,25.299773980461225,18.816257470824905,0.0,1.0,0.0,0.0,1.0,Taxi
0.2,0.09824953943002031,-14.595222394915893,21.99267165499619,-0.2947833722235901,-0.038731523325519344,25.56677948652998,19.44781917903746,0.0,1.0,0.0,0.0,1.0,Taxi
0.30000000000000004,-0.0017699566347266307,-20.95419636904586,20.337985665841476,-0.15454912742596952,0.2927552326235198,25.513825179950913,19.26421541251748,0.0,1.0,0.0,0.0,1.0,Taxi
0.4,-0.04017698258900262,-10.866069248177403,21.77020640546058,0.026348420986901516,-0.2752185762146099,25.57443427281055,19.457729167888946,0.0,1.0,0.0,0.0,1.0,Taxi
0.5,0.04391919318913329,8.822039157028911,21.307997701251953,-0.04562053567962293,0.4207036338134149,25.3879461108055,19.35465025224964,0.0,1.0,0.0,0.0,1.0,Taxi
0.6000000000000001,0.04234023915041792,15.615559914336556,21.634606600022018,0.13854587168939456,-0.6406857102784518,25.72543837033004,19.07149140104357,0.0,1.0,0.0,0.0,1.0,Taxi
0.7000000000000001,0.03790081698268016,29.415314153930012,20.810785289032587,-0.24785198173441492,-0.8723322716796665,25.54036278742433,20.389928465117986,0.0,1.0,0.0,0.0,1.0,Taxi
0.8,0.19099576395878337,4.824720652759429,21.35062456668253,-0.11540260835944788,0.30680629126554093,25.54734633305651,18.138470142511604,0.0,1.0,0.0,0.0,1.0,Taxi
0.9,0.06646384241421509,16.088421207181085,20.041963229251298,0.11296848374662521,-0.5366212200903747,25.652044892354297,19.732370723466456,0.0,1.0,0.0,0.0,1.0,Taxi
1.0,0.11834292301858562,-59.880735457538265,21.23758619946953,-0.304347609526059,-0.3777822484377181,25.5125934569636,19.736392729533396,0.0,1.0,0.0,0.0,1.0,Taxi
1.1,-0.10840791332890798,-32.76798645929596,21.681566672553895,0.12385858464231436,-0.5189376986248685,25.424498746900724,19.486326441680877,0.0,1.0,0.0,0.0,1.0,Taxi
1.2000000000000002,-0.09737608988226475,-39.15182698845751,22.277147267319723,0.18927237370169547,0.29824557601364926,25.62296564342654,19.586096180755455,0.0,1.0,0.0,0.0,1.0,Taxi
1.3,-0.07741621192370195,21.984976330843182,23.08747871830128,-0.3359786084040386,-0.39872688003804485,25.4988804742502,19.76511801980144,0.0,1.0,0.0,0.0,1.0,Taxi
1.4000000000000001,0.0015169683253079332,16.616584985060886,21.11747470609636,0.37222198284834956,0.6950487791716266,25.61057266869227,19.184097803393318,0.0,1.0,0.0,0.0,1.0,Taxi
1.5,-0.014293164956960303,20.755173771370636,21.912308791078594,-0.1698991731055925,0.3840536002661515,25.50228902268367,19.264426764243744,0.0,1.0,0.0,0.0,1.0,Taxi
1.6,0.02635965693315124,32.748858068854986,21.407308576473184,-0.45256398458302755,0.1321841914784341,25.731094646116162,19.289493494669177,0.0,1.0,0.0,0.0,1.0,Taxi
1.7000000000000002,0.16526125866958286,1.06585166819013,21.429380747090686,-0.33458056239320677,0.7996903745389908,25.50838490138335,19.686447649815356,0.0,1.0,0.0,0.0,1.0,Taxi
1.8,-0.008963906616009659,4.409253184366665,21.662191985287578,-0.14625012783233857,-0.4671523171753332,25.450070740484193,19.704987691394177,0.0,1.0,0.0,0.0,1.0,Taxi
1.9000000000000001,0.04840592285498456,-31.519246433082838,21.513687276545813,-0.1970722249420812,0.06504842768421473,25.546440262202452,18.923320324117764,0.0,1.0,0.0,0.0,1.0,Taxi
2.0,0.007665026504168677,23.438478093224802,22.72927599289308,-0.27261479348732787,-1.1446864808465536,25.465332930950012,19.418637394138884,0.0,1.0,0.0,0.0,1.0,Taxi
2.1,0.10822848385011437,3.0638974893861692,21.429848451523,-0.3628869964916168,-0.263897198112109,25.42563035281887,19.14385380440736,0.0,1.0,0.0,0.0,1.0,Taxi
2.2,0.0637254103019154,-2.535848667219289,20.922709344520165,-0.39593037386540353,-0.658526169461716,25.64711003537849,18.982701797638626,0.0,1.0,0.0,0.0,1.0,Taxi
2.3000000000000003,-0.005014216831927768,-2.420500788662627,21.71900539681968,0.21569202624635975,0.45497807991943223,25.38489651977045,19.215326931784656,0.0,1.0,0.0,0.0,1.0,Taxi
2.4000000000000004,0.09612597990680123,-0.537110402937279,20.964464800232516,-0.04369024401792601,0.6302940381358365,25.61545478110554,18.89282310995556,0.0,1.0,0.0,0.0,1.0,Taxi
2.5,0.061039858287229014,18.277958828419845,21.387559386650487,0.0857944784598097,-0.13570569433444726,25.672615114643463,18.550566630384687,0.0,1.0,0.0,0.0,1.0,Taxi
2.6,0.08637557731017148,-18.334457496952847,22.24475048174286,-0.30181135506537027,1.1427830764056535,25.478196970679903,19.494526412109987,0.0,1.0,0.0,0.0,1.0,Taxi
2.7,0.004453692422037005,1.0884241063222955,21.459964121378057,-0.1933738710605074,-0.42233365990680366,25.53925136455888,19.923192367618846,0.0,1.0,0.0,0.0,1.0,Taxi
2.8000000000000003,0.06648197881884049,-21.818844255034083,21.921124650815205,-0.3172578366041634,-0.5937529751980225,25.42885430782502,19.298547323427133,0.0,1.0,0.0,0.0,1.0,Taxi
2.9000000000000004,-0.022718643964998925,-21.232695022293633,21.483218315073977,-0.2137485804651709,-0.2702536900261034,25.626606631086247,19.913821003984907,0.0,1.0,0.0,0.0,1.0,Taxi
3.0,-0.10170978268943115,-22.463519485553036,21.76548960600883,0.09902472960305642,0.19105171928860054,25.383087593350695,19.838005783928764,0.0,1.0,0.0,0.0,1.0,Taxi
3.1,-0.045835618608924655,16.79022951454284,21.19105299568007,-0.2004101198469751,0.47315746929653857,25.611707434422442,19.01746603060086,0.0,1.0,0.0,0.0,1.0,Taxi
3.2,0.06123250360771529,31.02507299941937,22.095697003055665,-0.13408275485311677,0.3965497227314746,25.51260306840777,19.039313389043627,0.0,1.0,0.0,0.0,1.0,Taxi
3.3000000000000003,0.0534155823076657,-4.559182152958566,20.818180047932216,-0.24737213034641428,-0.1695209287209354,25.42702567142709,18.73490939745854,0.0,1.0,0.0,0.0,1.0,Taxi
3.4000000000000004,-0.06863152937371748,15.2759141027776,21.128422805337475,0.041163966232651616,0.5615840661928851,25.441994469296105,19.569771107200356,0.0,1.0,0.0,0.0,1.0,Taxi
3.5,0.1376120741216033,-30.550961300172442,21.657701089054676,-0.22634486031089923,-0.25956756233570155,25.560661077574537,19.70597738389817,0.0,1.0,0.0,0.0,1.0,Taxi
3.6,-0.09933922419319646,17.02318637847163,22.10366541608528,0.1409608239325408,1.454523784451385,25.392507419416518,19.447797828864314,0.0,1.0,0.0,0.0,1.0,Taxi
3.7,0.016484402518640733,-35.794076178297814,21.735777822896058,-0.1824163547397863,0.5370956867325523,25.566504078303012,19.062831922720086,0.0,1.0,0.0,0.0,1.0,Taxi
3.8000000000000003,-0.0413583067698857,23.76881270631684,21.91638341148119,0.38018317220371906,-1.007478580240902,25.52864905905875,19.40885392409156,0.0,1.0,0.0,0.0,1.0,Taxi
3.9000000000000004,0.019504839338387772,-28.324557890560587,20.877841159096153,0.13514923099118722,-0.24355133536547977,25.47200432170075,19.794778115035715,0.0,1.0,0.0,0.0,1.0,Taxi
4.0,-0.12513838693416215,-25.06385029957747,21.419149201058588,-0.11491066204791017,-0.37798995341846453,25.560318922916053,19.743382686624987,0.0,1.0,0.0,0.0,1.0,Taxi
4.1000000000000005,-0.166677558267773,-16.079100298808147,21.75202408208038,-0.09076312670126707,1.059668062848647,25.431530847591773,19.704247589817804,0.0,1.0,0.0,0.0,1.0,Taxi
4.2,-0.06089066215565291,38.61108980403607,21.642414950308577,0.16971158256226454,-0.4661729280664462,25.483714471040855,19.604036454770963,0.0,1.0,0.0,0.0,1.0,Taxi
4.3,0.06791706208601822,37.0851176936015,20.95997075343929,-0.039265190094409264,-1.125728633523234,25.472698052128862,20.018862444196348,0.0,1.0,0.0,0.0,1.0,Taxi
4.4,0.018748030200234543,-14.915923416112461,21.10300106784768,0.015538583704178141,0.5087395963506772,25.384431666054866,18.956805101254677,0.0,1.0,0.0,0.0,1.0,Taxi
4.5,-0.13547027923621519,5.773595457840514,21.52998661929582,0.3183885323918895,-1.437094493371763,25.477912489939627,19.142280266312106,0.0,1.0,0.0,0.0,1.0,Taxi
4.6000000000000005,0.09678503937522087,0.6719582560703211,22.056835975891858,-0.06315591486769037,-0.17442650877053903,25.35461474641812,18.977140618409173,0.0,1.0,0.0,0.0,1.0,Taxi
4.7,0.022107821480586237,42.16605325575867,22.868997351773732,-0.5246525824812129,0.40708421693400915,25.455558209498122,19.2412119978573,0.0,1.0,0.0,0.0,1.0,Taxi
4.800000000000001,0.07535998704257822,-26.120319614847773,20.954634868984513,-0.06991637356576329,-0.1887369055554334,25.338426260074357,20.17598123661077,0.0,1.0,0.0,0.0,1.0,Taxi
4.9,-0.033816558699017944,-40.273359779114344,21.63914043485631,0.13010482980280483,0.7174841789415587,25.409108631698132,19.0637664101221,0.0,1.0,0.0,0.0,1.0,Taxi
5.0,-0.17925897741498542,14.678169642402699,20.9972626946452,-0.0415232350588645,0.20274229326707938,25.419073466939437,19.07249226926109,0.0,1.0,0.0,0.0,1.0,Taxi
5.1000000000000005,0.1487508352545918,3.3380941518296225,21.594372671276833,-0.33604990751051,-0.45003519218298643,25.552918560885757,18.59097632971279,0.0,1.0,0.0,0.0,1.0,Taxi
5.2,-0.017126087939869746,55.62106159695136,21.37779327711338,-0.12146241362040484,0.11530474203208352,25.41536265788619,19.760126909225708,0.0,1.0,0.0,0.0,1.0,Taxi
5.300000000000001,0.09884633056977145,-37.436105583289056,21.853860214743303,0.19234911095748292,0.879212116783358,25.386246435966314,19.42281102146464,0.0,1.0,0.0,0.0,1.0,Taxi
5.4,-0.038429692661853435,5.282712847823244,20.41607644662711,-0.388160656768691,0.1294404629894024,25.47300920722256,20.134003696097764,0.0,1.0,0.0,0.0,1.0,Taxi
5.5,0.009287476299246518,-52.30758615900643,21.40947032666251,-0.44856781955642466,0.27046655851278234,25.701189291798016,20.13720525591015,0.0,1.0,0.0,0.0,1.0,Taxi
5.6000000000000005,-0.1626916002252607,-8.867892346807885,21.673997409822345,-0.27186704137311213,0.23969423741139212,25.345289298575608,18.87935929879779,0.0,1.0,0.0,0.0,1.0,Taxi
5.7,-0.08276915439589283,27.78563528724713,21.73170763164479,0.12486446011964644,-0.3537868822014444,25.581303837503356,19.40128002247983,0.0,1.0,0.0,0.0,1.0,Taxi
5.800000000000001,0.1482156527354822,49.9972133407561,21.805785676042017,-0.5139644283126484,-0.8235362473249737,25.54680595486184,20.070547202776257,0.0,1.0,0.0,0.0,1.0,Taxi
5.9,0.08729446647851985,40.24068109401772,21.703804368143697,-0.08025911982933774,0.20048178870098035,25.72054303056649,19.067922591263955,0.0,1.0,0.0,0.0,1.0,Taxi
6.0,0.11843425107419583,-19.914082320491385,22.363061733036453,-0.005179558238137039,0.7341234303475436,25.54106546435537,19.926664210415225,0.0,1.0,0.0,0.0,1.0,Taxi
6.1000000000000005,0.04864524113302534,-12.435076202950071,22.40681125098906,-0.10408556924534401,0.30581194531678885,25.51616640578652,18.191622455063285,0.0,1.0,0.0,0.0,1.0,Taxi
6.2,0.025119085463769536,-4.591959872262994,21.483390112197025,-0.4006293020262831,-0.6646201757744343,25.515651072534865,19.405232469116484,0.0,1.0,0.0,0.0,1.0,Taxi
6.300000000000001,0.09547445171288091,8.567347855129887,21.296559299674257,-0.07828684585711232,0.21991782223663028,25.508251829225514,19.121427290273388,0.0,1.0,0.0,0.0,1.0,Taxi
6.4,0.09148198040867483,1.0183225819098898,21.729286108527663,-0.32243602088166046,0.47993378221125566,25.582117038282433,19.966456128456738,0.0,1.0,0.0,0.0,1.0,Taxi
6.5,0.03021069837331905,-17.178466277880066,22.09350196003455,-0.07529336011979602,0.6050787431897228,25.458398843509258,19.24537808477125,0.0,1.0,0.0,0.0,1.0,Taxi
6.6000000000000005,0.009582120323480652,0.8629363250619851,21.63375484004832,-0.28258620153887903,0.3185455041617467,25.8156305368704,19.844374978862554,0.0,1.0,0.0,0.0,1.0,Taxi
6.7,0.09579666203398483,-26.765030108299857,20.955669935393793,-0.038072695202259796,0.13788070956097692,25.597901913773853,19.696532644653768,0.0,1.0,0.0,0.0,1.0,Taxi
6.800000000000001,-0.10361445216818017,-7.927226377477162,22.184462866719986,-0.11437663277738572,-0.30934880989656727,25.492906767119507,19.057466231100214,0.0,1.0,0.0,0.0,1.0,Taxi
6.9,-0.030054011563905095,-47.05441470982237,21.84589015709614,-0.3571516492372137,-0.08249292150568893,25.487068793666424,19.879112739350685,0.0,1.0,0.0,0.0,1.0,Taxi
7.0,-0.1394754115151269,1.6917245247536232,22.664151009873777,0.0060609999798290765,0.50900062652204,25.510393567698884,19.707046326376396,0.0,1.0,0.0,0.0,1.0,Taxi
7.1000000000000005,-0.09515582954441199,10.213483638594345,21.160263182007647,-0.13379806689997953,-0.412596943949105,25.507582148739857,18.68010669008152,0.0,1.0,0.0,0.0,1.0,Taxi
7.2,0.02101340662906671,43.384511948849706,21.75149986125715,-0.04083305116878436,-0.4315036338689145,25.576415717932377,19.696491992761086,0.0,1.0,0.0,0.0,1.0,Taxi
7.300000000000001,0.07744714822912165,55.536909543148006,21.86852486003388,-0.06525073726326766,0.3676360035652464,25.541978520307623,19.19922181221032,0.0,1.0,0.0,0.0,1.0,Taxi
7.4,0.18252871817132812,-6.448492418380511,21.47471555071934,0.09592907758004188,0.19875020276974573,25.658690687467413,19.668214715817093,0.0,1.0,0.0,0.0,1.0,Taxi
7.5,-0.01122905546283577,-23.55783977678958,21.040334763518928,0.010628641399509142,0.7414521506167082,25.416477842490167,19.562049830988325,0.0,1.0,0.0,0.0,1.0,Taxi
7.6000000000000005,-0.04034205065482621,-37.97979633017203,21.777623671245806,-0.023598137430196953,0.4643065512658201,25.509156948314455,19.941041936646467,0.0,1.0,0.0,0.0,1.0,Taxi
7.7,-0.007370263479531972,7.0856550905054085,21.3510705360307,-0.485002740032522,-0.2668313059151489,25.415391123686504,19.90974307333084,0.0,1.0,0.0,0.0,1.0,Taxi
7.800000000000001,0.024199219989691323,44.115123421501245,21.625537733076076,-0.19200497742491787,0.7834221323596621,25.465379679500302,19.043753223574583,0.0,1.0,0.0,0.0,1.0,Taxi
7.9,0.18023356645268007,1.642826226110439,21.633712609979217,-0.6322020515009286,0.1623945933815127,25.461404216149162,19.177586233843126,0.0,1.0,0.0,0.0,1.0,Taxi
8.0,0.0008438676510202506,-26.723846380712967,20.97429782326279,-0.40478182161721765,0.36301715103605825,25.591250723057897,19.3092838118209,0.0,1.0,0.0,0.0,1.0,Taxi
8.1,-0.10942001191387346,-28.321681687204926,21.348361461009826,0.1043991469849159,-0.1653908621968427,25.449278028315348,19.968796474077664,0.0,1.0,0.0,0.0,1.0,Taxi
8.200000000000001,0.038625158016655475,1.5248378367981346,21.363438284160576,-0.2213362866523835,0.26744262090117077,25.653133144663514,19.23371067662069,0.0,1.0,0.0,0.0,1.0,Taxi
8.3,0.008468056835010973,21.130794764666998,21.649146468382614,0.09967410112115554,-0.2485922849743036,25.65875677251489,19.595798420411334,0.0,1.0,0.0,0.0,1.0,Taxi
8.4,-0.003766038090538444,-13.07293709216745,21.893862973085703,-0.2866136813849887,-1.0499328653128677,25.585082913798374,19.88739152948,0.0,1.0,0.0,0.0,1.0,Taxi
8.5,-0.026739527444181732,39.724599286173124,21.8016629476065,-0.1570570033640927,0.9215457761877042,25.3994679936921,19.458381460507432,0.0,1.0,0.0,0.0,1.0,Taxi
8.6,0.20709105326587662,-9.339120270701855,22.13167806052572,-0.09975910063866664,-0.4196234682512205,25.657289124254703,20.300344266395054,0.0,1.0,0.0,0.0,1.0,Taxi
8.700000000000001,-0.050461639444047746,-25.35445115027608,21.70281930167996,0.17990793691002127,-0.26572779149381065,25.470680249011707,19.163008241849656,0.0,1.0,0.0,0.0,1.0,Taxi
8.8,-0.15351178319556216,-53.412083967370506,22.8074046146642,0.0711852763925645,-0.2977661398566689,25.480338455333253,19.703331914074617,0.0,1.0,0.0,0.0,1.0,Taxi
8.9,-0.059969366570975936,0.28998183992407817,21.843073350993187,-0.2284423024615312,0.9243483464200735,25.565377655632687,19.63120979606081,0.0,1.0,0.0,0.0,1.0,Taxi
9.0,-0.049011730244427336,5.384966072266015,20.808817560120033,-0.2271605199661822,0.2581971197077955,25.42788915786889,19.49656364380824,0.0,1.0,0.0,0.0,1.0,Taxi
9.1,-0.12658695283423207,8.217396966955953,21.376260112967696,-0.09044542628899649,0.3334935024905584,25.63849115136844,18.366141331965217,0.0,1.0,0.0,0.0,1.0,Taxi
9.200000000000001,-0.018882381736196153,42.06746578517335,23.52519246583772,0.34968361719533153,0.5002635732483514,25.593541282073772,19.295341278127847,0.0,1.0,0.0,0.0,1.0,Taxi
9.3,0.1613255986814394,-0.09560960991825596,20.804819296519703,-0.11086302098441785,0.3951780281142355,25.810921424294747,18.561478053086557,0.0,1.0,0.0,0.0,1.0,Taxi
9.4,-0.12706500088382336,-23.936360542300573,21.89585169164422,-0.2900773640359778,0.12787261168355188,25.5438592905939,19.18424174973579,0.0,1.0,0.0,0.0,1.0,Taxi
9.5,-0.13856418444769902,-17.35222240428767,22.96447678902322,-0.2802979844409744,0.11150711795600504,25.50061720691633,19.39439902397575,0.0,1.0,0.0,0.0,1.0,Taxi
9.600000000000001,0.07456448666000111,21.39732668878513,20.873403162703287,-0.16170354037846466,0.7664516676432076,25.71444655712463,20.583269341872978,0.0,1.0,0.0,0.0,1.0,Taxi
9.700000000000001,-0.020078367439897632,20.07988409442726,22.561793937473045,-0.061052512166432274,-0.5885446993198207,25.32743364515784,19.809166100867316,0.0,1.0,0.0,0.0,1.0,Taxi
9.8,-0.03816476397556264,6.687241228421428,22.560833297794552,-0.3056501051405929,-0.42472105497293294,25.536759067622086,18.91643763642358,0.0,1.0,0.0,0.0,1.0,Taxi
9.9,0.10800069280210829,-7.072586023546411,21.450217410447493,0.06542626183632971,0.3416600014113999,25.500345611902162,19.531418916465416,0.0,1.0,0.0,0.0,1.0,Taxi
10.0,-0.05544129755762966,-23.678840952473248,20.489133683612845,-0.25541317825579146,0.1822319669592512,25.637065630267102,19.6420570882345,0.0,1.0,0.0,0.0,1.0,Taxi
10.100000000000001,-0.15655896873792885,-5.586924771853934,21.98605524473335,0.13547632915360697,-0.15639453153801408,25.82468524594981,19.481486731189744,0.0,1.0,0.0,0.0,1.0,Taxi
10.200000000000001,0.08006606894283864,9.87433202201003,21.56801672966503,-0.07221494538495268,1.2055196095659688,25.446480746846987,19.440315795615156,0.0,1.0,0.0,0.0,1.0,Taxi
10.3,-0.006069637447579451,29.0274680952877,21.509395562189543,-0.19060044220196437,-0.5767777152446175,25.629608669634422,19.153876459709416,0.0,1.0,0.0,0.0,1.0,Taxi
10.4,-0.01142162826149032,-55.00019159763557,22.024484647515635,-0.6865645952539068,0.039886309065486444,25.653209007787325,19.611558639052614,0.0,1.0,0.0,0.0,1.0,Taxi
10.5,-0.19493488904533918,-18.79667193784015,21.62917405832408,-0.19450673343335217,0.15577303021587188,25.64543588628038,19.56176293092042,0.0,1.0,0.0,0.0,1.0,Taxi
10.600000000000001,-0.1000529971367802,-1.69645076870822,20.67095671638787,-0.11982962852152959,-0.18875181642759453,25.53840626826826,19.770838074662596,0.0,1.0,0.0,0.0,1.0,Taxi
10.700000000000001,-0.019903882105031415,17.695541499726662,21.55271916558349,-0.11091240794478738,-0.31959530072952735,25.585532857679482,19.85074767718874,0.0,1.0,0.0,0.0,1.0,Taxi
10.8,-0.10645718154670587,39.12130290083592,21.83983073002971,-0.002484848253181557,-0.14002407768566527,25.418801100140286,19.834445045010682,0.0,1.0,0.0,0.0,1.0,Taxi
10.9,0.09555351736739942,2.694573104401961,21.9180151211431,-0.1976979865243509,0.8079683489700892,25.691472633195758,19.484692978629045,0.0,1.0,0.0,0.0,1.0,Taxi
11.0,-0.006431016583021598,16.488879392927526,22.388789700600537,0.0001570833313358222,-0.17863453917714328,25.40606557568077,19.350080917011915,0.0,1.0,0.0,0.0,1.0,Taxi
11.100000000000001,-0.024012784582068222,0.38017831586673384,20.457525299710024,-0.3015313196446954,0.20783279235845106,25.416918317396608,19.801846853476217,0.0,1.0,0.0,0.0,1.0,Taxi
11.200000000000001,0.09745440894673309,-10.379077793292053,22.227629534103425,0.08155734995527161,-0.29165802606533503,25.485677901175222,19.020111678208682,0.0,1.0,0.0,0.0,1.0,Taxi
11.3,-0.05832640554948183,12.515789201212803,21.39196235972995,0.08437569259757755,0.3671956336903946,25.456964323402246,18.19471219351877,0.0,1.0,0.0,0.0,1.0,Taxi
11.4,0.038566161423995805,-19.475351311879585,21.733203443481866,-0.05188120143925753,0.549689590327721,25.55743720948334,18.56232220902003,0.0,1.0,0.0,0.0,1.0,Taxi
11.5,7.765238733517573e-05,28.455191768680816,22.142289594458042,0.0365983589829863,-0.08462264299192038,25.482401097832337,18.493920184866127,0.0,1.0,0.0,0.0,1.0,Taxi
11.600000000000001,0.08394955329392224,1.0456525001541408,21.16516723656461,-0.1762657893593503,0.3537619319664989,25.427065649308588,19.712248149421843,0.0,1.0,0.0,0.0,1.0,Taxi
11.700000000000001,0.04379442392476651,12.519179109904869,21.39059972880717,-0.1514104329813894,-0.05493380431605964,25.4019080198143,19.49739529156713,0.0,1.0,0.0,0.0,1.0,Taxi
11.8,0.06267354793685952,-26.97603015811768,21.958977808707534,-0.16337523583157434,0.02385584534061852,25.632781801874103,19.82480163746664,0.0,1.0,0.0,0.0,1.0,Taxi
11.9,-0.05093059749666617,-19.953238000465227,21.265485774825365,0.14439239264867088,0.22716577560983794,25.566762583070386,19.689854944405134,0.0,1.0,0.0,0.0,1.0,Taxi
12.0,-0.0559717660775596,-14.333365717386732,21.819190750961447,-0.07538333597989327,0.15876449989404381,25.383859254710046,19.949988371761645,0.0,1.0,0.0,0.0,1.0,Taxi
12.100000000000001,-0.008993280650074126,22.601076294541414,20.97418977891371,-0.26843081095107346,0.11950106807034203,25.577809293119913,19.996223988694684,0.0,1.0,0.0,0.0,1.0,Taxi
12.200000000000001,0.06207478397604091,18.821998927568448,22.34646352969502,-0.12705726360325226,-0.7362020040837906,25.481964824079625,19.90372763526792,0.0,1.0,0.0,0.0,1.0,Taxi
12.3,0.03813822856028265,17.38810399497281,22.071811629189433,-0.21028743196035318,-0.6175115120636185,25.356185378983525,19.914366599441728,0.0,1.0,0.0,0.0,1.0,Taxi
12.4,0.07794723932478993,-29.215011347349016,21.161103191156208,-0.07947545326432395,-0.864502863747983,25.389914029291447,20.25019516100296,0.0,1.0,0.0,0.0,1.0,Taxi
12.5,-0.08400027276070415,-34.21831786827028,22.27387750816428,-0.14806758363341987,-0.7005659826012005,25.615601669486864,20.472109679015613,0.0,1.0,0.0,0.0,1.0,Taxi
12.600000000000001,-0.13295336078106876,-25.144102298992266,21.872430982530734,-0.3858488958098311,0.2300505196014703,25.649050673430395,19.46844821480644,0.0,1.0,0.0,0.0,1.0,Taxi
12.700000000000001,-0.0477732721701714,3.811101028924961,21.04663207546415,-0.329577295868585,-0.1765107789286394,25.58433933189889,20.199427026202322,0.0,1.0,0.0,0.0,1.0,Taxi
12.8,-0.06494476761607931,7.760989303557408,22.030749717436446,-0.18934870873771165,-0.3159042002533121,25.440699181746595,19.139572695624118,0.0,1.0,0.0,0.0,1.0,Taxi
12.9,-0.09414841426328169,5.386775922870718,22.046376157943143,0.16093505876326497,0.9012955165554847,25.565433598055506,19.167043999315553,0.0,1.0,0.0,0.0,1.0,Taxi
13.0,-0.020839392555817803,-12.531692501229793,20.66743691994471,-0.48085731443016766,0.6012174521654701,25.563169241984895,20.26015957915495,0.0,1.0,0.0,0.0,1.0,Taxi
13.100000000000001,-0.12760323012222827,7.715219630332399,20.15977402958902,-0.034904785635589256,-0.7949733463125284,25.263928348991726,19.48199537555695,0.0,1.0,0.0,0.0,1.0,Taxi
13.200000000000001,-0.05557231611161967,-15.14791466280107,21.374906386460147,0.2072023638242218,-0.43400280926837576,25.572258961521527,18.598253305174488,0.0,1.0,0.0,0.0,1.0,Taxi
13.3,-0.09657896586982312,2.177074869362514,21.174852340382678,0.08864019415597604,-0.4742681658282068,25.533242298490052,18.83189176543832,0.0,1.0,0.0,0.0,1.0,Taxi
13.4,-0.11671785577541567,-13.478595703037785,21.998513378643786,-0.10948709477793156,0.031184840319875413,25.748466355295136,19.044594943031385,0.0,1.0,0.0,0.0,1.0,Taxi
13.5,-0.12296529462680857,-0.2781065605924364,21.217573638781502,-0.149874667371577,-0.6457608441464573,25.712867279377292,18.84360136545619,0.0,1.0,0.0,0.0,1.0,Taxi
13.600000000000001,-0.09796949867278527,33.655277626794664,21.255943484414377,0.023767948266104455,-0.3405506661903613,25.506127630089452,19.698961203636056,0.0,1.0,0.0,0.0,1.0,Taxi
13.700000000000001,0.05155853235855765,18.942751962042944,22.705077973212415,0.19718964623939217,0.20880182238484535,25.558501888830847,18.999442273367983,0.0,1.0,0.0,0.0,1.0,Taxi
13.8,-0.028251534816593805,21.816562939294624,22.373436267580427,0.039186277666045516,-0.06683807904327374,25.526381905193432,19.29128438475899,0.0,1.0,0.0,0.0,1.0,Taxi
13.9,0.011113316023687848,-14.40981080609022,20.7040240749882,-0.06729307993195989,-0.6550466605188874,25.467255367316284,19.12748323426734,0.0,1.0,0.0,0.0,1.0,Taxi
14.0,-0.020490521671893427,18.367333864618917,22.428883671679497,0.1376101633410924,0.05079386977720811,25.3776524411349,18.748410333027913,0.0,1.0,0.0,0.0,1.0,Taxi
14.100000000000001,0.0635851345065008,7.804996593884115,22.560276317481986,-0.06878317338131465,0.06472572415702237,25.447114662004424,18.772643749048893,0.0,1.0,0.0,0.0,1.0,Taxi
14.200000000000001,0.05013829899310845,14.709408092268093,21.536471013501718,-0.08599736633332775,0.10734527781449492,25.468527052518027,19.886806383601808,0.0,1.0,0.0,0.0,1.0,Taxi
14.3,0.053056518789447074,-16.435183982248038,21.38583049922219,0.022546803229703677,-0.7038105566487615,25.63345707897554,19.594527766235956,0.0,1.0,0.0,0.0,1.0,Taxi
14.4,-0.018590785404739373,-10.75214902824195,20.48658190514062,-0.2320593080219625,0.4904617494963649,25.535277710229252,17.832135116759538,0.0,1.0,0.0,0.0,1.0,Taxi
14.5,-0.003622446148101285,-34.20543414929869,20.814910740421787,0.4937220309830309,-0.2486651508364103,25.457467727318715,19.11366509202832,0.0,1.0,0.0,0.0,1.0,Taxi
14.600000000000001,-0.11797065195704635,-10.329840544808423,21.554780702231895,-0.0728458025530864,-0.5756475637905859,25.440335770835077,19.87745961751878,0.0,1.0,0.0,0.0,1.0,Taxi
14.700000000000001,-0.07023998812878145,15.4254020602763,21.338960142132596,-0.14139531871755776,0.03504734390852271,25.5580343275073,19.7135082110601,0.0,1.0,0.0,0.0,1.0,Taxi
14.8,0.07350456415328026,12.536510867025418,21.41568477014664,0.06440742232682939,0.3312731590856456,25.48263147550398,20.49367088772548,0.0,1.0,0.0,0.0,1.0,Taxi
14.9,-0.05528809762191923,8.939148218303263,21.83624383609283,0.11483822149528741,0.29814492848960666,25.408652299231562,19.302208152615965,0.0,1.0,0.0,0.0,1.0,Taxi
15.0,-0.02554424703726508,-2.76653167448098,22.687262986742734,-0.24138056123588245,0.6435652038206587,25.421002813999053,19.61886954944179,0.0,1.0,0.0,0.0,1.0,Taxi
15.100000000000001,0.0596719057808754,15.755809956937275,21.267946212155266,-0.4462531318720247,-0.31752373445657955,25.690269777750643,18.98957450154402,0.0,1.0,0.0,0.0,1.0,Taxi
15.200000000000001,0.023490952162767174,5.189226089392611,21.269000555067567,-0.1706109494927015,-0.8097359652890487,25.501294805426255,18.657780995568533,0.0,1.0,0.0,0.0,1.0,Taxi
15.3,0.0004018834096980324,-16.89163319851029,21.541879481057087,-0.0475000564626714,-0.1638236572642184,25.624094315724903,19.613331038106107,0.0,1.0,0.0,0.0,1.0,Taxi
15.4,-0.024786260211675994,11.429031354724396,21.46490373735398,-0.2527596263507087,-1.4136022170185223,25.33745252076818,19.234627533744355,0.0,1.0,0.0,0.0,1.0,Taxi
15.5,0.08063610893638923,-13.410705670278546,22.6387535036179,-0.10950262633878936,-0.4168200799962655,25.632241971633334,20.763766587767325,0.0,1.0,0.0,0.0,1.0,Taxi
15.600000000000001,-0.06665164494169461,11.227119830038257,21.50415897933131,-0.13007325630531671,-0.16741991517804086,25.591811864931174,19.13699174903708,0.0,1.0,0.0,0.0,1.0,Taxi
15.700000000000001,0.03134933893851539,-21.834707462870067,22.168283722882634,-0.43160092250691773,-0.24669496171143893,25.6030888698524,19.220569768501562,0.0,1.0,0.0,0.0,1.0,Taxi
15.8,-0.028537428377961024,23.97041781938759,23.1750986082959,0.027804532199986687,0.2547892637819099,25.354145043292874,19.47159911997863,0.0,1.0,0.0,0.0,1.0,Taxi
15.9,0.0532004441552434,6.103983150338966,22.664350899770728,0.07521707251208562,-0.010644924313631515,25.517173978266385,19.901367450094106,0.0,1.0,0.0,0.0,1.0,Taxi
16.0,0.06186925469021029,7.799358853385473,21.513106694319305,-0.06507371944138421,0.2237592744126608,25.43213889610371,19.85904964087445,0.0,1.0,0.0,0.0,1.0,Taxi
16.1,0.010459365888966404,10.233341241184133,21.34213136217059,-0.02683384633461655,0.14053139961927316,25.396886822623003,18.600670518447345,0.0,1.0,0.0,0.0,1.0,Taxi
16.2,0.10436715036116412,1.3481053837078487,21.048441234033113,-0.2350893104142667,-0.742214490372209,25.325931869379986,20.084680894328557,0.0,1.0,0.0,0.0,1.0,Taxi
16.3,0.06860978160874959,-7.999327979732034,21.68461943454356,-0.1283332094320784,0.30073588807216123,25.406288295834315,19.34940194720967,0.0,1.0,0.0,0.0,1.0,Taxi
16.400000000000002,-0.029537274009693727,-16.68850704529005,20.675782604424175,0.030123303410377028,-0.26984706990494356,25.398974823747324,18.091746713307376,0.0,1.0,0.0,0.0,1.0,Taxi
16.5,0.02092461513471393,-8.692273585475391,22.965922030444393,-0.3777944056307691,0.10758627814078202,25.59254160741108,19.432400644160662,0.0,1.0,0.0,0.0,1.0,Taxi
16.6,0.025148413681372685,24.7793314374364,21.29499675243048,-0.3088386538822221,0.23087306811598562,25.453283125605196,18.921917007113354,0.0,1.0,0.0,0.0,1.0,Taxi
16.7,0.09435938317748835,-33.46365423551138,21.645677526577273,-0.38960278073732896,-0.39767718412047287,25.49844499143927,20.022708269695123,0.0,1.0,0.0,0.0,1.0,Taxi
16.8,-0.1463936560428429,16.29512511404946,21.785866725803523,0.23239058532663937,-0.34551490043193317,25.634091539462247,19.603541948625498,0.0,1.0,0.0,0.0,1.0,Taxi
16.900000000000002,0.10662403925162003,-50.06176492104887,20.903082556346675,-0.1598676376379227,0.016881130656450916,25.521111470129483,19.969033310985726,0.0,1.0,0.0,0.0,1.0,Taxi
17.0,-0.15594944142775594,38.03422574749762,22.223396067088025,0.18293272677421085,-0.24075551206075657,25.442376980125005,20.02804034053643,0.0,1.0,0.0,0.0,1.0,Taxi
17.1,0.043777472694645325,-12.707870357080154,21.90710449448002,-0.11925626405396249,0.859913741918128,25.5343835562731,19.202656941367025,0.0,1.0,0.0,0.0,1.0,Taxi
17.2,0.04308468746621937,27.09972637181984,21.459044944084987,0.2543248960437744,0.005069959194042879,25.435606794341936,19.555972819991776,0.0,1.0,0.0,0.0,1.0,Taxi
17.3,-0.020450809568656646,2.8263551737831016,21.85183420418501,0.14203779041301365,-0.5811706807426454,25.33838899718876,19.99943187821372,0.0,1.0,0.0,0.0,1.0,Taxi
17.400000000000002,0.057909248563560924,-32.39311171864279,21.573874671741024,-0.24134039466153706,1.0424011690665687,25.551348257070686,19.54232772198669,0.0,1.0,0.0,0.0,1.0,Taxi
17.5,-0.11888087112699448,-11.866567195032038,21.615647087314603,-0.08174948275774585,0.17561681982154512,25.57874732629176,19.019257839040296,0.0,1.0,0.0,0.0,1.0,Taxi
17.6,-0.07978364554381674,-32.77996839479126,21.222560082205078,-0.30521159975137213,-0.01859680548771518,25.494573804411402,20.153272949232615,0.0,1.0,0.0,0.0,1.0,Taxi
17.7,-0.10599059341039528,10.51986405846086,21.696568362017437,0.02796619469382039,0.758932544614664,25.50091267407055,19.44370023724492,0.0,1.0,0.0,0.0,1.0,Taxi
17.8,-0.06628155083469012,36.57108520944674,21.876820614448583,0.11111187655404856,0.15406759283653373,25.471626446092216,19.037453198340593,0.0,1.0,0.0,0.0,1.0,Taxi
17.900000000000002,0.10307178050341702,45.68420099746993,21.12942644469374,0.2714861266326142,-0.040853159435072076,25.66868538756694,20.388863873571417,0.0,1.0,0.0,0.0,1.0,Taxi
18.0,0.1224304115769544,11.34109779013473,21.796776829037835,0.1711199581543365,-0.7996240063216778,25.543962099965597,18.478437210921648,0.0,1.0,0.0,0.0,1.0,Taxi
18.1,-0.009576061884016406,-17.009137409395535,20.46798848053574,-0.017886482737562007,-1.145511660462814,25.50121375832839,19.097768779034567,0.0,1.0,0.0,0.0,1.0,Taxi
18.2,0.018026093456439417,13.62202515792829,22.369627098123473,-0.0336856691512948,0.6102302896060745,25.610838419738286,19.14423792365818,0.0,1.0,0.0,0.0,1.0,Taxi
18.3,0.19054053736659593,-6.449701071650698,20.890093847456562,-0.15371738844948135,0.14965097337286534,25.619835706190372,19.869854796209104,0.0,1.0,0.0,0.0,1.0,Taxi
18.400000000000002,-0.041824567242269794,-17.12437313990316,20.589867413153545,0.26030051886685923,-0.10052015815998591,25.55835571229335,19.255838438132592,0.0,1.0,0.0,0.0,1.0,Taxi
18.5,-0.06759577224307627,-19.923696836163405,21.324025820659593,-0.27724695308572356,-0.07053446103776152,25.61066576213335,19.08861587693688,0.0,1.0,0.0,0.0,1.0,Taxi
18.6,0.09092205318577903,-2.1826416710905128,21.762466360144348,-0.3120101176075316,0.15327970738213278,25.569594543695757,19.95282538305473,0.0,1.0,0.0,0.0,1.0,Taxi
18.7,-0.052737775597722206,-5.866250981739763,21.448392557419794,-0.32389545621668003,0.31739692278123927,25.518912828904718,19.82190024220652,0.0,1.0,0.0,0.0,1.0,Taxi
18.8,-0.09692702715177492,-0.8666977249035644,22.115109989312444,0.11049253967358075,-0.38888943129440146,25.613289136074002,19.28725708892599,0.0,1.0,0.0,0.0,1.0,Taxi
18.900000000000002,0.08658856456126134,37.63804287676474,21.485134492112184,0.08815693958576987,0.09646165814889177,25.420536312749675,19.547739555765254,0.0,1.0,0.0,0.0,1.0,Taxi
19.0,0.1354524387861016,9.492481364964243,21.50958673340014,-0.01547234062809677,0.26316767314608797,25.418501921176187,18.86745401781003,0.0,1.0,0.0,0.0,1.0,Taxi
19.1,-0.04946462032695362,-18.017438036577854,21.55165537140168,-0.04182850728229963,-0.2506503821847675,25.56357678471403,19.31657584649248,0.0,1.0,0.0,0.0,1.0,Taxi
19.200000000000003,-0.0034986256216278143,-9.382423833519352,22.65990114516429,-0.34105202662295364,-1.1127407922777424,25.446121285761933,19.39604008802283,0.0,1.0,0.0,0.0,1.0,Taxi
19.3,0.08854031961850496,-5.299575726281489,21.38890524948848,-0.05015423351297471,-0.384959255639277,25.596141540164524,18.783676915625165,0.0,1.0,0.0,0.0,1.0,Taxi
19.400000000000002,-0.07596249895836095,19.41278493603937,23.147684383492447,0.14219562779678585,-0.6517167759526774,25.53903901578275,18.60431075560421,0.0,1.0,0.0,0.0,1.0,Taxi
19.5,0.09356529905856915,11.239548357198304,22.832524176252587,-0.3208309886769093,0.5926111688295694,25.721011068436155,19.23173085960053,0.0,1.0,0.0,0.0,1.0,Taxi
19.6,0.1447380614044966,-9.502306083829675,20.931714611394373,-0.34854993831915915,-0.4811408648868848,25.415177152786725,19.958744176762337,0.0,1.0,0.0,0.0,1.0,Taxi
19.700000000000003,-0.12347402937750923,-45.54416820161683,22.20098080877194,-0.042139138338515514,-0.49845405784101393,25.60716078489014,19.721192321251223,0.0,1.0,0.0,0.0,1.0,Taxi
19.8,-0.13415554194951493,-61.219209195531846,21.275515283535647,0.0488077114745438,-0.32413893419727363,25.464449020705786,19.13135374969999,0.0,1.0,0.0,0.0,1.0,Taxi
19.900000000000002,-0.16135798457316253,14.317937229793197,21.734397508703914,0.0587149286415769,0.4175620438220508,25.5432715372948,20.72821220546868,0.0,1.0,0.0,0.0,1.0,Taxi
20.0,-0.051884343228543156,1.6565542819889127,20.686288579006938,0.13766071659397447,0.4395408421604377,25.586805395977194,18.89506275803931,0.0,1.0,0.0,0.0,1.0,Taxi
20.1,-0.12587277053957027,53.961214863700086,21.59609926973885,-0.0723435896442392,-0.4025594486535431,25.553558971357745,19.705978439255396,0.0,1.0,0.0,0.0,1.0,Taxi
20.200000000000003,0.10844808974533798,-8.890716090877305,23.322166971949656,-0.43584975142607935,-0.2253504482332128,25.564671350502408,19.16667737352174,0.0,1.0,0.0,0.0,1.0,Taxi
20.3,-0.09633792368292961,17.051928866283596,21.18282963399933,-0.0012069198594473612,-0.08806693766470923,25.556102732438887,20.037958862271076,0.0,1.0,0.0,0.0,1.0,Taxi
20.400000000000002,-0.040613126208152224,-14.498365013931009,22.10964826037422,0.13326925409887835,0.6954710966983481,25.49006306045038,19.374213536495525,0.0,1.0,0.0,0.0,1.0,Taxi
20.5,0.035956264675683,2.760839960642002,21.74029769942182,-0.22877204558107067,-1.0260144136248872,25.599745330235578,19.311620356966838,0.0,1.0,0.0,0.0,1.0,Taxi
20.6,-0.08253372387971952,8.26790263083163,21.348036380609486,-0.1318689767962584,-0.7099551328894995,25.60505483189246,19.912995580150167,0.0,1.0,0.0,0.0,1.0,Taxi
20.700000000000003,0.0007263869460060357,5.711703645744561,22.396878676618826,-0.5397689104607564,1.215516923639979,25.48076722346923,19.3484422903538,0.0,1.0,0.0,0.0,1.0,Taxi
20.8,0.06451478290440589,78.44324564739189,21.392428592502807,-0.16042916279473837,0.5888835077801233,25.435813545542885,19.80042914372984,0.0,1.0,0.0,0.0,1.0,Taxi
20.900000000000002,0.30968250435724,7.41197014246858,21.645702863096275,0.21511617663438048,-0.7451872938152114,25.541582920235044,19.376261808605673,0.0,1.0,0.0,0.0,1.0,Taxi
21.0,0.03778623765834898,-44.53570830874071,21.81140858530464,-0.19332241981928977,1.5678419309125557,25.535174894570844,18.117775968366594,0.0,1.0,0.0,0.0,1.0,Taxi
21.1,-0.15816375863929763,-48.14169277599444,22.400786167733926,-0.31565384434426846,0.3190622908761088,25.3537805309939,20.509096152252827,0.0,1.0,0.0,0.0,1.0,Taxi
21.200000000000003,0.06897404047726777,-1.42951363072088,21.435236680813574,0.2875827359181391,0.05656685012909026,25.537044885486978,19.69025804214366,0.0,1.0,0.0,0.0,1.0,Taxi
21.3,0.030638669504744642,41.621589724284,23.025645407818683,0.01856322805216873,0.738775201041423,25.43386756207559,19.27667669434744,0.0,1.0,0.0,0.0,1.0,Taxi
21.400000000000002,0.049944189982122404,-15.774134729230568,20.593090624146587,-0.009224956191647066,-0.43706317216530866,25.32240503174802,20.11321648405664,0.0,1.0,0.0,0.0,1.0,Taxi
21.5,-0.00989663316888501,11.437656375126869,21.308600486306304,-0.07326205839955995,-0.24277634662774197,25.55337050047848,18.94762401634123,0.0,1.0,0.0,0.0,1.0,Taxi
21.6,0.08782695138037905,-15.021522830653012,22.41063116314168,-0.239299355137447,0.038316484931795736,25.393179916483234,18.975422489830848,0.0,1.0,0.0,0.0,1.0,Taxi
21.700000000000003,-0.025163424171142607,8.08665259606043,21.327058522974106,-0.157124400999197,0.2524146152417946,25.64297839904515,18.723733420742683,0.0,1.0,0.0,0.0,1.0,Taxi
21.8,0.030536629811417193,-13.506603295336896,21.77133580950356,0.22783815397652263,0.1687660159922072,25.59252733862735,19.330916913830563,0.0,1.0,0.0,0.0,1.0,Taxi
21.900000000000002,0.020293934903694622,7.130351809448329,21.089999334697094,-0.2417517695734843,0.10256123961679818,25.538679859904732,19.10040787824907,0.0,1.0,0.0,0.0,1.0,Taxi
22.0,0.010488334876099096,-12.658999074116963,20.815480626851308,0.16863301219904775,-0.19804048453377132,25.653166939236485,19.28588315164161,0.0,1.0,0.0,0.0,1.0,Taxi
22.1,-0.032758365559167564,18.269647259834006,21.357420737764237,-0.034616868710703366,0.17641351560614732,25.610457057616145,18.696389396160296,0.0,1.0,0.0,0.0,1.0,Taxi
22.200000000000003,0.11164217120286474,25.439194663136917,22.120713743033193,-0.033551793576693176,0.13447409820424452,25.424684521550375,19.08808941261119,0.0,1.0,0.0,0.0,1.0,Taxi
22.3,0.13768430819178376,45.208472866327234,21.304964388742277,-0.4384664689732486,-0.005113982142262593,25.615296117882963,19.658702765689256,0.0,1.0,0.0,0.0,1.0,Taxi
22.400000000000002,0.1932839987724687,-19.722004550322705,21.61313372704574,-0.019410856818801545,-0.13250922707996265,25.445566908034493,20.11387581081607,0.0,1.0,0.0,0.0,1.0,Taxi
22.5,0.013032148451251275,-22.96965010450288,21.366045666135516,-0.1173402673778669,-0.2596644921258619,25.605931382340827,19.45340077099581,0.0,1.0,0.0,0.0,1.0,Taxi
22.6,0.022836057669269418,-32.862951986063,22.075640499348147,-0.4270642484505204,-0.7319670551441275,25.472010067171993,19.182099769675087,0.0,1.0,0.0,0.0,1.0,Taxi
22.700000000000003,0.02896923884215374,-18.3769622824199,20.705493351672626,-0.09609079515703339,0.7119255799046463,25.387884632412067,19.74607095133973,0.0,1.0,0.0,0.0,1.0,Taxi
22.8,-0.07885266296084818,13.168920046442578,21.599483037804166,-0.1895592339848321,0.37497567420387673,25.556639742407754,20.019809147244445,0.0,1.0,0.0,0.0,1.0,Taxi
22.900000000000002,0.08868065790148233,-11.071605699775477,21.457595299641273,-0.05145059448561011,0.5034310865746957,25.46580770020546,19.99245651881503,0.0,1.0,0.0,0.0,1.0,Taxi
23.0,-0.02638878965672364,27.665980691932162,21.120738211391057,-0.27520544389700174,-0.5793355415233261,25.622005108603105,19.68681277595986,0.0,1.0,0.0,0.0,1.0,Taxi
23.1,0.05947724049881264,-40.730483437840064,22.396826275587888,-0.3074599922543444,-0.24993248953053487,25.64462513802465,19.054201975547993,0.0,1.0,0.0,0.0,1.0,Taxi
23.200000000000003,-0.11497175928771795,16.68350175642019,20.62597213549867,-0.08544358754444345,-0.03508446730018982,25.34121094032338,19.403508310985206,0.0,1.0,0.0,0.0,1.0,Taxi
23.3,0.057028719125377374,13.884021555958606,21.884370842355118,-0.18349975181346784,0.17866847178823594,25.513927256541592,19.55238347022136,0.0,1.0,0.0,0.0,1.0,Taxi
23.400000000000002,0.12889734827860574,10.147723586884885,21.939283663288567,-0.17193164959040672,-0.38471013586604674,25.579011490333357,18.203974515574888,0.0,1.0,0.0,0.0,1.0,Taxi
23.5,-0.06423314135329347,-19.879533544149982,21.430800729463865,-0.34852387539024166,0.8670137454201434,25.526494042740467,19.444808231003872,0.0,1.0,0.0,0.0,1.0,Taxi
23.6,-0.042368948595372456,-34.80916260446916,22.83424832798537,-0.11590602715235722,0.4400057866734616,25.528568578099964,20.29337920320494,0.0,1.0,0.0,0.0,1.0,Taxi
23.700000000000003,-0.04514846474373995,3.8345226596036235,21.925392393393327,0.023771771555010063,0.09058615948638674,25.540977704533304,19.111156958389405,0.0,1.0,0.0,0.0,1.0,Taxi
23.8,-0.045060528055275294,35.78149299279746,21.23597811047256,-0.049529864604042725,0.15157546131829389,25.35379823748991,18.523552262896647,0.0,1.0,0.0,0.0,1.0,Taxi
23.900000000000002,0.1365385163686149,12.018810713389755,22.035345270424237,-0.17815082632250884,-0.11046165650464675,25.673748459158503,19.09816877263005,0.0,1.0,0.0,0.0,1.0,Taxi
24.0,0.014945588823208865,-9.509958534079395,21.3835022774954,-0.43277906596588456,-0.34072992819808795,25.58008563806635,19.08022058995573,0.0,1.0,0.0,0.0,1.0,Taxi
24.1,-0.09261032072567221,-42.870353346279806,21.423420641813337,-0.2748199440203314,-1.205471081765147,25.448952552567675,19.98199433251834,0.0,1.0,0.0,0.0,1.0,Taxi
24.200000000000003,-0.07781325036278408,-43.12574684044851,22.34257063632815,-0.2532900953538183,0.43814252832460293,25.43907499673344,20.747926246879313,0.0,1.0,0.0,0.0,1.0,Taxi
24.3,-0.20068314537903365,4.001711043879657,21.99191172371861,0.06335353443128278,0.02926682681281319,25.600623989320297,19.508950328465072,0.0,1.0,0.0,0.0,1.0,Taxi
24.400000000000002,-0.07260176550627391,-8.695591098688341,22.311092637184434,0.05607880242623256,0.5917598520238464,25.540206440392637,19.004778340867727,0.0,1.0,0.0,0.0,1.0,Taxi
24.5,-0.12129120585622577,16.77994149209368,20.176408395509256,-0.04216688768598654,0.29084678375966627,25.5503716113555,18.8258898450373,0.0,1.0,0.0,0.0,1.0,Taxi
24.6,-0.11678343791856521,6.922436105970921,21.88186914286933,-0.17377216008125174,-0.014188526746218798,25.56939883910536,19.9466757777458,0.0,1.0,0.0,0.0,1.0,Taxi
24.700000000000003,-0.037989584976419244,3.4212323167432337,22.580965150555492,0.15623887173152823,0.04513685068460345,25.536741778563908,19.7928507135653,0.0,1.0,0.0,0.0,1.0,Taxi
24.8,-0.10418504427250955,20.931086642131685,20.997779116006498,0.02136108904133635,-0.36781187486490813,25.32596760996887,20.016891692255463,0.0,1.0,0.0,0.0,1.0,Taxi
24.900000000000002,-0.01212800470790674,15.55167172837635,21.77425104553643,-0.5195373420919931,-0.597450629805811,25.473021148200075,19.16689396041602,0.0,1.0,0.0,0.0,1.0,Taxi
25.0,0.03976877366546256,27.48899694246481,21.537559753796124,0.21196905286922313,-0.49491358756646625,25.569858925852145,20.24682000080349,0.0,1.0,0.0,0.0,1.0,Taxi
25.1,0.03325994043981456,7.369584579601025,22.104472292763898,-0.13692854448481465,-0.4801261842805579,25.578433212286086,19.51821810745052,0.0,1.0,0.0,0.0,1.0,Taxi
25.200000000000003,0.024719918190098437,-58.055200438603315,21.346271349827106,0.08366491208114674,-0.0970499796253516,25.46657410749691,19.07463174449585,0.0,1.0,0.0,0.0,1.0,Taxi
25.3,-0.25050722852755397,-16.10896111742186,22.15076466491672,-0.010324212509867023,0.39149679150725475,25.51040772394157,18.404654983798448,0.0,1.0,0.0,0.0,1.0,Taxi
25.400000000000002,-0.04728486514729469,20.63316174324404,21.501283411103934,-0.3624708741690541,0.3423359623033336,25.63030505868653,19.174067868617833,0.0,1.0,0.0,0.0,1.0,Taxi
25.5,0.12788572690631872,92.81932935378768,23.305751066438127,-0.19790941781636479,-0.7591895561427917,25.6545518887894,19.16832809435358,0.0,1.0,0.0,0.0,1.0,Taxi
25.6,0.21358941824138455,25.632663982497437,21.893894171062474,-0.48970115837304656,0.4301495925824695,25.54706053455834,18.895609385583548,0.0,1.0,0.0,0.0,1.0,Taxi
25.700000000000003,0.08087845476519255,-24.401476243491576,23.049807557472015,-0.25923791960813924,0.07083502174660614,25.60284675787375,19.654694240843472,0.0,1.0,0.0,0.0,1.0,Taxi
25.8,0.005878345688860872,-59.371610837389596,22.065571944172042,-0.07606177290601909,0.3502337445908291,25.549522890448827,19.08479239911415,0.0,1.0,0.0,0.0,1.0,Taxi
25.900000000000002,-0.0832686359455634,8.828891488141915,21.44915552855452,-0.09075215328211525,0.2572693567860903,25.584555597319707,18.955289031345675,0.0,1.0,0.0,0.0,1.0,Taxi
26.0,0.12502291220590217,-4.261173260411577,21.702022638152872,-0.2384288192453446,-0.8371387031562202,25.512992975307725,18.97254904165115,0.0,1.0,0.0,0.0,1.0,Taxi
26.1,-0.01542752061319698,11.688981456332632,21.90980314801866,-0.1550315341220376,0.09908994900762298,25.453762505561144,18.721467116344098,0.0,1.0,0.0,0.0,1.0,Taxi
26.200000000000003,-0.02482372866390021,-2.027481728048523,20.30012105436573,-0.08240893329161357,0.7357139393803881,25.69898221490638,19.14555547337417,0.0,1.0,0.0,0.0,1.0,Taxi
26.3,0.11488550356565959,-58.56854766788401,22.254499736194152,0.029853524952597604,-0.593421414698577,25.69393945757315,19.158425384075006,0.0,1.0,0.0,0.0,1.0,Taxi
26.400000000000002,-0.30827025895261695,3.555009400631519,21.77878145348923,-0.22972088749462716,-0.4621696653298989,25.516759962990307,19.30864158923195,0.0,1.0,0.0,0.0,1.0,Taxi
26.5,-0.007048681660742559,-52.469562198779364,22.004736199554873,-0.1345368190793879,-0.9946003041650519,25.553607111016788,19.622105850960278,0.0,1.0,0.0,0.0,1.0,Taxi
26.6,-0.14746230742823718,72.71361706589018,22.048331760559407,-0.3552277987459753,-0.2252255359828298,25.53113098755506,20.196568213601108,0.0,1.0,0.0,0.0,1.0,Taxi
26.700000000000003,0.055297826376833975,33.76661458272682,20.900559526107582,-0.3481475079966986,-0.7358758134410258,25.5193074292128,19.93624091445417,0.0,1.0,0.0,0.0,1.0,Taxi
26.8,0.1617843912528915,39.36679347713792,21.729331405331475,0.12158592334866045,-0.4302902953933391,25.523619008363823,18.649319901019172,0.0,1.0,0.0,0.0,1.0,Taxi
26.900000000000002,0.0493716599574524,28.343622644067967,21.680901114394743,0.20138640241630124,0.12321375794466478,25.63136173250166,19.877862161424215,0.0,1.0,0.0,0.0,1.0,Taxi
27.0,0.1970159395971738,-28.181351095033005,20.929467966063825,-0.06334720002359964,0.4078600411310999,25.4071741708255,19.972473055499332,0.0,1.0,0.0,0.0,1.0,Taxi
27.1,0.020877635777726507,18.994855805760608,22.546983146264463,-0.16949425696471926,-0.9700661281456512,25.452967607581286,19.80990632258175,0.0,1.0,0.0,0.0,1.0,Taxi
27.200000000000003,0.14434593898625545,-71.20706951587479,22.799510063737902,-0.19862432388484919,-0.22993710112322233,25.60740084785465,19.205300308965924,0.0,1.0,0.0,0.0,1.0,Taxi
27.3,-0.15901940798220018,0.029533814415799498,21.44317604592752,0.13969742206691638,-0.1164717941249984,25.532664150596645,20.163304709836293,0.0,1.0,0.0,0.0,1.0,Taxi
27.400000000000002,0.02102530484980547,-55.351605714778884,21.981180984421616,-0.8820636881912628,-0.06494703167742547,25.643583973461944,18.98214810015153,0.0,1.0,0.0,0.0,1.0,Taxi
27.5,-0.132412089587639,39.46863229137317,21.63819902277599,0.350341257868606,0.3997081747904064,25.525047995428054,19.96446439889847,0.0,1.0,0.0,0.0,1.0,Taxi
27.6,0.03832375347466564,-10.601013741565446,21.456094284916755,-0.0882691748669262,0.40099578701527905,25.553559910158185,19.949357430055787,0.0,1.0,0.0,0.0,1.0,Taxi
27.700000000000003,-0.03197976385802178,22.528572333551313,21.40339011245618,-0.6132132406673326,0.44288550469003707,25.4974273425118,19.680815649368622,0.0,1.0,0.0,0.0,1.0,Taxi
27.8,-0.019769227919882466,-11.937365692948255,20.913687447503346,0.3876766211218579,0.12140568535632985,25.65327286132748,18.532053326788517,0.0,1.0,0.0,0.0,1.0,Taxi
27.900000000000002,-0.021363074990075646,27.381974711022732,21.887836709972866,-0.5851748320408108,-0.1255874813269107,25.605116496101004,19.5321283911545,0.0,1.0,0.0,0.0,1.0,Taxi
28.0,0.10493010969709185,7.815424728963275,21.2860896805733,-0.5558172649150392,-0.2547040517057171,25.405251261774197,19.84733179110117,0.0,1.0,0.0,0.0,1.0,Taxi
28.1,0.019307895724933896,8.032499687056225,22.027336577637186,-0.2836963545380712,0.3017799091173089,25.580326899411318,19.455182182259286,0.0,1.0,0.0,0.0,1.0,Taxi
28.200000000000003,0.018799423445205465,-20.654041161755384,21.396800887512395,-0.1359741837131475,-0.42111851081882473,25.62170104246735,19.38998702589631,0.0,1.0,0.0,0.0,1.0,Taxi
28.3,0.0016599038883149308,10.500395545701402,20.957169905954107,0.13584701781519615,-0.41781906794219315,25.51472790461105,19.24409009640589,0.0,1.0,0.0,0.0,1.0,Taxi
28.400000000000002,0.07180987345344089,-8.149446068813598,21.24886612921792,-0.17340371783397515,0.24946549623340655,25.587850308612417,19.167471321050133,0.0,1.0,0.0,0.0,1.0,Taxi
28.5,-0.021947806898862537,-22.43198316379969,21.872029397319313,-0.2655415470072082,0.3738146119181533,25.648372509774504,19.38348951928518,0.0,1.0,0.0,0.0,1.0,Taxi
28.6,-0.11050001193068354,4.8517498947630076,21.44853451894756,-0.16606251596574545,0.0007952660836955416,25.508415226516547,20.030242507188763,0.0,1.0,0.0,0.0,1.0,Taxi
28.700000000000003,0.09606862292725593,-4.416845658153122,21.099991565788702,-0.16714557094738536,0.3174014912097949,25.552661581825703,19.079396772281417,0.0,1.0,0.0,0.0,1.0,Taxi
28.8,-0.044032035189628144,27.690167948436038,22.61858274110612,0.18337517081655463,-0.1338278248122575,25.47057865367981,19.627314719222756,0.0,1.0,0.0,0.0,1.0,Taxi
28.900000000000002,0.027950827811496673,-3.9509628381510105,20.837689214307932,0.10659361096853914,-0.07443206523043502,25.57208860169459,18.086347606422557,0.0,1.0,0.0,0.0,1.0,Taxi
29.0,0.07631380873650088,-12.588320975760789,22.434402951919747,-0.22520975741513705,0.1833387502612315,25.424335325411164,19.168357744515806,0.0,1.0,0.0,0.0,1.0,Taxi
29.1,-0.10697364006843212,-21.93034261410955,22.328309211001642,-0.1733354286510655,-0.3921916330590459,25.585411718443822,19.787884488973873,0.0,1.0,0.0,0.0,1.0,Taxi
29.200000000000003,-0.0817008852590511,-43.88131305033152,22.18307303671175,-0.47629619238106247,0.3591051532398124,25.672557093574937,19.93386292705097,0.0,1.0,0.0,0.0,1.0,Taxi
29.3,-0.1430927565151567,14.42267455098432,22.110403325422045,0.021929984835090205,-0.12085539731693276,25.430753873720732,18.874773815999177,0.0,1.0,0.0,0.0,1.0,Taxi
29.400000000000002,-0.034860267313510496,37.49900997929135,21.189083710746697,-0.11475992107281036,-0.08872821980716036,25.65285803782973,19.572635247099814,0.0,1.0,0.0,0.0,1.0,Taxi
29.5,0.10579416463740564,28.12340920590276,21.320722412395597,-0.02688122343621574,0.04408485391568584,25.517637367445502,19.820486583226508,0.0,1.0,0.0,0.0,1.0,Taxi
29.6,-0.0024757104856429355,35.23737259785746,22.80641072675576,0.021942285056287064,0.4155904394751264,25.456934424409155,19.026181659545113,0.0,1.0,0.0,0.0,1.0,Taxi
29.700000000000003,0.14132659567577677,-14.638905442126775,22.286838443654894,0.2067968489151989,-1.1029192294587176,25.50032354877618,18.592641420509885,0.0,1.0,0.0,0.0,1.0,Taxi
29.8,0.032599637426771744,-10.898235317959388,21.9543434367889,-0.18236706517345277,-0.6337381652749282,25.524649676837385,18.753901896420114,0.0,1.0,0.0,0.0,1.0,Taxi
29.900000000000002,-0.0569668870754399,-41.895439608340425,21.313520031210516,-0.09362312960340881,0.513293257824506,25.482161004702903,18.6301967831004,0.0,1.0,0.0,0.0,1.0,Taxi
30.0,-0.06815060236592536,25.12546228239296,21.12401809150313,0.20884479980619952,0.24430472958535554,25.635635462792436,19.782229366123072,0.0,1.0,0.0,0.0,1.0,Taxi
30.1,0.15822694883873656,27.016845828607234,20.9592738611154,-0.13915285394731497,-0.22029437167210517,25.494306547373412,19.477716988640044,0.0,1.0,0.0,0.0,1.0,Taxi
30.200000000000003,0.0781173420675963,10.022651576822215,21.240421936677027,-0.12249429196927211,0.03402450131450841,25.553489661643823,19.2111351819348,0.0,1.0,0.0,0.0,1.0,Taxi
30.3,-0.018037344481814273,-28.93764365908166,21.496985618472866,0.4234713308024364,0.2985070251349647,25.733662155508284,18.98044285452542,0.0,1.0,0.0,0.0,1.0,Taxi
30.400000000000002,0.013538730543328242,-24.516315886016002,21.758997434537992,-0.11344646319301674,0.7765246381455122,25.504602124446876,19.97647732654146,0.0,1.0,0.0,0.0,1.0,Taxi
30.5,-0.04446423736248373,-46.89297440570599,22.381245874627524,0.24262266532495763,-0.20973588082138808,25.473106967135436,19.319040213868863,0.0,1.0,0.0,0.0,1.0,Taxi
30.6,-0.25250221651034427,-0.9676970977929121,22.942183122487638,-0.21616808669039403,0.6585655317437584,25.483748980617406,19.58433523827465,0.0,1.0,0.0,0.0,1.0,Taxi
30.700000000000003,0.00870024505436365,-16.000581816281397,22.563186245816798,-0.19525627971204357,0.28392540442763037,25.633189924671683,18.969711364605544,0.0,1.0,0.0,0.0,1.0,Taxi
30.8,-0.12446714644389074,43.27107534806009,20.902841210077533,-0.5056609257733182,-0.46186441615689605,25.51203888352677,18.834811983519636,0.0,1.0,0.0,0.0,1.0,Taxi
30.900000000000002,-0.036146839770043876,-26.94533243030538,21.205732144903653,0.0178983874294463,-0.3038181528707341,25.547520528259668,19.931108705454417,0.0,1.0,0.0,0.0,1.0,Taxi
31.0,-0.12602641709716328,21.17141279214084,21.08835970321072,0.03899671372649463,0.6047201622748049,25.451084770214948,19.46602387047233,0.0,1.0,0.0,0.0,1.0,Taxi
31.1,-0.018610082483186605,-12.690370823975718,22.321728507847773,-0.08655566533287441,0.7072592914145391,25.491214604698598,19.50948786139171,0.0,1.0,0.0,0.0,1.0,Taxi
31.200000000000003,-0.0995986938899225,26.571846038012904,22.139689007042854,-0.012717370735386355,-0.024519345777216248,25.617156821457286,19.586906198075347,0.0,1.0,0.0,0.0,1.0,Taxi
31.3,0.006832813092901193,17.612251564454507,21.377186474713113,0.07057739318561052,0.5501485891916662,25.37465833603943,19.918348032115343,0.0,1.0,0.0,0.0,1.0,Taxi
31.400000000000002,0.0694511753390859,26.177858794459862,21.60911443613614,-0.4008145846566561,0.17714646799250405,25.342731310050226,20.006810713320622,0.0,1.0,0.0,0.0,1.0,Taxi
31.5,0.031290600082376795,-30.82867618081163,21.811435419179354,-0.09041531485929499,-0.03341209992424325,25.47015999362054,18.865480966922494,0.0,1.0,0.0,0.0,1.0,Taxi
31.6,-0.147310567811157,-47.188704032232515,22.011221994235907,0.22732650235514562,0.09480893747508995,25.480034304986816,19.2943444881158,0.0,1.0,0.0,0.0,1.0,Taxi
31.700000000000003,-0.16649234482207667,-31.904219385566638,22.42757791155473,-0.16100618589143773,-0.697191006820764,25.492955143788265,18.9089829566639,0.0,1.0,0.0,0.0,1.0,Taxi
31.8,-0.12823049684545643,49.97399485749337,21.807657481636944,-0.379614917911361,-0.13552693669508714,25.495644748739835,19.513519513741834,0.0,1.0,0.0,0.0,1.0,Taxi
31.900000000000002,0.10255940647630984,77.07311038242575,21.559214910693214,0.11191103323253154,-0.262849869976291,25.520831201285887,19.229987492653756,0.0,1.0,0.0,0.0,1.0,Taxi
32.0,0.2188732070900521,12.199862973537051,21.931180101753654,-0.07474910049663915,0.5010113628640921,25.478288776731915,19.268706546471513,0.0,1.0,0.0,0.0,1.0,Taxi
32.1,-0.06723118197777121,-40.98423742242934,21.558737798938438,-0.10988248848744231,0.1246104332352509,25.655528246799577,19.312554611405357,0.0,1.0,0.0,0.0,1.0,Taxi
32.2,-0.10236178063583684,-16.03851670205923,21.924851494352072,-0.18584593090445506,-0.11844179147663919,25.601809150478744,19.28644199926353,0.0,1.0,0.0,0.0,1.0,Taxi
32.300000000000004,0.13868062357975594,5.075350149562918,21.5731187864238,0.07963215166509677,0.5566297746115478,25.507514696358896,20.68650485108642,0.0,1.0,0.0,0.0,1.0,Taxi
32.4,-0.04185443122995661,18.89142237368696,22.40010659673054,-0.21444533363480606,-0.7557906595977038,25.610462968464674,18.458201284597507,0.0,1.0,0.0,0.0,1.0,Taxi
32.5,-0.007904668767402026,-24.482312450202517,22.45148306530999,0.1847638046699872,-0.4767420649816541,25.260598600649416,19.34897833775637,0.0,1.0,0.0,0.0,1.0,Taxi
32.6,0.016269061328743364,-5.3149438692219535,21.56621849468474,-0.08748372776410622,0.6320147077886208,25.553087411171646,18.676665855990283,0.0,1.0,0.0,0.0,1.0,Taxi
32.7,-0.06842915057606637,-13.927918892844751,22.93131635399102,0.09821005910982247,0.3208751529401773,25.605215620525257,19.50770059702516,0.0,1.0,0.0,0.0,1.0,Taxi
32.800000000000004,-0.07754426323162578,-4.8067975411800345,21.80604150333363,0.07480075178620016,-0.7918938686907222,25.462871486556253,18.717480934235745,0.0,1.0,0.0,0.0,1.0,Taxi
32.9,-0.007764926377156815,5.464289345621091,21.936524936753127,-0.340668217812508,0.10906207073561129,25.572494130014945,19.3931780954637,0.0,1.0,0.0,0.0,1.0,Taxi
33.0,-0.04110770384796092,-20.105367789290153,22.546419559262297,-0.008888730383611265,-0.6334569778281325,25.456056963535957,19.059904330009456,0.0,1.0,0.0,0.0,1.0,Taxi
33.1,-0.17807110217807653,-16.418001868920292,22.897319894945312,-0.1580995120148801,-0.2130555953649329,25.552857614746586,19.964006573452124,0.0,1.0,0.0,0.0,1.0,Taxi
33.2,-0.08985493572175826,5.4537017896651685,22.389966182075877,0.02687788014955253,0.22888937218421943,25.38863886830211,18.682167314889554,0.0,1.0,0.0,0.0,1.0,Taxi
33.300000000000004,-0.01383919489963506,24.527688807487152,21.88073223168757,-0.11651768852342746,-0.016977328385986628,25.6095756818076,18.74786009488983,0.0,1.0,0.0,0.0,1.0,Taxi
33.4,-0.05543265814064076,27.90627231053716,21.456017589151397,-0.4809682422704334,-0.03446762912854484,25.51962164988248,18.852972771859495,0.0,1.0,0.0,0.0,1.0,Taxi
33.5,0.04967642583092757,-12.8079850877384,21.872646594087332,0.05366538918055036,-0.41166028384556436,25.54251626511774,19.61255997651107,0.0,1.0,0.0,0.0,1.0,Taxi
33.6,-0.07787912033832706,47.33670539977038,22.04247411536133,-0.5508538774626337,0.5768836109624365,25.512111646048197,19.528608575712656,0.0,1.0,0.0,0.0,1.0,Taxi
33.7,0.18125086885821118,-8.89004242405997,21.93305250287803,-0.07612041334388035,0.2483274185656039,25.62775220612366,19.275426462776007,0.0,1.0,0.0,0.0,1.0,Taxi
33.800000000000004,0.005226213710627759,17.06806166745913,21.545557920500865,0.27455842916708484,-0.4025481515711314,25.544501150363715,19.743118129726003,0.0,1.0,0.0,0.0,1.0,Taxi
33.9,0.007461187998968651,-46.536313202406326,21.227273725690196,0.17578576399728135,0.06116561496330565,25.613582591579586,18.289950885032777,0.0,1.0,0.0,0.0,1.0,Taxi
34.0,-0.05143069715382044,-6.360468621663888,21.801311802882047,-0.023970263213195328,-0.15492104778068205,25.464939720473808,19.300843340651756,0.0,1.0,0.0,0.0,1.0,Taxi
34.1,-0.02657612939769166,-39.28879785151877,21.28035646899243,-0.20669405639222943,-0.27395502309736025,25.575834286069266,19.413298578394436,0.0,1.0,0.0,0.0,1.0,Taxi
34.2,-0.18898280125862518,10.293868182861146,20.663093403194967,-0.11698211937817762,0.0721840630734905,25.676599847104796,19.511598572653813,0.0,1.0,0.0,0.0,1.0,Taxi
34.300000000000004,3.8643760485310754e-05,44.67791485089535,21.134741701384147,0.10583973876684716,0.8360269051793384,25.680904712715915,19.45530603474576,0.0,1.0,0.0,0.0,1.0,Taxi
34.4,0.1968134448567851,55.727023880359894,21.394425970591573,-0.2622777575703216,-0.4335431600844294,25.26328993843117,19.548438110814562,0.0,1.0,0.0,0.0,1.0,Taxi
34.5,0.0896523181431743,-32.637576354043595,21.188002442598236,-0.020829874620601582,0.281185676122531,25.535470218011596,19.647123181323742,0.0,1.0,0.0,0.0,1.0,Taxi
34.6,-0.16314923800973266,-33.55947683782536,21.78758081605178,-0.2746038408993773,0.42761333663811196,25.371519142214765,20.396699244185452,0.0,1.0,0.0,0.0,1.0,Taxi
34.7,0.029016060667658352,-9.015134222502965,20.895962004913564,-0.16074564835985927,0.24402105311430217,25.48032443219813,19.78091831734153,0.0,1.0,0.0,0.0,1.0,Taxi
34.800000000000004,0.0445766470306595,62.999814764424315,20.959082614306027,-0.19881232165992652,0.45637993083141587,25.46431259911452,18.670509663419818,0.0,1.0,0.0,0.0,1.0,Taxi
34.9,0.15184983581238895,-21.571651716733985,22.4021704823107,-0.02158079541761994,-0.034281898993789944,25.5794411189745,19.843164590878413,0.0,1.0,0.0,0.0,1.0,Taxi
35.0,-0.07884219791601155,36.791393028632484,22.205117180794222,0.005275061279087376,0.2457327510398446,25.50518216354294,19.34927318176418,0.0,1.0,0.0,0.0,1.0,Taxi
