time_s,altitude_ft,vertical_speed_fpm,ias_kt,pitch_deg,roll_deg,heading_deg,throttle_pct,afterburner_on,gear_down,flaps_deg,speedbrake_pct,weight_on_wheels,label
0.0,0.09142763851888361,-69.7603423081466,22.917244026509536,0.4671433656676881,-0.41690131134371766,108.5089869112063,18.463889200517244,0.0,1.0,0.0,0.0,1.0,Taxi
0.1,-0.14110683584160508,-25.421910036743565,23.601250533150747,0.3059772603145589,-0.49939249289169696,108.31275484776137,18.41130406121476,0.0,1.0,0.0,0.0,1.0,Taxi
0.2,-0.03568191166483421,-26.78623078803717,23.46810208965849,0.3514735029876271,-0.04761153122569833,108.60546178780567,19.346546385250896,0.0,1.0,0.0,0.0,1.0,Taxi
0.30000000000000004,-0.042503515421302235,45.72317246247684,22.641656561241682,-0.08649931398315225,-0.020067859844865633,108.35681912829995,18.8820595092745,0.0,1.0,0.0,0.0,1.0,Taxi
0.4,0.0875090264707791,2.8720265163662098,24.055647618641636,0.4857921423313942,0.6923859954973438,108.42353568125134,18.368971356067732,0.0,1.0,0.0,0.0,1.0,Taxi
0.5,-0.021321779083003166,6.370691191676031,23.22417581303663,0.1955899555292887,1.2364340521637671,108.39525833356629,19.445474879348296,0.0,1.0,0.0,0.0,1.0,Taxi
0.6000000000000001,-0.010650059462922065,-27.683879129694475,22.678784593738147,0.3085455852284966,0.0606734300601616,108.68335623947297,19.07257811745296,0.0,1.0,0.0,0.0,1.0,Taxi
0.7000000000000001,-0.05091036917769325,20.05601429012674,25.133869588243748,0.21169860972990112,-0.4374587725382442,108.26125711753014,18.684371746608658,0.0,1.0,0.0,0.0,1.0,Taxi
0.8,0.07895829236763054,3.1658174850733096,23.417997864930484,0.5157494792151716,-0.6540433576440446,108.59857511259719,19.368279394485842,0.0,1.0,0.0,0.0,1.0,Taxi
0.9,0.005179027962444493,8.943908132897164,23.501477401827582,0.5998288218603741,0.9939952110923963,108.52881817637922,18.590892416834087,0.0,1.0,0.0,0.0,1.0,Taxi
1.0,-0.00619082851320743,7.04364793381086,24.058541278863935,0.7572733793799449,0.2005741698073756,108.30372448781287,19.018881288708023,0.0,1.0,0.0,0.0,1.0,Taxi
1.1,0.11417653203668483,-19.062385304067973,22.873931771457734,-0.17426350186738315,0.6616741913783586,108.55971815510475,18.72281705905594,0.0,1.0,0.0,0.0,1.0,Taxi
1.2000000000000002,-0.09013289855789536,-22.577476964833096,23.043156509142587,0.5748303988167073,0.3045310554023085,108.38559616781703,18.48104602756001,0.0,1.0,0.0,0.0,1.0,Taxi
1.3,-0.1190782133373729,0.21415910347352943,25.13108305938901,0.1782174640350908,-1.0230735931513435,108.42249131346017,19.1792213956201,0.0,1.0,0.0,0.0,1.0,Taxi
1.4000000000000001,0.1152473275540525,-24.934199491959475,24.495267534409944,0.2054992768377876,-1.1133679310397486,108.25218397759778,18.521370924984176,0.0,1.0,0.0,0.0,1.0,Taxi
1.5,-0.21480389601769276,-11.081527409825853,23.33107117285671,0.33138856286589674,-0.05595373402749108,108.3169746643552,19.198046058056896,0.0,1.0,0.0,0.0,1.0,Taxi
1.6,-0.1744858503865022,0.5501593706312633,23.615946712794777,0.4950090956478024,-1.1129525558914581,108.49276988391028,19.105138510973045,0.0,1.0,0.0,0.0,1.0,Taxi
1.7000000000000002,0.11799812440720883,66.76590348819671,23.445623239306418,0.4428138546476481,0.6435270543189399,108.31715474488084,19.023565108726736,0.0,1.0,0.0,0.0,1.0,Taxi
1.8,0.11902562142329083,52.385682245903574,23.16794200284835,0.07944109751311879,-0.16649161995399328,108.39947714613334,19.47772223801228,0.0,1.0,0.0,0.0,1.0,Taxi
1.9000000000000001,0.08744256084301566,-58.75376506608743,24.377429091322075,-0.0207757495536664,-0.17226196880342037,108.48092526218784,18.386071530834442,0.0,1.0,0.0,0.0,1.0,Taxi
2.0,-0.1757707009232284,-72.07516395231016,23.43347679848248,-0.08949965712479035,-0.26241274213106935,108.54731004907268,19.59218610658993,0.0,1.0,0.0,0.0,1.0,Taxi
2.1,-0.24135019833826005,-27.668240099970678,22.848916370269226,0.4568636706368509,-1.0116614095304295,108.53417512151839,19.107602610387474,0.0,1.0,0.0,0.0,1.0,Taxi
2.2,-0.05089863965683777,28.67887596652623,23.42575524889004,0.36556875305699127,-0.45246531240122284,108.55753669022357,18.27892250025466,0.0,1.0,0.0,0.0,1.0,Taxi
2.3000000000000003,-0.032376321090597265,51.61267401328121,24.372444375951556,0.26187143310706773,0.2627354449409314,108.45055471943397,18.279252422484234,0.0,1.0,0.0,0.0,1.0,Taxi
2.4000000000000004,0.016713171728145956,-3.0436648216619133,24.609763441103656,0.2820300960272887,0.7939205417376317,108.43360632009325,18.523789046021186,0.0,1.0,0.0,0.0,1.0,Taxi
2.5,-0.06611696376514738,-20.124545296189115,23.418701018251426,0.44725967045116055,0.41558046791042147,108.56379391773419,18.65935402601796,0.0,1.0,0.0,0.0,1.0,Taxi
2.6,-0.13299904757154288,13.694604935743612,23.809077365414126,0.3328457073802057,0.27558641375033277,108.43817715066763,18.968409856965106,0.0,1.0,0.0,0.0,1.0,Taxi
2.7,0.08518619640686398,24.696667020223938,23.968676031616948,0.32617843713530764,-0.33335401501613776,108.31899708675212,18.42849806203941,0.0,1.0,0.0,0.0,1.0,Taxi
2.8000000000000003,0.05736637133597228,25.557347421312148,22.481586853580534,0.2800714715497179,-1.020077274754332,108.49137519337944,19.05997093289139,0.0,1.0,0.0,0.0,1.0,Taxi
2.9000000000000004,-0.005212310464982181,-53.41262058761106,23.364139434441654,0.21381527140752155,0.7101846525012189,108.59372802960337,19.30433315803435,0.0,1.0,0.0,0.0,1.0,Taxi
3.0,-0.18187690653119137,-0.012640368158040852,23.765241048088058,0.29310102348646827,-0.9615866994757787,108.36020269882238,19.270770410028305,0.0,1.0,0.0,0.0,1.0,Taxi
3.1,0.05730316949518204,12.746564754797511,22.128476126160763,-0.25885588267186954,-1.188797270585878,108.47987529624976,18.617746817997197,0.0,1.0,0.0,0.0,1.0,Taxi
3.2,0.05852051330900533,16.296837651427566,23.320418473670827,0.0279567274071571,-0.043274496052047896,108.64734934308217,18.751661301378444,0.0,1.0,0.0,0.0,1.0,Taxi
3.3000000000000003,-0.1003927182740536,-25.560375366831106,23.091821546554318,0.1035004576343905,0.8110805968639505,108.45289742036528,18.54929480476488,0.0,1.0,0.0,0.0,1.0,Taxi
3.4000000000000004,-0.07049870733897355,-49.66217123088501,22.979820466825238,0.022680849898326305,-0.5901330395377847,108.41783559511828,18.67599854154041,0.0,1.0,0.0,0.0,1.0,Taxi
3.5,-0.1897903428454198,-32.81244429888633,23.371692378271092,0.1469070927341656,0.37151178469169444,108.38824619291688,19.63565863654393,0.0,1.0,0.0,0.0,1.0,Taxi
3.6,-0.2644549397684853,8.454611209151347,22.783299426374402,0.14856239620105152,0.4812892463519122,108.44593042437873,19.240252622599215,0.0,1.0,0.0,0.0,1.0,Taxi
3.7,-0.028225651293216875,31.73830013648534,23.309285218862875,0.3418351090949189,-0.5920449178242535,108.58316931930688,18.888355211186315,0.0,1.0,0.0,0.0,1.0,Taxi
3.8000000000000003,-0.031098842162993152,40.285045872346636,23.070728180799673,0.07861136988461709,0.08367242360182986,108.45196609873017,18.73208526858625,0.0,1.0,0.0,0.0,1.0,Taxi
3.9000000000000004,-0.06302971040675213,-20.35415436065478,22.57563391300947,0.7276325422452385,0.49165011923054813,108.35512043130154,19.57009046619742,0.0,1.0,0.0,0.0,1.0,Taxi
4.0,-0.12999642309649082,-16.775643598185987,23.259544427388633,0.08519505064915131,-0.819376750803122,108.68269981673058,19.150020893367746,0.0,1.0,0.0,0.0,1.0,Taxi
4.1000000000000005,-0.11497706015392313,16.109953188563455,23.485968638382364,0.42048234438704024,-0.426842955078307,108.51313382303465,18.70848368932688,0.0,1.0,0.0,0.0,1.0,Taxi
4.2,0.01752005553606508,39.21857351801639,22.84447938522217,0.10135071540532137,-0.01866820563761291,108.35010494361154,19.676306777762413,0.0,1.0,0.0,0.0,1.0,Taxi
4.3,0.06609644449359109,23.826243316826407,23.16814805521576,0.32626248536194713,-1.4375463128206702,108.38065394918675,19.051080215070588,0.0,1.0,0.0,0.0,1.0,Taxi
4.4,0.004154156430208856,-12.264082973581807,23.15852585958462,0.27915082776656136,0.24459321374393533,108.2979393412204,19.05675174104332,0.0,1.0,0.0,0.0,1.0,Taxi
4.5,-0.04380035933184401,-20.719421906078594,24.150133405474882,0.3535627139936156,-0.2166286356738628,108.46127446406979,18.60003773354814,0.0,1.0,0.0,0.0,1.0,Taxi
4.6000000000000005,-0.037500665036801925,-9.144057434718116,22.674767254226982,0.2810986303115185,0.05984394318526472,108.48688570320041,19.34109762991435,0.0,1.0,0.0,0.0,1.0,Taxi
4.7,-0.04156613074338178,0.5853647447270055,23.123153141492626,0.18736308887543524,-0.3470187141087918,108.4242272416775,18.996284437748162,0.0,1.0,0.0,0.0,1.0,Taxi
4.800000000000001,-0.04087353560820903,22.43373353911326,24.520907175688933,0.13177229336140625,0.32435365423979196,108.48367258012291,18.594627278369778,0.0,1.0,0.0,0.0,1.0,Taxi
4.9,0.07466800265876432,24.214115112417744,23.634542149799184,0.34440089074844477,0.08202530739841106,108.5838513577728,18.305569028604907,0.0,1.0,0.0,0.0,1.0,Taxi
5.0,0.0795044448187069,-25.906447238542736,23.094409700716973,0.2908502085147262,-0.9053284600933803,108.49376282571006,18.54430803042814,0.0,1.0,0.0,0.0,1.0,Taxi
5.1000000000000005,-0.17040577180092276,1.7244116454911211,22.610384803985013,0.4480294439809729,0.2996268380824549,108.53000257712904,19.646603145428685,0.0,1.0,0.0,0.0,1.0,Taxi
5.2,0.08329006088621987,18.661287959886593,23.356372215212048,0.22107411650327163,0.3521472254152588,108.25933976008872,18.39439235942175,0.0,1.0,0.0,0.0,1.0,Taxi
5.300000000000001,0.17281088461813984,30.489481589602907,22.72797300380169,0.019169020270988046,-0.1279249746500851,108.49975819899583,19.19302602094848,0.0,1.0,0.0,0.0,1.0,Taxi
5.4,-0.017958363852908246,-26.162107737808867,22.920129889097193,-0.029178427924025307,-0.5368106358811469,108.44976748380054,18.777592874649244,0.0,1.0,0.0,0.0,1.0,Taxi
5.5,-0.04752047780282451,-23.64724009341128,23.22366498719381,0.01132804816376859,-0.06837335049560567,108.57709237477718,18.747712820348703,0.0,1.0,0.0,0.0,1.0,Taxi
5.6000000000000005,0.054574684151083346,-3.5677440047244673,24.218157332187992,0.15625140328317572,0.3761573319360723,108.37378256527506,18.27970175880791,0.0,1.0,0.0,0.0,1.0,Taxi
5.7,-0.03579708387653067,64.80203073525836,24.515108406610537,0.15164989479663263,0.35502449669343383,108.44166295961162,19.24594900137773,0.0,1.0,0.0,0.0,1.0,Taxi
5.800000000000001,0.2764896758734671,12.591419299401585,23.262570165046192,0.39300279143444417,0.2198478091877151,108.60934167481975,18.71816162036585,0.0,1.0,0.0,0.0,1.0,Taxi
5.9,0.11753178064809114,14.278065599410366,24.044608541404394,0.1950550489974647,0.7698597355961736,108.68900164598483,18.877467434014953,0.0,1.0,0.0,0.0,1.0,Taxi
6.0,0.03559324412052103,-7.537173845418242,22.94274057075667,0.38510386873405406,-0.9464377566815056,108.38802836733674,18.431940882664584,0.0,1.0,0.0,0.0,1.0,Taxi
6.1000000000000005,0.23880380664637585,-4.039696484032727,23.186729775706794,0.23733505794817472,-0.2255905381097281,108.50583130539235,18.54926633502198,0.0,1.0,0.0,0.0,1.0,Taxi
6.2,0.09733329822792748,-26.361458661901565,23.476131352292683,0.4535777537647149,-0.5400607452252346,108.38460259698098,18.87220150700606,0.0,1.0,0.0,0.0,1.0,Taxi
6.300000000000001,-0.09621404918898685,-7.442421317088758,24.231124990140078,0.3612963672141964,-0.4872375864142114,108.53243795006347,18.653020100920966,0.0,1.0,0.0,0.0,1.0,Taxi
6.4,0.20159170006093202,-37.5513384438348,23.106571591563203,0.5620422123484805,0.4117984776714813,108.53084414993452,18.93475579971434,0.0,1.0,0.0,0.0,1.0,Taxi
6.5,-0.09042339399124658,42.58020721506862,23.085774575354357,0.22134698724214893,0.4289325903834518,108.53087432994022,19.152373526857325,0.0,1.0,0.0,0.0,1.0,Taxi
6.6000000000000005,0.1166869868863562,-83.72395329697784,24.15507398691398,0.2763540458056255,-0.2656846641376175,108.43874064989006,18.767874349834887,0.0,1.0,0.0,0.0,1.0,Taxi
6.7,-0.21702806642395722,-21.815261037954812,23.524476247658004,-0.013418139710773436,-0.006796672080756196,108.46567128936772,19.190323145458635,0.0,1.0,0.0,0.0,1.0,Taxi
6.800000000000001,-0.1994996991810207,-64.06162838453534,23.382042456882967,0.1099481287162587,-0.546425116963114,108.40228737710424,18.24410549723839,0.0,1.0,0.0,0.0,1.0,Taxi
6.9,-0.20362115503632056,56.92750396072298,22.760977147483466,0.09911426779779778,0.5990654863679957,108.39894603417281,18.758188099964592,0.0,1.0,0.0,0.0,1.0,Taxi
7.0,0.06760945337965764,74.87958537220051,23.98594966507702,0.40706372456405154,-0.8033436101463349,108.66510511428578,19.345539174111984,0.0,1.0,0.0,0.0,1.0,Taxi
7.1000000000000005,0.17489822767998187,40.68809074086827,23.188905263160926,0.42289693714870835,0.17654059801510802,108.63297120156153,19.929899104297938,0.0,1.0,0.0,0.0,1.0,Taxi
7.2,-0.00018070133197922012,-28.77857575044075,22.665015003985186,0.08330229512158735,-0.8978142488778217,108.45011830854838,19.340997751638,0.0,1.0,0.0,0.0,1.0,Taxi
7.300000000000001,-0.07628342537254618,-12.030422195175381,23.061807966909747,0.5862572428555302,-1.0608633270091468,108.464692812419,18.773983499513168,0.0,1.0,0.0,0.0,1.0,Taxi
7.4,0.11474611670410491,-22.34614384853765,24.533916767142962,0.16624993348664796,-0.0001995410359508802,108.4734669640684,19.169109405087806,0.0,1.0,0.0,0.0,1.0,Taxi
7.5,-0.11191142057466757,-4.04397233384064,23.681556353877458,0.44630076907289973,0.011749402059969914,108.54401849403996,19.78541168914325,0.0,1.0,0.0,0.0,1.0,Taxi
7.6000000000000005,-0.09650328704174949,-23.43071688539905,23.749966981652413,0.3715947365768397,0.02303981829574668,108.35379834612894,19.05237845323861,0.0,1.0,0.0,0.0,1.0,Taxi
7.7,-0.002407467722890487,42.21515366904669,23.020615762046432,0.20850221480751824,-0.402491091355475,108.38608009451696,18.795283157603073,0.0,1.0,0.0,0.0,1.0,Taxi
7.800000000000001,0.09916434777056579,7.384250172685839,22.727973567063025,0.45561545356258293,0.17268730555248024,108.40905345652158,19.234108900669415,0.0,1.0,0.0,0.0,1.0,Taxi
7.9,-0.0595820361783204,0.7608455873142219,23.419129807162957,0.147150337993075,-0.03039618455512433,108.50974804096819,19.62603787221508,0.0,1.0,0.0,0.0,1.0,Taxi
8.0,0.0013967602136804986,-7.6761049063137134,22.982597718156285,0.30151591152315826,-0.2673655321503324,108.58741875006348,19.220413664579134,0.0,1.0,0.0,0.0,1.0,Taxi
8.1,0.06078382323899711,32.62151877143037,22.84052336871158,0.2192691641039843,-0.5870276852644808,108.50261612306451,19.389789657573065,0.0,1.0,0.0,0.0,1.0,Taxi
8.200000000000001,0.1035255576788313,-33.02663219367409,24.38938400312228,0.45321119524516934,0.1578530217500001,108.45841553681441,18.645054910728643,0.0,1.0,0.0,0.0,1.0,Taxi
8.3,-0.16373640075469006,26.684616241770538,23.97965185178528,-0.003929347337440714,-1.3126746693665519,108.52658784713435,19.217271095290638,0.0,1.0,0.0,0.0,1.0,Taxi
8.4,0.19420690444784966,11.200332367205286,24.235386753064375,0.23992905343609094,-0.2784252955764551,108.42358606664556,18.374517607501225,0.0,1.0,0.0,0.0,1.0,Taxi
8.5,0.1595272195148576,28.772383119169195,22.65446519193816,0.3968488269041164,-0.15446941964117558,108.5695174246988,18.319156668076776,0.0,1.0,0.0,0.0,1.0,Taxi
8.6,-0.01987448515884422,-52.09471993180077,23.509669086230005,0.2790453765049003,-0.3225319295783191,108.45196926327236,19.274169402882205,0.0,1.0,0.0,0.0,1.0,Taxi
8.700000000000001,-0.06626669521115432,-28.84630468751973,23.292068324348953,0.25715259516006306,-0.5214442009151833,108.39350614031645,18.71831109962199,0.0,1.0,0.0,0.0,1.0,Taxi
8.8,0.015295696077258843,14.291633652670114,22.814371196330626,0.2712273764103595,0.17638258363446263,108.50521768754118,18.911564393714603,0.0,1.0,0.0,0.0,1.0,Taxi
8.9,0.05158368310450626,13.27181240105888,24.137859495646886,0.33316112525113695,0.235456380894751,108.51348461309749,18.107594768843278,0.0,1.0,0.0,0.0,1.0,Taxi
9.0,9.23667941399768e-05,6.870385263252099,23.499285146335257,0.44837020401651406,-0.8633188364410275,108.45301632001497,19.615150118002713,0.0,1.0,0.0,0.0,1.0,Taxi
9.1,0.04964762239351924,6.721858531814873,23.88102248516145,0.17991578299824093,0.16707602557331225,108.34291183862382,18.625965197847947,0.0,1.0,0.0,0.0,1.0,Taxi
9.200000000000001,0.08519297576358054,5.116585060995997,23.87088710273612,0.29756726165701797,-0.13949691432515127,108.39246274178777,18.994052655428302,0.0,1.0,0.0,0.0,1.0,Taxi
9.3,0.025675292099119867,19.82466225451595,23.688355894076782,0.48632619641678976,0.22867472596230587,108.43767583604483,19.092123865978298,0.0,1.0,0.0,0.0,1.0,Taxi
9.4,0.1487709336660989,-23.116807967890594,23.74385431965392,0.26559325984582377,-1.058087695112885,108.43700309172971,18.79116802000024,0.0,1.0,0.0,0.0,1.0,Taxi
9.5,-0.030391064075872522,-20.496370850451612,23.139342628983936,0.29702357870231716,0.562985786982992,108.5531566289805,18.969087658820424,0.0,1.0,0.0,0.0,1.0,Taxi
9.600000000000001,-0.0768065621531383,-17.77177404934491,22.766817238424522,-0.18796495581713302,0.06027077197679171,108.45741599822759,19.82243771711375,0.0,1.0,0.0,0.0,1.0,Taxi
9.700000000000001,0.05991206341937427,67.83455021468338,23.46425411433606,0.2688944047415297,0.4624441739655016,108.55203103921951,19.434485848820906,0.0,1.0,0.0,0.0,1.0,Taxi
9.8,0.30878168699754427,18.3281974897162,23.836175272286933,0.11895385757979896,-0.4120850890026358,108.42574726238217,18.306527290793387,0.0,1.0,0.0,0.0,1.0,Taxi
9.9,0.014834425295442608,-2.239843790004071,23.94367920134807,0.07987775829320626,0.25749889020418937,108.3028753081208,20.096718197433315,0.0,1.0,0.0,0.0,1.0,Taxi
10.0,0.048712844469353804,-79.57185600416706,22.869891550353593,-0.06824517676836289,-0.9418779054040755,108.55506636566724,18.490015128858996,0.0,1.0,0.0,0.0,1.0,Taxi
10.100000000000001,-0.08907759302329114,18.850896382487363,24.41096915163959,0.5004516670535104,0.27859064087476665,108.52906644057276,19.24149072195468,0.0,1.0,0.0,0.0,1.0,Taxi
10.200000000000001,0.10908890720787928,-6.947256626813799,24.025221589261214,0.41748836680100776,0.5546009788342499,108.5506563316336,17.5025628259321,0.0,1.0,0.0,0.0,1.0,Taxi
10.3,0.013976561335284677,10.429176968238622,23.964250841229433,0.15914673680271418,0.02095893566870865,108.39396397584773,18.4387826770673,0.0,1.0,0.0,0.0,1.0,Taxi
10.4,-0.03693170818209817,-12.920648584501107,23.247209906515028,0.5693098606661475,0.5467117348773713,108.42243939388538,18.40066690355572,0.0,1.0,0.0,0.0,1.0,Taxi
10.5,0.044485664285373636,9.371652622567344,23.48418004218347,0.10056196222114602,0.40041143998846673,108.48728406414216,19.085661112988042,0.0,1.0,0.0,0.0,1.0,Taxi
10.600000000000001,0.06083482444812127,0.18712020016697295,23.39009004674581,0.3882560333547188,0.7560095261962033,108.55621920849273,18.253202503567977,0.0,1.0,0.0,0.0,1.0,Taxi
10.700000000000001,-0.035996107181263434,-8.531956679438728,23.83942083886534,0.7225977980971607,0.34074644280151645,108.34148472126839,19.446201954376505,0.0,1.0,0.0,0.0,1.0,Taxi
10.8,0.001825880888179855,-4.281260905848693,22.884798097766335,0.05379799859854842,-0.7996080223897747,108.40778755011979,18.088211096385123,0.0,1.0,0.0,0.0,1.0,Taxi
10.9,0.03942851991887768,22.70209304085095,24.392531105038245,0.41436838619255123,0.20628825029962863,108.33988992105736,19.407629024530713,0.0,1.0,0.0,0.0,1.0,Taxi
11.0,0.07751435802299117,3.3257063796695903,23.69698119140986,0.0585724471722818,-0.4177601332641718,108.6062270818669,19.096187017318275,0.0,1.0,0.0,0.0,1.0,Taxi
11.100000000000001,0.018454412786527676,-3.7322923564323798,23.508439860966273,-0.05192837917818949,-0.3092197218871453,108.36343593196773,19.12542749208346,0.0,1.0,0.0,0.0,1.0,Taxi
11.200000000000001,0.020767058136715647,32.44948494479703,23.18151063223753,0.24021468214721564,-0.3399411920147086,108.41347860103838,18.457793656886793,0.0,1.0,0.0,0.0,1.0,Taxi
11.3,0.23976178274697615,1.1128235795780768,24.184309403698727,0.3195823263738009,0.4001920771562121,108.41192773483118,19.37699893726708,0.0,1.0,0.0,0.0,1.0,Taxi
11.4,0.02401853068441787,11.618746165150881,23.68230433270217,0.3595317377367633,-0.33093167342394675,108.29431944195579,20.199310131228497,0.0,1.0,0.0,0.0,1.0,Taxi
11.5,0.0788607889624699,-41.70869057926192,23.680662458568904,0.06856469183614719,0.14156461807311368,108.51352469718779,19.44102688477915,0.0,1.0,0.0,0.0,1.0,Taxi
11.600000000000001,0.031218329850666394,-1.0730434432015945,23.180218750210173,0.3934086287752359,-0.3944100061776346,108.47296005947214,18.583265241932818,0.0,1.0,0.0,0.0,1.0,Taxi
11.700000000000001,0.018653313468409764,-43.7882482806913,23.066505632077526,0.4832670984359847,-0.3864522150110693,108.43963344515612,18.51925116453042,0.0,1.0,0.0,0.0,1.0,Taxi
11.8,-0.14008045244098674,-12.544319691167749,23.55062239122504,0.17473289709301407,0.5833161178227106,108.5883127690783,18.670912550576116,0.0,1.0,0.0,0.0,1.0,Taxi
11.9,-0.03150326860517253,9.901438139593562,24.646673261202245,0.11312725900043141,-0.0930404237474156,108.50315210314119,19.69651115876812,0.0,1.0,0.0,0.0,1.0,Taxi
12.0,0.0681605041663774,8.532761787040082,23.118613930786385,0.1987286650600421,-0.6587379515868923,108.65601015543427,19.100465800661834,0.0,1.0,0.0,0.0,1.0,Taxi
12.100000000000001,-0.0974166435057865,29.91953920486272,23.32500882777375,-0.0031191452971552347,-0.2695666979631857,108.49372459940366,18.15391261407461,0.0,1.0,0.0,0.0,1.0,Taxi
12.200000000000001,0.11809442741914088,7.002549867243979,23.047883505068825,0.09576344328496567,0.3450776190373568,108.49816132267216,19.262252293833644,0.0,1.0,0.0,0.0,1.0,Taxi
12.3,0.1031732535025971,47.08549844578757,23.99175888801294,0.4661052406230625,-0.9327108359077908,108.40928148623993,18.812145749082443,0.0,1.0,0.0,0.0,1.0,Taxi
12.4,0.13801084872315117,-46.030961576077466,24.002724262205437,0.4222435131738544,-0.2151593416408077,108.4674476297119,18.439532026807544,0.0,1.0,0.0,0.0,1.0,Taxi
12.5,-0.11206038046124654,-10.550458370919287,23.53824526273933,0.26725264573829355,0.2788083336656911,108.54848746733916,19.99897617678308,0.0,1.0,0.0,0.0,1.0,Taxi
12.600000000000001,0.05042096164800058,-48.07209943993707,24.028127249185324,0.5737267138432232,-0.5892501810612792,108.5512098677471,18.05949789080846,0.0,1.0,0.0,0.0,1.0,Taxi
12.700000000000001,-0.10234964847653427,41.743003371153144,23.54142011510672,0.36023333786968065,0.22984647460911628,108.32570431168034,19.3292567909793,0.0,1.0,0.0,0.0,1.0,Taxi
12.8,0.09665463639451904,-2.730423875803524,23.22685640442198,0.5212556045997662,-0.30135529046878,108.30313959811417,19.025591390211066,0.0,1.0,0.0,0.0,1.0,Taxi
12.9,0.036768842268982825,18.539532549323642,23.73302302992195,-0.08009835852740649,-0.28169564364974453,108.4832545893641,18.259938853994367,0.0,1.0,0.0,0.0,1.0,Taxi
13.0,-0.009651985729916192,-14.31758256642143,22.95384807460794,0.521342424340348,0.3107394719366607,108.50299963984162,18.083549572785326,0.0,1.0,0.0,0.0,1.0,Taxi
13.100000000000001,0.02506672356241176,-20.17476432061255,23.07195819494631,0.45456791381696715,0.46152216095878124,108.47039913477039,18.868902487631,0.0,1.0,0.0,0.0,1.0,Taxi
13.200000000000001,-0.06410497933408003,-22.386902251613616,23.840010268894204,0.0903595094218867,0.446344884025448,108.51082202691998,19.670517729581157,0.0,1.0,0.0,0.0,1.0,Taxi
13.3,-0.12158649698798439,-10.0869718653002,23.719913287750597,0.3731695919954625,0.10690681840649818,108.3815957287793,18.469894373784992,0.0,1.0,0.0,0.0,1.0,Taxi
13.4,-0.02536813576408935,-5.669891193040466,22.864073005186967,0.6206067755693838,0.004434123494432608,108.50932771602652,18.88125033869245,0.0,1.0,0.0,0.0,1.0,Taxi
13.5,-0.09245443529928249,-14.189526451296246,24.809624205074268,0.3555604290734507,0.6920294537573702,108.65979432779022,19.46999583391716,0.0,1.0,0.0,0.0,1.0,Taxi
13.600000000000001,-0.19253412924446575,-8.698562078415426,22.958632476756062,0.530156917649037,0.8722933398688029,108.54779003533042,19.099936510167584,0.0,1.0,0.0,0.0,1.0,Taxi
13.700000000000001,-0.0688609461561666,11.99651183678896,23.22927358489978,0.3269298943498425,-0.17041775502895923,108.43081196641089,18.13905879242654,0.0,1.0,0.0,0.0,1.0,Taxi
13.8,-0.03247187611533782,13.958525136188314,24.653108352150895,0.30620484593664693,-0.08627549329601815,108.50564167753595,18.161274584869204,0.0,1.0,0.0,0.0,1.0,Taxi
13.9,-0.1227415035635243,27.125704109591297,21.842302319203597,0.28213842901798997,0.2860839847097285,108.59805679495753,18.435215772807116,0.0,1.0,0.0,0.0,1.0,Taxi
14.0,0.06676757439178975,38.53434409008067,23.966993209478492,0.33237171098470425,-0.2213837217711744,108.47770250589821,18.852530433551458,0.0,1.0,0.0,0.0,1.0,Taxi
14.100000000000001,0.1601998443350654,22.086213955127135,22.808629404666927,0.12483457593958536,0.21294785331275454,108.54016714250162,19.33870327501552,0.0,1.0,0.0,0.0,1.0,Taxi
14.200000000000001,-0.012310433787888694,-22.432044280022918,23.02566871697389,0.5075805913651807,0.19494116315685045,108.4127073043253,18.648086189435997,0.0,1.0,0.0,0.0,1.0,Taxi
14.3,-0.04539264700832491,-33.448489172533435,23.69058185990181,0.5152199671620905,-0.5036865483269822,108.55457965252634,18.233597470295212,0.0,1.0,0.0,0.0,1.0,Taxi
14.4,-0.007042601527601881,41.09311735856843,24.414044021121978,0.03920653814160205,-0.5103934170301242,108.61426342913472,19.013643626397254,0.0,1.0,0.0,0.0,1.0,Taxi
14.5,0.19315515300495334,-6.746526524354759,23.720399699651256,0.6656703759149822,-0.35219981030036474,108.35257118704874,19.439509482022576,0.0,1.0,0.0,0.0,1.0,Taxi
14.600000000000001,-0.07912527963009883,13.504252907663334,24.264669464561642,0.38796846378812894,0.23047046889585926,108.33565077566527,20.021020582084972,0.0,1.0,0.0,0.0,1.0,Taxi
14.700000000000001,0.06047866301071467,-67.80917876445397,24.60489153524112,0.3423519219729876,0.08973546493644902,108.47726237509596,18.836175336047052,0.0,1.0,0.0,0.0,1.0,Taxi
14.8,-0.14589074081731665,-2.769576005129155,23.6869269861239,0.6154034524946586,0.6831130892251409,108.4102422512143,19.252823851343617,0.0,1.0,0.0,0.0,1.0,Taxi
14.9,-0.09297315965574474,-3.3019335566745127,23.410993843974346,0.14459524153426015,0.007150400408361221,108.51072260841948,18.25763172233914,0.0,1.0,0.0,0.0,1.0,Taxi
15.0,0.043968995227342024,45.518836657667045,23.747651641097242,0.271251574228725,0.017573158124643065,108.38635061570261,18.90353830155027,0.0,1.0,0.0,0.0,1.0,Taxi
15.100000000000001,0.08170344247101848,38.41569664196347,23.4133738574268,0.022664437691138795,0.3448660327278864,108.39055571619338,18.869479034519397,0.0,1.0,0.0,0.0,1.0,Taxi
15.200000000000001,0.09910532355407253,-35.004531098727256,24.191224458911826,0.4665644015235013,-0.4408635233517355,108.44789807497739,18.524931472470115,0.0,1.0,0.0,0.0,1.0,Taxi
15.3,-0.13105366026629436,-25.872268546448552,22.013964684339687,0.365614251932732,0.12891174875927483,108.5134108901446,17.902759470203478,0.0,1.0,0.0,0.0,1.0,Taxi
15.4,-0.04765790026122439,-38.289996726067166,23.774071720949316,0.33650299373361275,0.6423745490147225,108.64621583812567,18.8281281118069,0.0,1.0,0.0,0.0,1.0,Taxi
15.5,-0.09234466007626338,8.712286909303108,22.9896246389236,0.34183849752288914,-0.1314013447624233,108.52730626575544,19.631017274284183,0.0,1.0,0.0,0.0,1.0,Taxi
15.600000000000001,-0.08749222571977894,-2.3620771331226997,24.18406159978654,-0.039913008830829044,0.6928104717213182,108.50149821206912,18.20310864117312,0.0,1.0,0.0,0.0,1.0,Taxi
15.700000000000001,-0.059468285926838005,6.277780595107296,23.337289125882684,0.42917834129398225,-0.08646544792385041,108.30196975225982,18.948906203105977,0.0,1.0,0.0,0.0,1.0,Taxi
15.8,-0.060955757100727016,30.10079161734137,23.400256142647688,0.12771709289820016,-0.3146232505432415,108.43267046612772,18.878952600635845,0.0,1.0,0.0,0.0,1.0,Taxi
15.9,0.06301173236692778,19.278182678536968,23.148482609012877,0.5180399994952474,0.9421459897397569,108.58436741182379,18.665781303425035,0.0,1.0,0.0,0.0,1.0,Taxi
16.0,0.03692262746584672,2.2823779626847576,23.60916398474252,0.17683785720414646,-0.9117649091449324,108.40909206654544,19.555551200044587,0.0,1.0,0.0,0.0,1.0,Taxi
16.1,-0.04954386728730334,-30.951929544759338,22.81588952913104,0.30919069659946186,1.0679348530568589,108.24066116936058,19.318170720425957,0.0,1.0,0.0,0.0,1.0,Taxi
16.2,-0.09174791535686903,-30.35789031681237,22.309091289617008,0.2278263532476948,-0.41753016332968107,108.49173627205369,18.81866842839011,0.0,1.0,0.0,0.0,1.0,Taxi
16.3,-0.11486682411821524,39.139192092979265,24.224633710767428,0.3077918331524362,-0.3907347926127742,108.40059381120648,18.680928735200528,0.0,1.0,0.0,0.0,1.0,Taxi
16.400000000000002,0.1461520931775928,10.770237779275453,23.283187073002498,0.6552925752192371,0.4176034556762508,108.50895164899362,19.241140356427984,0.0,1.0,0.0,0.0,1.0,Taxi
16.5,-0.03789672646049195,33.07817496380424,23.038595511088968,0.1952130746716766,0.33178232800503066,108.50375693125602,18.79304084599626,0.0,1.0,0.0,0.0,1.0,Taxi
16.6,0.05052405070080579,-13.889693077281663,22.423216372552936,0.13461214571316887,-0.28636158675408224,108.692416381123,19.054470617508844,0.0,1.0,0.0,0.0,1.0,Taxi
16.7,0.07670362779118439,23.462943033173545,23.34435272315126,0.3986494988578936,0.3404704177507562,108.45535016005715,19.173294605569517,0.0,1.0,0.0,0.0,1.0,Taxi
16.8,0.07941798870537568,-24.948669189323724,23.020858600075368,0.0643674311643552,0.16265120440709996,108.38554060479623,18.909873275524046,0.0,1.0,0.0,0.0,1.0,Taxi
16.900000000000002,-0.07421929524581296,-55.97755206682526,23.585616711728527,0.2705302338290702,0.10768742108964263,108.507958170135,18.346625257790283,0.0,1.0,0.0,0.0,1.0,Taxi
17.0,-0.20318413254294204,-11.04287713588055,23.90141652973518,0.339725928744843,0.2289155114654985,108.60990539220978,17.674634730939285,0.0,1.0,0.0,0.0,1.0,Taxi
17.1,0.02420360302597281,-15.75715014285368,22.3780843461987,0.20324017036902858,-0.34274258193248114,108.49758310882345,18.987454360801998,0.0,1.0,0.0,0.0,1.0,Taxi
17.2,-0.15300504596008144,52.03721477053341,23.830039834916597,0.21105417115003144,0.8543959758102798,108.4295373851042,18.877038850520602,0.0,1.0,0.0,0.0,1.0,Taxi
17.3,0.05700194130972491,-8.75424933258366,24.081164282617216,0.2179325837080068,-0.04690201223600027,108.39455238459811,18.002333887475412,0.0,1.0,0.0,0.0,1.0,Taxi
17.400000000000002,-0.019567643636945572,44.35547187622078,23.511372627675758,0.17261542418074835,0.1858272093559947,108.41605427102189,18.83423855427965,0.0,1.0,0.0,0.0,1.0,Taxi
17.5,0.06877231342102239,0.86062987579813,22.529622532295175,0.5340761656411113,-0.19230288104292617,108.18122004438351,19.607324666583466,0.0,1.0,0.0,0.0,1.0,Taxi
17.6,0.06130509068871546,-32.702573528901844,23.19041783081941,0.3061330282526207,-0.23644511815487396,108.4079473666161,19.22434562169699,0.0,1.0,0.0,0.0,1.0,Taxi
17.7,-0.1830805112814549,-33.018674328410555,22.649392311169457,0.2423129129250567,0.26409229943380474,108.37760149670675,18.92406825183811,0.0,1.0,0.0,0.0,1.0,Taxi
17.8,-0.09632105822103047,-26.125054551945606,23.898940145742884,0.29604041475661663,0.7209492644245394,108.40285042670757,18.08184843375135,0.0,1.0,0.0,0.0,1.0,Taxi
17.900000000000002,-0.06932018207101269,41.51841997587543,23.53046215882434,0.16224527844621928,-0.02986983540356773,108.56097067778944,18.771160497565994,0.0,1.0,0.0,0.0,1.0,Taxi
18.0,0.024511588597922136,79.89445714332875,23.72395306463041,0.44687731836887234,0.16556225781935516,108.5371833937179,19.04792589232178,0.0,1.0,0.0,0.0,1.0,Taxi
18.1,0.3031512274956132,15.619416589013762,23.238137790664798,0.48218958555473723,-0.600261416443603,108.57415493837686,17.955513618788743,0.0,1.0,0.0,0.0,1.0,Taxi
18.2,0.008776900874056038,19.79354628923454,23.893412742747856,0.024424358193209705,0.14328929384765016,108.50528406514877,19.52250467224609,0.0,1.0,0.0,0.0,1.0,Taxi
18.3,0.12347932004409479,-81.91986122151211,23.137581652805522,0.4070528913706939,-0.29797004190227777,108.36190626043947,18.734733540175124,0.0,1.0,0.0,0.0,1.0,Taxi
18.400000000000002,-0.10644807861194744,24.127387418380533,22.96428941507396,0.16519240348204944,0.7435511927663896,108.5995506329125,19.14963966753541,0.0,1.0,0.0,0.0,1.0,Taxi
18.5,0.1294138379659586,-41.1975180719104,22.19763579790843,0.214760600137142,1.2964723671217444,108.36839557593748,19.085608782476648,0.0,1.0,0.0,0.0,1.0,Taxi
18.6,-0.08250827031545738,1.023206402852099,23.454857189256835,0.17001756768559845,-0.002185133378756392,108.57658006963942,19.343959317982446,0.0,1.0,0.0,0.0,1.0,Taxi
18.7,-0.10133204659768708,-29.804927023951805,23.500192901069983,-0.1851711373753263,-0.2750289705616362,108.45303228264845,18.860315362685025,0.0,1.0,0.0,0.0,1.0,Taxi
18.8,-0.01961079715380058,-8.563618871393267,23.228682436818097,0.016649406415285006,0.8906077093152158,108.4885279307174,18.513269846453866,0.0,1.0,0.0,0.0,1.0,Taxi
18.900000000000002,-0.12532636467242383,55.48901294534679,23.139977957768693,0.07292221084389675,-0.5470221060445323,108.53839817027,18.580367349755488,0.0,1.0,0.0,0.0,1.0,Taxi
19.0,0.17611301812904676,1.1535541963837754,24.51716998987084,0.3682728886402551,1.2835428082969131,108.3101114228428,18.450465547939938,0.0,1.0,0.0,0.0,1.0,Taxi
19.1,-0.013843026171881849,3.9228748581669257,22.37486786474239,0.15190314965572702,0.10109019725699789,108.43528659437322,19.170379558545555,0.0,1.0,0.0,0.0,1.0,Taxi
19.200000000000003,-0.10571199038158936,-1.3992550739042144,23.692364771045696,0.49722387002603474,0.50618203856843,108.31366654036941,19.176806668658053,0.0,1.0,0.0,0.0,1.0,Taxi
19.3,0.16911674275952554,-2.0453695247607775,23.59144872686759,0.03213014666763331,0.5492582738140507,108.49897845431735,18.453115631509093,0.0,1.0,0.0,0.0,1.0,Taxi
19.400000000000002,-0.024069873795685898,28.412187496127412,24.20542601277648,0.5699464384601961,0.48109487848962595,108.57774604948048,18.441099544238586,0.0,1.0,0.0,0.0,1.0,Taxi
19.5,0.03634894709904753,-33.29943052346368,23.673075059823177,0.11674813645311974,0.307581391326881,108.51178051809745,19.363568205013575,0.0,1.0,0.0,0.0,1.0,Taxi
19.6,0.0026195901422069678,-0.7723996705087153,23.946755506475814,0.15879355614940494,0.7645911563193356,108.66338842771574,19.511666596865183,0.0,1.0,0.0,0.0,1.0,Taxi
19.700000000000003,-0.02793187214822966,20.25144875449421,23.855030302465195,0.29228693206603945,0.10292830092847174,108.54898536531198,18.483423275725343,0.0,1.0,0.0,0.0,1.0,Taxi
19.8,0.13760619087151837,-28.594964756791384,24.480325651181587,0.45362423436120036,-0.1184700695783833,108.43694028021565,18.843191399049612,0.0,1.0,0.0,0.0,1.0,Taxi
19.900000000000002,-0.14035523364175018,30.454136471033408,24.916460062430634,0.1918100787282841,0.3907235362811373,108.47085396607446,19.42724846066262,0.0,1.0,0.0,0.0,1.0,Taxi
20.0,0.12433881020693716,-34.50116859577836,22.931342405252387,0.48707939251423826,0.2613379040646624,108.56735985689807,18.677117401975362,0.0,1.0,0.0,0.0,1.0,Taxi
20.1,-0.034899652107373634,-28.80596039677502,23.722643446755697,0.4036035590070476,-0.11796675754582035,108.5062659822417,19.490865741675997,0.0,1.0,0.0,0.0,1.0,Taxi
20.200000000000003,-0.28438503562562545,-22.007775263827426,23.863031824998142,0.3140066825132287,0.47055075228354737,108.11231690366083,20.17568723978547,0.0,1.0,0.0,0.0,1.0,Taxi
20.3,0.014299933887799862,-0.4185752795505688,23.266539984043227,0.1242899269714598,-0.676216905892567,108.5233083396165,19.248717648151327,0.0,1.0,0.0,0.0,1.0,Taxi
20.400000000000002,-0.03699252850512666,33.7879344450497,24.70740958767441,0.39836269888123527,0.15224144560757616,108.31306911952026,18.45265014085526,0.0,1.0,0.0,0.0,1.0,Taxi
20.5,-0.11544536340037717,24.746574194507502,23.90235880362088,0.46424055337700243,-0.19663303070554247,108.44895688567328,20.031413815932375,0.0,1.0,0.0,0.0,1.0,Taxi
20.6,0.13803280486033714,17.347370213563998,23.93501120396144,0.23553908246594618,0.8849484356253678,108.46559160388495,19.30065703433117,0.0,1.0,0.0,0.0,1.0,Taxi
20.700000000000003,0.049744322562693115,20.400018505986093,23.741517193704674,0.5308102529073464,0.5244384806629587,108.54712351993157,18.825616077520053,0.0,1.0,0.0,0.0,1.0,Taxi
20.8,-0.013445270870446936,-29.667638964517504,23.297513626987932,0.08174441582007219,-0.4312837554111201,108.47192430214443,20.209960297255638,0.0,1.0,0.0,0.0,1.0,Taxi
20.900000000000002,-0.010305389962250592,-29.468788784998157,23.056010842224868,0.15976548684028646,0.0098659220992069,108.51559882008706,19.55231891251461,0.0,1.0,0.0,0.0,1.0,Taxi
21.0,-0.0975996213622979,4.130968551623442,23.104331707335223,0.5782015512237575,-0.01562078372246445,108.68936627790833,19.309546529945855,0.0,1.0,0.0,0.0,1.0,Taxi
21.1,0.00720957188767005,33.97977869024533,22.947752842610463,0.31499806654138746,0.4699880854870357,108.31796402605494,18.338667609595213,0.0,1.0,0.0,0.0,1.0,Taxi
21.200000000000003,0.15959350348897583,4.1602878733637,23.375329365285292,0.24653057975882886,-0.2687856368028954,108.46270544610081,19.54287650048887,0.0,1.0,0.0,0.0,1.0,Taxi
21.3,-0.07679818199547966,-29.604040759078785,23.996504110597105,0.5824854483586237,-0.6334276407024724,108.32120523961947,19.00474446248148,0.0,1.0,0.0,0.0,1.0,Taxi
21.400000000000002,-0.14081063190772414,-16.755819809111387,24.71450568059016,0.211824263976521,-0.21261308719601324,108.38709845306568,19.060988750790006,0.0,1.0,0.0,0.0,1.0,Taxi
21.5,0.07581440444341864,29.79693722538808,23.216016235565334,-0.06745124014082654,0.2519363366835164,108.30977018961698,18.755309422777795,0.0,1.0,0.0,0.0,1.0,Taxi
21.6,0.07218650413146054,52.84491705976226,24.357915257313266,0.3906287368566374,-0.26663051417442396,108.29500655966905,18.44635822638402,0.0,1.0,0.0,0.0,1.0,Taxi
21.700000000000003,0.12341395339108699,-16.118279641068998,24.127961918169298,0.39433928314200284,0.6115847105026664,108.3180037131911,19.506138892358432,0.0,1.0,0.0,0.0,1.0,Taxi
21.8,-0.004776993761926546,0.6837300884943195,22.97887201848549,0.20040575168671024,0.2999267604190965,108.45866743930014,19.252407804622376,0.0,1.0,0.0,0.0,1.0,Taxi
21.900000000000002,0.07560515457393195,-19.542221509959642,24.073234032011122,0.15755674120969063,-0.4829068927942156,108.59632793680657,19.519004590202975,0.0,1.0,0.0,0.0,1.0,Taxi
22.0,0.025702845841288603,-6.376364518510826,24.019720066807434,0.4364820164233769,0.17965162302456247,108.53649751336775,19.387593240875162,0.0,1.0,0.0,0.0,1.0,Taxi
22.1,-0.03665881635448088,18.577114343409875,23.284148533900765,0.32764820842422665,-0.1752597499123259,108.74876878698444,19.03010751057096,0.0,1.0,0.0,0.0,1.0,Taxi
22.200000000000003,0.16849072629098114,-22.232395682058982,23.375896870570664,0.1477826776558045,0.4171494142611407,108.39761867535753,18.134532837078837,0.0,1.0,0.0,0.0,1.0,Taxi
22.3,-0.0854591325690065,0.5724881612438656,23.46306577906782,0.5238892082183384,-0.495402060658307,108.54706209466258,19.795578085989447,0.0,1.0,0.0,0.0,1.0,Taxi
22.400000000000002,-0.03379637554826175,-27.563581069844833,22.960885350379897,-0.029091612338128847,-0.3282317257872542,108.38560142956817,18.4998566188081,0.0,1.0,0.0,0.0,1.0,Taxi
22.5,0.030672820941756763,30.370073374328523,24.26328338733322,0.17135091966197352,-0.18253459693332058,108.36467943739177,18.619012101863365,0.0,1.0,0.0,0.0,1.0,Taxi
22.6,0.0663912343026359,-15.815007204731641,22.907352738890182,0.29566319639806204,-0.27480195794235085,108.46317375272247,19.282948159850594,0.0,1.0,0.0,0.0,1.0,Taxi
22.700000000000003,-0.11287141157192014,26.798930609070094,23.29578372040805,0.41070352465001914,0.043356628898471174,108.54417704019022,19.47634303572865,0.0,1.0,0.0,0.0,1.0,Taxi
22.8,0.16466747398710702,-38.79171769870692,22.858715245651943,0.3408013860406185,0.3146755396960433,108.58430072456099,19.03696140015456,0.0,1.0,0.0,0.0,1.0,Taxi
22.900000000000002,-0.1275673541908989,39.776378368829434,23.112511902768837,0.09961206330178837,-0.5603903960711015,108.4673228095113,18.149921018463026,0.0,1.0,0.0,0.0,1.0,Taxi
23.0,0.08601048027222684,-25.639812289220334,23.687947417010545,0.5970499778223741,0.5554968221057608,108.4585597484097,19.1521660391478,0.0,1.0,0.0,0.0,1.0,Taxi
23.1,0.036468412541005184,50.423129495539094,24.70819677892323,0.18677149000290832,0.17060530836670842,108.4083233371116,18.715980751951427,0.0,1.0,0.0,0.0,1.0,Taxi
23.200000000000003,0.1245482932867964,-1.032445697307588,23.23242769219182,0.13163359734227334,0.08373880494333194,108.68657855186342,18.867821031783972,0.0,1.0,0.0,0.0,1.0,Taxi
23.3,0.08084825178568872,-2.944896541658276,23.060555856885024,-0.08160708342884804,-0.03934212958102169,108.57542088003066,19.703380165250568,0.0,1.0,0.0,0.0,1.0,Taxi
23.400000000000002,0.02174392983271362,-22.85590994235119,23.441705724265915,0.3271309292805674,0.6005485723924362,108.32210655132656,18.566700248040014,0.0,1.0,0.0,0.0,1.0,Taxi
23.5,0.010268743575040252,-5.030058758669227,24.37885302015146,0.3906629302158709,-1.124744194282978,108.38224917825272,18.72355129181242,0.0,1.0,0.0,0.0,1.0,Taxi
23.6,0.055697957992342374,0.5269797526836619,21.94338251973787,0.5920738496421574,-0.10016129657744309,108.56851146763842,19.231811199915533,0.0,1.0,0.0,0.0,1.0,Taxi
23.700000000000003,0.02437882859613172,-51.15673273296901,23.19483516091515,0.15044748501554076,-0.16893685685113952,108.42267827234411,18.915950642297048,0.0,1.0,0.0,0.0,1.0,Taxi
23.8,-0.245514920089805,-30.51054884742022,23.805588025091243,0.24114279640234343,-0.4802328730459682,108.65238347899935,18.618029562837954,0.0,1.0,0.0,0.0,1.0,Taxi
23.900000000000002,-0.09685478624475888,-24.494277012211796,24.276446293351267,0.18758136108704931,-0.38465257566019695,108.30501668437546,18.63154212362265,0.0,1.0,0.0,0.0,1.0,Taxi
24.0,-0.09809255646492743,49.53828931899337,23.153628064854217,0.44420597035051546,0.08347052524534147,108.29464363201612,18.407621389009638,0.0,1.0,0.0,0.0,1.0,Taxi
24.1,0.0021765265051616133,10.570816708038157,23.34572509921548,0.19055872509138005,0.18644966764033374,108.54538299948985,19.322122885104584,0.0,1.0,0.0,0.0,1.0,Taxi
24.200000000000003,-0.044000702704568316,3.3326714728236637,23.983993889257263,0.2658624541207178,0.4539198087276635,108.41693000101259,19.046553182987175,0.0,1.0,0.0,0.0,1.0,Taxi
24.3,-0.08142919910080933,13.567197683233482,23.321572317693466,0.4344977600840789,-0.05339860471443085,108.49759249057473,18.628426057103308,0.0,1.0,0.0,0.0,1.0,Taxi
24.400000000000002,0.07001251492132883,30.77075931957457,23.145352550266676,0.2116939520530094,-0.15240598724325938,108.44051521007202,18.566992768562777,0.0,1.0,0.0,0.0,1.0,Taxi
24.5,0.10985309389330433,11.070508040253145,23.73444624590447,0.017170427991489934,0.16041258067908598,108.46973235530993,18.508563706276583,0.0,1.0,0.0,0.0,1.0,Taxi
24.6,-0.026076658899543817,-19.754458401841642,23.72169896925937,0.06565909133180997,0.02026852926479458,108.44206218925427,18.712636792201753,0.0,1.0,0.0,0.0,1.0,Taxi
24.700000000000003,-0.028759777087879614,21.663165901371183,23.969855050056655,-0.10409052718641815,1.437818343171923,108.24472116781158,18.594154371453982,0.0,1.0,0.0,0.0,1.0,Taxi
24.8,0.21816892340016003,-1.148352583471791,22.9654074413866,0.4948237393673825,-0.21547490902920616,108.43448739834673,18.799992896619454,0.0,1.0,0.0,0.0,1.0,Taxi
24.900000000000002,-0.031818421816903,28.46725647075134,23.64979057118193,0.09194467368946463,-0.5683631092691575,108.66548787896699,18.395779527094863,0.0,1.0,0.0,0.0,1.0,Taxi
25.0,0.11357650526587691,-49.242871573612035,23.371690410566675,0.4752474873172543,0.914013677722962,108.38952683141343,18.98879261154864,0.0,1.0,0.0,0.0,1.0,Taxi
25.1,-0.028045434467900338,21.045481344994286,23.616691613517137,-0.017805465395228037,1.025242049918261,108.52763119481472,18.341651308845506,0.0,1.0,0.0,0.0,1.0,Taxi
25.200000000000003,0.07340898490806824,-25.947317037419992,22.467379723187644,0.20298200566985347,0.4231187270570556,108.56643245236785,18.788350238633388,0.0,1.0,0.0,0.0,1.0,Taxi
25.3,-0.01616007992122326,29.99812464639099,23.24472870641282,0.18602890655236293,0.34320743275141635,108.40663081402789,18.548538481149443,0.0,1.0,0.0,0.0,1.0,Taxi
25.400000000000002,0.12194518876405443,1.431065511762565,23.46640663024922,0.5770797962355696,-0.11449502050716764,108.3004202208819,18.251498812425858,0.0,1.0,0.0,0.0,1.0,Taxi
25.5,0.08056431246688087,-10.204669039313822,23.390202181443293,0.5846977663436437,0.872102800728605,108.4122154877034,19.241369735010753,0.0,1.0,0.0,0.0,1.0,Taxi
25.6,-0.06718342511779261,-35.38256453951343,23.226899157682205,0.5829742613158475,0.514600935253847,108.48629218748306,19.160415734855825,0.0,1.0,0.0,0.0,1.0,Taxi
25.700000000000003,-0.05496763393351292,-63.13294659986269,23.41807824139593,0.34944944029521663,-0.31129639003105397,108.54347211570632,18.63695461893041,0.0,1.0,0.0,0.0,1.0,Taxi
25.8,-0.2351004205324328,6.281436824498694,23.324241125322146,0.33503979821288604,-0.7037775025724097,108.48230364840339,19.224008288533327,0.0,1.0,0.0,0.0,1.0,Taxi
25.900000000000002,-0.03577624099529929,19.128934483052067,24.117441774745114,0.13806422227461607,0.6149720858323156,108.39705080441729,18.726055758989407,0.0,1.0,0.0,0.0,1.0,Taxi
26.0,0.04067703848174728,55.60402694909049,24.032834001141303,0.19705960336909223,-0.34711938332766146,108.23349670357271,18.69728243256102,0.0,1.0,0.0,0.0,1.0,Taxi
26.1,0.04291971421301951,-0.6108957215267475,23.759346697314495,0.19136075009695724,0.19541212349472503,108.49114885308472,19.147424154427473,0.0,1.0,0.0,0.0,1.0,Taxi
26.200000000000003,-0.03883071960293319,-23.731809224376125,24.164045413828987,0.2928747913731877,-0.01676429447618782,108.4000716234683,18.776824262229027,0.0,1.0,0.0,0.0,1.0,Taxi
26.3,-0.07798200764013352,-46.193583917129025,23.80312350980059,-0.2378658400097734,-0.5250864275179351,108.4267833805755,19.06686894180265,0.0,1.0,0.0,0.0,1.0,Taxi
26.400000000000002,-0.18804820537262582,-13.73415297478389,23.800427144473243,0.5926417907014285,0.07184298902930727,108.53401353224052,18.785284463602032,0.0,1.0,0.0,0.0,1.0,Taxi
26.5,-0.10750148447685284,25.566548854981814,24.003493051517363,0.3766519083465002,-0.10473707576929406,108.29157642476656,18.645230048991284,0.0,1.0,0.0,0.0,1.0,Taxi
26.6,0.04985073663477534,53.29526479086599,24.281864658223505,0.42410928334433134,0.03608084817060649,108.47039624295434,18.98016097786378,0.0,1.0,0.0,0.0,1.0,Taxi
26.700000000000003,0.07842811858170394,3.8989657065265866,24.039559032761055,0.29604000193730867,-0.40528968791054426,108.47909600042681,18.42019823165686,0.0,1.0,0.0,0.0,1.0,Taxi
26.8,-0.08800665594422012,-1.6091058994827943,23.650320579966245,0.024243983006075775,-0.1720007858726862,108.58923997567814,17.965959202507495,0.0,1.0,0.0,0.0,1.0,Taxi
26.900000000000002,0.04180520713736117,-49.62118232963382,23.778822266763793,0.37595988937300356,-0.16700746892486978,108.43948763492642,19.670922709839125,0.0,1.0,0.0,0.0,1.0,Taxi
27.0,-0.16967779306646535,30.048351790181673,22.48967479586366,0.49819282765705913,0.26294335566373206,108.44293630571116,19.899188991330924,0.0,1.0,0.0,0.0,1.0,Taxi
27.1,0.06223510300668803,0.7349312430653718,24.58973988992279,0.39637430908501137,0.06612624578980031,108.50067340122229,20.232425269419267,0.0,1.0,0.0,0.0,1.0,Taxi
27.200000000000003,0.04547986335268781,44.22490065281809,24.267852663475995,0.45524409941550936,-0.9904641467055679,108.61470048673982,18.576833354984377,0.0,1.0,0.0,0.0,1.0,Taxi
27.3,0.05144671019762492,-57.45253920068558,23.017326967186435,0.28966863014878486,0.2271446089097617,108.45045447169991,19.384216989269586,0.0,1.0,0.0,0.0,1.0,Taxi
27.400000000000002,-0.22502759299674,-29.6069585438417,23.90274280724198,0.6427762372394996,-0.1565275614824172,108.64580021858023,18.36756750221064,0.0,1.0,0.0,0.0,1.0,Taxi
27.5,-0.1025549293665208,-19.627675507768,24.012058262764192,0.4634377650017084,0.6068001231498852,108.39381326667927,19.84166355398885,0.0,1.0,0.0,0.0,1.0,Taxi
27.6,-0.0466916673412152,51.61320637420804,23.117679935427944,0.007139342643647739,-0.5039388352762849,108.45331740847212,19.02968387958232,0.0,1.0,0.0,0.0,1.0,Taxi
27.700000000000003,0.03303843887430009,-5.728109708694926,24.046061195603908,0.3291573729561239,-0.14598530198104764,108.30923215701392,18.375744892025125,0.0,1.0,0.0,0.0,1.0,Taxi
27.8,-0.1311954779099956,38.7882305937656,23.330789173238017,0.3500473523340342,-0.8016244316149828,108.50248740716978,19.244768457429114,0.0,1.0,0.0,0.0,1.0,Taxi
27.900000000000002,0.14724948562761261,-25.961928130915492,22.54154274965744,0.32056383544894435,-0.018276253473486145,108.59708164813662,19.4778949512805,0.0,1.0,0.0,0.0,1.0,Taxi
28.0,-0.09677120178027758,17.98221264935576,22.267715473832276,0.6075176585983428,-0.39977869568558017,108.54716556323115,18.371720642205634,0.0,1.0,0.0,0.0,1.0,Taxi
28.1,-0.041284414663217,-38.7242392855548,23.502309057468505,0.1425423433597935,-0.08342974184506916,108.61028935005993,18.30456463505048,0.0,1.0,0.0,0.0,1.0,Taxi
28.200000000000003,-0.04637171080016158,12.749968481252791,22.785351252979684,0.34221638873438076,1.3793171849686308,108.24179955211571,18.991422780935995,0.0,1.0,0.0,0.0,1.0,Taxi
28.3,-0.033021359374013765,-17.45347978651714,22.73557968874662,0.07018743840955433,0.773585248022056,108.563919113221,18.453449037790673,0.0,1.0,0.0,0.0,1.0,Taxi
28.400000000000002,-0.12855181359580284,24.63624630512054,24.049703124963486,0.3294144328977128,0.1843670945329736,108.34032703892672,18.984194665029058,0.0,1.0,0.0,0.0,1.0,Taxi
28.5,0.07680952072544099,9.77956559042046,22.843916196220558,0.2529831820910505,0.375738289556582,108.46709054149619,19.061281960696657,0.0,1.0,0.0,0.0,1.0,Taxi
28.6,0.01587646857808842,3.7156961615379394,23.07629371713781,0.21841337360232027,-0.4969860723911373,108.35811857485089,18.673407034731483,0.0,1.0,0.0,0.0,1.0,Taxi
28.700000000000003,-0.10997333278811326,-49.97153179050355,22.932820397018727,0.4355755438005249,-0.07035305896105849,108.43673792519701,19.55006011784169,0.0,1.0,0.0,0.0,1.0,Taxi
28.8,-0.17304813822707688,-19.55542192400386,23.20455519996912,0.12225211273812175,0.09079766104676429,108.31038826380274,19.256533165391286,0.0,1.0,0.0,0.0,1.0,Taxi
28.900000000000002,-0.08190064104193101,48.74105534490142,23.439014274320936,0.5483654867167336,-0.5339163403148997,108.5033956935809,18.658591404437583,0.0,1.0,0.0,0.0,1.0,Taxi
29.0,0.13373194393639368,53.748413146926545,23.77746693430926,0.08048569470639769,0.22862598112989485,108.5515372785569,19.110630329569734,0.0,1.0,0.0,0.0,1.0,Taxi
29.1,0.09569392750755572,37.248517356131494,24.08752677873823,0.2903504046022175,-0.6805662481711044,108.47586915186525,19.68213917170521,0.0,1.0,0.0,0.0,1.0,Taxi
29.200000000000003,0.1043419457387263,-48.64865615329777,23.238761438620507,0.07132101601293622,-0.532536045299686,108.42075604235458,19.745820788967215,0.0,1.0,0.0,0.0,1.0,Taxi
29.3,-0.10951133683009531,-18.296849122857093,23.231361260231374,0.5328379527423355,-1.0234449987481677,108.40139054101496,18.11234792174585,0.0,1.0,0.0,0.0,1.0,Taxi
29.400000000000002,0.004209681893270161,-6.050598426740424,22.871764992300786,0.23043941057314787,1.0530200037745068,108.39298114317904,19.231650399175095,0.0,1.0,0.0,0.0,1.0,Taxi
29.5,0.07408895360502407,31.50902817931508,22.66540354561542,0.547956893972304,-0.19881480455477682,108.42183493376649,18.601463394716433,0.0,1.0,0.0,0.0,1.0,Taxi
29.6,0.04803380406648,-11.341749837420778,23.30100806620962,0.1482509406060223,-0.23318601349068968,108.62247311306942,18.403748360213214,0.0,1.0,0.0,0.0,1.0,Taxi
29.700000000000003,-0.052499067293833836,-17.08853052678489,24.275217237278436,0.1840919078842842,0.46560466572151143,108.28672073845519,18.51412864161855,0.0,1.0,0.0,0.0,1.0,Taxi
29.8,-0.011353699028900491,-37.30409008530506,23.33690407093757,0.13999397112045042,-0.12065426799041891,108.43047288800079,19.84779887028233,0.0,1.0,0.0,0.0,1.0,Taxi
29.900000000000002,-0.13848664636004543,31.474137835162967,24.010586778614837,0.01861271776296719,0.15573780963867348,108.38860135193818,18.54000771296175,0.0,1.0,0.0,0.0,1.0,Taxi
30.0,0.10487162188198092,25.79848082657271,24.344501546373035,0.35106778255163434,0.5010435104114945,108.49443784521378,19.330326231831197,0.0,1.0,0.0,0.0,1.0,Taxi
30.1,0.11763870510396296,48.36574060306302,23.969131346465844,0.22721658097326086,0.6695619376760922,108.62008168563676,19.50620575858928,0.0,1.0,0.0,0.0,1.0,Taxi
30.200000000000003,0.10334205665526958,-35.0647038593196,24.218420924185875,0.6856224712809069,0.09742177960148167,108.28731921504357,18.778642312929627,0.0,1.0,0.0,0.0,1.0,Taxi
30.3,-0.07045189741461716,-16.78643714074579,22.46462322252692,0.2615117481686991,-0.023232971680256995,108.55041626220708,19.60034400132785,0.0,1.0,0.0,0.0,1.0,Taxi
30.400000000000002,0.03370651940023391,-17.51628514515717,23.076082659711584,0.4541819145625139,-0.7679888217528981,108.37628046113491,18.174162847858916,0.0,1.0,0.0,0.0,1.0,Taxi
30.5,0.015760630929483637,33.55573951662808,22.573942217424843,0.45749817331007003,-0.058062870493193884,108.43569671409443,18.136784741599378,0.0,1.0,0.0,0.0,1.0,Taxi
30.6,0.09732680016852314,-19.336063592176966,24.273859326065867,0.11270153907382269,-1.1227852147440591,108.41351485992749,19.401378798998035,0.0,1.0,0.0,0.0,1.0,Taxi
30.700000000000003,-0.06297379856065097,-6.954959954688841,23.072484572884626,0.267912004505877,-0.6516788134228033,108.55625980749613,19.107553249104328,0.0,1.0,0.0,0.0,1.0,Taxi
30.8,-0.019014168843960618,-20.052542682245917,24.13138815896322,0.4083752744660353,-0.007538456688024115,108.46026906416523,18.53024432347316,0.0,1.0,0.0,0.0,1.0,Taxi
30.900000000000002,-0.0029359132427065134,-29.88208879866488,22.73169262756323,0.2966731293363414,0.31882505399456956,108.61551809649688,19.218833777878718,0.0,1.0,0.0,0.0,1.0,Taxi
31.0,-0.2123842425539754,31.049071944823368,25.17751067890511,0.2577122012587684,-0.3674269299894362,108.3590982480739,18.174767048077392,0.0,1.0,0.0,0.0,1.0,Taxi
31.1,0.1362311908801562,0.8266150893470107,23.56681797035674,0.5433016177548532,0.06739110619890372,108.36949788436795,19.755387980123217,0.0,1.0,0.0,0.0,1.0,Taxi
31.200000000000003,0.0011971622040285292,44.59755558035307,23.455909122101968,0.17775550423428882,-0.10785324132592197,108.33677708019468,19.39853105632291,0.0,1.0,0.0,0.0,1.0,Taxi
31.3,0.010603535347789914,-53.515926439549084,23.774520263103742,0.41567648367986354,0.34910424055342304,108.4460046028284,18.784477888265133,0.0,1.0,0.0,0.0,1.0,Taxi
31.400000000000002,-0.13134844131758924,0.844702828706204,23.506255023886833,-0.034755092993909054,0.021097432435300573,108.51194185571245,18.921007749499275,0.0,1.0,0.0,0.0,1.0,Taxi
31.5,0.005420676347559505,27.807252290416926,23.976752796393697,0.367863199750973,-0.689722009964057,108.40709988369963,18.81020959339458,0.0,1.0,0.0,0.0,1.0,Taxi
31.6,0.14963979679987446,22.563212069619667,22.753844610754925,0.39128013591062716,-0.49199744531254935,108.4674800658376,19.219957142493655,0.0,1.0,0.0,0.0,1.0,Taxi
31.700000000000003,-0.018532380969490996,16.82087474945784,24.01815549951872,0.2795160169077262,0.0649871284832255,108.50940066296778,19.144345424537306,0.0,1.0,0.0,0.0,1.0,Taxi
31.8,0.08952505009484864,-40.79030529298793,22.91400618520358,0.2523405464804469,-0.3834034311038968,108.49242228075155,19.64208047577654,0.0,1.0,0.0,0.0,1.0,Taxi
31.900000000000002,-0.054311729665065214,26.940828228125685,22.77545110780183,0.3138422868034404,-0.044879057261845746,108.4336868093531,18.24542859339903,0.0,1.0,0.0,0.0,1.0,Taxi
32.0,0.11617176017113738,-44.364639747550996,24.300798928946854,0.06032187803479422,0.34004831026073495,108.48452518400904,19.641024916231828,0.0,1.0,0.0,0.0,1.0,Taxi
32.1,-0.13229814864290643,-24.55501932909959,24.190447018489895,-0.0012399326461979832,-0.057792864982957354,108.57726792276873,19.171591237397013,0.0,1.0,0.0,0.0,1.0,Taxi
32.2,-0.1770868263105632,-16.839999596964404,23.45821433166251,0.25715818808883883,0.08542986194981957,108.45120081039238,19.765773158879593,0.0,1.0,0.0,0.0,1.0,Taxi
32.300000000000004,0.031971762186315325,20.989807412005227,23.162618981319234,0.12605373648413587,0.8253623103005695,108.4643315260339,18.871611432984498,0.0,1.0,0.0,0.0,1.0,Taxi
32.4,-0.027349111582880326,51.11759441259692,23.264738469596836,0.24822965034332622,-0.0935200747613357,108.26714643275847,18.503605042818393,0.0,1.0,0.0,0.0,1.0,Taxi
32.5,0.0785011457524214,7.626651644305146,22.415236784216738,0.34835059652351424,0.1427535582082403,108.59276591227166,19.706878179973913,0.0,1.0,0.0,0.0,1.0,Taxi
32.6,0.07010502040784106,-2.034753900734328,24.628045046676544,0.292142966482614,-0.26226739169127017,108.53340762262957,19.322796026873757,0.0,1.0,0.0,0.0,1.0,Taxi
32.7,-0.03752288108655194,-3.621388661524444,22.697082165508753,0.34244373391712,0.1414784925865337,108.5142778996896,19.197932446427913,0.0,1.0,0.0,0.0,1.0,Taxi
32.800000000000004,0.060394202444799185,-31.9017162230476,24.508950170716858,0.1356843049188208,0.12007933971589688,108.34577536692768,19.215152573468483,0.0,1.0,0.0,0.0,1.0,Taxi
32.9,-0.08940356070739694,7.842063522769682,24.10113616867629,0.3889170470945032,-0.44232508844585966,108.39319108180541,18.433057540100997,0.0,1.0,0.0,0.0,1.0,Taxi
33.0,0.0016874365272964587,-22.45430950397187,24.215982083958558,0.19907074583816892,-0.41670348050753486,108.54940598387077,19.70408062712219,0.0,1.0,0.0,0.0,1.0,Taxi
33.1,-0.0518773450750602,11.018950865961942,23.173135751336474,0.11738383013018028,0.5943267969885364,108.37032835190638,19.304018186630508,0.0,1.0,0.0,0.0,1.0,Taxi
33.2,-0.034308806377587216,-3.1204819192723314,23.233955259189447,0.29502449843711714,0.8634486424964647,108.5948634769843,19.766905395660114,0.0,1.0,0.0,0.0,1.0,Taxi
33.300000000000004,-0.013914973069065193,-8.432367038727755,23.615296660027546,0.04225947710649325,-0.34777640586766884,108.35158999366638,19.691721030192006,0.0,1.0,0.0,0.0,1.0,Taxi
33.4,-0.09403918026869898,20.12966695901652,24.051949382874845,0.3070981411346917,0.8746795895738972,108.4759341233588,18.391459598816482,0.0,1.0,0.0,0.0,1.0,Taxi
33.5,0.0663395284174954,30.653880888347857,23.806799306058927,0.004420617196271348,0.20798929118495044,108.38234597142605,19.64258003430561,0.0,1.0,0.0,0.0,1.0,Taxi
33.6,0.1393544313726741,32.29861179791451,24.86373298252827,0.19595117429335912,0.26539277937134126,108.59739825471473,19.038045234038638,0.0,1.0,0.0,0.0,1.0,Taxi
33.7,0.06745387872087359,-43.14037107102819,23.401168263631032,0.05697011843758559,0.18545888877568936,108.54563267094056,19.78534775973077,0.0,1.0,0.0,0.0,1.0,Taxi
33.800000000000004,-0.14936232693764553,-14.477517712853123,22.40358338421514,0.4071442405434552,0.38019186371966207,108.44957706826978,18.83371543738773,0.0,1.0,0.0,0.0,1.0,Taxi
33.9,0.0669668428084085,-5.632898666463807,23.79185630781568,0.35562751046757757,-0.4305180162922661,108.31131647718075,18.8792007832634,0.0,1.0,0.0,0.0,1.0,Taxi
34.0,0.03928938538855458,27.807875375368564,23.3687177335671,0.1567019381807208,-0.8734015924596384,108.50969268175277,18.60127442879796,0.0,1.0,0.0,0.0,1.0,Taxi
34.1,-0.010322950060802723,-1.6289243512567424,24.273533000879997,0.47703504017318504,0.17348632991434387,108.4482282314084,19.50226076383498,0.0,1.0,0.0,0.0,1.0,Taxi
34.2,0.058822221052124785,-14.584085295728542,22.10767423521846,0.2548609064146629,0.08734994847085181,108.46657096714858,19.597562287230517,0.0,1.0,0.0,0.0,1.0,Taxi
34.300000000000004,-0.033631041090088125,7.180781115101702,23.777975928687383,0.029544747106583003,0.2868139586678541,108.41422710346978,18.32825155730696,0.0,1.0,0.0,0.0,1.0,Taxi
34.4,0.02558095551470579,-9.152954783061409,23.381838050121534,0.22666160269659724,0.2780812831442695,108.51555255904924,19.68789167661835,0.0,1.0,0.0,0.0,1.0,Taxi
34.5,0.013057447136817744,27.68924619494636,24.267669984852937,0.18876667760285573,0.8068792935335726,108.57806023130092,17.916247743422346,0.0,1.0,0.0,0.0,1.0,Taxi
34.6,0.10481518988464367,13.166904003618763,23.709400917217874,-0.10508976367745804,0.34101939628038946,108.68750466565803,19.199820769358606,0.0,1.0,0.0,0.0,1.0,Taxi
34.7,0.0914154755327996,-17.840232654629254,24.32690310961842,0.18458609860690167,0.3050407174328791,108.5990232025639,19.136582479486606,0.0,1.0,0.0,0.0,1.0,Taxi
34.800000000000004,-0.07614371613632855,0.4589145835748809,22.805496084504455,0.3551077312729709,0.06587508593443417,108.57027796819386,18.93988272708345,0.0,1.0,0.0,0.0,1.0,Taxi
34.9,0.10710976280251804,-24.69824622191702,23.469875393610284,0.258975121782648,-0.43875305734743963,108.50310507554798,19.728088057439532,0.0,1.0,0.0,0.0,1.0,Taxi
35.0,-0.032075755576785554,49.620636127247224,24.367836219064937,0.6554514637011464,0.5849951485019543,108.36370748398122,19.37695495276664,0.0,1.0,0.0,0.0,1.0,Taxi
35.1,0.17195946449990757,-3.8699726150715272,23.60864838020651,0.31971772291396283,0.5793566183031679,108.57272131293934,18.88812539857953,0.0,1.0,0.0,0.0,1.0,Taxi
