time_s,altitude_ft,vertical_speed_fpm,ias_kt,pitch_deg,roll_deg,heading_deg,throttle_pct,afterburner_on,gear_down,flaps_deg,speedbrake_pct,weight_on_wheels,label
0.0,-0.06475190478968762,15.96258505163924,14.865410108057018,0.5527314804329636,-0.10467000948303179,187.79585089820648,11.414658285905448,0.0,1.0,0.0,0.0,1.0,Taxi
0.1,-0.011543287950890156,-9.324194990902354,13.648950448859152,0.46252720179067136,-0.4636341920352661,187.90566404625963,12.574263830790265,0.0,1.0,0.0,0.0,1.0,Taxi
0.2,-0.11137287974419939,32.04014264012598,14.765563258791026,0.30069813585437793,0.7229569345099196,187.92587541207763,12.350280979763157,0.0,1.0,0.0,0.0,1.0,Taxi
0.30000000000000004,0.09544880841094228,-30.060118735451837,13.886797016487407,0.73387372522464,-0.6786790037745408,187.66237253139536,12.691100327797214,0.0,1.0,0.0,0.0,1.0,Taxi
0.4,-0.1618438816281493,-6.26951979656931,14.10470228875972,0.5028870302118119,0.5137411805292467,187.9102187601368,11.275390005037417,0.0,1.0,0.0,0.0,1.0,Taxi
0.5,-0.1427204787270459,-35.89850270367078,13.983632253686958,0.5684124983013212,0.0372779476511316,187.72314393548845,12.830878981669121,0.0,1.0,0.0,0.0,1.0,Taxi
0.6000000000000001,-0.0840437051074116,-2.1487400684326396,13.969847522249879,0.7824043881759997,-0.6401312257702433,187.83872022962873,12.162427779095283,0.0,1.0,0.0,0.0,1.0,Taxi
0.7000000000000001,-0.17258758197031246,9.483217097910382,14.302727696230868,0.8566441151085287,-0.7841216294826981,187.89039267559815,12.848822789525624,0.0,1.0,0.0,0.0,1.0,Taxi
0.8,-0.09530439323749396,52.81535451581843,14.406596949527973,0.8172058837801482,-0.2804288002760903,187.9006607214618,13.571582952936044,0.0,1.0,0.0,0.0,1.0,Taxi
0.9,0.18003306747168057,50.6451275396677,14.546924398200654,0.41707316165359865,-0.3618486257959288,187.72717712418148,11.795869814574317,0.0,1.0,0.0,0.0,1.0,Taxi
1.0,0.08063805572802607,-2.1037307452417906,15.330367613543983,0.7991811460609964,-0.5887370170877078,187.91946128191626,13.068431144976184,0.0,1.0,0.0,0.0,1.0,Taxi
1.1,-0.10582304696370287,0.6656558029493264,13.769463934049673,0.6747601046720306,-0.1951762526402951,187.9580861222696,12.948099714156843,0.0,1.0,0.0,0.0,1.0,Taxi
1.2000000000000002,0.18336134648642727,-44.57331042944975,13.884693511499218,0.8603560968687267,0.002894735570107543,187.83633932125076,12.824280231958575,0.0,1.0,0.0,0.0,1.0,Taxi
1.3,-0.14222849641922264,27.41572281522831,13.257873498181715,0.6155159982747176,0.00032688813452117095,187.89951977771727,12.110332072683871,0.0,1.0,0.0,0.0,1.0,Taxi
1.4000000000000001,0.031255567112438744,-68.18920497214495,13.565184260482749,0.9370608474627893,-0.4109089396185881,187.84330907718447,12.923678811611797,0.0,1.0,0.0,0.0,1.0,Taxi
1.5,-0.15758467837429743,22.95208981903704,13.651594034563258,0.8392731987996302,-0.5708660457512821,187.95018549354722,11.91199709642335,0.0,1.0,0.0,0.0,1.0,Taxi
1.6,-0.027468047324037338,6.1218059096107,14.01158360709279,0.7784224407920858,0.31609475017573696,187.8011593551123,11.906566926400613,0.0,1.0,0.0,0.0,1.0,Taxi
1.7000000000000002,0.0618645966604923,42.44435394743316,13.948132614108955,0.5029425972624005,-0.09980194911014895,187.79173254568377,12.56980368021905,0.0,1.0,0.0,0.0,1.0,Taxi
1.8,0.05463709136286844,14.309876544078557,14.331450449684963,0.5380616592617581,-0.035246110881675764,187.78999231658986,13.690503340326039,0.0,1.0,0.0,0.0,1.0,Taxi
1.9000000000000001,0.04408133539635549,-29.014542738325982,14.410592641524254,0.7852842214339704,0.5736930220636691,187.82611279050457,11.927510022082691,0.0,1.0,0.0,0.0,1.0,Taxi
2.0,-0.08320811703113758,20.80744299460062,13.523548941809187,0.8069373570103157,-0.22666633396806737,187.92360298258302,12.554760493838597,0.0,1.0,0.0,0.0,1.0,Taxi
2.1,0.15867430633587157,20.354409071255223,14.069888414714853,0.9135218971768159,-0.20314101799006248,187.73685803218905,12.683022093191589,0.0,1.0,0.0,0.0,1.0,Taxi
2.2,0.14585338075263163,13.044523749409748,12.47390766342016,0.5623345323784018,-0.04589938831096124,187.80619186228182,12.982700648608457,0.0,1.0,0.0,0.0,1.0,Taxi
2.3000000000000003,-0.01798549828408876,-27.020576502790632,13.272017001653998,0.48037624349615105,-0.2772668441221321,187.90714664260986,12.598438487629721,0.0,1.0,0.0,0.0,1.0,Taxi
2.4000000000000004,0.023571423821918486,16.9831106063302,14.21896326398611,0.6133760315416774,-0.005274402759876979,187.64419803463466,12.535914485750553,0.0,1.0,0.0,0.0,1.0,Taxi
2.5,0.2307689337842827,-10.337948675112026,13.391035797871583,0.5009563551913118,-0.2208230504878594,187.82590138975604,11.859429215440867,0.0,1.0,0.0,0.0,1.0,Taxi
2.6,-0.06967524165964886,6.259403414845465,12.71182029877484,0.7191886025637231,-1.1456075555299463,187.81101867857672,12.165769346935997,0.0,1.0,0.0,0.0,1.0,Taxi
2.7,0.05486844089614588,-35.97350284267313,13.012998279285847,0.5096542799250159,0.37030386731174403,187.89351311628297,12.52620495436804,0.0,1.0,0.0,0.0,1.0,Taxi
2.8000000000000003,0.05090141957091715,39.91446569787511,15.128747708631368,0.5559545739157197,-0.6905383115268275,188.1306886468942,11.893431206596418,0.0,1.0,0.0,0.0,1.0,Taxi
2.9000000000000004,0.12989708682972678,47.81480504537379,14.309761903161146,0.8870870196776551,-0.47320552272217414,187.87703254760527,11.988530463699231,0.0,1.0,0.0,0.0,1.0,Taxi
3.0,0.2939424661230149,-5.521201849768279,12.823516975254808,0.4205532419277831,-0.716999302615394,187.775554375468,12.38412222916696,0.0,1.0,0.0,0.0,1.0,Taxi
3.1,0.0232954103220758,-2.6466573172344874,13.930062249245024,0.26790375777954484,-0.6882885842080589,187.76905398132305,12.49266479888364,0.0,1.0,0.0,0.0,1.0,Taxi
3.2,0.11666380024355438,-62.40179308315057,14.466352515774641,1.089024073375655,-0.5646372997634491,188.01016746807477,12.94732873860749,0.0,1.0,0.0,0.0,1.0,Taxi
3.3000000000000003,-0.018066499292737938,49.425789782296725,14.388199387622814,0.7093095115147936,-0.016407854831530497,187.78875668575768,11.834273261650544,0.0,1.0,0.0,0.0,1.0,Taxi
3.4000000000000004,0.27042435923355945,-38.66493577199486,13.15458197350292,0.5499271102015943,0.638984968537689,187.97221914397335,13.192850541020752,0.0,1.0,0.0,0.0,1.0,Taxi
3.5,-0.0766608786164199,19.28815520232065,13.960073835130645,0.580939166868074,-0.1606220993507554,187.84609126227042,12.356470015308247,0.0,1.0,0.0,0.0,1.0,Taxi
3.6,0.07837427671886531,-63.3529413075973,14.438772248310418,0.6706088355390898,0.23987949428220157,187.83365989121148,13.080515788352773,0.0,1.0,0.0,0.0,1.0,Taxi
3.7,-0.046340347304427015,13.5276666019352,14.275515282801237,0.4296324068998685,0.31307219979172524,187.85946877726371,12.527718693615197,0.0,1.0,0.0,0.0,1.0,Taxi
3.8000000000000003,-0.009022545606743872,-14.566182718150188,13.747255713502962,0.10495212410229637,-0.18879678226063837,187.9671105041989,12.397274252850673,0.0,1.0,0.0,0.0,1.0,Taxi
3.9000000000000004,0.005543363128114419,28.91291012790798,14.18929829972684,0.7169475785006797,0.2565602556276374,187.6930573699591,12.88282090471197,0.0,1.0,0.0,0.0,1.0,Taxi
4.0,0.09822420333511293,0.23825450881106036,14.502743860414437,0.7336214553610634,-0.13576198274640808,187.71916353208292,13.914255464646923,0.0,1.0,0.0,0.0,1.0,Taxi
4.1000000000000005,-0.007831273062688522,30.828006726230143,15.115444313778246,0.5430637599186854,0.08203157317563597,187.98280521034667,12.471972808368468,0.0,1.0,0.0,0.0,1.0,Taxi
4.2,0.1596833967592652,-39.217628685728435,14.143086797968875,0.7371009986721301,0.4361540406192813,187.88278331781476,12.078490069160058,0.0,1.0,0.0,0.0,1.0,Taxi
4.3,-0.09786394009352922,-3.378567889565074,13.088731666220337,0.29647696707208826,0.5616896504071326,187.77361997543596,12.593611136382696,0.0,1.0,0.0,0.0,1.0,Taxi
4.4,-0.024724112510513884,-2.6313585399692934,13.733847242365892,0.6997216443555992,-0.5813546914922141,187.774552841532,12.65510693531086,0.0,1.0,0.0,0.0,1.0,Taxi
4.5,0.14652660405941872,-36.96305284046716,13.98179339568648,0.505628529275988,-0.1515123028320429,187.87479615241966,12.67480987098441,0.0,1.0,0.0,0.0,1.0,Taxi
4.6000000000000005,-0.28267920429586496,-16.13772835828277,14.405077359759446,0.664544105643945,0.1268250229862488,187.9112856794552,12.064036598911244,0.0,1.0,0.0,0.0,1.0,Taxi
4.7,-0.10541275430192767,-20.794986559947038,14.32169320261578,0.6622644385843547,-0.09444865817471994,187.73532019866934,12.608057528443283,0.0,1.0,0.0,0.0,1.0,Taxi
4.800000000000001,0.04255167125968361,56.461411585102006,13.688343503942372,0.729145245932687,0.2994805384614794,187.98384439980032,12.53939264411497,0.0,1.0,0.0,0.0,1.0,Taxi
4.9,-0.0003721463703548263,22.166645376402574,14.026944037213317,0.5381900163965366,-0.12166304249266556,187.78560575446193,12.525510988789069,0.0,1.0,0.0,0.0,1.0,Taxi
5.0,0.0054204725800852714,10.332542567936981,12.730867288335997,0.664408453689963,-0.7769824496964003,187.68736944140653,12.045886742006253,0.0,1.0,0.0,0.0,1.0,Taxi
5.1000000000000005,0.09421438409936858,-27.686309449511175,14.00064215161318,0.6278790372126699,-0.05798685462604655,187.8462225880097,12.430609566262719,0.0,1.0,0.0,0.0,1.0,Taxi
5.2,-0.13880369361791065,-3.078095201740396,12.912041337680655,0.3131689702022759,0.16918535337296,187.72442616767069,11.983533228045811,0.0,1.0,0.0,0.0,1.0,Taxi
5.300000000000001,-0.009970003428616656,-30.478538459160323,14.23973569395387,0.5356615647074146,0.18235967325009045,187.84499914836397,11.951700838525877,0.0,1.0,0.0,0.0,1.0,Taxi
5.4,-0.058178308196432986,45.450647175783786,13.67188631594777,0.6793703170685997,-0.22230360597923018,187.80117197983168,12.091630154528048,0.0,1.0,0.0,0.0,1.0,Taxi
5.5,0.08844954226100836,21.17562730670338,13.466994593911881,0.5926813225201594,-0.23965058237041814,187.82851987101003,13.483094028762103,0.0,1.0,0.0,0.0,1.0,Taxi
5.6000000000000005,0.09590813310490032,34.59693139154563,13.470551639523395,0.7766712211796646,0.5624459900643156,187.8590602451634,12.440486458994974,0.0,1.0,0.0,0.0,1.0,Taxi
5.7,0.11480634876129521,-38.746055020975376,13.109865303560005,0.7504611260556149,0.022923921663867176,187.89385746344738,12.144449849718203,0.0,1.0,0.0,0.0,1.0,Taxi
5.800000000000001,-0.10528073284386846,30.44388871481985,13.95095924126873,0.5471557772957559,-0.2597780511437531,187.78026884883934,11.809745905763513,0.0,1.0,0.0,0.0,1.0,Taxi
5.9,0.24812757667899962,5.485252061896735,13.787475938647693,0.36824273746908087,-0.13814987763322303,187.9647500889855,12.536174036493088,0.0,1.0,0.0,0.0,1.0,Taxi
6.0,0.14223260907077895,2.032280368994956,14.108127255833027,0.5297413437778902,-0.3373299940618007,187.8220524870792,12.765785753607885,0.0,1.0,0.0,0.0,1.0,Taxi
6.1000000000000005,-0.09511933099889358,-57.83561612806759,13.693049463258818,0.781115125409438,0.5439970593219076,187.91086802522761,13.30461395082928,0.0,1.0,0.0,0.0,1.0,Taxi
6.2,-0.041050503961338254,-49.62849150313693,12.989322224148207,0.9721247603567351,-0.7983866892543857,187.88637462542897,12.511921416351873,0.0,1.0,0.0,0.0,1.0,Taxi
6.300000000000001,-0.10590984844490561,25.883520503898865,13.253150085111516,0.3777622160698958,0.378597534527892,188.00762898435755,12.598371686350221,0.0,1.0,0.0,0.0,1.0,Taxi
6.4,0.03429827152060077,36.26299177079928,13.32761959601407,0.5653512614331275,0.13650403470762695,187.99134527237288,12.457702670370129,0.0,1.0,0.0,0.0,1.0,Taxi
6.5,0.14026445489265818,43.72402838855518,13.170563042482216,0.7585458489915233,0.16764086277855783,187.99162130783884,12.48570861138265,0.0,1.0,0.0,0.0,1.0,Taxi
6.6000000000000005,0.11271029349787035,-11.877088180512578,14.110561320159354,0.23364189097215848,-0.3581371838296113,187.81556149108394,12.710465524340798,0.0,1.0,0.0,0.0,1.0,Taxi
6.7,-0.025087169381962062,10.991489549940297,13.854804024224702,0.48632829334315314,0.13192596120654673,187.88445719201115,12.027940387554901,0.0,1.0,0.0,0.0,1.0,Taxi
6.800000000000001,0.19522190264235972,-44.24996436212499,14.010648159877775,0.7978784712115652,0.05196105319643908,187.85927376495738,12.58283516753918,0.0,1.0,0.0,0.0,1.0,Taxi
6.9,-0.1085395283127546,0.5996676995570928,13.853171828747927,0.347829041702808,1.2770122324569457,187.86266586986756,13.776151020016744,0.0,1.0,0.0,0.0,1.0,Taxi
7.0,-0.02208883088417658,-9.556695733918673,13.88671386862727,0.8234188092886793,-0.11224873617963216,187.96290097135068,11.88427261389232,0.0,1.0,0.0,0.0,1.0,Taxi
7.1000000000000005,0.1474384239727664,6.506109209019836,13.689241193547943,0.5387995572163717,-1.038056306211032,187.83249034003984,12.734940949323882,0.0,1.0,0.0,0.0,1.0,Taxi
7.2,-0.07600898226765537,-11.88400696599804,14.478671622309832,0.46663692668895873,-0.07406438592813401,187.67213247924258,12.623939449777865,0.0,1.0,0.0,0.0,1.0,Taxi
7.300000000000001,-0.08150886571416673,-66.64445472372547,14.308324473117391,0.4811215093341836,0.14713922804194113,187.9655600580461,12.535324119570097,0.0,1.0,0.0,0.0,1.0,Taxi
7.4,-0.18578384964586087,5.318424197876055,13.407810629128639,0.6240109332967327,0.7862464397654362,187.7745847172373,12.08127350509264,0.0,1.0,0.0,0.0,1.0,Taxi
7.5,-0.049416861278275076,-0.9613001670592437,14.190818248103312,0.6780781039958547,0.9005616458672339,187.65637554703687,12.407039331620263,0.0,1.0,0.0,0.0,1.0,Taxi
7.6000000000000005,-0.08631536654946292,8.000501897988899,13.6977723784459,0.743950174174979,-0.10071754511826514,187.9768959633808,12.272790583216887,0.0,1.0,0.0,0.0,1.0,Taxi
7.7,-0.14578134015591634,-7.9663916454532115,12.756437786463684,0.9258508748324634,-0.24302951640079043,187.90113734252145,12.433937153863237,0.0,1.0,0.0,0.0,1.0,Taxi
7.800000000000001,-0.08924881950554112,9.037512265355547,13.832828383350398,0.20706384582725823,-0.44262713984382435,188.04355451180766,11.556689824012546,0.0,1.0,0.0,0.0,1.0,Taxi
7.9,-0.041127805222685165,19.132975915232304,13.88084478588684,0.5604515885163128,-0.7198007074140149,187.83221307645283,12.743133342665988,0.0,1.0,0.0,0.0,1.0,Taxi
8.0,-0.05011646057975482,21.817955852772283,12.98544407447107,0.8552523014194813,0.26194602359225544,187.9287415200098,12.746437801643063,0.0,1.0,0.0,0.0,1.0,Taxi
8.1,0.019840959758320304,10.2421349669464,13.623309632392218,0.6178945147935174,0.7266192145157749,187.83754641535893,12.52866497222723,0.0,1.0,0.0,0.0,1.0,Taxi
8.200000000000001,0.010082869612046852,40.02301236371036,13.975118692425191,0.7420742710862966,-0.9083684875500274,187.67329176593466,12.758952186875993,0.0,1.0,0.0,0.0,1.0,Taxi
8.3,0.149998601238797,9.61285544446905,14.228104161619394,0.34571861359918665,-0.1991456829253686,188.0079179704744,13.125139888865913,0.0,1.0,0.0,0.0,1.0,Taxi
8.4,0.06790523698066556,-28.90216670091438,13.356485526404445,0.5125854903314127,0.42597441636801064,187.7765975075523,12.772819342521764,0.0,1.0,0.0,0.0,1.0,Taxi
8.5,-0.134427963892525,-32.60353522917551,13.047478643136635,0.36815770584055985,0.16978019228305138,187.83773796024866,12.52208735474041,0.0,1.0,0.0,0.0,1.0,Taxi
8.6,-0.013019074907080534,22.526422268917212,13.91157600017726,0.5264478857422078,-0.8706110412077955,187.8073170451447,12.43667977127881,0.0,1.0,0.0,0.0,1.0,Taxi
8.700000000000001,0.18053734832525165,62.1550477379219,13.777829846217246,0.5989623492646199,-0.049190507454258355,187.79726024351135,11.937131334903857,0.0,1.0,0.0,0.0,1.0,Taxi
8.8,0.17634727479708448,5.27902229691054,13.962778732333412,0.5721558083690685,0.20064980600336677,187.70103216532084,12.409175873592377,0.0,1.0,0.0,0.0,1.0,Taxi
8.9,0.013376036577472156,-30.16050891219602,14.741306980629032,0.41023712234773,0.01789437031105559,187.6768054262077,11.843312538597257,0.0,1.0,0.0,0.0,1.0,Taxi
9.0,0.02973480376427154,-35.55747318747452,14.76773150381815,0.6232359755432149,0.2732262972125452,187.81052673178078,12.433229178577944,0.0,1.0,0.0,0.0,1.0,Taxi
9.1,-0.0014400911402881224,28.651527435138508,12.789590432907511,0.5513752571322124,0.6091739323732784,187.7457661210783,12.77410826812388,0.0,1.0,0.0,0.0,1.0,Taxi
9.200000000000001,0.15663367375316473,-28.098672137419936,13.919753307320054,0.5241130428462262,-0.07483254745484358,187.92726734039547,12.931497720043428,0.0,1.0,0.0,0.0,1.0,Taxi
9.3,-0.11075855692282809,-22.346389367615036,12.900223899330966,0.5438905370053346,0.18398525686721234,188.0204029238787,11.808926846711516,0.0,1.0,0.0,0.0,1.0,Taxi
9.4,-0.11317203797836327,-46.71822540227367,13.5249880269418,0.3765692606165829,0.2601290913687447,187.76829934319335,12.420372494087642,0.0,1.0,0.0,0.0,1.0,Taxi
9.5,-0.07695745325820358,44.16812022101059,14.450698645735393,0.659922539372479,0.08933824155972547,187.8944789302377,12.44992764888378,0.0,1.0,0.0,0.0,1.0,Taxi
9.600000000000001,0.11008204418222489,30.833439919455458,14.277545917387812,0.848320414906282,0.717552403083644,187.8902596521234,12.977899018554393,0.0,1.0,0.0,0.0,1.0,Taxi
9.700000000000001,0.040995161618914006,-15.457461582588016,13.78585467306414,0.4584225182646327,0.09774965268313104,187.90634554904705,11.404039062495128,0.0,1.0,0.0,0.0,1.0,Taxi
9.8,-0.1542447611711437,-54.46595387238275,13.804650730855359,0.6230743322783335,-0.35526956971738555,187.8019954027626,12.803840201798087,0.0,1.0,0.0,0.0,1.0,Taxi
9.9,-0.16224772517968886,-29.66281286101425,14.063222971373435,0.48858247580619707,-0.29590509081176575,187.81243012016353,13.135116855430777,0.0,1.0,0.0,0.0,1.0,Taxi
10.0,-0.10731890268615728,53.320620286721635,13.189114939337921,0.6642166797641894,1.2638590246473715,187.92230637718535,13.03309512726023,0.0,1.0,0.0,0.0,1.0,Taxi
10.100000000000001,0.11235834026246448,27.52489445951758,14.26758172754466,0.7819929907547507,-0.02866020077653697,187.8582423132218,11.83131598292901,0.0,1.0,0.0,0.0,1.0,Taxi
10.200000000000001,-0.024623252882100946,29.02881711833682,14.420902708294951,0.5937013921742976,0.07758320236760684,187.6382562149838,12.938098925101004,0.0,1.0,0.0,0.0,1.0,Taxi
10.3,0.03782518290552687,-18.63108613626714,14.579880159307836,0.6636158751101782,-0.24191109168201075,187.8587475827677,12.418579304223975,0.0,1.0,0.0,0.0,1.0,Taxi
10.4,0.0192029095811288,-22.5014014823241,13.448188979922875,0.5385490002242167,-0.1622101205029018,187.8625186405169,12.707748867046917,0.0,1.0,0.0,0.0,1.0,Taxi
10.5,-0.13713026029372144,-15.249929842088157,13.985939647150621,0.28203567980579,0.05161658298096998,187.7100530877708,12.51032724119127,0.0,1.0,0.0,0.0,1.0,Taxi
10.600000000000001,-0.03842446630491393,-3.9171468813301864,14.439698719077468,0.46572508390617157,0.3384411292044872,187.80201121904338,12.0589447656208,0.0,1.0,0.0,0.0,1.0,Taxi
10.700000000000001,-0.00038282482552214726,27.520631410436668,12.533444609161394,0.5426383886000392,-0.39873483000278137,187.65986897716846,12.960356929606988,0.0,1.0,0.0,0.0,1.0,Taxi
10.8,0.0004728967584618895,2.10414996277285,13.466308495981398,0.44041999048292035,-0.41886728063301865,187.83012787207508,12.704939288652117,0.0,1.0,0.0,0.0,1.0,Taxi
10.9,-0.027903716491049682,8.652033721459373,13.570969228146154,0.48766397522041116,-0.0854341893996693,187.81106959520002,12.563699472541394,0.0,1.0,0.0,0.0,1.0,Taxi
11.0,0.04287734378177473,32.43970088960983,13.872566989747263,0.7552775531336997,0.6334633595973924,187.98311271009334,12.56708084644202,0.0,1.0,0.0,0.0,1.0,Taxi
11.100000000000001,0.16267140120651102,23.738378551140823,15.010511253783235,0.5633177023282199,-0.24530504762046082,187.82071487428323,11.637682811663694,0.0,1.0,0.0,0.0,1.0,Taxi
11.200000000000001,0.09078817626465444,28.059333496139583,13.755235651828702,0.7106503818403537,0.7612399903140371,188.03912180056216,12.373600680312205,0.0,1.0,0.0,0.0,1.0,Taxi
11.3,0.18317401126247262,-21.657350327260684,13.525406698245984,0.6044113824818953,-0.2772629256689791,187.8313828808416,12.0359768408646,0.0,1.0,0.0,0.0,1.0,Taxi
11.4,0.054384649570207624,-15.016638506156184,13.898273232273915,0.6173995448652602,0.04466235613870034,187.93141051567397,12.750761547966562,0.0,1.0,0.0,0.0,1.0,Taxi
11.5,0.015704983733873527,-26.483995875000392,12.551150184620475,0.542547481303301,0.6563637490335262,187.89816340182517,12.518804564265528,0.0,1.0,0.0,0.0,1.0,Taxi
11.600000000000001,0.050754031887470644,5.759456922012629,13.505268411310315,0.5582840992556269,0.84907167459407,187.91255436580786,11.961702842003962,0.0,1.0,0.0,0.0,1.0,Taxi
11.700000000000001,0.08318193418027076,-25.59072607701438,12.87560907094116,0.6277707460558413,-0.19698792561433867,187.92529950270864,12.380357607611622,0.0,1.0,0.0,0.0,1.0,Taxi
11.8,-0.11224864665119841,-0.012587060960981944,13.72163280134917,0.638187854778589,-0.2284916505217368,187.82924391572794,12.251951173589402,0.0,1.0,0.0,0.0,1.0,Taxi
11.9,0.0506910965826657,-37.20953602052711,13.873729493190998,0.8257069204621991,0.25075166798035653,187.96223277271747,12.778808353409762,0.0,1.0,0.0,0.0,1.0,Taxi
12.0,-0.10286574592236486,51.90812088888472,13.776834204793518,0.7489205457086014,-0.5622438399905234,187.74095761486228,13.089047314269518,0.0,1.0,0.0,0.0,1.0,Taxi
12.100000000000001,0.1472919577932251,-57.60027486734736,13.220276531798334,0.5282537393491276,-1.1963302479387377,187.81272857122372,12.533392335988104,0.0,1.0,0.0,0.0,1.0,Taxi
12.200000000000001,-0.23731027775407113,47.788257505205344,14.403130434560046,0.5865221542520793,-0.7387586675778287,187.95789585612602,12.735840778203595,0.0,1.0,0.0,0.0,1.0,Taxi
12.3,0.13607554160366184,-40.86410357918224,14.91600479658022,0.9602081020629045,-0.4018562316741586,187.76472566391976,12.429839598073288,0.0,1.0,0.0,0.0,1.0,Taxi
12.4,-0.05702856010268609,78.00218422774432,14.652188077830692,0.4685207736177831,-0.7022993048750645,187.88293455628616,12.185972529066252,0.0,1.0,0.0,0.0,1.0,Taxi
12.5,0.1527006433846505,-11.162356411727766,13.625152394588476,0.4449336165593405,0.7177623973022699,187.93944451103505,11.921622323967306,0.0,1.0,0.0,0.0,1.0,Taxi
12.600000000000001,0.08026375954502302,-24.647707389860958,13.345731354434854,0.6876443847097502,-0.26603266366929557,187.77965528198433,12.04069699171704,0.0,1.0,0.0,0.0,1.0,Taxi
12.700000000000001,-0.18026709705199093,-11.04581357971611,14.57992966124441,0.5357173585316947,0.8857458827177465,187.86344677305283,12.111169804068762,0.0,1.0,0.0,0.0,1.0,Taxi
12.8,0.09747157548606994,-54.680772598394434,13.870206148429226,0.47085607640561195,0.7250820717457873,187.92377116530463,12.599556067430719,0.0,1.0,0.0,0.0,1.0,Taxi
12.9,-0.19314010344694918,14.304484897664297,14.311359123148883,0.3373637852132686,-0.4082354253397868,187.90231439526667,12.832145199332155,0.0,1.0,0.0,0.0,1.0,Taxi
13.0,-0.10874467256366943,-53.38518866536608,13.751179131001305,0.3958967222998422,-0.25254151053261265,187.90822621415055,12.288929406111635,0.0,1.0,0.0,0.0,1.0,Taxi
13.100000000000001,-0.1694543678407605,52.547377333746304,13.262887727920416,0.43899209761248875,-0.02065925283186877,187.90987812743697,11.940764620204803,0.0,1.0,0.0,0.0,1.0,Taxi
13.200000000000001,0.06959678322178235,6.148020315196959,15.600119118100938,0.7391802687085295,-0.14923023062831423,187.7177823548103,13.209996194985589,0.0,1.0,0.0,0.0,1.0,Taxi
13.3,-0.0780045709876846,-3.9849856173204166,13.509504616487105,0.5224588111356525,-0.04792387479859194,187.81297395322895,12.854516019550877,0.0,1.0,0.0,0.0,1.0,Taxi
13.4,-0.18937929592736258,-53.69017017600919,14.932643450100526,0.23767107900265572,0.09098545611730736,187.81813445487012,12.101643571104535,0.0,1.0,0.0,0.0,1.0,Taxi
13.5,-0.19885406765826358,18.945294823605042,13.623857102075014,0.8011352348197154,0.48380436628648416,187.99961534817226,12.05703929737672,0.0,1.0,0.0,0.0,1.0,Taxi
13.600000000000001,0.016721903130340606,47.64971865820164,14.984203106367506,0.5127224481718694,1.4061767867126087,187.86685270832868,12.840180316808675,0.0,1.0,0.0,0.0,1.0,Taxi
13.700000000000001,0.048869297363645654,38.89095433458979,13.725734116736046,0.5552731739607372,-0.08733484482895353,187.8630841561644,12.250534268634082,0.0,1.0,0.0,0.0,1.0,Taxi
13.8,-0.004399295985314643,-18.358279390089006,13.928969300570445,0.43917462420358044,-0.2787920895072139,187.97538829360224,11.909449937149036,0.0,1.0,0.0,0.0,1.0,Taxi
13.9,-0.07506949382010442,-32.92907705068507,13.564179909752635,0.6831643118079801,0.03468042952341668,187.70898750771642,12.65523249664875,0.0,1.0,0.0,0.0,1.0,Taxi
14.0,-0.11577608788977972,5.776441311076316,14.216154682140266,0.6475042058293831,1.2395894378847025,187.88552224705768,13.656203751325208,0.0,1.0,0.0,0.0,1.0,Taxi
14.100000000000001,0.02448291057006695,-18.223219722081954,13.218202622308889,0.35997357438887134,-0.8242412485239484,187.8740931977493,11.241003191242022,0.0,1.0,0.0,0.0,1.0,Taxi
14.200000000000001,-0.1661855924305142,29.484881021462645,13.278970971632248,0.7757049263156215,-0.8590772378381671,187.8165300382384,11.936784831685262,0.0,1.0,0.0,0.0,1.0,Taxi
14.3,0.03164831721753347,-24.150296413599435,14.646859895524766,0.9020267860570599,-0.3785953053063134,187.82544898105743,12.78949313111674,0.0,1.0,0.0,0.0,1.0,Taxi
14.4,-0.09626857149793025,52.50982886820909,13.850810355469994,0.8991305733101109,0.14520121995555577,187.7736716860037,12.748041281965085,0.0,1.0,0.0,0.0,1.0,Taxi
14.5,0.09636355191053125,-15.616262947394887,13.956011034871038,0.8823008709059672,0.5433793840499953,187.92741696510257,12.961979528346845,0.0,1.0,0.0,0.0,1.0,Taxi
14.600000000000001,-0.04643299751944098,51.96933792469621,14.255414834803256,0.4846409786957297,0.20341024787209033,187.8539531881819,12.729638658747144,0.0,1.0,0.0,0.0,1.0,Taxi
14.700000000000001,0.1635781181255508,-22.396186188339176,13.955045678404531,0.4329262859713551,0.42707890255577724,187.87294652166383,12.433430203130238,0.0,1.0,0.0,0.0,1.0,Taxi
14.8,-0.015617379031164648,38.67134562795486,14.877609341865456,0.49251061457283335,0.3179970623762311,187.67858699176156,12.435594061037495,0.0,1.0,0.0,0.0,1.0,Taxi
14.9,0.14692373062033334,-25.496199103692845,13.88747753591992,0.5781187072719645,0.15129474666641862,187.8504913210828,13.245018663242714,0.0,1.0,0.0,0.0,1.0,Taxi
15.0,0.03609712260708658,-11.444006501173382,14.374052585794816,0.890874158829422,-0.06409761673009512,187.87174936475049,12.15696398949419,0.0,1.0,0.0,0.0,1.0,Taxi
15.100000000000001,-0.07283741153703152,-20.612385723702378,14.487713423047987,0.2948089771020882,0.567955472161903,187.73264801969503,12.210396878607328,0.0,1.0,0.0,0.0,1.0,Taxi
15.200000000000001,0.04386180200182147,-17.55328882684798,13.348119438973573,0.8076931999955506,0.05024416959941965,187.6777952579058,13.385771992456629,0.0,1.0,0.0,0.0,1.0,Taxi
15.3,-0.05166932152715331,-12.519792621192527,13.482757768515278,0.8248719284015024,0.6246903581240313,187.82087839784185,12.507597437722874,0.0,1.0,0.0,0.0,1.0,Taxi
15.4,-0.13543637464299416,-19.355729107127825,13.617950857974778,0.6119878887110047,0.29409718164690984,187.5881106874442,12.62606605610049,0.0,1.0,0.0,0.0,1.0,Taxi
15.5,-0.05291684353381766,14.144450452454201,13.756656884363547,0.44367136266407864,-0.676741348115431,187.7322265099973,11.712756324103804,0.0,1.0,0.0,0.0,1.0,Taxi
15.600000000000001,0.019052930735117695,38.55759561732842,14.161454469563369,0.8096278629282225,-0.5842455636768528,187.81007168126507,13.153619948110435,0.0,1.0,0.0,0.0,1.0,Taxi
15.700000000000001,0.05735160344364795,5.9222292305210145,14.185097897408317,0.6066048733243086,-0.12670022412453624,187.8218417548128,12.204447177869815,0.0,1.0,0.0,0.0,1.0,Taxi
15.8,-0.02330569738121258,14.179865965730743,14.469199090860585,0.19315253998835025,-0.5224745666719283,187.64335418575058,11.672028859275587,0.0,1.0,0.0,0.0,1.0,Taxi
15.9,0.08995226056377142,-8.143376779766433,15.146937066647643,0.6723247018052532,-0.10971476209435649,187.66680467039043,12.648303730597636,0.0,1.0,0.0,0.0,1.0,Taxi
16.0,0.016634719544815796,-20.928492481095045,12.587094293109343,0.6303545820299062,-0.540531586502003,187.7753602798142,13.005672249877433,0.0,1.0,0.0,0.0,1.0,Taxi
16.1,-0.1279481597866878,-23.527011151938776,13.520009976804344,0.6107388867023091,-0.05750807096620958,187.75859417618813,12.32399088750691,0.0,1.0,0.0,0.0,1.0,Taxi
16.2,-0.027682795195922497,-17.803832273685224,13.98234674655396,0.7210224873065074,0.191595035752233,187.74768041483605,12.23813272380385,0.0,1.0,0.0,0.0,1.0,Taxi
16.3,-0.07238444182361034,30.059730252340557,14.981758290495057,0.6214533953077463,-0.12816863582948806,187.843505837316,12.31395934464554,0.0,1.0,0.0,0.0,1.0,Taxi
16.400000000000002,0.022350491475014982,-12.342329021749725,14.050773925103764,0.4285294691056274,0.6955286849344826,187.78506365816406,12.14485269070515,0.0,1.0,0.0,0.0,1.0,Taxi
16.5,-0.08939444030467114,0.7877722953735914,14.806069361345973,0.6358540187079061,-0.21364175242503297,187.6926959619433,12.732911117226351,0.0,1.0,0.0,0.0,1.0,Taxi
16.6,-0.0684455803467424,7.962540465767138,13.564128337647245,0.43613847467310396,-0.06188987856812492,187.90529436913675,12.546662157144835,0.0,1.0,0.0,0.0,1.0,Taxi
16.7,0.06216319380385067,-1.4923785201038176,14.323368510547734,0.4964291170946559,-0.4903421843625335,187.90343554707192,11.747635388016,0.0,1.0,0.0,0.0,1.0,Taxi
16.8,-0.09685633290519025,-21.008500139147472,13.4791144545453,0.5492705622760224,-0.8646928678219398,187.77049500298074,12.952513398584099,0.0,1.0,0.0,0.0,1.0,Taxi
16.900000000000002,-0.17348808104247979,-8.87732332560816,13.324165293322235,0.7688660712040577,-0.27477383360087304,187.72208520950767,12.289566730642344,0.0,1.0,0.0,0.0,1.0,Taxi
17.0,0.01777657717580985,3.9262340842349963,13.982143704481182,0.5446536015448685,0.23969003012660148,187.85384435420838,12.600563659305108,0.0,1.0,0.0,0.0,1.0,Taxi
17.1,-0.07722516248401527,29.663818557429348,13.440512468929889,0.42754657750270003,-0.5226884349534061,187.7645292144773,12.34607505563159,0.0,1.0,0.0,0.0,1.0,Taxi
17.2,-0.02516898825533306,15.773093255805563,12.812097193560657,0.7015570001909931,0.5453098352424262,187.8714949856095,12.213315275272821,0.0,1.0,0.0,0.0,1.0,Taxi
17.3,0.09664204345483765,-4.784059720665264,13.285357801802812,0.5372362151857609,0.23102642972528745,187.82007553865014,12.580388113323409,0.0,1.0,0.0,0.0,1.0,Taxi
17.400000000000002,-0.1011454610873416,-15.953980484891474,13.480385776741752,0.6799723697029731,-0.26545402326272144,187.87289400361942,12.768793598265214,0.0,1.0,0.0,0.0,1.0,Taxi
17.5,-0.10493889067979045,-18.713815949799738,14.69210683065312,0.7743521824112475,-0.3616626392554703,187.6884393530869,13.411666473189271,0.0,1.0,0.0,0.0,1.0,Taxi
17.6,0.003072963705838944,15.243201247694628,13.386294846497213,0.41685429832848847,0.38300451667545865,187.89552570088154,12.408042535478268,0.0,1.0,0.0,0.0,1.0,Taxi
17.7,-0.024929454848868476,35.668578589359555,14.11468802906501,0.4544310832743995,0.051456335924573444,187.66008354412622,12.245424667679911,0.0,1.0,0.0,0.0,1.0,Taxi
17.8,0.07340400226700732,6.973127599800004,14.945696936245964,0.713194538323842,0.047458877947523376,187.95628971627127,13.152232404869888,0.0,1.0,0.0,0.0,1.0,Taxi
17.900000000000002,0.03793860170483894,9.361109139101409,13.625808120612916,0.7064347326261622,1.1389263353403045,188.01502726046988,11.95825623533849,0.0,1.0,0.0,0.0,1.0,Taxi
18.0,0.02187609084663854,11.510683632803984,12.220033621394807,0.4107608164040737,-0.222535101045671,187.8880258186299,13.281677125137955,0.0,1.0,0.0,0.0,1.0,Taxi
18.1,0.1309574204310272,2.3741807656399465,13.4106770087507,0.7490353147447231,-0.4557175818245509,187.8814367699025,12.137404863811723,0.0,1.0,0.0,0.0,1.0,Taxi
18.2,0.04980950553303863,-7.743409718595953,14.8568449354904,0.9041838733956251,0.5719938561624675,187.703584732997,12.591891983423666,0.0,1.0,0.0,0.0,1.0,Taxi
18.3,-0.016840957746341267,-84.90277086395449,13.635197591909625,0.5738634010449497,-0.7216914733772773,187.81971283081157,12.269973354532974,0.0,1.0,0.0,0.0,1.0,Taxi
18.400000000000002,-0.29355643388874525,-7.5796662305682885,13.809391641297685,0.23514237872327887,-0.38399873626006303,187.82862170381384,12.550303258692692,0.0,1.0,0.0,0.0,1.0,Taxi
18.5,0.011911174380197218,-4.98473275590883,13.634639479494357,0.4040625160674778,-0.4383472062317449,187.95874966055726,12.426656263585585,0.0,1.0,0.0,0.0,1.0,Taxi
18.6,-0.04176462152588542,103.05640882417511,13.517093062477928,0.513586168371547,-0.3209662506245269,187.7711757149143,12.656552732170525,0.0,1.0,0.0,0.0,1.0,Taxi
18.7,0.22172561023213025,28.28571967183639,14.096938162058347,0.651749784524899,1.0888918404076202,187.76342490383684,12.072976176276956,0.0,1.0,0.0,0.0,1.0,Taxi
18.8,0.15333977273937915,11.587670181948633,12.827947797925496,0.29828656229973244,0.1398062388503307,187.86422145950405,12.323330078121959,0.0,1.0,0.0,0.0,1.0,Taxi
18.900000000000002,0.01617372938385774,-56.75426343092466,13.232926533395968,0.6313994744165572,-0.035547087763772064,187.82248238244415,12.593943713663013,0.0,1.0,0.0,0.0,1.0,Taxi
19.0,-0.06204570692249309,-15.64752222274499,13.709375029618064,0.40865270758079286,0.029446290476950923,188.0039298781387,12.35357506899055,0.0,1.0,0.0,0.0,1.0,Taxi
19.1,0.07510216162565421,19.416567871780316,14.085284742154768,0.7304456948656173,0.159878755986643,187.7197333074298,11.892088190618594,0.0,1.0,0.0,0.0,1.0,Taxi
19.200000000000003,0.11325656874275931,29.446500050640566,14.194251602869151,0.5459686847280893,-0.8198781813029178,187.82200084388933,12.170575063188403,0.0,1.0,0.0,0.0,1.0,Taxi
19.3,0.08518679333070972,-19.696479973046916,13.95340485720598,0.732711354202727,-0.20770023300732993,187.80870362157316,12.913669041161024,0.0,1.0,0.0,0.0,1.0,Taxi
19.400000000000002,-0.02338023823958033,-18.309488271528366,13.304526787370083,0.26150451151439985,-0.654070210923062,187.94973248754275,12.909749009672808,0.0,1.0,0.0,0.0,1.0,Taxi
19.5,0.021709127385117516,-16.90984904886118,14.709246312670201,0.7312876608599258,-0.13904113139447719,187.80596531398066,12.064011928276273,0.0,1.0,0.0,0.0,1.0,Taxi
19.6,0.0006375480864038701,41.816779040952696,14.750935341485679,0.4551917946293684,-0.4389577792374759,187.9460649103413,13.203632885488027,0.0,1.0,0.0,0.0,1.0,Taxi
19.700000000000003,0.1857036569651832,9.569549536094897,13.629598954828543,0.4018673596894442,0.7511067194144343,187.8214134050238,11.079554695474142,0.0,1.0,0.0,0.0,1.0,Taxi
19.8,0.06955687506559204,-42.51022106469569,13.766532822459078,0.3028794670014054,-0.22044843062777933,187.8160176247136,11.836286763608165,0.0,1.0,0.0,0.0,1.0,Taxi
19.900000000000002,-0.21191355723707456,-76.91740705238348,12.867490085365903,0.9130232419880555,0.392180846750189,187.9766624282288,12.024809540229686,0.0,1.0,0.0,0.0,1.0,Taxi
20.0,-0.1988833782967342,20.51127996318837,14.637065556383982,0.44072670407365266,-0.11808105047022475,187.93632164825908,12.764481933671782,0.0,1.0,0.0,0.0,1.0,Taxi
20.1,0.1721132748815339,48.96180742654402,14.64679099478201,0.7093981727582976,-0.5813658280523374,187.88913819464244,12.153964940363883,0.0,1.0,0.0,0.0,1.0,Taxi
20.200000000000003,0.0328954798956455,68.88673462767922,14.875479762738596,0.5782224311826883,0.44108247821900565,187.66978685739593,12.233239305030885,0.0,1.0,0.0,0.0,1.0,Taxi
20.3,0.14555029484166185,-25.01968893009442,13.568976215609679,0.7271355169809612,0.21471561098201206,187.87498788817152,12.116679340243778,0.0,1.0,0.0,0.0,1.0,Taxi
20.400000000000002,0.047014830231061844,-19.28707960843299,14.889713577779188,0.2896679099091194,-0.24072982223101919,187.8950933629808,12.774011316227945,0.0,1.0,0.0,0.0,1.0,Taxi
20.5,-0.0635399181465194,-59.770751150581454,14.46852862745238,0.5518335905323406,-0.40089690016375723,187.76376185819242,13.017299551101011,0.0,1.0,0.0,0.0,1.0,Taxi
20.6,-0.15330346091124536,10.887023409135102,14.722423252828502,0.7532984623312193,0.307624737609748,187.8817433088675,12.362128956137791,0.0,1.0,0.0,0.0,1.0,Taxi
20.700000000000003,0.10144994727673746,19.972603928805757,14.521004705862573,0.7071556500859579,-0.6410070945021064,187.91237619839274,13.019623412924181,0.0,1.0,0.0,0.0,1.0,Taxi
20.8,0.036323101497509516,16.41456390715742,13.649611606042553,0.51544849215473,0.7718142222186384,187.7920295898025,13.04453524170983,0.0,1.0,0.0,0.0,1.0,Taxi
20.900000000000002,-0.07123064137545813,-41.660509357542416,13.97038543199036,0.8121300987129987,-0.3860924800753515,187.6766688574537,12.674355593654385,0.0,1.0,0.0,0.0,1.0,Taxi
21.0,-0.10685259951097455,13.763565526136802,14.180739269218291,0.15415559238907955,0.031153851027225808,187.99665211260685,12.15236863943921,0.0,1.0,0.0,0.0,1.0,Taxi
21.1,0.1051409291281936,32.733747404583774,13.803521358198902,0.07283394942883492,-0.07840669682123382,187.84000311397494,13.428733183278414,0.0,1.0,0.0,0.0,1.0,Taxi
21.200000000000003,0.09243809564746083,40.38482163397265,14.218786500898055,0.16053683247223355,0.05228867754419232,187.88185853561754,12.233995427545379,0.0,1.0,0.0,0.0,1.0,Taxi
21.3,0.09507150865888878,24.376276911500238,13.536224734159651,0.3238114200393475,0.29032352289831037,187.75111825619933,13.120886927158947,0.0,1.0,0.0,0.0,1.0,Taxi
21.400000000000002,0.22702231368569487,-16.85636932893237,14.31752308618332,0.39628071008417726,-0.3773001929057843,187.9509321060093,12.36419941968953,0.0,1.0,0.0,0.0,1.0,Taxi
21.5,0.008156249002799047,-3.202679479794874,13.918641864493711,0.7511489722887665,0.7208881786314193,187.9221993704042,12.246980613868582,0.0,1.0,0.0,0.0,1.0,Taxi
21.6,0.07905811125991447,-19.480199900338363,13.161101606819585,0.4036764452316382,-0.09262323691465793,187.79722445822676,12.72111627926497,0.0,1.0,0.0,0.0,1.0,Taxi
21.700000000000003,0.1296213141840031,22.90807149299972,13.109071190139165,0.9782355227017454,-1.2672208452187417,187.8933075075323,12.00113063758183,0.0,1.0,0.0,0.0,1.0,Taxi
21.8,0.12269660646779766,0.8251903637146162,14.212710491827245,0.5905568829873357,0.3225284806726619,187.825892436829,12.124880568779496,0.0,1.0,0.0,0.0,1.0,Taxi
21.900000000000002,0.08318406307848758,-18.8688614122925,14.429107635275486,0.5569571368370193,-0.5041526232965126,187.78190395319677,13.06937416800706,0.0,1.0,0.0,0.0,1.0,Taxi
22.0,0.03527700712254065,-36.51054962097945,13.15426318353198,0.4061084388551227,0.6332200387453043,187.65051908817793,11.831601424978201,0.0,1.0,0.0,0.0,1.0,Taxi
22.1,-0.05985614163709954,-2.2674593164022148,13.613997650098636,0.6649033438187977,-0.07057082524239883,187.92273235410653,12.025247730831376,0.0,1.0,0.0,0.0,1.0,Taxi
22.200000000000003,0.07184676649647653,-33.360524995972014,13.938057860122129,1.0021990627678248,0.5226593121005981,187.84780190437857,12.442557372527927,0.0,1.0,0.0,0.0,1.0,Taxi
22.3,-0.1315256178573194,43.8284221611328,14.64125789010627,0.7456697058745004,0.5656730285426456,187.9560238308875,12.420346004283912,0.0,1.0,0.0,0.0,1.0,Taxi
22.400000000000002,0.15928596916856447,-19.654363285584335,13.639082020022219,0.6817138051484756,0.24192889410238536,187.6714216707113,12.841940075159156,0.0,1.0,0.0,0.0,1.0,Taxi
22.5,-0.02642504993144513,46.52653450014889,14.446097658579633,0.3565176658309559,0.5124949129042519,187.87367706337375,12.333833621034682,0.0,1.0,0.0,0.0,1.0,Taxi
22.6,0.10110705464342505,-44.246664733639726,14.799151404870056,0.6867079565755327,-0.242939175618981,187.7820800043521,13.123682760027394,0.0,1.0,0.0,0.0,1.0,Taxi
22.700000000000003,-0.06194735449963417,-13.81281514276759,14.313076978777033,0.6556982866377423,0.21755737420329951,187.97230745357956,12.448307696149152,0.0,1.0,0.0,0.0,1.0,Taxi
22.8,-0.09548912564528311,20.278963709389643,13.58673378680035,0.38132434549008803,-0.4843032226320509,187.79208947445613,12.26547271545829,0.0,1.0,0.0,0.0,1.0,Taxi
22.900000000000002,0.20250187319037322,-1.2919693034970976,14.60865911855548,0.7449867507235006,-0.10456348570686863,187.8344784094029,11.429000392333235,0.0,1.0,0.0,0.0,1.0,Taxi
23.0,-0.06840720101711971,40.0065754786801,13.119363439357457,0.8502668805114315,0.3337425646694,187.9103309307494,12.836050260679041,0.0,1.0,0.0,0.0,1.0,Taxi
23.1,0.10454375174811735,-57.9038044925803,13.861175759515778,0.9448906830275041,-0.2867836880951903,187.82098202233487,11.893810232235763,0.0,1.0,0.0,0.0,1.0,Taxi
23.200000000000003,-0.08701714927252832,15.10884337837007,14.061527501255654,0.5125749059978423,-1.0327245974185901,187.77022883405914,12.311395897811963,0.0,1.0,0.0,0.0,1.0,Taxi
23.3,0.007137015874730625,-27.397932246141988,13.51284708717328,0.5345956073355571,-0.2134717414397755,187.66749808680822,12.728350798242236,0.0,1.0,0.0,0.0,1.0,Taxi
23.400000000000002,-0.032445909482592614,43.350679049126065,13.666344866392338,0.655846465601872,0.0807047404311887,187.76378722488562,13.039984803382577,0.0,1.0,0.0,0.0,1.0,Taxi
23.5,0.12973624597310204,-10.978567488992459,13.34531419365578,0.3376276610791936,0.24485532111923566,187.72476896382057,12.782501392588268,0.0,1.0,0.0,0.0,1.0,Taxi
23.6,-0.047755821570231644,-5.7696686796602945,13.320891438027408,0.6347369723106214,0.02873474290072903,187.6932633055858,11.78056695603711,0.0,1.0,0.0,0.0,1.0,Taxi
23.700000000000003,-0.06129425288089407,-47.553471546501385,13.793617779600464,0.5262223274491927,0.34844795162411774,187.84427982521834,13.061271391850868,0.0,1.0,0.0,0.0,1.0,Taxi
23.8,-0.10803111175940489,5.248684107967018,14.176956664021251,0.4682995546449319,0.5202471777676042,187.84127355331373,12.921127752495343,0.0,1.0,0.0,0.0,1.0,Taxi
23.900000000000002,-0.021512401030396568,9.719499109072634,14.203109379528026,0.7854145138409054,-0.3594502430921028,187.73194209195935,12.353048906869317,0.0,1.0,0.0,0.0,1.0,Taxi
24.0,-0.01269675733553092,16.170963798428883,12.8547772174314,0.5974190586734153,-0.3341232856255086,187.90879117214627,12.933622114182127,0.0,1.0,0.0,0.0,1.0,Taxi
24.1,-0.027176292767260482,-37.18191174390939,13.15067596579898,0.8665445134465269,-0.7871104552422372,187.8949686151401,12.726713024822777,0.0,1.0,0.0,0.0,1.0,Taxi
24.200000000000003,-0.20742195974994357,18.76899879281113,13.770514886981871,0.5813206828805129,-0.11583819154263143,187.86994389705887,11.837820129541948,0.0,1.0,0.0,0.0,1.0,Taxi
24.3,0.0811482366285247,-4.445229905742569,13.569335190976975,0.5319145519302068,-0.06805164342522443,187.78940627358725,11.919454290108384,0.0,1.0,0.0,0.0,1.0,Taxi
24.400000000000002,-0.04940244229597333,-15.998383815159746,15.116520238999328,0.5043831500307696,-0.14938967961720204,187.71252492264057,11.831323370425547,0.0,1.0,0.0,0.0,1.0,Taxi
24.5,-0.28741387882574226,-56.36500566140313,14.26899563822759,0.9659801912957555,-1.1829499537655679,187.90914524675145,11.953053359029033,0.0,1.0,0.0,0.0,1.0,Taxi
24.6,-0.20067679167849098,3.874982609539946,14.475469333205886,0.32365851822187036,-0.4908615479337498,187.7595358175571,12.832708550016415,0.0,1.0,0.0,0.0,1.0,Taxi
24.700000000000003,-0.03002752924827365,93.91554251341087,14.174704380616935,0.42631607892913737,0.3373613247438691,187.78996342143307,12.601171448259391,0.0,1.0,0.0,0.0,1.0,Taxi
24.8,0.18216383374131204,42.87350479781495,13.220274402922282,0.3789726526289298,0.3501100700183008,187.80775025478738,12.603750739359578,0.0,1.0,0.0,0.0,1.0,Taxi
24.900000000000002,0.013690732310583717,-2.097445910704051,15.367040014688415,0.3153301675419608,-0.5363164303039716,187.75030183152694,12.711522585056061,0.0,1.0,0.0,0.0,1.0,Taxi
25.0,-0.040514758801793935,-22.770568283788407,14.051908264175353,0.8966970445638298,1.350206427110754,187.73764808703004,13.636816320813049,0.0,1.0,0.0,0.0,1.0,Taxi
25.1,0.06831099232236996,16.874613705684975,14.326663820643242,0.7082980167509604,0.24210617419718786,187.8332344253007,12.086383765069474,0.0,1.0,0.0,0.0,1.0,Taxi
25.200000000000003,0.09806380083900854,-8.609914106245123,14.455933871949513,0.2525524161602559,-0.07088053273280155,187.66988485476622,13.970260550732636,0.0,1.0,0.0,0.0,1.0,Taxi
25.3,-0.0835643293330196,-31.958997133986784,13.578165142776648,0.5182680640362043,0.323524011316999,187.79851883683307,12.728336929913526,0.0,1.0,0.0,0.0,1.0,Taxi
25.400000000000002,-0.09148399334756402,-11.162905677283172,13.592951101208802,0.504582424692647,0.5437990964100373,187.75014395421317,13.203318573750472,0.0,1.0,0.0,0.0,1.0,Taxi
25.5,0.04224927245259258,31.550542313149126,14.173401831201534,0.5196514654166879,-0.011926020812397672,187.70931985343577,12.213224238239174,0.0,1.0,0.0,0.0,1.0,Taxi
25.6,0.07418838223272595,38.744441587599944,13.169211962094497,0.4175933660746688,-0.2232940105262763,187.80461585536386,11.846463195583741,0.0,1.0,0.0,0.0,1.0,Taxi
25.700000000000003,0.10223821459043565,-14.608278985502475,14.915300217462779,0.4247178694602828,-0.929801005019414,187.8776318788855,12.164342641647382,0.0,1.0,0.0,0.0,1.0,Taxi
25.8,-0.030792122474919848,-17.886658722001354,14.482058410330689,0.8747790172488006,0.24144700001738434,187.88407404979262,13.34330942208492,0.0,1.0,0.0,0.0,1.0,Taxi
25.900000000000002,-0.015244911377280863,-17.906413161312678,13.834750426400136,0.24880810535092168,0.19825072532269813,187.63611188998607,12.865223701789256,0.0,1.0,0.0,0.0,1.0,Taxi
26.0,0.012706148783872202,15.94301542800074,13.854204233901678,0.41671104825392424,0.3615093562799254,187.66232162337758,12.536337306613872,0.0,1.0,0.0,0.0,1.0,Taxi
26.1,0.0489229546650838,8.570076647245331,13.857571607239068,0.7354535067295281,-0.3804948034952871,187.82909499498396,12.548252569692211,0.0,1.0,0.0,0.0,1.0,Taxi
26.200000000000003,0.027605471858945747,-12.705603635936237,12.1602673924916,0.5335382603142309,-0.3583392522965058,187.6202590557118,12.660763611785471,0.0,1.0,0.0,0.0,1.0,Taxi
26.3,-0.050821869395809044,-29.29135646782162,13.3621361061178,0.4481483929863387,-0.38518631316435803,187.86212732749527,13.857592157105517,0.0,1.0,0.0,0.0,1.0,Taxi
26.400000000000002,-0.09753382767402435,-31.876467769742778,14.585816522832012,0.7392818102516772,0.5044572415059029,187.66123616403308,12.933359626195417,0.0,1.0,0.0,0.0,1.0,Taxi
26.5,-0.1317768669897682,-6.631157532088417,12.873873643753594,0.7593609146640254,0.33442853036046466,187.86043833218855,13.417431873118336,0.0,1.0,0.0,0.0,1.0,Taxi
26.6,-0.08397765705625118,21.14870400087479,14.14873874726108,0.5130315729328941,-0.019993951696798868,187.85529446841633,12.29423793505351,0.0,1.0,0.0,0.0,1.0,Taxi
26.700000000000003,0.008209692330349537,2.312510150993243,14.658611318166725,0.43515830170658854,-0.31524726808464154,187.71442262950325,11.648663918238858,0.0,1.0,0.0,0.0,1.0,Taxi
26.8,-0.12021431623480204,52.94963645644043,14.021425228168567,0.14815507371369285,-0.6743563986561089,187.91762273735912,11.531324943860893,0.0,1.0,0.0,0.0,1.0,Taxi
26.900000000000002,0.18077052522595094,-15.806795216898754,14.230692526132406,0.773058505169252,0.292975483703932,188.00996038884568,12.31518003890605,0.0,1.0,0.0,0.0,1.0,Taxi
27.0,-0.0708242837541443,-5.819312468067584,13.702867374040565,0.3525243671930781,-0.21795739987125998,187.74085689191156,13.084406374689653,0.0,1.0,0.0,0.0,1.0,Taxi
27.1,-0.14931087857514003,-43.76433242313357,13.55359069671577,0.6318734936476591,1.1093009941614238,187.60541996760173,12.482146332505057,0.0,1.0,0.0,0.0,1.0,Taxi
27.200000000000003,-0.038051136889716966,25.175566352864127,13.278440172521217,0.7041139156686311,0.19201568314806228,187.94579146611693,12.12085592154394,0.0,1.0,0.0,0.0,1.0,Taxi
27.3,0.05505354801017629,56.324660730909585,14.22306774238333,0.7499097016811443,0.05025274276832538,187.81080459174063,12.8693847393956,0.0,1.0,0.0,0.0,1.0,Taxi
27.400000000000002,0.13231242507940785,-3.3732523069086775,14.777126462383462,0.42447429655978325,-0.03206375612250589,187.79181808124144,12.41158192284359,0.0,1.0,0.0,0.0,1.0,Taxi
27.5,-0.05491739842426044,-32.943639911871514,14.410374919723942,0.7703623086993492,-0.1454248456842998,187.62839840597792,11.451188532325007,0.0,1.0,0.0,0.0,1.0,Taxi
27.6,-0.10966465154918137,-40.28267769376069,14.094019290395838,0.6072335848322694,-0.7468479949870714,187.96824472780554,12.937807651858318,0.0,1.0,0.0,0.0,1.0,Taxi
27.700000000000003,-0.06910096338939568,13.018893441530237,13.862074331031653,0.23112062307784398,1.3383301322692116,187.93698284733796,12.265751814366208,0.0,1.0,0.0,0.0,1.0,Taxi
27.8,0.010177068783390702,-2.7195786159986,13.741372037944442,0.3399458115570664,0.22198249148552915,187.71763769944062,12.457381663401238,0.0,1.0,0.0,0.0,1.0,Taxi
27.900000000000002,-0.1232625446291744,8.659962910717342,14.291207715581056,0.3450409311299719,-0.2177281603829127,187.79537408467695,12.697932773361094,0.0,1.0,0.0,0.0,1.0,Taxi
28.0,-0.02580114883580902,19.537803672180257,12.975482559696411,0.26779046036476223,0.45831064190376436,187.76373440752707,13.083057301605846,0.0,1.0,0.0,0.0,1.0,Taxi
28.1,0.10786608714429191,51.442272481236195,14.283930736166637,0.7222374902583788,-0.2549338528165319,187.66750223833242,11.898034330221897,0.0,1.0,0.0,0.0,1.0,Taxi
28.200000000000003,0.1339488177770065,-42.64443701714671,13.376898190826946,0.5589435559959147,0.8823341773534058,187.81944387947806,12.860519573587133,0.0,1.0,0.0,0.0,1.0,Taxi
28.3,-0.23902333392154262,-16.22031430737897,12.827682195425147,0.6996597609649804,-0.4949918280207451,187.74329451117796,11.74411137508057,0.0,1.0,0.0,0.0,1.0,Taxi
28.400000000000002,0.026764515607396983,-20.981464554569367,14.885801457913816,0.2474744467643466,0.13518918150201606,187.8862323272499,13.091653192615821,0.0,1.0,0.0,0.0,1.0,Taxi
28.5,0.029041495004159597,69.8117237997933,13.427788860841517,0.5582501310778943,0.5647606338253188,187.90673138198417,12.643709410138115,0.0,1.0,0.0,0.0,1.0,Taxi
28.6,0.1100352850774238,-25.01991597921952,14.837400311776317,0.8058382081004936,-0.17480970266306184,187.81669018852062,12.347382853644104,0.0,1.0,0.0,0.0,1.0,Taxi
28.700000000000003,-0.09833506428870069,2.8464195889115778,13.739914753898317,0.7381936900703427,-0.8591552936585913,187.73451008232837,12.931412932605772,0.0,1.0,0.0,0.0,1.0,Taxi
28.8,0.043273592948717396,6.091643160825448,13.946175657072358,0.8333606903586115,0.23521975773434498,187.94231497364433,11.80621864763042,0.0,1.0,0.0,0.0,1.0,Taxi
28.900000000000002,0.14049350088155096,8.79354546284056,14.753419257000548,0.5557257519443374,-0.7856157807495029,187.86618375008425,13.107576405675557,0.0,1.0,0.0,0.0,1.0,Taxi
29.0,-0.05436733697449794,-17.766986286254077,14.493201440433126,0.5688750854372221,-1.0369914247889336,187.84134075453517,13.226274259780876,0.0,1.0,0.0,0.0,1.0,Taxi
29.1,-0.04556133848255306,-44.81311779008371,14.348881117829425,0.3961354005640195,-0.17737889938197055,187.79071290111142,12.644389852619321,0.0,1.0,0.0,0.0,1.0,Taxi
29.200000000000003,-0.08357208806886765,20.474516623444647,13.773998648566362,0.4954115195809994,-0.4981558164583199,187.9436649777365,12.48284770734848,0.0,1.0,0.0,0.0,1.0,Taxi
29.3,0.04800524614272523,-24.832103339673903,13.738593753915236,0.6204183624092239,-0.12602919364093487,187.89600255938967,12.906424985983397,0.0,1.0,0.0,0.0,1.0,Taxi
29.400000000000002,-0.16972185518092264,8.956490652004101,13.56743913181969,0.6740654226773746,-0.6668585727404732,187.8644984997435,13.36589767793873,0.0,1.0,0.0,0.0,1.0,Taxi
29.5,-0.038789634808847194,-11.236483430014678,13.863287590760295,0.2738483567474402,0.3165635960724505,187.6576344673689,12.79244344421096,0.0,1.0,0.0,0.0,1.0,Taxi
29.6,-0.008177171007348218,15.440568122963322,13.504983940843253,0.4136851839995799,-0.2577887018792845,187.7263473508923,13.26070312251305,0.0,1.0,0.0,0.0,1.0,Taxi
29.700000000000003,-0.09251901456610609,7.022060404931122,13.51656733464309,1.0746002749705568,0.4123519022968181,187.79087215743994,12.74857826105376,0.0,1.0,0.0,0.0,1.0,Taxi
29.8,-0.003679332784191656,7.910823518507335,13.183310686293657,0.7994818581472816,0.22394206789276264,187.98116165198394,13.062004344405786,0.0,1.0,0.0,0.0,1.0,Taxi
29.900000000000002,0.03137694658518838,-9.269544562170656,14.291461253265739,0.5105214282695093,-0.2390418397267646,187.91478215106122,12.03273159885616,0.0,1.0,0.0,0.0,1.0,Taxi
30.0,-0.13886673737695943,-1.3656125886053587,14.026656196409727,0.6195923844775795,-0.20322754826071845,187.84349018245257,12.58043243343198,0.0,1.0,0.0,0.0,1.0,Taxi
30.1,-0.010507395727218483,-18.173054232653232,13.375658875423028,0.8317758363862378,-0.25020238092921504,187.69464722558632,12.882854868023886,0.0,1.0,0.0,0.0,1.0,Taxi
30.200000000000003,-0.05948832457807782,33.78230087835856,14.363694162077403,0.4811950983044714,0.526089335621648,187.67322879681683,12.831871348690479,0.0,1.0,0.0,0.0,1.0,Taxi
30.3,0.030044767014833326,-15.245150103228431,13.452265925424618,0.4565115106905049,0.27578822840011274,187.78143355434338,12.47467545536,0.0,1.0,0.0,0.0,1.0,Taxi
30.400000000000002,-0.08673314624336069,-7.370779784346265,14.540328663547976,0.5492327704476587,0.08168062235152099,187.91923601865324,12.288815604915657,0.0,1.0,0.0,0.0,1.0,Taxi
30.5,-0.0963422234998092,-26.001862315994344,12.710137758112994,1.0162478038338663,-0.7225697215250434,187.78762449847295,11.881858273698292,0.0,1.0,0.0,0.0,1.0,Taxi
30.6,-0.09996454456513845,46.39533735967522,13.607784968122795,0.5211303318840228,-0.13763996090407282,187.76853217316864,12.454610290643522,0.0,1.0,0.0,0.0,1.0,Taxi
30.700000000000003,0.14524354055501534,54.38957835254564,13.587588710847648,0.5024406137221313,-1.004905124285913,187.79237974488694,11.777846417300434,0.0,1.0,0.0,0.0,1.0,Taxi
30.8,0.1756056682629189,12.760394926387022,14.071908059325574,0.8055871028663915,0.20361443673688356,187.77735565412104,12.968886402909382,0.0,1.0,0.0,0.0,1.0,Taxi
30.900000000000002,-0.03616256993320348,-68.74061661033038,14.616398202807007,0.7067030819573599,-0.03311917622988256,187.84832311316552,12.284769821809743,0.0,1.0,0.0,0.0,1.0,Taxi
31.0,-0.1984595424966366,-33.05178270332316,14.034735036136032,0.7473117429913235,0.7081872345746909,187.82449012880068,13.136853370507929,0.0,1.0,0.0,0.0,1.0,Taxi
31.1,0.010346754746302997,-21.597232632985214,13.40349078075881,0.604232943002597,0.0120613221835584,187.96877788909342,12.14394034591729,0.0,1.0,0.0,0.0,1.0,Taxi
31.200000000000003,-0.14414873309812964,23.347296627464033,13.127636289242275,0.7402367218023591,0.3552181118252946,187.8535871688714,12.467292801225012,0.0,1.0,0.0,0.0,1.0,Taxi
31.3,-0.08172305935931651,1.5397052167806393,13.474291928225732,0.31746805921948446,0.8411090508681894,187.79248181928313,11.961259021347358,0.0,1.0,0.0,0.0,1.0,Taxi
31.400000000000002,0.018045280830206123,38.38186965061993,12.475458258373473,0.5142049996720228,-0.4983590405957774,187.71539517033932,12.34995819576981,0.0,1.0,0.0,0.0,1.0,Taxi
31.5,0.047760615154969946,46.55497190167392,15.111596521252839,0.38139182304873226,-0.046766963082282745,188.04496238583135,12.848583513138948,0.0,1.0,0.0,0.0,1.0,Taxi
31.6,0.15105180014905306,22.967986674297155,13.792563966169087,0.8632736249870041,-0.0965855093559586,187.840656333703,12.971834671189828,0.0,1.0,0.0,0.0,1.0,Taxi
31.700000000000003,0.1328852142016918,-39.117369691581196,12.779968314108476,0.6070707266318895,0.02445647517548751,187.8669027869305,13.152802188984914,0.0,1.0,0.0,0.0,1.0,Taxi
31.8,-0.1478262333029361,-41.05119136628169,13.27951653596803,0.6355519428032737,-0.2645587811269476,187.76314241075204,12.884118070480975,0.0,1.0,0.0,0.0,1.0,Taxi
31.900000000000002,-0.05420415668235543,-18.777863900654157,13.900498575550124,0.36385544499496847,-0.3743109402928193,187.61416652367643,12.006692003561406,0.0,1.0,0.0,0.0,1.0,Taxi
32.0,0.03899589469842097,52.19407010220824,14.654406083469246,0.7325582371309131,-0.34477373168354253,187.84618342978513,12.400352471713983,0.0,1.0,0.0,0.0,1.0,Taxi
32.1,0.11314411720810502,19.79901533323113,13.65570291867938,0.743489054553983,0.1650806344796911,187.7320648614418,12.54425010657191,0.0,1.0,0.0,0.0,1.0,Taxi
32.2,0.04479091998380014,-9.25060692350541,14.504462972360924,0.9268731448123796,-0.21980232977379535,187.74746588097707,12.680498196002047,0.0,1.0,0.0,0.0,1.0,Taxi
32.300000000000004,-0.007257139919106162,-8.40109488792198,13.273543841273957,0.08373732571179815,0.07088117042628228,187.88326802859171,12.75712763411633,0.0,1.0,0.0,0.0,1.0,Taxi
32.4,0.07113864276849505,-6.486140740452266,13.583186841503121,1.014973846173025,-0.1370150152619508,187.89478216168482,12.670425815372022,0.0,1.0,0.0,0.0,1.0,Taxi
32.5,0.012360216281538737,-1.9791737662422406,14.117994409413539,0.8546910060965593,0.10576571554639888,187.8159163929247,12.548642628885933,0.0,1.0,0.0,0.0,1.0,Taxi
32.6,-0.017153008750317434,-27.61142307611205,13.423627726794107,0.6206340605864425,-0.026778234917712678,187.90794995689862,13.248537131198503,0.0,1.0,0.0,0.0,1.0,Taxi
32.7,-0.06691847261206528,-13.606577709887338,14.166106017061725,0.08955938681221925,0.015427224156819243,187.74308905137548,12.259656344869573,0.0,1.0,0.0,0.0,1.0,Taxi
32.800000000000004,-0.05567267226789801,-5.439769747577203,13.06207412912975,0.6754422902821535,0.14978934845605013,187.7846179448445,12.123908978420141,0.0,1.0,0.0,0.0,1.0,Taxi
32.9,-0.044351857488203514,15.143021131182417,13.138623837023696,0.4702916392132972,0.13627650611320272,187.91881559005583,13.455509717238183,0.0,1.0,0.0,0.0,1.0,Taxi
33.0,0.008796633043846735,29.841470567231188,15.040814473263534,0.49830960631911014,0.044802458141896054,187.7626465071753,12.968312147126868,0.0,1.0,0.0,0.0,1.0,Taxi
33.1,0.09353468056825788,8.566898759682859,14.843610575926304,0.5699873005436512,0.4055472258212997,187.72102176259943,12.340976800729408,0.0,1.0,0.0,0.0,1.0,Taxi
33.2,-0.00151736368978927,-3.6677414731647615,14.483704050016332,0.5725608104793335,0.15640717437416335,187.86371676153954,12.722045592916267,0.0,1.0,0.0,0.0,1.0,Taxi
33.300000000000004,-0.00954207432197713,-25.248408486035533,13.336176894179363,0.7895837699330117,0.6240241667301726,187.70887249714076,12.082017023750208,0.0,1.0,0.0,0.0,1.0,Taxi
33.4,-0.03270736186191986,-6.936635591900316,14.071479617389137,0.5058362303477947,-0.18859840902468147,187.83122396468184,11.955490058551618,0.0,1.0,0.0,0.0,1.0,Taxi
33.5,-0.0362005416492909,22.72401013001014,14.336984184314847,0.7211420637806126,-0.02902231957946538,187.99660990938003,12.538048616930494,0.0,1.0,0.0,0.0,1.0,Taxi
33.6,0.1040779763280735,-10.921603900773212,13.642207402414785,0.3488669674133845,-0.1403488015608744,187.89541918176315,12.694229814121565,0.0,1.0,0.0,0.0,1.0,Taxi
33.7,-0.08731538136578594,2.7385183573008987,14.050892083013343,0.6408248043905994,0.11404466190336349,187.82635672609808,12.287337422369962,0.0,1.0,0.0,0.0,1.0,Taxi
33.800000000000004,-0.022507949862786453,-46.65609132632509,14.106208531338051,0.3357761693061971,0.8816149450906431,187.9622107547192,11.487347131094788,0.0,1.0,0.0,0.0,1.0,Taxi
33.9,-0.12920248030355203,-15.16865386332591,13.798394686368896,0.38615005142450054,-0.4360951955714269,187.8949604699917,12.229753854353188,0.0,1.0,0.0,0.0,1.0,Taxi
34.0,-0.16315865068241556,6.80950627392104,14.123034656846784,0.2505216601945867,0.0688227019974856,187.90261960536145,12.060300124822836,0.0,1.0,0.0,0.0,1.0,Taxi
34.1,0.011539581506818681,20.373879046295112,14.47695297883481,0.2245105675892342,0.1133541167265732,187.7609055482776,13.100320420058958,0.0,1.0,0.0,0.0,1.0,Taxi
34.2,-0.027333085072076525,34.75498129741166,13.6629531541262,0.6297826055253513,0.12162237092944918,187.81213837185135,13.472711168998053,0.0,1.0,0.0,0.0,1.0,Taxi
34.300000000000004,0.010616255804642698,15.055297712799613,14.373438922911363,0.39985009942607497,-0.6206805850299718,187.8694592880022,12.532078866144166,0.0,1.0,0.0,0.0,1.0,Taxi
34.4,0.08681607007081671,2.1564500120172645,14.112871536304995,1.0324106361936178,0.7173224592171953,187.78127421024067,12.17919362652583,0.0,1.0,0.0,0.0,1.0,Taxi
34.5,-0.01655083501199024,-7.684140355572659,13.86635818775913,0.7546743552015431,0.18968062788822343,187.74336583538798,13.283755467482806,0.0,1.0,0.0,0.0,1.0,Taxi
34.6,-0.02780444597322064,-18.60025446059421,14.354362839824526,0.6557710205536987,-0.9583063453490049,187.81681055897434,11.906294892633039,0.0,1.0,0.0,0.0,1.0,Taxi
34.7,-0.006185202232154391,20.814610881483542,13.679977717162691,0.4588412286334194,0.4175358559021113,187.87192296447915,12.484618263524304,0.0,1.0,0.0,0.0,1.0,Taxi
34.800000000000004,0.08752221939542743,3.5792874733099134,13.744502167736398,0.3741793352215297,-0.4683299277452697,187.81448168193322,11.339254048843049,0.0,1.0,0.0,0.0,1.0,Taxi
34.9,-0.009908008606671124,-25.4551490972765,13.687144451668667,0.4297028099245648,-0.3386433303475665,187.738120243637,12.846893561339554,0.0,1.0,0.0,0.0,1.0,Taxi
35.0,-0.13346094771853692,-29.086069720424064,13.926746050328399,0.36814570879695085,-0.05337009056581196,187.6954421544002,12.623605544334525,0.0,1.0,0.0,0.0,1.0,Taxi
35.1,-0.05790812920669294,17.085988837582004,14.542750737786125,0.9494465797915486,0.3158726853565429,187.80384080681858,12.713530021186473,0.0,1.0,0.0,0.0,1.0,Taxi
