time_s,altitude_ft,vertical_speed_fpm,ias_kt,pitch_deg,roll_deg,heading_deg,throttle_pct,afterburner_on,gear_down,flaps_deg,speedbrake_pct,weight_on_wheels,label
0.0,-1.623753837467619,-463.07520637700526,158.76854790337495,-0.8197650089657682,-1.6638196721779641,249.24668733962142,33.66994198468596,0.0,1.0,17.597949253466354,0.21626631212742442,0.0,Landing
0.1,-3.167337858724303,-610.184561483409,159.89884818178226,-0.5838386392492495,-1.6557351787251626,249.37958526952252,34.27093644212442,0.0,1.0,17.597949253466354,0.21626631212742442,0.0,Landing
0.2,-4.674676644884664,-923.5342063266893,160.90169828921015,-0.6868020519844928,-1.7863790918219435,249.0423413900014,33.550959363545125,0.0,1.0,17.597949253466354,0.21626631212742442,0.0,Landing
0.30000000000000004,-6.241424869101065,-933.1470786481199,159.80983949090844,-0.7353491926816474,-1.679459870833347,249.1955994701358,34.19302842914383,0.0,1.0,17.597949253466354,0.21626631212742442,0.0,Landing
0.4,-7.833073251964903,-946.5366999583385,160.45776187467487,-0.6775498664682084,-1.9792431110888509,249.11423778625476,33.34156955397543,0.0,1.0,17.597949253466354,0.21626631212742442,0.0,Landing
0.5,-9.407360144676357,-938.9790139399216,159.214460515095,-0.7453279546563676,-1.8306779383470317,249.17894236181257,34.118766119916884,0.0,1.0,17.597949253466354,0.21626631212742442,0.0,Landing
0.6000000000000001,-10.936319938800674,-908.0782184534229,161.14682090833674,-0.5315757213732176,-1.5727389434748744,249.28422044592833,33.18321991924794,0.0,1.0,17.597949253466354,0.21626631212742442,0.0,Landing
0.7000000000000001,-12.373464344232017,-889.0966539238999,159.239867787528,-0.6222735989610897,-1.5960079847523774,249.30894344085038,33.741152482639045,0.0,1.0,17.597949253466354,0.21626631212742442,0.0,Landing
0.8,-13.852843414295856,-899.5880647576402,160.0240399671554,-0.9330430776923324,-1.5865070721817114,249.24896169904628,33.75095964010655,0.0,1.0,17.597949253466354,0.21626631212742442,0.0,Landing
0.9,-15.434260262588875,-913.2085114156301,158.08818450408796,-0.7057268579093304,-1.7614989170297777,249.05772624350584,33.50581584696675,0.0,1.0,17.597949253466354,0.21626631212742442,0.0,Landing
1.0,-16.939506901310168,-928.5565183148937,160.84328157524723,-0.7717274089203461,-1.6287427816993059,249.35531004075676,33.48754690841141,0.0,1.0,17.597949253466354,0.21626631212742442,0.0,Landing
1.1,-18.495626005870324,-926.8634236650279,162.16812530316002,-0.6507685760718009,-1.6062630774153517,248.9305446649546,33.864288099611144,0.0,1.0,17.597949253466354,0.21626631212742442,0.0,Landing
1.2000000000000002,-20.068577380914014,-940.4062430217267,159.45229298556578,-0.48172293735036764,-1.299073527173865,249.14832430005094,33.618362467102436,0.0,1.0,17.597949253466354,0.21626631212742442,0.0,Landing
1.3,-21.6415381164188,-939.0467080197574,158.4704789533408,-0.5859466802661478,-1.6980622747871397,249.0463997593962,33.86134633978034,0.0,1.0,17.597949253466354,0.21626631212742442,0.0,Landing
1.4000000000000001,-23.19085954596911,-939.0925415170806,158.217361765573,-0.8220286987897546,-2.0218942529435266,248.99573583564893,33.22768120725857,0.0,1.0,17.597949253466354,0.21626631212742442,0.0,Landing
1.5,-24.764040088499417,-942.0325175415301,158.48977971339716,-0.8132087944634085,-1.8359704374889196,248.5941366645851,33.57504243415429,0.0,1.0,17.597949253466354,0.21626631212742442,0.0,Landing
1.6,-26.35170070412645,-929.7544055068493,159.4213309873042,-0.7742187675291619,-1.2251583642092623,249.16579806403388,33.32665164773343,0.0,1.0,17.597949253466354,0.21626631212742442,0.0,Landing
1.7000000000000002,-27.839631573503357,-928.8964155708696,157.9264218367929,-0.7277718129975292,-1.8618253905648317,249.21866890216336,33.9289547001663,0.0,1.0,17.597949253466354,0.21626631212742442,0.0,Landing
1.8,-29.408522166353766,-913.4109675519576,160.1722246945794,-0.44839826185714526,-1.7719593680698713,249.0983178900707,33.39208559410811,0.0,1.0,17.597949253466354,0.21626631212742442,0.0,Landing
1.9000000000000001,-30.918755541886238,-922.8200787766774,161.05820375089797,-0.25535107769026055,-1.8911674308890758,248.80073505264863,33.42888152419833,0.0,1.0,17.597949253466354,0.21626631212742442,0.0,Landing
2.0,-32.453731967386744,-906.9370972305927,157.9463830567409,-0.7520811466245797,-1.6751056847972106,249.16803378503823,33.66700740975094,0.0,1.0,17.597949253466354,0.21626631212742442,0.0,Landing
2.1,-33.94320765250673,-899.1882377823749,159.3267498474957,-0.9750781415724648,-2.012516877083,249.18548809188576,34.05922769511176,0.0,1.0,17.597949253466354,0.21626631212742442,0.0,Landing
2.2,-35.41469673079811,-897.0102930397005,158.2098514710258,-0.5261379532474959,-1.7525929682218748,249.11478276372839,33.64344456298675,0.0,1.0,17.597949253466354,0.21626631212742442,0.0,Landing
2.3000000000000003,-36.93878343258525,-886.808498650329,159.2175751775683,-0.6633753730298719,-1.5605880844001176,249.16033437117392,33.74306643458754,0.0,1.0,17.597949253466354,0.21626631212742442,0.0,Landing
2.4000000000000004,-38.377250145758374,-890.8038637260746,160.50607980345427,-0.7425562434696575,-1.7710026829792522,248.98900151159887,33.37412470693364,0.0,1.0,17.597949253466354,0.21626631212742442,0.0,Landing
2.5,-39.868716049428485,-892.7508870026145,158.6939285444382,-0.641387345913754,-1.7032567293775425,249.00690834344323,33.36261985591142,0.0,1.0,17.597949253466354,0.21626631212742442,0.0,Landing
2.6,-41.40253786759832,-920.4154783555781,159.41379484174945,-0.7092235212386321,-1.4289148624947496,249.11138732830432,33.392664432442956,0.0,1.0,17.597949253466354,0.21626631212742442,0.0,Landing
2.7,-42.979327537536264,-926.7031910291494,159.86060040507897,-0.6208008211934861,-1.905543480472152,248.93378313722985,33.51163033740484,0.0,1.0,17.597949253466354,0.21626631212742442,0.0,Landing
2.8000000000000003,-44.50223200457423,-937.8424442696514,160.68167485892283,-0.5083080926702,-1.5659408364453176,249.1030524069189,33.16286428056762,0.0,1.0,17.597949253466354,0.21626631212742442,0.0,Landing
2.9000000000000004,-46.091750088946576,-934.7435718530918,158.73712944176506,-0.88990801203977,-1.444580221894863,249.33107406216027,33.66436049695008,0.0,1.0,17.597949253466354,0.21626631212742442,0.0,Landing
3.0,-47.65304539680172,-922.8676252304525,157.87957337052623,-0.4240913780689211,-1.504093945566709,249.1632935231413,33.846682796008366,0.0,1.0,17.597949253466354,0.21626631212742442,0.0,Landing
3.1,-49.116570130726494,-903.726775798627,159.63079526727992,-0.5272158198737084,-1.6423784775112753,248.80684161941736,33.54618304937546,0.0,1.0,17.597949253466354,0.21626631212742442,0.0,Landing
3.2,-50.61038396793971,-896.5680039766156,159.87284404818843,-0.8448556073242605,-1.213971880641478,248.97826677486023,33.474564919038706,0.0,1.0,17.597949253466354,0.21626631212742442,0.0,Landing
3.3000000000000003,-52.1358854166848,-905.3895177461371,160.00712512165632,-0.5835432061172597,-1.543912269450723,248.90617588797613,33.198296869299774,0.0,1.0,17.597949253466354,0.21626631212742442,0.0,Landing
3.4000000000000004,-53.64351771945718,-920.940857921822,158.55115251728614,-1.028924894080692,-1.778427321083896,248.9623719231912,33.767074779253974,0.0,1.0,17.597949253466354,0.21626631212742442,0.0,Landing
3.5,-55.21508825754882,-910.351609253445,159.2596373080181,-0.5166455429895925,-1.5767275013362185,249.14851125585835,33.2947452308418,0.0,1.0,17.597949253466354,0.21626631212742442,0.0,Landing
3.6,-56.687643462952025,-899.0502417555022,160.58183301095784,-0.4805335525237191,-1.7555795660247484,248.99326435829425,33.002601105462745,0.0,1.0,17.597949253466354,0.21626631212742442,0.0,Landing
3.7,-58.13876892823469,-906.9842076131137,159.78899583997065,-0.35942136650059714,-1.701791684530477,248.9463467525245,33.90333965413717,0.0,1.0,17.597949253466354,0.21626631212742442,0.0,Landing
3.8000000000000003,-59.75000929561439,-914.3547520380663,160.28070735160827,-0.8946075862262214,-1.990535643362669,249.05506866416079,34.0354519505528,0.0,1.0,17.597949253466354,0.21626631212742442,0.0,Landing
3.9000000000000004,-61.25941722314236,-920.4310985892604,159.94237568447423,-0.4951412677810839,-1.3384456621421454,249.29407953818736,33.38523994637576,0.0,1.0,17.597949253466354,0.21626631212742442,0.0,Landing
4.0,-62.74092442118099,-913.4746602547524,159.56898696747984,-0.820345311208105,-1.6467450350331372,249.02216819218052,34.12296962485351,0.0,1.0,17.597949253466354,0.21626631212742442,0.0,Landing
4.1000000000000005,-64.31738259688815,-936.1276890889527,158.81432297105354,-0.6739854220870031,-1.4350755530268713,249.2036834450173,34.36386636079159,0.0,1.0,17.597949253466354,0.21626631212742442,0.0,Landing
4.2,-65.94005566858712,-957.974770671035,159.9504056534889,-0.8246822139966983,-1.7889588889078019,248.91216563281068,33.81435892942369,0.0,1.0,17.597949253466354,0.21626631212742442,0.0,Landing
4.3,-67.53079827453617,-950.2069022045758,158.9778338966317,-0.6939811245303363,-1.7276389357982878,249.02867752863744,33.8226123791128,0.0,1.0,17.597949253466354,0.21626631212742442,0.0,Landing
4.4,-69.06841710791103,-913.2784819838008,160.92530840487095,-0.3895943504054422,-1.6161629190288926,249.21551240363533,33.05876753257377,0.0,1.0,17.597949253466354,0.21626631212742442,0.0,Landing
4.5,-70.50644807850612,-897.2672502454543,159.58278661389372,-0.44855505427996,-1.8385596909885913,249.29199592032933,34.12970851397392,0.0,1.0,17.597949253466354,0.21626631212742442,0.0,Landing
4.6000000000000005,-72.01713452576344,-893.9421838992274,157.8416939139417,-0.3377497576894953,-1.4257335024972624,249.0251742152593,33.19590806645818,0.0,1.0,17.597949253466354,0.21626631212742442,0.0,Landing
4.7,-73.53812802740717,-902.055755874204,159.24696918826493,-0.9020547206477704,-1.8197519609083994,249.27716809538845,33.25437204702917,0.0,1.0,17.597949253466354,0.21626631212742442,0.0,Landing
4.800000000000001,-75.01672685787715,-910.496632628454,158.60544380535086,-0.6052502873242624,-1.555547810536315,249.07620218954867,33.805027799396555,0.0,1.0,17.597949253466354,0.21626631212742442,0.0,Landing
4.9,-76.56961768890571,-905.9454524824845,160.73840157039882,-0.5140233815186154,-1.015242704612655,248.96891619732412,33.28663398466652,0.0,1.0,17.597949253466354,0.21626631212742442,0.0,Landing
5.0,-78.06785528981959,-915.3099354542804,158.54276768184127,-0.23269888552275786,-1.6536722875389,249.20796191724628,34.00486908703483,0.0,1.0,17.597949253466354,0.21626631212742442,0.0,Landing
5.1000000000000005,-79.59327653514855,-918.2435390786623,159.37896815945135,-0.9355568693023091,-1.7179497744434986,249.14221740765493,33.30289019758261,0.0,1.0,17.597949253466354,0.21626631212742442,0.0,Landing
5.2,-81.16083538429902,-895.719508471015,160.17613410351655,-0.3009514215473343,-1.6820401167658505,249.2526152997733,33.810862137791,0.0,1.0,17.597949253466354,0.21626631212742442,0.0,Landing
5.300000000000001,-82.54645283217467,-883.9495309709577,159.1486990743902,-0.9446757541404314,-1.6578651909830961,249.42311165752085,33.69495798154601,0.0,1.0,17.597949253466354,0.21626631212742442,0.0,Landing
5.4,-84.01302419000334,-871.4276045650137,160.57088813986834,-0.9353971572264483,-1.50964334511768,249.06877100291672,33.306622202373816,0.0,1.0,17.597949253466354,0.21626631212742442,0.0,Landing
5.5,-85.51797340712409,-893.5218370067956,159.86734620826377,-0.5655709908018228,-1.699229272794035,249.17678384901876,33.02066536528121,0.0,1.0,17.597949253466354,0.21626631212742442,0.0,Landing
5.6000000000000005,-87.01406201720864,-908.0633764105897,160.20013831908537,-0.8377711606604684,-1.4175860640913693,248.8742761824882,33.21231163486213,0.0,1.0,17.597949253466354,0.21626631212742442,0.0,Landing
5.7,-88.55334107205628,-913.9362685948072,159.47840868912246,-0.361313538180581,-1.4493152023276403,249.26762559502276,33.329746666171765,0.0,1.0,17.597949253466354,0.21626631212742442,0.0,Landing
5.800000000000001,-90.08765475009812,-927.2841626418455,161.31680415266766,-0.7326152310179387,-1.4159561037438917,249.01594190954745,33.304257680728135,0.0,1.0,17.597949253466354,0.21626631212742442,0.0,Landing
5.9,-91.65048283041787,-917.3783216326825,157.71487319186022,-0.7985244658545817,-2.0616115752121305,249.29644450656338,33.74046817628471,0.0,1.0,17.597949253466354,0.21626631212742442,0.0,Landing
6.0,-93.1402326802197,-897.4010053964577,159.5660159245042,-0.5618101397488049,-1.9175275530586262,249.00037364860896,33.59598494480189,0.0,1.0,17.597949253466354,0.21626631212742442,0.0,Landing
6.1000000000000005,-94.57465977708041,-898.2249310208714,158.4069489370943,-0.6596769565068054,-1.7842396873597484,248.93135943147888,33.75229733260541,0.0,1.0,17.597949253466354,0.21626631212742442,0.0,Landing
6.2,-96.14160748552223,-891.6605156123182,158.68013632460608,-0.5636531299223131,-1.6665001376010447,248.9890270872022,34.03293042189552,0.0,1.0,17.597949253466354,0.21626631212742442,0.0,Landing
6.300000000000001,-97.59853525828129,-906.849063857686,159.48660725669177,-0.8774087672964018,-1.6068997158279212,249.20577981491567,34.08860891942434,0.0,1.0,17.597949253466354,0.21626631212742442,0.0,Landing
6.4,-99.10890509636884,-888.4206376455126,158.77545210788207,-0.5801533156997356,-1.5910795779002718,248.66617523310708,33.12092847642741,0.0,1.0,17.597949253466354,0.21626631212742442,0.0,Landing
6.5,-100.58371067374979,-907.9851505113339,158.1223630466419,-0.8468360550014924,-1.424959338340813,249.20826623372125,33.456699534475625,0.0,1.0,17.597949253466354,0.21626631212742442,0.0,Landing
6.6000000000000005,-102.13846101083796,-904.2300089581005,160.98309617310264,-0.7257124119187053,-1.9260371143859611,248.98036872286252,33.771713807483486,0.0,1.0,17.597949253466354,0.21626631212742442,0.0,Landing
6.7,-103.63005514115935,-904.7963712363129,159.43583227240052,-0.9077396388122879,-1.746727322519334,249.4147663934491,33.705310466262866,0.0,1.0,17.597949253466354,0.21626631212742442,0.0,Landing
6.800000000000001,-105.10769252993136,-918.3592301844669,160.35611936190577,-0.42722191078912736,-1.8950599495597005,248.90953390636764,33.45195642926347,0.0,1.0,17.597949253466354,0.21626631212742442,0.0,Landing
6.9,-106.73025716176029,-923.9514284808762,158.60333847992658,-0.7288714560131208,-1.683645852939354,249.39908159908532,33.26066927591616,0.0,1.0,17.597949253466354,0.21626631212742442,0.0,Landing
7.0,-108.24981228356373,-939.890738639258,161.08613887413208,-0.8015474711172628,-1.9457082656538875,248.90613580127695,33.47002949754384,0.0,1.0,17.597949253466354,0.21626631212742442,0.0,Landing
7.1000000000000005,-109.80714622312765,-899.5313681111384,159.62699136620054,-0.7201556993252374,-1.533609819754267,249.09323277145643,34.03292294368155,0.0,1.0,17.597949253466354,0.21626631212742442,0.0,Landing
7.2,-111.22791400231598,-905.2113993482693,160.8784073078957,-0.5355752702007338,-1.6441654536172459,249.1302342171873,32.94119792048805,0.0,1.0,17.597949253466354,0.21626631212742442,0.0,Landing
7.300000000000001,-112.77586928030507,-901.563388585143,158.99930774467748,-0.4887745727877152,-1.389375322482703,249.50381395933687,34.11965283585324,0.0,1.0,17.597949253466354,0.21626631212742442,0.0,Landing
7.4,-114.31496316605336,-916.9879870227363,157.93452993120772,-0.4384628391396829,-1.7561866253931626,249.1185054920578,34.15478106526597,0.0,1.0,17.597949253466354,0.21626631212742442,0.0,Landing
7.5,-115.81285393742967,-909.4387057572561,156.90765153876112,-0.6914975844440026,-1.5791037754470607,249.03999024010477,33.37626460426258,0.0,1.0,17.597949253466354,0.21626631212742442,0.0,Landing
7.6000000000000005,-117.32306280909135,-900.0704573787147,159.88262556789854,-0.7514262876346441,-1.9164533689341692,248.97063049264943,33.742105720779406,0.0,1.0,17.597949253466354,0.21626631212742442,0.0,Landing
7.7,-118.81531545294693,-895.6774341104278,160.504984437695,-0.8997825592652612,-1.5308557387783357,248.96470765574782,33.58934161319616,0.0,1.0,17.597949253466354,0.21626631212742442,0.0,Landing
7.800000000000001,-120.2912411079818,-899.8223918643731,160.26008608331895,-0.7887832368942698,-1.4655495543083579,249.25573475149668,33.70174761340786,0.0,1.0,17.597949253466354,0.21626631212742442,0.0,Landing
7.9,-121.82217476841322,-904.6978404305692,158.12261455994837,-0.9419883003185191,-1.5012995973147505,248.85610791394902,33.497350169711964,0.0,1.0,17.597949253466354,0.21626631212742442,0.0,Landing
8.0,-123.33880465509978,-906.7800674177023,159.53385502575154,-0.7575822789254956,-1.7838183873326583,248.77973404160662,33.40583803018064,0.0,1.0,17.597949253466354,0.21626631212742442,0.0,Landing
8.1,-124.82514144507032,-889.7249633349417,158.19390210479597,-0.7281854449845991,-1.5823015572038441,249.1314928660115,33.76792364660431,0.0,1.0,17.597949253466354,0.21626631212742442,0.0,Landing
8.200000000000001,-126.27079958508793,-883.485044291075,158.4916952949148,-0.5925427795906029,-1.3038445278855544,248.87067374075355,33.54693799996668,0.0,1.0,17.597949253466354,0.21626631212742442,0.0,Landing
8.3,-127.75622987655515,-906.9641225407651,161.25301706009583,-0.5678495511405937,-1.5774813338518188,249.18017011399274,33.1389554783023,0.0,1.0,17.597949253466354,0.21626631212742442,0.0,Landing
8.4,-129.35996205777414,-920.6069272639467,160.94298191252602,-0.77811479308486,-1.4873569472231534,249.09547800562177,33.45290070410881,0.0,1.0,17.597949253466354,0.21626631212742442,0.0,Landing
8.5,-130.87383422140766,-919.7213297191979,159.2112122349288,-0.9164280552104813,-1.67517025215303,249.3610875113095,33.73292188461969,0.0,1.0,17.597949253466354,0.21626631212742442,0.0,Landing
8.6,-132.35483652515114,-891.0684739407543,158.68213728747554,-0.7809454078132235,-1.987126926771692,249.12314759913386,33.26169838202198,0.0,1.0,17.597949253466354,0.21626631212742442,0.0,Landing
8.700000000000001,-133.8153044274779,-895.2953635802714,160.01747514927962,-0.9288439420262047,-1.679312904258562,249.31687231638966,33.05788866244962,0.0,1.0,17.597949253466354,0.21626631212742442,0.0,Landing
8.8,-135.35031103930902,-898.0379740490038,160.01448887023267,-0.5398401873861937,-1.8491217235743687,249.09113905410368,33.56538305443585,0.0,1.0,17.597949253466354,0.21626631212742442,0.0,Landing
8.9,-136.84502639539616,-908.7005447465857,160.44534543736395,-0.30469360015861446,-1.8405564179487202,249.2598906742379,33.44163024304525,0.0,1.0,17.597949253466354,0.21626631212742442,0.0,Landing
9.0,-138.35880715121084,-904.7072004699089,160.7401831507444,-1.142153272421573,-1.8405942414396292,248.7908429083825,33.642299736101045,0.0,1.0,17.597949253466354,0.21626631212742442,0.0,Landing
9.1,-139.87384704165856,-884.4693336816476,159.90942868154525,-1.1216482513692323,-1.7778193724210603,248.92664129973502,33.80935158476117,0.0,1.0,17.597949253466354,0.21626631212742442,0.0,Landing
9.200000000000001,-141.2673730638044,-879.5120538049559,158.3777522575831,-0.6499958266445814,-1.8042892693705728,249.0501671234897,33.417509965843266,0.0,1.0,17.597949253466354,0.21626631212742442,0.0,Landing
9.3,-142.75636742023562,-893.8389960143071,159.93936941235438,-0.6468111521427748,-1.2883964289900591,249.08397075511982,33.76661196719567,0.0,1.0,17.597949253466354,0.21626631212742442,0.0,Landing
9.4,-144.3430420217301,-895.4306923371632,160.38853184420933,-0.929784734931598,-1.3324339716619447,249.03073090821965,33.56629743720293,0.0,1.0,17.597949253466354,0.21626631212742442,0.0,Landing
9.5,-145.74452652549022,-914.2378246402586,159.5420690459516,-0.45883679909052105,-1.7879883547510764,249.12732314739503,33.51373124329223,0.0,1.0,17.597949253466354,0.21626631212742442,0.0,Landing
9.600000000000001,-147.3275565434369,-908.9587892799841,160.66459845416284,-0.5329562907310831,-1.688802623425735,249.1263587630333,34.098099721885745,0.0,1.0,17.597949253466354,0.21626631212742442,0.0,Landing
9.700000000000001,-148.88783596813002,-950.7281953396046,158.7275266921063,-0.9743851105868518,-1.85799674129877,248.8042871049779,34.23696408821604,0.0,1.0,17.597949253466354,0.21626631212742442,0.0,Landing
9.8,-150.49816750218824,-939.8527121854727,160.17216848597462,-0.5523255367799639,-1.6115130323973201,249.02591653008312,33.89612373917909,0.0,1.0,17.597949253466354,0.21626631212742442,0.0,Landing
9.9,-152.02682010436428,-938.6505526842542,159.53260079443027,-0.44100118220526563,-1.7265588403842511,248.98316800725684,34.325644606826245,0.0,1.0,17.597949253466354,0.21626631212742442,0.0,Landing
10.0,-153.5810887315513,-913.1149311636876,162.9844135395293,-0.975791079310127,-1.9294957440564695,249.17096866989255,33.82815515297493,0.0,1.0,17.597949253466354,0.21626631212742442,0.0,Landing
10.100000000000001,-155.06374215800668,-908.3782254613822,159.26986728824983,-0.6141762485222169,-1.6765554420275066,249.1011073558343,33.43058697300885,0.0,1.0,17.597949253466354,0.21626631212742442,0.0,Landing
10.200000000000001,-156.5687112316712,-892.2329249993822,158.7870293978077,-0.649640811875287,-1.6449047949060855,249.41862452332452,33.770802667507,0.0,1.0,17.597949253466354,0.21626631212742442,0.0,Landing
10.3,-158.0422533565482,-899.8694223579264,159.4754650018657,-0.6819663833648139,-1.4998951737722974,249.33504952200155,33.768538956250346,0.0,1.0,17.597949253466354,0.21626631212742442,0.0,Landing
10.4,-159.5630892697963,-889.8269592939472,160.57747928849696,-0.878207848377302,-1.7125404658320382,249.11938682057064,33.66366872037196,0.0,1.0,17.597949253466354,0.21626631212742442,0.0,Landing
10.5,-161.01784602814092,-896.8759555571182,160.83609522348542,-0.21861324944489025,-1.5281430275707175,249.1072072008276,33.964483916227536,0.0,1.0,17.597949253466354,0.21626631212742442,0.0,Landing
10.600000000000001,-162.5266331343338,-889.8708498290375,159.84288886486678,-0.9275314792837491,-1.6623328475864463,249.29193636612172,33.237581888837916,0.0,1.0,17.597949253466354,0.21626631212742442,0.0,Landing
10.700000000000001,-164.0124435189415,-891.8953994242884,160.44488320616094,-0.5008059199140579,-2.015635003696663,249.23740810788604,33.4005128259386,0.0,1.0,17.597949253466354,0.21626631212742442,0.0,Landing
10.8,-165.47732302526236,-884.412553976614,159.2775657045373,-0.7023325711662912,-1.845425705379375,249.12896901987415,33.712452882269055,0.0,1.0,17.597949253466354,0.21626631212742442,0.0,Landing
10.9,-166.94869590421686,-900.3994682721383,158.80841756967448,-0.7243843500814438,-1.6969541052662567,249.23187488261829,33.68915213367587,0.0,1.0,17.597949253466354,0.21626631212742442,0.0,Landing
11.0,-168.5144408603022,-896.4371839861201,160.01029438294276,-0.9500123553436115,-1.5144194064246728,249.03334073868803,33.880894676401816,0.0,1.0,17.597949253466354,0.21626631212742442,0.0,Landing
11.100000000000001,-169.95950894519297,-897.3336176495364,160.06509130377026,-0.6833601389865339,-1.9843429257055116,249.3261355294975,33.40012745835932,0.0,1.0,17.597949253466354,0.21626631212742442,0.0,Landing
11.200000000000001,-171.43536399246454,-889.9064915290468,160.03686918631223,-0.6483379999939687,-1.723160249663354,249.23768135443572,33.84190008385477,0.0,1.0,17.597949253466354,0.21626631212742442,0.0,Landing
11.3,-172.96397331794742,-901.0321727727955,161.69457146197615,-0.5975813412070468,-1.7033882077373914,248.98326266365893,33.34645855036603,0.0,1.0,17.597949253466354,0.21626631212742442,0.0,Landing
11.4,-174.46466980905694,-910.7526071020743,160.64093905912657,-1.1767793553707098,-1.7216079456810371,249.18962910526352,33.91846909312544,0.0,1.0,17.597949253466354,0.21626631212742442,0.0,Landing
11.5,-175.98912702797492,-892.275628077914,160.66218278627656,-0.9907028350333764,-1.5764262585502986,248.74031134617383,33.63644853529489,0.0,1.0,17.597949253466354,0.21626631212742442,0.0,Landing
11.600000000000001,-177.425351458337,-877.2365558898231,158.88518774361214,-1.2199004059139167,-1.3127709699313397,248.90029886652655,33.243717052315425,0.0,1.0,17.597949253466354,0.21626631212742442,0.0,Landing
11.700000000000001,-178.85085258850606,-857.2627064034918,159.19410680015926,-0.34228116324519386,-1.47520162083813,249.45358996197058,33.6029532467682,0.0,1.0,17.597949253466354,0.21626631212742442,0.0,Landing
11.8,-180.27544055999238,-859.6630261572955,159.38004148130634,-0.5512542594654375,-2.1097450006182585,249.0328624618394,33.38714608636094,0.0,1.0,17.597949253466354,0.21626631212742442,0.0,Landing
11.9,-181.72366658912347,-892.3983155562269,160.94558969563337,-0.4946441198213902,-1.6443143016699067,249.04874616924735,33.55861175946876,0.0,1.0,17.597949253466354,0.21626631212742442,0.0,Landing
12.0,-183.3128441662872,-893.0644952324714,159.34018708634673,-0.7765290805875036,-1.7353255116663975,249.1381129018656,32.75520415193216,0.0,1.0,17.597949253466354,0.21626631212742442,0.0,Landing
12.100000000000001,-184.74076303615473,-910.6505906349412,159.40506312471047,-0.2903216604696261,-1.7941474170258211,249.3855422189091,33.71591798964523,0.0,1.0,17.597949253466354,0.21626631212742442,0.0,Landing
12.200000000000001,-186.27691954229817,-876.6623858631477,159.8777556362465,-0.674371956164348,-1.740386987796429,249.1086824112241,33.68632857462133,0.0,1.0,17.597949253466354,0.21626631212742442,0.0,Landing
12.3,-187.69615609560293,-865.0211691145842,160.6198509810212,-0.5419686467017442,-1.8747947634479556,249.03019851491285,33.388736522736224,0.0,1.0,17.597949253466354,0.21626631212742442,0.0,Landing
12.4,-189.06586888172765,-858.9172372260067,160.5084791018691,-0.5832452088866272,-1.6293073795062143,249.26722812733237,33.68191110762585,0.0,1.0,17.597949253466354,0.21626631212742442,0.0,Landing
12.5,-190.5715057284282,-874.4205410598511,158.61959675547845,-0.8290161380643186,-1.6535536890553604,249.19846764113754,33.4638058268787,0.0,1.0,17.597949253466354,0.21626631212742442,0.0,Landing
12.600000000000001,-192.06825880090219,-898.8196713612239,158.4602299774809,-0.5958898181998054,-1.690330325418464,249.03116376989715,33.63069309957275,0.0,1.0,17.597949253466354,0.21626631212742442,0.0,Landing
12.700000000000001,-193.55996723853377,-889.7878096570253,159.03537973838442,-0.3763231401370817,-1.5072329209029776,249.07139767049125,33.90021051675458,0.0,1.0,17.597949253466354,0.21626631212742442,0.0,Landing
12.8,-195.02044477671333,-897.5896942542249,160.67862178538758,-0.4924760881531144,-1.6708242551627577,249.09863461117789,33.87048381448568,0.0,1.0,17.597949253466354,0.21626631212742442,0.0,Landing
12.9,-196.5562072721733,-897.2932336624523,158.0267285715337,-0.6195019637377097,-1.4373749806596954,248.96300447498493,33.31457734197064,0.0,1.0,17.597949253466354,0.21626631212742442,0.0,Landing
13.0,-198.04643340684603,-886.3947562971816,160.9657948731549,-0.7503677566071059,-1.89479111930249,249.3008474350545,33.83735102185865,0.0,1.0,17.597949253466354,0.21626631212742442,0.0,Landing
13.100000000000001,-199.45241855819924,-871.6179740639859,159.35186596510013,-0.3266644763178211,-1.7050700093288387,249.1577039899489,33.528534948184074,0.0,1.0,17.597949253466354,0.21626631212742442,0.0,Landing
13.200000000000001,-200.91429714249324,-860.1351094704172,160.31682572622682,-0.35515909345272517,-1.783546636777944,249.12644174834838,33.72618696406181,0.0,1.0,17.597949253466354,0.21626631212742442,0.0,Landing
13.3,-202.34710895419812,-881.0393068453436,160.65681670957898,-0.7732235349966605,-1.6826741195823578,249.23520859604287,33.54343787513507,0.0,1.0,17.597949253466354,0.21626631212742442,0.0,Landing
13.4,-203.85761509242596,-879.6349157586804,159.3513788504505,-0.585636286911457,-1.4734761329753712,249.04736443055845,33.56487766029022,0.0,1.0,17.597949253466354,0.21626631212742442,0.0,Landing
13.5,-205.31247172128664,-887.5651712680623,159.89645507073175,-0.6641544207593926,-1.3008867105560522,249.0415607842291,33.127724285241364,0.0,1.0,17.597949253466354,0.21626631212742442,0.0,Landing
13.600000000000001,-206.78493481053843,-880.3296319154242,160.35714961007199,-0.5210770159329333,-1.866133434857991,249.05495530416397,33.55034259455835,0.0,1.0,17.597949253466354,0.21626631212742442,0.0,Landing
13.700000000000001,-208.25926325200308,-883.3426549669753,159.69356049350486,-1.2373947619593682,-2.2276983951208393,248.92776385140894,33.436015088450574,0.0,1.0,17.597949253466354,0.21626631212742442,0.0,Landing
13.8,-209.72918499612152,-873.4401726816941,159.57854622993875,-0.6590932041994929,-1.228676053531982,248.93984300064608,33.44590956055873,0.0,1.0,17.597949253466354,0.21626631212742442,0.0,Landing
13.9,-211.1521356739469,-886.654336547997,160.48811015991188,-0.7351761577413989,-1.3991937812426691,249.02168767927105,33.17339177743104,0.0,1.0,17.597949253466354,0.21626631212742442,0.0,Landing
14.0,-212.69253493474307,-877.53959780066,158.7697108352199,-0.6848417861472414,-1.704126883313822,249.26574794390172,33.65593099751788,0.0,1.0,17.597949253466354,0.21626631212742442,0.0,Landing
14.100000000000001,-214.11688298512482,-879.3628407611095,160.41932827572617,-0.48656833206705474,-1.583996935209214,249.08853405840932,33.1665123096106,0.0,1.0,17.597949253466354,0.21626631212742442,0.0,Landing
14.200000000000001,-215.54894987775245,-848.9019681520745,158.91568911487994,-1.0034274511503516,-1.7675175136499812,249.0248405588552,33.685814284177255,0.0,1.0,17.597949253466354,0.21626631212742442,0.0,Landing
14.3,-216.93704477550344,-863.0349509173981,158.09968109375615,-0.6738363289907594,-1.3950085663532317,248.9405475343109,33.22225763751381,0.0,1.0,17.597949253466354,0.21626631212742442,0.0,Landing
14.4,-218.4320577397118,-868.5497035055846,160.35145059199183,-0.3960688426863628,-1.5606187476666096,249.08440400898462,33.48780433919438,0.0,1.0,17.597949253466354,0.21626631212742442,0.0,Landing
14.5,-219.89169839528037,-894.6129113933921,159.45380778861423,-0.37117195040900186,-1.7362073315842623,248.94874022903286,33.37716601647674,0.0,1.0,17.597949253466354,0.21626631212742442,0.0,Landing
14.600000000000001,-221.4101093324704,-901.1191060387773,159.60222642558676,-0.6450700017801186,-1.6601198691773624,249.0261262304573,33.449245989955415,0.0,1.0,17.597949253466354,0.21626631212742442,0.0,Landing
14.700000000000001,-222.9376532699057,-898.9579885389389,158.76278587371445,-0.8785978594131487,-1.3272627239631318,249.2761736969901,34.1299020995913,0.0,1.0,17.597949253466354,0.21626631212742442,0.0,Landing
14.8,-224.38648833797507,-876.1003223269485,159.687452195765,-0.905875081611023,-1.165843554095702,249.15014220876503,33.39186571893655,0.0,1.0,17.597949253466354,0.21626631212742442,0.0,Landing
14.9,-225.79061094410514,-855.5799673948799,159.63508988685837,-1.1998511700405259,-1.7752170948539796,248.99116343461708,33.975968192170946,0.0,1.0,17.597949253466354,0.21626631212742442,0.0,Landing
15.0,-227.2155531068801,-851.054015408596,157.48606586515075,-1.0114693409838806,-1.7442822368841677,248.9770828325104,33.76694137499325,0.0,1.0,17.597949253466354,0.21626631212742442,0.0,Landing
15.100000000000001,-228.64175841501805,-863.3013105477744,159.583811892476,-0.9555724890578712,-1.8968245412108653,249.20392454534135,33.82096666739052,0.0,1.0,17.597949253466354,0.21626631212742442,0.0,Landing
15.200000000000001,-230.107117496844,-875.9770958919547,160.44048164406522,-0.49579097238147407,-1.7800901998462724,249.323586607219,33.39337262626989,0.0,1.0,17.597949253466354,0.21626631212742442,0.0,Landing
15.3,-231.59543858633987,-897.5326212194773,160.01284465067522,-0.8988957458657331,-1.909656944081332,249.0469081803326,33.52184111663571,0.0,1.0,17.597949253466354,0.21626631212742442,0.0,Landing
15.4,-233.12942152111543,-903.2212170686194,158.9331167596262,-0.6225222998209989,-1.4055770275663666,248.87672076949048,33.57214325328599,0.0,1.0,17.597949253466354,0.21626631212742442,0.0,Landing
15.5,-234.6232235821871,-909.9555223805795,159.17361373343365,-0.553500955791528,-1.2802465025576029,248.96836182275786,33.919464787048234,0.0,1.0,17.597949253466354,0.21626631212742442,0.0,Landing
15.600000000000001,-236.14521619824276,-873.5340178723504,159.8709350026183,-0.30835427590491604,-1.8953749198040297,249.34915793264804,33.36781519949718,0.0,1.0,17.597949253466354,0.21626631212742442,0.0,Landing
15.700000000000001,-237.49709161047718,-887.0646830639203,158.86627304077592,-0.4112423318305569,-1.3934856736053765,249.19752548255246,34.080154816207816,0.0,1.0,17.597949253466354,0.21626631212742442,0.0,Landing
15.8,-239.0585469975067,-856.5032669505513,158.98636313292295,-0.596554363235513,-1.757312815688755,248.91452535847577,33.6664221257279,0.0,1.0,17.597949253466354,0.21626631212742442,0.0,Landing
15.9,-240.42773253299552,-878.1615625010942,159.57835708124614,-0.656057824925165,-1.6393231390033145,249.09035046109898,33.871698613656534,0.0,1.0,17.597949253466354,0.21626631212742442,0.0,Landing
16.0,-241.88789942298266,-882.1164278863307,158.9763479675108,-0.8387735181052437,-1.2687105674079877,249.34098868678961,33.86405120348856,0.0,1.0,17.597949253466354,0.21626631212742442,0.0,Landing
16.1,-243.46912913693836,-879.9082042442991,158.49337133908745,-0.6261860579459226,-1.6500944610577302,249.1248725904071,33.55254653460311,0.0,1.0,17.597949253466354,0.21626631212742442,0.0,Landing
16.2,-244.82727355421702,-892.8582738092304,159.55436166360334,-0.5698559653051065,-1.6030594160916323,248.9298684844805,33.72362196791733,0.0,1.0,17.597949253466354,0.21626631212742442,0.0,Landing
16.3,-246.3521907920288,-868.4057095448338,160.59771665172852,-0.9969347191345161,-1.3439327134913457,248.9875383436688,33.50865696274581,0.0,1.0,17.597949253466354,0.21626631212742442,0.0,Landing
16.400000000000002,-247.81115768466253,-890.1589196058181,159.46419354928332,-0.7650895984193877,-1.5871265545450886,249.20610812460416,33.72821356954856,0.0,1.0,17.597949253466354,0.21626631212742442,0.0,Landing
16.5,-249.2780681522461,-890.5412196186489,157.91807139860614,-1.1167510489065124,-1.4983959729655,249.12605684146888,33.585771191819006,0.0,1.0,17.597949253466354,0.21626631212742442,0.0,Landing
16.6,-250.80489689012205,-894.134063217001,159.02037140261294,-0.7431828840180481,-2.0111743704307496,249.0693741575078,33.381695537350105,0.0,1.0,17.597949253466354,0.21626631212742442,0.0,Landing
16.7,-252.28182800074754,-897.8561285507852,158.83856858552704,-0.6908246112274767,-1.7066695905107252,248.83507087310682,33.91749223902225,0.0,1.0,17.597949253466354,0.21626631212742442,0.0,Landing
16.8,-253.76734879500003,-891.7638182326242,160.03442286173365,-0.695927434411617,-1.9824592444979725,249.22161721065856,33.52263840060187,0.0,1.0,17.597949253466354,0.21626631212742442,0.0,Landing
16.900000000000002,-255.26371598128517,-898.6957700217714,159.39282373083725,-0.9025685466711133,-1.520471529525556,249.08937184220326,33.53378188027298,0.0,1.0,17.597949253466354,0.21626631212742442,0.0,Landing
17.0,-256.7753068508564,-913.1406449714291,159.25998288443873,-0.6968102993333206,-1.3777227775532648,249.29548056552085,33.92599783645503,0.0,1.0,17.597949253466354,0.21626631212742442,0.0,Landing
17.1,-258.3330520198572,-916.4906966836328,158.97547309205132,-0.5540202249090576,-1.8825819378776578,249.23447330730687,33.520400928452204,0.0,1.0,17.597949253466354,0.21626631212742442,0.0,Landing
17.2,-259.84616946470334,-912.7943359751043,160.38777656502734,-0.44953027099282605,-1.7726291960814433,249.03946738137904,33.12206026706858,0.0,1.0,17.597949253466354,0.21626631212742442,0.0,Landing
17.3,-261.3392785307319,-891.272702843753,160.48356667860483,-0.986427514588287,-1.9034040582701977,249.21140470012756,33.12573239951825,0.0,1.0,17.597949253466354,0.21626631212742442,0.0,Landing
17.400000000000002,-262.78941553407594,-887.1897981447887,159.95765060009364,-0.7057004327309799,-1.5545635461403684,249.2349228657456,33.41561075734765,0.0,1.0,17.597949253466354,0.21626631212742442,0.0,Landing
17.5,-264.2821184554273,-872.1485304739645,160.45961774294244,-0.7430150942490503,-1.7581343648721335,248.93327224141876,33.13593879578531,0.0,1.0,17.597949253466354,0.21626631212742442,0.0,Landing
17.6,-265.70002118310174,-873.212616579508,159.13912581071634,-0.4378533562214798,-1.1923882789868294,249.35865794989468,34.33661272346345,0.0,1.0,17.597949253466354,0.21626631212742442,0.0,Landing
17.7,-267.1554786169735,-859.7196997328183,159.75513388996563,-0.5463373177947827,-1.6484303824446143,249.0495107648511,33.507270395621916,0.0,1.0,17.597949253466354,0.21626631212742442,0.0,Landing
17.8,-268.5807169540914,-853.7071212493856,159.49652393631226,-0.7921411362917208,-1.7582777776432326,248.96782735293493,33.70957239975222,0.0,1.0,17.597949253466354,0.21626631212742442,0.0,Landing
17.900000000000002,-269.96855678934867,-848.8486503553759,159.29438727974755,-0.7737002357832693,-1.5773406201941955,249.13332829964793,33.73217079844064,0.0,1.0,17.597949253466354,0.21626631212742442,0.0,Landing
18.0,-271.39972186875036,-840.7266990339167,160.33642973542894,-0.8433712133207474,-1.1836794655540355,249.35512221572344,33.42360042881128,0.0,1.0,17.597949253466354,0.21626631212742442,0.0,Landing
18.1,-272.78435044926096,-843.0544098987752,159.10783961058578,-0.5466416314447871,-1.6222575023878156,249.19822498955352,33.78555889990373,0.0,1.0,17.597949253466354,0.21626631212742442,0.0,Landing
18.2,-274.18382883884254,-842.2674820973043,157.55119144797524,-0.5676662052623035,-1.9253464636602673,249.0427007509901,33.930331790066596,0.0,1.0,17.597949253466354,0.21626631212742442,0.0,Landing
18.3,-275.6110592792369,-854.5422021081663,161.87739925334006,-0.7985206196154506,-1.582339965298719,248.83384966689016,33.68115792450569,0.0,1.0,17.597949253466354,0.21626631212742442,0.0,Landing
18.400000000000002,-277.0570614598018,-873.5647716388826,158.87671638055224,-0.6069393862197646,-1.9658985846242742,249.22558908036706,33.59358313610775,0.0,1.0,17.597949253466354,0.21626631212742442,0.0,Landing
18.5,-278.55165269703696,-881.8560690024583,159.3313082743089,-0.6017839951354378,-2.1235172346247695,249.11667393153402,33.5200649957295,0.0,1.0,17.597949253466354,0.21626631212742442,0.0,Landing
18.6,-280.0203396242492,-889.0823948321668,160.1677140239752,-0.45331447912064704,-1.9487085034275646,248.71392134743348,33.828224263896594,0.0,1.0,17.597949253466354,0.21626631212742442,0.0,Landing
18.7,-281.5024734339626,-860.1880438974945,160.19514106264532,-1.013279741970573,-1.4761465616460538,249.03676380199386,33.392201506805726,0.0,1.0,17.597949253466354,0.21626631212742442,0.0,Landing
18.8,-282.85259291652443,-860.7135289061489,159.0012910427292,-0.5354427289943802,-1.6644027634837237,249.1785417948447,33.563337780143904,0.0,1.0,17.597949253466354,0.21626631212742442,0.0,Landing
18.900000000000002,-284.3239072687799,-852.0839217806156,160.95034075121214,-0.6337472838213405,-1.7284289106947446,249.16801944136614,33.82802774082971,0.0,1.0,17.597949253466354,0.21626631212742442,0.0,Landing
19.0,-285.7628930428657,-893.4311954200211,159.3084582508832,-0.6068430726102509,-1.9204703032187265,249.19368945042515,33.1660658998204,0.0,1.0,17.597949253466354,0.21626631212742442,0.0,Landing
19.1,-287.31974889362453,-884.8271509174083,159.06986872194744,-0.8030635282786813,-1.817477144993945,248.9368541665974,33.07545397922732,0.0,1.0,17.597949253466354,0.21626631212742442,0.0,Landing
19.200000000000003,-288.74804302336696,-881.495017109421,158.5278623258265,-0.7070992548614661,-1.8883162721331255,249.00173945611812,33.604002355587745,0.0,1.0,17.597949253466354,0.21626631212742442,0.0,Landing
19.3,-290.1703681284128,-853.9840677352231,159.51465274179972,-0.9915797411662612,-1.7129451772278352,249.07500551856936,33.69797569555001,0.0,1.0,17.597949253466354,0.21626631212742442,0.0,Landing
19.400000000000002,-291.58966923230065,-834.3167621494445,159.87689733980878,-0.7033596984458923,-1.6678539441270912,249.34064436423944,33.00456263628815,0.0,1.0,17.597949253466354,0.21626631212742442,0.0,Landing
19.5,-292.9196268341142,-838.4095436058487,159.82421779210367,-0.9063113971039668,-1.4107744626501146,249.27374952977982,34.01584529302565,0.0,1.0,17.597949253466354,0.21626631212742442,0.0,Landing
19.6,-294.36241584644205,-844.2661579171613,160.30645393270893,-0.7826436976494031,-1.7135494015678407,249.18363970556152,33.62805392449623,0.0,1.0,17.597949253466354,0.21626631212742442,0.0,Landing
19.700000000000003,-295.81100002188646,-854.6231377004915,158.1518276950407,-0.4871381727777091,-1.9801976238010068,249.04977038347033,33.71589217364917,0.0,1.0,17.597949253466354,0.21626631212742442,0.0,Landing
19.8,-297.19274252261664,-860.5929526552586,158.99134037027,-0.37123941846275477,-1.6400402293840843,249.21243992332938,33.67996186360291,0.0,1.0,17.597949253466354,0.21626631212742442,0.0,Landing
19.900000000000002,-298.66538060971834,-856.0859879281338,158.4708718203259,-0.48888960123243863,-1.3841406648654526,249.3722616101884,33.88751108963224,0.0,1.0,17.597949253466354,0.21626631212742442,0.0,Landing
20.0,-300.0914299615271,-877.9843910770069,159.65913535946353,-0.8664978010217033,-1.5826208728461633,248.8888068130468,33.74096526056036,0.0,1.0,17.597949253466354,0.21626631212742442,0.0,Landing
20.1,-301.5826644780017,-879.8755084785284,158.33617854758398,-0.9669861547135392,-1.679934700781703,249.44606553682968,33.80515664946722,0.0,1.0,17.597949253466354,0.21626631212742442,0.0,Landing
20.200000000000003,-303.064758152111,-891.9059416887194,161.30921107746428,-0.5059654434501066,-1.711818163016929,249.1913927396065,33.991903695072494,0.0,1.0,17.597949253466354,0.21626631212742442,0.0,Landing
20.3,-304.5509596699707,-880.8690818120908,159.9384385905294,-0.8558381373797294,-1.7475814915691295,249.02329852906905,34.233788302486815,0.0,1.0,17.597949253466354,0.21626631212742442,0.0,Landing
20.400000000000002,-305.98700988706213,-869.7436805835196,161.3672371286399,-0.5144657548537415,-1.8029424249044101,249.19096339516716,33.590735961842185,0.0,1.0,17.597949253466354,0.21626631212742442,0.0,Landing
20.5,-307.4134765550286,-864.5134300898803,158.3473546875844,-0.33944686915187416,-1.741044875427356,248.86206528290586,33.858580405796324,0.0,1.0,17.597949253466354,0.21626631212742442,0.0,Landing
20.6,-308.8735268204201,-849.3490061272723,159.73211076561415,-0.3785220280223358,-1.942147943087878,248.99470101402096,33.30529619437286,0.0,1.0,17.597949253466354,0.21626631212742442,0.0,Landing
20.700000000000003,-310.2337549176985,-852.7065398443597,157.9284644489558,-0.661213552531169,-1.7152921419495235,249.11618735130287,33.99501318240056,0.0,1.0,17.597949253466354,0.21626631212742442,0.0,Landing
20.8,-311.6770092542504,-863.7141504310875,159.12423760826405,-0.7090522544149286,-2.2020873510405927,249.14509592081663,33.65120944469085,0.0,1.0,17.597949253466354,0.21626631212742442,0.0,Landing
20.900000000000002,-313.19209757257556,-876.5497790932955,159.78885658030572,-0.08090298228235682,-1.3869076352524499,249.2426456412652,34.3078355793845,0.0,1.0,17.597949253466354,0.21626631212742442,0.0,Landing
21.0,-314.61650381316497,-877.084313041189,159.69407980880692,-0.48041932074887783,-1.8239746609255034,248.79144949754357,33.703074842715424,0.0,1.0,17.597949253466354,0.21626631212742442,0.0,Landing
21.1,-316.0624308194563,-856.6050290005592,158.2235513191675,-0.39992740669902443,-1.8860585404040258,249.15759351340353,33.968857537031404,0.0,1.0,17.597949253466354,0.21626631212742442,0.0,Landing
21.200000000000003,-317.47512271757836,-849.1917982769451,160.59816527167223,-0.46824132300357235,-1.5833131703864483,249.02326122256613,33.93231107954496,0.0,1.0,17.597949253466354,0.21626631212742442,0.0,Landing
21.3,-318.8624628045497,-842.8120309808492,159.33466901803575,-0.8320842171418138,-1.676658419991547,249.45042691750086,33.89647329368808,0.0,1.0,17.597949253466354,0.21626631212742442,0.0,Landing
21.400000000000002,-320.27649097436057,-842.8516823510222,159.23225391647802,-0.536032397492054,-1.929349758485823,249.0193952609776,33.69491492363642,0.0,1.0,17.597949253466354,0.21626631212742442,0.0,Landing
21.5,-321.68938112933347,-848.1753940088197,158.68981861650514,-0.6120243330079149,-1.709429483996135,249.240169459154,33.5573774309382,0.0,1.0,17.597949253466354,0.21626631212742442,0.0,Landing
21.6,-323.1033397745938,-842.4999583406475,159.03340246344305,-0.570794271459169,-2.099752641150099,249.38199074131262,33.296332228741235,0.0,1.0,17.597949253466354,0.21626631212742442,0.0,Landing
21.700000000000003,-324.4889907660638,-839.4034610311451,159.74292036114346,-0.6587965991691753,-1.449216005968872,249.21540908266127,32.712396260866214,0.0,1.0,17.597949253466354,0.21626631212742442,0.0,Landing
21.8,-325.8863984344892,-832.7221560658131,160.68684824966485,-0.5329300451635254,-1.4008119947102005,249.22431091078124,33.501321771598185,0.0,1.0,17.597949253466354,0.21626631212742442,0.0,Landing
21.900000000000002,-327.26695055492286,-843.4632530824729,161.23170307282547,-1.1521219972156247,-1.3745450569884528,249.0610360957727,33.040868007436934,0.0,1.0,17.597949253466354,0.21626631212742442,0.0,Landing
22.0,-328.7063070314762,-848.9589201158083,159.73229997501588,-0.6029419251253113,-2.007150597939752,248.95650483026725,33.41938023218498,0.0,1.0,17.597949253466354,0.21626631212742442,0.0,Landing
22.1,-330.13119303506824,-840.4357381709474,161.31435115837567,-0.5342371453820547,-1.147382137337691,249.12249929865345,33.439202903180245,0.0,1.0,17.597949253466354,0.21626631212742442,0.0,Landing
22.200000000000003,-331.4691292457776,-814.951263631076,159.784304610579,-0.851184676926773,-1.590379994397478,248.95864285027972,33.80376695474706,0.0,1.0,17.597949253466354,0.21626631212742442,0.0,Landing
22.3,-332.78106334963155,-816.2714637181807,159.01886779859151,-0.5688042937092773,-1.4828958086352584,249.07567310297736,32.91352461395387,0.0,1.0,17.597949253466354,0.21626631212742442,0.0,Landing
22.400000000000002,-334.21255035365914,-840.1427019032212,159.1046276096271,-0.7404883320733417,-1.7940778473404921,249.19465925381996,34.0451540505599,0.0,1.0,17.597949253466354,0.21626631212742442,0.0,Landing
22.5,-335.6698427552937,-863.7127271196505,159.60042057986078,-0.9553889013041728,-1.5846169015922167,249.41584563340234,33.39846549174626,0.0,1.0,17.597949253466354,0.21626631212742442,0.0,Landing
22.6,-337.0996269852298,-856.7928163368606,161.54130149172525,-0.7406650097552043,-2.0481325216753494,249.03216696768993,33.35667724579572,0.0,1.0,17.597949253466354,0.21626631212742442,0.0,Landing
22.700000000000003,-338.49651443534344,-843.2463686511255,157.98488154883628,-0.8495193536087357,-1.269171101247488,249.3295677975235,33.610015565589414,0.0,1.0,17.597949253466354,0.21626631212742442,0.0,Landing
22.8,-339.8860745985493,-848.6080538137116,158.79079724649924,-0.8047000454658616,-1.5530310584729872,249.00098027182162,33.81657943515053,0.0,1.0,17.597949253466354,0.21626631212742442,0.0,Landing
22.900000000000002,-341.34266725429836,-872.9922671267104,160.07940192169417,-0.7157811142423272,-1.868440282849112,249.37474121869082,33.6669335321429,0.0,1.0,17.597949253466354,0.21626631212742442,0.0,Landing
23.0,-342.861475770977,-883.9454387746969,160.66847392534694,-0.49864300551884433,-1.5976839034362875,249.00302999344058,33.67732516985453,0.0,1.0,17.597949253466354,0.21626631212742442,0.0,Landing
23.1,-344.3058017924228,-890.2623577234181,161.13533728767527,-0.5191113533285499,-1.9009757523208992,249.12135528469912,33.65964709548483,0.0,1.0,17.597949253466354,0.21626631212742442,0.0,Landing
23.200000000000003,-345.79397904291545,-868.1005621216855,162.2502085157832,-0.784080255016521,-1.6884136398521041,248.86709915934728,33.873514416315196,0.0,1.0,17.597949253466354,0.21626631212742442,0.0,Landing
23.3,-347.2019785815854,-880.820569279183,160.61315436578866,-0.1373250455096865,-1.5753745913993666,249.16167252928017,33.88104908064051,0.0,1.0,17.597949253466354,0.21626631212742442,0.0,Landing
23.400000000000002,-348.7099046388187,-862.4543999981142,159.3369331675121,-0.6558649786500617,-1.7871936846272074,249.3249258634121,33.61657199846743,0.0,1.0,17.597949253466354,0.21626631212742442,0.0,Landing
23.5,-350.106251042906,-859.9653981008828,161.07366213720516,-0.6113073335891855,-1.5716664408988128,249.18752222652597,33.030092592972764,0.0,1.0,17.597949253466354,0.21626631212742442,0.0,Landing
23.6,-351.50180557208984,-849.3036508295177,159.34085692451697,-0.853788817245107,-1.6628039198799711,249.19522338621425,34.082309209599565,0.0,1.0,17.597949253466354,0.21626631212742442,0.0,Landing
23.700000000000003,-352.9564228929663,-857.7819835059927,161.34943863271715,-0.6721096731418607,-1.7008282328439581,249.27350187280672,33.3552680281393,0.0,1.0,17.597949253466354,0.21626631212742442,0.0,Landing
23.8,-354.395160960436,-865.670899395991,158.13578590823238,-1.0994569205564204,-1.3688804463838342,249.40904605058495,33.54506302859478,0.0,1.0,17.597949253466354,0.21626631212742442,0.0,Landing
23.900000000000002,-355.8301600690698,-865.0350323460088,159.23018082528924,-0.6772114448448088,-1.6619454014587347,248.96196257192685,33.50045433981001,0.0,1.0,17.597949253466354,0.21626631212742442,0.0,Landing
24.0,-357.28159805469636,-851.4111403732045,160.65687039293445,-0.7796643625717088,-1.3960268359943275,249.26714478544125,33.5681771244453,0.0,1.0,17.597949253466354,0.21626631212742442,0.0,Landing
24.1,-358.652216662302,-857.2558720128313,159.3291557083937,-0.6504944069208012,-1.4921614793281328,249.18283124609752,33.759128445573374,0.0,1.0,17.597949253466354,0.21626631212742442,0.0,Landing
24.200000000000003,-360.11643942913395,-846.7829868674812,160.59908073026807,-0.9089981995111008,-1.8805466338950894,249.0764621064185,34.08141323459227,0.0,1.0,17.597949253466354,0.21626631212742442,0.0,Landing
24.3,-361.51551298903377,-866.397162586884,158.53789310118586,-0.9096514689310222,-2.1993578055820753,249.2546741179774,33.54462533154377,0.0,1.0,17.597949253466354,0.21626631212742442,0.0,Landing
24.400000000000002,-362.98420247523643,-850.2843691843054,157.6652397911843,-0.8819003882208389,-1.9741344924752495,249.00685902999726,33.745036960526924,0.0,1.0,17.597949253466354,0.21626631212742442,0.0,Landing
24.5,-364.3678612750555,-852.0742194200807,157.8379399084712,-0.6567614553953633,-1.8102823559684238,249.10923941555416,33.43662288328795,0.0,1.0,17.597949253466354,0.21626631212742442,0.0,Landing
24.6,-365.77588408613417,-847.3394808107173,158.35568344751607,-0.7153306740790664,-1.7874484944833477,249.13138778438315,33.63419435152634,0.0,1.0,17.597949253466354,0.21626631212742442,0.0,Landing
24.700000000000003,-367.22089987929,-854.5403790189425,158.629584231259,-0.6227453348015191,-1.1233292338168812,249.06257735412316,33.86100336119157,0.0,1.0,17.597949253466354,0.21626631212742442,0.0,Landing
24.8,-368.6405631701502,-862.4087670867652,159.63026835481722,-0.548353315185961,-1.6561406932334077,249.11744441700284,33.60918747669116,0.0,1.0,17.597949253466354,0.21626631212742442,0.0,Landing
24.900000000000002,-370.087927921568,-848.218349755598,159.12586833358998,-0.5827150494334675,-1.551348741639368,249.34037723324036,33.611380315685274,0.0,1.0,17.597949253466354,0.21626631212742442,0.0,Landing
25.0,-371.461991628068,-850.1922614374507,159.15276196586206,-0.7710816758277297,-1.460742338433936,249.11108447343645,33.887134765324554,0.0,1.0,17.597949253466354,0.21626631212742442,0.0,Landing
25.1,-372.89152447733744,-816.56437434591,157.72438679964466,-0.7626785918660904,-1.4379935032500066,248.7697225711645,33.71148568251317,0.0,1.0,17.597949253466354,0.21626631212742442,0.0,Landing
25.200000000000003,-374.17074979329755,-814.9098101706386,158.2999502657421,-0.32969901717475536,-1.9101135727199363,249.2953716981291,33.92281849897623,0.0,1.0,17.597949253466354,0.21626631212742442,0.0,Landing
25.3,-375.5365406789212,-813.9599508196511,159.6379923154121,-0.8195161819188986,-1.658826422015416,249.15228264849895,33.189013358561596,0.0,1.0,17.597949253466354,0.21626631212742442,0.0,Landing
25.400000000000002,-376.9613242314357,-854.4130841445849,158.0817304115921,-0.7146826129098957,-1.7909785221193792,248.93817698397197,33.47154070908338,0.0,1.0,17.597949253466354,0.21626631212742442,0.0,Landing
25.5,-378.44281521402047,-859.0730464834792,159.1097457747909,-0.5154606959057604,-1.7784586006045147,249.06087332979678,33.96740883805927,0.0,1.0,17.597949253466354,0.21626631212742442,0.0,Landing
25.6,-379.8319059113386,-845.9670547420842,157.3610390803199,-0.45994065254644906,-1.810944357300038,249.38819589056538,34.05317532264562,0.0,1.0,17.597949253466354,0.21626631212742442,0.0,Landing
25.700000000000003,-381.1911595051461,-796.8980516303304,160.94743604031842,-0.7495080497693877,-1.7206814606871874,249.21500775681807,32.97966775346085,0.0,1.0,17.597949253466354,0.21626631212742442,0.0,Landing
25.8,-382.4273054721721,-787.0245758387227,159.35679223860544,-0.6604621526502403,-1.6212798564107902,249.1469485497969,33.08418333923615,0.0,1.0,17.597949253466354,0.21626631212742442,0.0,Landing
25.900000000000002,-383.7670287905322,-802.2050236111681,161.51073646378254,-0.707014340465498,-1.9671402625685148,248.95346600620337,33.43682692176597,0.0,1.0,17.597949253466354,0.21626631212742442,0.0,Landing
26.0,-385.20218462320196,-837.5488959832296,160.0672586537208,-1.0187949736362643,-1.994968883130434,249.12965782843207,33.29845847511829,0.0,1.0,17.597949253466354,0.21626631212742442,0.0,Landing
26.1,-386.61504995208827,-868.8893470197286,159.45551255786754,-0.5446197670803913,-1.568031943227628,249.07506184639624,33.51906005767798,0.0,1.0,17.597949253466354,0.21626631212742442,0.0,Landing
26.200000000000003,-388.11147552563085,-833.5015231502553,160.91214879957585,-0.674808589403065,-1.381598582025589,249.2198640483532,33.15061695933343,0.0,1.0,17.597949253466354,0.21626631212742442,0.0,Landing
26.3,-389.36969223895323,-825.6952689447985,158.9431620450385,-0.5465389306274823,-1.4024249474055905,249.0126255495852,33.659483646184135,0.0,1.0,17.597949253466354,0.21626631212742442,0.0,Landing
26.400000000000002,-390.74352629681226,-824.393591634248,161.0118350485329,-0.7280298457873655,-1.639940465966502,249.23025057464884,33.820773189356466,0.0,1.0,17.597949253466354,0.21626631212742442,0.0,Landing
26.5,-392.2334434838021,-861.2027211175246,160.67500402176955,-0.6421278097290753,-1.8609099896036965,249.15091201543078,33.79515439204689,0.0,1.0,17.597949253466354,0.21626631212742442,0.0,Landing
26.6,-393.67570584454086,-845.8267293391486,159.63454091372734,-0.8183267851444891,-1.3970279056958677,249.10938040421377,33.120677295327745,0.0,1.0,17.597949253466354,0.21626631212742442,0.0,Landing
26.700000000000003,-394.972659943508,-831.1618568568065,159.52584799942673,-1.1254590618023836,-1.626674602419236,249.21727386344298,33.48708725905186,0.0,1.0,17.597949253466354,0.21626631212742442,0.0,Landing
26.8,-396.3892527680861,-815.3435890255196,159.80733033656708,-0.6722022383773842,-1.6801514148552354,249.18092551445488,33.117096515500705,0.0,1.0,17.597949253466354,0.21626631212742442,0.0,Landing
26.900000000000002,-397.75242378966846,-848.4589139614172,159.69887243955026,-0.5811695735038654,-1.625614216210981,249.1696713013655,33.245834661653944,0.0,1.0,17.597949253466354,0.21626631212742442,0.0,Landing
27.0,-399.2149545133151,-848.5850115833159,160.57927023389635,-0.45234709588331967,-1.8000784263415883,248.93658841661613,33.88745242079595,0.0,1.0,17.597949253466354,0.21626631212742442,0.0,Landing
27.1,-400.6321778260027,-855.7791349725676,159.03453293462425,-0.8618292838569032,-1.7114952574662612,249.25249042820747,33.589565074951,0.0,1.0,17.597949253466354,0.21626631212742442,0.0,Landing
27.200000000000003,-402.0313194645313,-855.8432291059603,161.41596000363324,-0.4201273886617193,-1.4967972757684753,248.97975912889262,33.77599221308362,0.0,1.0,17.597949253466354,0.21626631212742442,0.0,Landing
27.3,-403.4941706588449,-858.2652262593115,159.85251276997448,-1.0125525410750842,-1.8055328009519163,248.88867268360787,33.4538573330491,0.0,1.0,17.597949253466354,0.21626631212742442,0.0,Landing
27.400000000000002,-404.92350395729926,-853.6813131457393,159.56432578321727,-0.680882484609757,-1.880172388718068,249.29394589254184,33.64462879321364,0.0,1.0,17.597949253466354,0.21626631212742442,0.0,Landing
27.5,-406.29972603026,-845.1911582793741,159.5097232381686,-0.7818829654314349,-1.8851693345384621,249.03859693868458,33.40325970898678,0.0,1.0,17.597949253466354,0.21626631212742442,0.0,Landing
27.6,-407.72012645024176,-824.0237111025067,160.55786019547523,-0.6991551375857441,-1.7783632211561615,249.01552922764972,33.07828815663824,0.0,1.0,17.597949253466354,0.21626631212742442,0.0,Landing
27.700000000000003,-409.0436225128118,-828.8050688854469,160.93401003769463,-0.6080748645537066,-1.5573009552097667,249.27566986983504,33.24928295976028,0.0,1.0,17.597949253466354,0.21626631212742442,0.0,Landing
27.8,-410.4437513746872,-823.2897035836118,159.07926245980147,-0.8092281820511473,-1.706908667437546,249.12439270609116,33.69396368675778,0.0,1.0,17.597949253466354,0.21626631212742442,0.0,Landing
27.900000000000002,-411.8365749681598,-830.8423844332992,159.73811921097513,-0.5658554192475835,-1.8261033582190913,249.37670010416662,33.93218658995557,0.0,1.0,17.597949253466354,0.21626631212742442,0.0,Landing
28.0,-413.1978344349783,-832.3768092120076,160.35406580075892,-0.45314718241285523,-1.6804745631997868,249.06782651238882,33.85069246125002,0.0,1.0,17.597949253466354,0.21626631212742442,0.0,Landing
28.1,-414.60563542074726,-837.2444701459585,157.5192939517481,-0.43983582589881853,-1.5439793755982016,249.02931620299523,34.19350349297004,0.0,1.0,17.597949253466354,0.21626631212742442,0.0,Landing
28.200000000000003,-416.0227973188896,-834.5976958279607,159.79728870566532,-0.6814314598444817,-1.4560238467849516,249.30804838779545,33.40491465699548,0.0,1.0,17.597949253466354,0.21626631212742442,0.0,Landing
28.3,-417.3708229141181,-835.6506599695422,157.99997403863006,-0.5812029287523472,-1.5449687289016718,249.00545086099555,33.55671680978821,0.0,1.0,17.597949253466354,0.21626631212742442,0.0,Landing
28.400000000000002,-418.783888720595,-821.1857328270639,159.97926164497832,-0.9306809575560422,-1.6083278479430851,249.00609088147473,33.56737508649449,0.0,1.0,17.597949253466354,0.21626631212742442,0.0,Landing
28.5,-420.12872598302494,-820.9069338003815,159.7574169601805,-0.8876144026404733,-1.81211897945764,249.07253734748303,33.892280823096534,0.0,1.0,17.597949253466354,0.21626631212742442,0.0,Landing
28.6,-421.47535758312,-830.6403468085932,157.6712604710349,-0.8620258224555752,-1.3450514855021023,249.24083463100806,33.47000392779634,0.0,1.0,17.597949253466354,0.21626631212742442,0.0,Landing
28.700000000000003,-422.93709045463794,-841.3058072536273,160.8326177555605,-0.7189530385446232,-1.9306866714316038,249.1072203777211,33.72463412213686,0.0,1.0,17.597949253466354,0.21626631212742442,0.0,Landing
28.8,-424.3352550192931,-862.8967404209789,159.85095243157835,-0.3456553369497043,-1.6720574851783157,249.200250944657,33.10768384672969,0.0,1.0,17.597949253466354,0.21626631212742442,0.0,Landing
28.900000000000002,-425.7898412852249,-838.3158000488379,159.40545735199834,-0.47907461941410945,-1.7206576249501437,249.1706100778821,34.14905817422989,0.0,1.0,17.597949253466354,0.21626631212742442,0.0,Landing
29.0,-427.12866945488213,-832.083561376578,160.32987518500346,-0.5060909050996856,-2.1587431620355666,249.03567635969694,33.816331007426356,0.0,1.0,17.597949253466354,0.21626631212742442,0.0,Landing
29.1,-428.49567282617596,-823.7371254014988,159.17608556343623,-0.9806664438109198,-1.9542890438434557,248.6676324553075,33.93656211925616,0.0,1.0,17.597949253466354,0.21626631212742442,0.0,Landing
29.200000000000003,-429.9085269122324,-790.6918794268677,159.9376456586202,-0.7881133518967913,-1.2893873455585365,249.256582814475,34.19043844380893,0.0,1.0,17.597949253466354,0.21626631212742442,0.0,Landing
29.3,-431.08212885201647,-792.4219970138097,159.54772037790931,-0.7049665996076658,-1.329263763910012,249.1791462957833,33.93874328457049,0.0,1.0,17.597949253466354,0.21626631212742442,0.0,Landing
29.400000000000002,-432.457782811245,-797.3667685030136,160.102395664142,-0.952635076375163,-1.271497932760833,248.9066855593643,33.557503335753495,0.0,1.0,17.597949253466354,0.21626631212742442,0.0,Landing
