time_s,altitude_ft,vertical_speed_fpm,ias_kt,pitch_deg,roll_deg,heading_deg,throttle_pct,afterburner_on,gear_down,flaps_deg,speedbrake_pct,weight_on_wheels,label
0.0,-1.6118501536201382,-467.63281310165087,179.02986127854584,0.299119207951931,4.831450968818403,127.6725822153561,38.82210714347808,0.0,1.0,13.46580476328906,15.879942491590347,0.0,Landing
0.1,-3.1706261972923078,-632.1804153192389,179.75561212674387,-0.3166909523178457,4.785097853931089,127.78762030692326,38.8376767977531,0.0,1.0,13.46580476328906,15.879942491590347,0.0,Landing
0.2,-4.772752230216333,-974.935505312145,179.67903536678338,-0.05848383883228426,4.966972693703333,127.7061087819173,38.398366499267205,0.0,1.0,13.46580476328906,15.879942491590347,0.0,Landing
0.30000000000000004,-6.486527680180863,-957.2263386078631,179.9310944590322,-0.425543588866336,4.941924100443941,127.78448069256473,38.83619872752444,0.0,1.0,13.46580476328906,15.879942491590347,0.0,Landing
0.4,-7.956757890331624,-950.8277017544924,179.20317983545675,0.1783523335145975,4.861202417076418,127.67848500415948,38.978826354129005,0.0,1.0,13.46580476328906,15.879942491590347,0.0,Landing
0.5,-9.526890738988795,-917.064746218692,179.5446257105779,-0.2938631101385844,5.168292415167985,127.64098076402013,38.70549276819163,0.0,1.0,13.46580476328906,15.879942491590347,0.0,Landing
0.6000000000000001,-11.071851411274324,-945.7894108800288,180.01641346452624,0.012313931656594737,5.171854503214959,127.544669226314,39.208047999354356,0.0,1.0,13.46580476328906,15.879942491590347,0.0,Landing
0.7000000000000001,-12.685704944731768,-949.8675921999297,179.72997919847452,-0.05223521822814295,5.04244970780619,127.36107896314576,38.53537593356343,0.0,1.0,13.46580476328906,15.879942491590347,0.0,Landing
0.8,-14.276228699988444,-968.3167334556139,178.03155523715438,-0.26953104165446695,4.917439825369917,127.53687234644298,39.00026159677401,0.0,1.0,13.46580476328906,15.879942491590347,0.0,Landing
0.9,-15.913435078552393,-969.7680257201022,179.69536754517918,0.0024496250085529886,5.092772555601988,127.49756502505971,38.7943163023636,0.0,1.0,13.46580476328906,15.879942491590347,0.0,Landing
1.0,-17.53454507333228,-990.192791583521,180.19452418406175,0.12484164508492829,4.7813180131853255,127.54629073000427,38.54744864706514,0.0,1.0,13.46580476328906,15.879942491590347,0.0,Landing
1.1,-19.22719265790605,-989.1439636186078,180.83033744002148,-0.04068586736058385,5.103913862182084,127.45494003764827,38.61884245953984,0.0,1.0,13.46580476328906,15.879942491590347,0.0,Landing
1.2000000000000002,-20.859154896645432,-984.6691056247892,181.25567403106842,-0.18297697736471588,4.778674003836868,127.51229843589033,38.45229046648952,0.0,1.0,13.46580476328906,15.879942491590347,0.0,Landing
1.3,-22.457890601456224,-968.8807863362846,179.5597377479385,-0.3460218262640423,4.776836252447056,127.67819833615442,38.05429374790028,0.0,1.0,13.46580476328906,15.879942491590347,0.0,Landing
1.4000000000000001,-24.07159658958747,-965.6063232999267,178.35573065348606,-0.03846206505964501,5.0489165937967835,127.39290431873025,38.6568122405373,0.0,1.0,13.46580476328906,15.879942491590347,0.0,Landing
1.5,-25.687186513145065,-967.164944132673,179.65064717578355,-0.19215717090741935,4.9153965581871315,127.39852088229759,38.59506720295669,0.0,1.0,13.46580476328906,15.879942491590347,0.0,Landing
1.6,-27.29371532211959,-967.768280215138,178.9914699542132,-0.11987305275893641,5.099219440752336,127.49671917824173,38.646349096465315,0.0,1.0,13.46580476328906,15.879942491590347,0.0,Landing
1.7000000000000002,-28.910437990663162,-962.4900049793318,179.0486686636113,-0.25806465842778015,5.037430750433392,127.51657571752315,38.70853317424842,0.0,1.0,13.46580476328906,15.879942491590347,0.0,Landing
1.8,-30.499636538041724,-971.5317267551527,179.82746198383725,0.3380212089089427,4.8438913127099825,127.8525848050511,38.56708850016383,0.0,1.0,13.46580476328906,15.879942491590347,0.0,Landing
1.9000000000000001,-32.15137395589535,-957.2007707495715,180.49831732218883,-0.21295193629042025,4.675479935235271,127.82104297597442,39.14930099935402,0.0,1.0,13.46580476328906,15.879942491590347,0.0,Landing
2.0,-33.69644184441102,-973.4871578555948,180.776601385184,0.20255012456106564,4.582071040204764,127.68448480371865,38.52522259574633,0.0,1.0,13.46580476328906,15.879942491590347,0.0,Landing
2.1,-35.3670723273197,-955.9900585116751,179.3386471880077,-0.05993216009688382,5.088757886712262,127.62059886395207,39.06862685658602,0.0,1.0,13.46580476328906,15.879942491590347,0.0,Landing
2.2,-36.93132424845373,-966.4695187350816,179.72154136119357,-0.08650273716993885,5.05094324923486,127.41901083411676,38.20149075171972,0.0,1.0,13.46580476328906,15.879942491590347,0.0,Landing
2.3000000000000003,-38.52878943808643,-965.0670807811593,180.4548824984742,-0.3590571471435252,4.656849799783356,127.5681395980879,38.95642729443793,0.0,1.0,13.46580476328906,15.879942491590347,0.0,Landing
2.4000000000000004,-40.192407731225494,-969.936104277147,181.40686039912754,0.013818488770134127,5.037301166801355,127.68540063059498,38.26621391642584,0.0,1.0,13.46580476328906,15.879942491590347,0.0,Landing
2.5,-41.78100476983946,-962.2006492803066,179.8502736608994,0.33443942351046235,4.7695707507908,127.71582016280314,38.50079403331932,0.0,1.0,13.46580476328906,15.879942491590347,0.0,Landing
2.6,-43.33979268448796,-937.1383510521567,179.12939348824406,0.04936303896959736,4.914018707488399,127.4721813079509,38.53009124122731,0.0,1.0,13.46580476328906,15.879942491590347,0.0,Landing
2.7,-44.87809948648628,-949.9573276350872,181.1790835873956,0.11744784022020319,4.924714803742975,127.60998778120944,38.313219273136994,0.0,1.0,13.46580476328906,15.879942491590347,0.0,Landing
2.8000000000000003,-46.5307914080149,-953.5520952835499,180.26596159646854,-0.03584070660908786,4.916466903254859,127.62482782122333,38.79005505384885,0.0,1.0,13.46580476328906,15.879942491590347,0.0,Landing
2.9000000000000004,-48.10755316090571,-975.3199609563068,179.81156552096704,0.10937091265325732,5.038276410320043,127.36425916443847,38.29303892640624,0.0,1.0,13.46580476328906,15.879942491590347,0.0,Landing
3.0,-49.75469929126781,-972.9335949595267,179.7601741888753,0.259507399164642,4.928325529345924,127.46319384695664,38.819912761647906,0.0,1.0,13.46580476328906,15.879942491590347,0.0,Landing
3.1,-51.39545938281253,-972.545279923429,178.81826103266874,0.09704369580082695,4.702613627083051,127.75200396824403,38.922035967384936,0.0,1.0,13.46580476328906,15.879942491590347,0.0,Landing
3.2,-52.970279560522854,-979.5986494117657,179.77811792757583,-0.3047178537264712,4.621923590086301,127.52317344626329,39.31312253517383,0.0,1.0,13.46580476328906,15.879942491590347,0.0,Landing
3.3000000000000003,-54.65269253832664,-974.5256201549652,178.30126014031663,0.11000537431188429,5.039136466684276,127.5431907188206,38.3899628386966,0.0,1.0,13.46580476328906,15.879942491590347,0.0,Landing
3.4000000000000004,-56.26808748358736,-966.6613899995995,178.6743568879088,-0.05884288029396394,5.023840323543543,127.67636420018653,38.92272305951725,0.0,1.0,13.46580476328906,15.879942491590347,0.0,Landing
3.5,-57.80358651052085,-942.0356604256013,181.3892978073865,-0.16623095389434372,4.7839090496339844,127.36195223401228,38.99097864761279,0.0,1.0,13.46580476328906,15.879942491590347,0.0,Landing
3.6,-59.36287084045465,-926.9955844255875,179.58576105485457,0.40711637989626753,5.035385667505453,127.67362805967656,38.623247633372145,0.0,1.0,13.46580476328906,15.879942491590347,0.0,Landing
3.7,-60.903065405715296,-946.4370677931811,179.57309721586896,-0.16459510437982755,4.699524997954662,127.19161789269663,38.10215003937239,0.0,1.0,13.46580476328906,15.879942491590347,0.0,Landing
3.8000000000000003,-62.53577184948676,-955.8709594387011,179.61155098867752,-0.12400592228510877,4.928060097651708,127.40239554671234,39.17400172978297,0.0,1.0,13.46580476328906,15.879942491590347,0.0,Landing
3.9000000000000004,-64.14222563764815,-967.2763415006501,177.86360957288434,-0.10254015485855142,4.939848003555269,127.64438332290433,38.98506463068457,0.0,1.0,13.46580476328906,15.879942491590347,0.0,Landing
4.0,-65.73944711321855,-973.3687576844787,179.88006849651458,-0.4159086303125022,4.9908578251920295,127.67561388198612,38.48617071163057,0.0,1.0,13.46580476328906,15.879942491590347,0.0,Landing
4.1000000000000005,-67.40261563790915,-965.6540178853475,178.58271599004684,-0.2844906706051652,4.943315604472279,127.59878989173967,38.24820473397586,0.0,1.0,13.46580476328906,15.879942491590347,0.0,Landing
4.2,-68.97049572707489,-978.2233049328283,179.6687031398269,0.049943276847505436,4.963105951521142,127.49092087773289,39.060724163991594,0.0,1.0,13.46580476328906,15.879942491590347,0.0,Landing
4.3,-70.63056363788269,-961.3196750520557,180.41172219269993,-0.30887158606474685,4.745432782564591,127.49906597078098,39.07286417959719,0.0,1.0,13.46580476328906,15.879942491590347,0.0,Landing
4.4,-72.20921401316943,-957.1650455054565,179.84854238412927,-0.01006033274811434,4.86488088199687,127.42230320995327,38.576344002446376,0.0,1.0,13.46580476328906,15.879942491590347,0.0,Landing
4.5,-73.75632095460217,-941.3335344297537,180.2875747270927,-0.17962115688902508,5.107998020126471,127.43735737642135,39.1570926572454,0.0,1.0,13.46580476328906,15.879942491590347,0.0,Landing
4.6000000000000005,-75.33723131003146,-938.310798679339,178.97400590543478,0.11016593863290153,5.195966072809849,127.34749484552174,38.37044693024984,0.0,1.0,13.46580476328906,15.879942491590347,0.0,Landing
4.7,-76.90076800656612,-968.1715590790476,178.3868485381568,0.06721601677676256,5.050490822391405,127.32521176545822,38.78688487671955,0.0,1.0,13.46580476328906,15.879942491590347,0.0,Landing
4.800000000000001,-78.59717874999741,-971.044580506731,180.91411475108282,0.0273322713303331,5.294367958591049,127.19563738499738,38.87996166555883,0.0,1.0,13.46580476328906,15.879942491590347,0.0,Landing
4.9,-80.19245421256511,-980.1370790436977,179.5094974991546,-0.10817458910224848,4.485577427138849,127.51496084032897,39.19699056774428,0.0,1.0,13.46580476328906,15.879942491590347,0.0,Landing
5.0,-81.80145340178461,-966.9734734552179,178.80393240450238,-0.22078871321813082,5.064114325869666,127.58920836114214,38.64163849661567,0.0,1.0,13.46580476328906,15.879942491590347,0.0,Landing
5.1000000000000005,-83.4320461172735,-961.6728912352273,180.1564383670537,0.2423547324683331,4.919498538611064,127.40861217292331,38.18799209382605,0.0,1.0,13.46580476328906,15.879942491590347,0.0,Landing
5.2,-85.00081866874125,-956.1307472942076,178.50793647141202,0.09258540243098423,4.7054443863257225,127.73254223022252,38.938719461103084,0.0,1.0,13.46580476328906,15.879942491590347,0.0,Landing
5.300000000000001,-86.58210713825565,-945.0246934085186,178.16898533262543,-0.23599776355732682,4.865993651759083,127.7177106682667,39.02992427737183,0.0,1.0,13.46580476328906,15.879942491590347,0.0,Landing
5.4,-88.1571695843161,-956.8683458035906,180.10344224121795,-0.1493855569818031,4.853344707420449,127.45754216492242,38.63123003870171,0.0,1.0,13.46580476328906,15.879942491590347,0.0,Landing
5.5,-89.7851603977592,-949.1029374506894,178.0743325906325,-0.14694070861584282,4.660124336583137,127.66035339237175,39.1236280166755,0.0,1.0,13.46580476328906,15.879942491590347,0.0,Landing
5.6000000000000005,-91.3276218255091,-945.0679288618602,180.4328707909549,0.032419345790259096,4.926881381258193,127.43892035207068,38.51952456252726,0.0,1.0,13.46580476328906,15.879942491590347,0.0,Landing
5.7,-92.8825092286254,-947.1029656094543,180.07806077836992,-0.15440495545037006,4.886450577768343,127.495917240062,38.304398503510534,0.0,1.0,13.46580476328906,15.879942491590347,0.0,Landing
5.800000000000001,-94.52067522580647,-976.9883850645357,180.11220204958434,-0.08245490625458977,4.819942888656029,127.38366726077135,38.251688907128205,0.0,1.0,13.46580476328906,15.879942491590347,0.0,Landing
5.9,-96.21256375083178,-992.321936065443,179.6076626440228,0.06948684101186473,4.712281962357035,127.3424948624642,39.18627990755142,0.0,1.0,13.46580476328906,15.879942491590347,0.0,Landing
6.0,-97.84411890895261,-982.1567063851404,181.52564947004686,-0.16976898337089236,5.099448182164691,127.2886179130245,38.591131403994886,0.0,1.0,13.46580476328906,15.879942491590347,0.0,Landing
6.1000000000000005,-99.43145875773217,-965.9735896281063,179.98303423508776,0.12414783439827176,4.755423348575418,127.47206263708529,38.61185313706128,0.0,1.0,13.46580476328906,15.879942491590347,0.0,Landing
6.2,-101.04243169897231,-953.531082024233,179.459735184685,-0.4189835974123726,5.190706601423147,127.53281019141986,38.37506106683433,0.0,1.0,13.46580476328906,15.879942491590347,0.0,Landing
6.300000000000001,-102.61177431907377,-963.2403281070707,179.78767881516362,0.09972763478955468,5.167184883109712,127.55443422932603,38.839545317044525,0.0,1.0,13.46580476328906,15.879942491590347,0.0,Landing
6.4,-104.24766039826753,-959.3872422188724,179.750472511437,0.0952212030613808,4.86227109420365,127.71879073699472,38.54171100104077,0.0,1.0,13.46580476328906,15.879942491590347,0.0,Landing
6.5,-105.83936791006667,-965.7066259731749,181.50967718786376,0.14373784946906587,4.717139491375917,127.27217578926474,38.35229967915012,0.0,1.0,13.46580476328906,15.879942491590347,0.0,Landing
6.6000000000000005,-107.44030744893965,-952.5185753997363,179.54315208072052,-0.5424990967131346,5.0386111836213425,127.62827392843496,39.11069401249042,0.0,1.0,13.46580476328906,15.879942491590347,0.0,Landing
6.7,-109.01025327526621,-945.2208709023438,178.81665050773412,-0.4222100831966606,5.197279036098822,127.66028020740816,38.41943290514057,0.0,1.0,13.46580476328906,15.879942491590347,0.0,Landing
6.800000000000001,-110.56547226457839,-943.4297599607703,180.7063721227217,-0.2237932227461254,4.864518792610729,127.72966708168951,38.3516861115429,0.0,1.0,13.46580476328906,15.879942491590347,0.0,Landing
6.9,-112.1574562487435,-943.4845250469438,179.92588024966352,-0.4421764400568756,4.918822216169643,127.62119617213608,38.195010598345576,0.0,1.0,13.46580476328906,15.879942491590347,0.0,Landing
7.0,-113.72767590050093,-941.467945438157,179.14991289161384,-0.04165616198104499,4.972686343527644,127.50284501391587,38.53772910592979,0.0,1.0,13.46580476328906,15.879942491590347,0.0,Landing
7.1000000000000005,-115.27281199176917,-950.851305953796,180.29140767730414,-0.17147640734491287,4.8663546425979005,127.4728195050277,38.26442420797583,0.0,1.0,13.46580476328906,15.879942491590347,0.0,Landing
7.2,-116.91171277851248,-959.2241255304742,179.29192502262632,-0.5234113424765644,4.822757519250915,127.54457022478977,38.55085356969309,0.0,1.0,13.46580476328906,15.879942491590347,0.0,Landing
7.300000000000001,-118.5237965281533,-961.8610504970833,179.90449993181872,-0.30710953568417665,4.995571153833124,127.67738453587737,38.83507230270821,0.0,1.0,13.46580476328906,15.879942491590347,0.0,Landing
7.4,-120.08211724425459,-942.9831782759238,181.0931647824533,-0.4474561504728968,5.119219107666457,127.55609706340249,38.2321633925407,0.0,1.0,13.46580476328906,15.879942491590347,0.0,Landing
7.5,-121.6266286698921,-940.8707088679449,178.0859167579227,-0.12823921688663198,4.956978677959196,127.61995170532578,38.49490543969694,0.0,1.0,13.46580476328906,15.879942491590347,0.0,Landing
7.6000000000000005,-123.22815007249302,-961.4002515616731,179.27697380593358,-0.41679871672917373,5.0637309896024,127.55233182621362,38.93552096833526,0.0,1.0,13.46580476328906,15.879942491590347,0.0,Landing
7.7,-124.88911850206296,-966.4610783119828,180.65914957582797,-0.17287701314908746,4.809409234308056,127.45317440209345,38.437470783377655,0.0,1.0,13.46580476328906,15.879942491590347,0.0,Landing
7.800000000000001,-126.45893406145201,-969.1082423721326,179.26875153003897,0.10122297115364406,4.65492268523715,127.51834897926199,38.65641599653629,0.0,1.0,13.46580476328906,15.879942491590347,0.0,Landing
7.9,-128.07369128435369,-960.3104571513257,179.0417252636352,0.3218331225366027,4.8589955509049,127.43619123774727,38.423054904922104,0.0,1.0,13.46580476328906,15.879942491590347,0.0,Landing
8.0,-129.69067078781958,-953.5632005303597,180.50951768490864,-0.16156369299719664,5.122376227611994,127.48996735611036,38.72225160813463,0.0,1.0,13.46580476328906,15.879942491590347,0.0,Landing
8.1,-131.2267500641038,-965.0054520673734,181.3968109231591,-0.2218876245122479,4.8714847450405605,127.64139492710854,38.72293736089434,0.0,1.0,13.46580476328906,15.879942491590347,0.0,Landing
8.200000000000001,-132.89871854469055,-971.263520941261,179.93254241334404,-0.2973146093756285,4.948423997043315,127.28869446818635,38.752971064759414,0.0,1.0,13.46580476328906,15.879942491590347,0.0,Landing
8.3,-134.5469883925259,-985.0208166669518,178.93360409217203,0.19605138547869277,5.013720083782048,127.69126231220991,39.07567750165909,0.0,1.0,13.46580476328906,15.879942491590347,0.0,Landing
8.4,-136.15185414743857,-974.946698835612,178.74942732610396,0.13673622416660067,4.783084215768829,127.72509825333691,39.04679186580255,0.0,1.0,13.46580476328906,15.879942491590347,0.0,Landing
8.5,-137.7734520388686,-937.8226622977763,179.88612858989265,0.1755247083919897,4.443339714641313,127.43484831514257,38.93302665050634,0.0,1.0,13.46580476328906,15.879942491590347,0.0,Landing
8.6,-139.23610170401477,-931.9501223417716,180.45873610952148,0.4533793366800214,5.081101232790788,127.53152991736346,38.345597274581394,0.0,1.0,13.46580476328906,15.879942491590347,0.0,Landing
8.700000000000001,-140.81160475914743,-907.7724314191925,180.19485394422094,0.027517421990186766,5.093471889455669,127.64601123063414,38.98223644875279,0.0,1.0,13.46580476328906,15.879942491590347,0.0,Landing
8.8,-142.31231419596457,-949.9709809328748,180.0650698217734,-0.11974670464257892,4.8618773679221885,127.32291671781627,39.016196690681454,0.0,1.0,13.46580476328906,15.879942491590347,0.0,Landing
8.9,-143.98595660867915,-941.8355762696195,179.51606656285978,-0.09940121423334426,4.892231500248267,127.6443033031859,38.61012531515682,0.0,1.0,13.46580476328906,15.879942491590347,0.0,Landing
9.0,-145.52078264049553,-944.9358608453508,179.8998576197441,-0.06932229022130297,4.68393005398902,127.64808887120574,38.51005451075886,0.0,1.0,13.46580476328906,15.879942491590347,0.0,Landing
9.1,-147.03699350019133,-929.727915833263,180.5013077481928,-0.07651319702774645,4.895975733811714,127.6830271843528,38.63040159116217,0.0,1.0,13.46580476328906,15.879942491590347,0.0,Landing
9.200000000000001,-148.63459618784546,-933.503779099317,179.79088001715198,0.3457217322855237,5.036783875213796,127.60645160179729,38.668173586028615,0.0,1.0,13.46580476328906,15.879942491590347,0.0,Landing
9.3,-150.1883015359921,-957.0362975160378,179.85779471220425,0.28104700880841177,5.0503945896571105,127.43466768573506,38.48580774238026,0.0,1.0,13.46580476328906,15.879942491590347,0.0,Landing
9.4,-151.82217498777152,-965.7929427676605,180.15381981608812,0.06999494388139538,4.919856992740479,127.36990982658466,38.68716775558141,0.0,1.0,13.46580476328906,15.879942491590347,0.0,Landing
9.5,-153.46356090168376,-961.3631636797436,178.80314237761192,-0.03498294024628603,5.123838607934866,127.75013239462226,37.95901999573717,0.0,1.0,13.46580476328906,15.879942491590347,0.0,Landing
9.600000000000001,-154.99511735439083,-944.9260094483748,178.5627516127834,-0.10506063287278505,4.5928198749847535,127.66095622241306,38.81034354486972,0.0,1.0,13.46580476328906,15.879942491590347,0.0,Landing
9.700000000000001,-156.5468050350134,-930.1104454702967,181.58096992481055,0.16535962592870404,4.978353194401915,127.57606883019764,38.60566087265142,0.0,1.0,13.46580476328906,15.879942491590347,0.0,Landing
9.8,-158.11411312903525,-928.6577428836722,179.74813530134793,-0.18897837168589873,4.926261816927528,127.39921012696891,38.98087789095583,0.0,1.0,13.46580476328906,15.879942491590347,0.0,Landing
9.9,-159.6384060688092,-951.6805986631256,179.13010155341507,0.5114231815248415,4.971749509785573,127.57762507237999,38.95173733513709,0.0,1.0,13.46580476328906,15.879942491590347,0.0,Landing
10.0,-161.30520802832902,-957.6413543539671,179.11901125358315,0.07149354643912334,5.0910631041296455,127.50615010223731,38.25093881045913,0.0,1.0,13.46580476328906,15.879942491590347,0.0,Landing
10.100000000000001,-162.90231990080508,-974.42543527211,180.29490676214036,-0.3203161450026726,4.512291034442091,127.42908084148462,38.55663448947545,0.0,1.0,13.46580476328906,15.879942491590347,0.0,Landing
10.200000000000001,-164.51053324516974,-960.4970214484352,178.86942197770426,-0.3456110444374206,4.9739111177767885,127.37439413346402,38.29320101529757,0.0,1.0,13.46580476328906,15.879942491590347,0.0,Landing
10.3,-166.1076931355712,-963.4601617165744,178.77016330469704,-0.16256503146819723,4.905561076616781,127.78077471274582,38.658852421660534,0.0,1.0,13.46580476328906,15.879942491590347,0.0,Landing
10.4,-167.71962070938795,-952.7581869363758,179.9083822631995,-0.16821550948054986,4.889896163475245,127.47984306659237,38.15560013621776,0.0,1.0,13.46580476328906,15.879942491590347,0.0,Landing
10.5,-169.27432417985162,-962.9052381944178,178.54826665386557,-0.42904945394745886,5.215826980183197,127.60473964621337,38.65515909620525,0.0,1.0,13.46580476328906,15.879942491590347,0.0,Landing
10.600000000000001,-170.92221932654328,-968.5342986719093,181.34026309988022,-0.0967575694502633,5.059703946605989,127.0080691124046,39.06473340910977,0.0,1.0,13.46580476328906,15.879942491590347,0.0,Landing
10.700000000000001,-172.5622922027475,-981.6714731610715,180.0509386786066,-0.32982781386925425,4.7254825857558584,127.79242397592202,38.603648545854746,0.0,1.0,13.46580476328906,15.879942491590347,0.0,Landing
10.8,-174.18268154565698,-966.982874814471,179.56615111725955,-0.20930009043556005,4.999424353867457,127.34328966793117,38.83902760167295,0.0,1.0,13.46580476328906,15.879942491590347,0.0,Landing
10.9,-175.75713370061564,-942.2626098716364,179.27119645753532,-0.12044397615320693,4.953187905865977,127.75604202462682,38.93909915499246,0.0,1.0,13.46580476328906,15.879942491590347,0.0,Landing
11.0,-177.27360525210568,-953.1090526092726,180.71961456644829,-0.10045280090265703,4.8911208708196705,127.60691289382277,38.54093303381492,0.0,1.0,13.46580476328906,15.879942491590347,0.0,Landing
11.100000000000001,-178.94822680870334,-969.4808199829708,181.462771261042,0.072553109016771,5.018621433124117,127.34591354973566,38.24609155560464,0.0,1.0,13.46580476328906,15.879942491590347,0.0,Landing
11.200000000000001,-180.6045378005305,-970.0520141104903,180.54585540597927,-0.23774774640313429,4.711565641877384,127.64929105601243,38.85865249651744,0.0,1.0,13.46580476328906,15.879942491590347,0.0,Landing
11.3,-182.12386532265813,-935.9416979615844,179.7328901633476,-0.3346125017579581,4.9248553009940785,127.54178588329233,38.41206944695887,0.0,1.0,13.46580476328906,15.879942491590347,0.0,Landing
11.4,-183.62793529851126,-925.5044711424375,178.1764193677673,-0.14519161918002874,5.2271914713254075,127.37512941637402,38.69944192416536,0.0,1.0,13.46580476328906,15.879942491590347,0.0,Landing
11.5,-185.23206015624268,-945.4114861957634,179.3979371255476,-0.19503469636079251,4.946133140545099,127.46227967744011,38.4561488713065,0.0,1.0,13.46580476328906,15.879942491590347,0.0,Landing
11.600000000000001,-186.85092275363695,-957.558445715921,180.8225831250448,-0.07500128224704565,4.871960426467421,127.4701492204303,38.399338795378384,0.0,1.0,13.46580476328906,15.879942491590347,0.0,Landing
11.700000000000001,-188.41572752709087,-958.8167400160728,178.07525494629402,-0.01519000344954323,4.597165989470868,127.3688560825239,39.17466832224561,0.0,1.0,13.46580476328906,15.879942491590347,0.0,Landing
11.8,-190.02614385632305,-947.6509529691783,182.18870205839573,0.2027265776031904,4.479844807206297,127.5837701063216,37.984641388413145,0.0,1.0,13.46580476328906,15.879942491590347,0.0,Landing
11.9,-191.58917751848284,-941.3740069809079,179.74354372337305,-0.15376576355361293,4.267459745174088,127.41877459000335,39.25633700524568,0.0,1.0,13.46580476328906,15.879942491590347,0.0,Landing
12.0,-193.1225975619954,-935.8048068097105,180.67991883749906,-0.12631768211768676,4.998688679344399,127.58461794251906,38.4573286264816,0.0,1.0,13.46580476328906,15.879942491590347,0.0,Landing
12.100000000000001,-194.7051678903716,-951.8618038634655,179.8188970959749,-0.15933010597650385,4.742225479468941,127.58545918844345,38.61662346185745,0.0,1.0,13.46580476328906,15.879942491590347,0.0,Landing
12.200000000000001,-196.34848653780017,-946.1373346532355,179.5090925719606,0.02358084986611675,5.2402271083798535,127.60450202103158,38.867381840028024,0.0,1.0,13.46580476328906,15.879942491590347,0.0,Landing
12.3,-197.85328423526158,-934.7284990976219,178.0101014507962,-0.11021635480817954,4.596278664833256,127.70254819980437,39.08616539602316,0.0,1.0,13.46580476328906,15.879942491590347,0.0,Landing
12.4,-199.3788103858597,-920.7424557840113,179.88431103656055,-0.1424218250762699,4.858947957525118,127.74619657304174,38.651174985500575,0.0,1.0,13.46580476328906,15.879942491590347,0.0,Landing
12.5,-200.95219881672023,-937.5821926571575,181.28149053153865,-0.07989967541125234,4.936174018567172,127.59715915835625,38.296217806438186,0.0,1.0,13.46580476328906,15.879942491590347,0.0,Landing
12.600000000000001,-202.54119519854737,-955.0698097682642,179.4318286791266,0.03189555641031348,4.771394865354387,127.40819295264055,38.8320414775979,0.0,1.0,13.46580476328906,15.879942491590347,0.0,Landing
12.700000000000001,-204.15415943470103,-968.7148670498176,179.32961609254994,-0.07966855598454095,4.901810261569001,127.45457721310277,38.55539097401164,0.0,1.0,13.46580476328906,15.879942491590347,0.0,Landing
12.8,-205.7957731519693,-942.9848409444389,179.5643508065893,-0.19054862776273718,4.981731548214992,127.58816695802085,39.11460306810116,0.0,1.0,13.46580476328906,15.879942491590347,0.0,Landing
12.9,-207.25611940326957,-932.3211234048586,178.74872088506302,0.12357794306219683,4.836934019515783,127.30492115177856,38.28207187581307,0.0,1.0,13.46580476328906,15.879942491590347,0.0,Landing
13.0,-208.81576505172532,-932.1698244217429,179.4657256269891,-0.13853784108810457,5.23368978889573,127.60917264733183,38.74124778092589,0.0,1.0,13.46580476328906,15.879942491590347,0.0,Landing
13.100000000000001,-210.45662227407803,-946.700217432914,179.7367402877483,-0.011553911911735944,4.774281399942714,127.59842428531027,38.79495844177617,0.0,1.0,13.46580476328906,15.879942491590347,0.0,Landing
13.200000000000001,-211.98962049043413,-950.5648995475781,178.1748690763213,-0.20844945598632333,4.731388831151429,127.69445064249084,38.0756170470879,0.0,1.0,13.46580476328906,15.879942491590347,0.0,Landing
13.3,-213.5685895494632,-946.7866641898127,178.97812807158283,-0.1121343815476614,5.044754610910423,127.48642785322886,38.62600004714806,0.0,1.0,13.46580476328906,15.879942491590347,0.0,Landing
13.4,-215.1905555950271,-934.6591006255663,181.22299171813856,0.1271861306905118,4.8972944452205756,127.22320698242766,39.166827060327556,0.0,1.0,13.46580476328906,15.879942491590347,0.0,Landing
13.5,-216.66291599356197,-955.662951159627,180.16111453868032,-0.264961800837767,4.878726198659162,127.42094679074978,38.490114322989335,0.0,1.0,13.46580476328906,15.879942491590347,0.0,Landing
13.600000000000001,-218.34690430526135,-951.8386678060155,180.64963293793764,-0.19952409384883127,4.820307162426004,127.3756846140979,38.82097727809314,0.0,1.0,13.46580476328906,15.879942491590347,0.0,Landing
13.700000000000001,-219.94974893405717,-948.3228461890917,179.2608209048612,-0.29205264861259583,5.160298390358064,127.66681037573909,38.693865947244106,0.0,1.0,13.46580476328906,15.879942491590347,0.0,Landing
13.8,-221.40453022450743,-937.3326665947502,177.91714694135885,-0.04943081745913856,5.285630210121922,127.3476565740142,38.63677664782371,0.0,1.0,13.46580476328906,15.879942491590347,0.0,Landing
13.9,-223.0335676382351,-937.791649668327,178.15961006871348,0.07902519167161343,5.166265387907628,127.640147886281,38.50626751656902,0.0,1.0,13.46580476328906,15.879942491590347,0.0,Landing
14.0,-224.6387071823988,-962.1131235361362,179.63924109152498,0.20945071516588176,5.167399797205417,127.48960993542232,38.96056556589848,0.0,1.0,13.46580476328906,15.879942491590347,0.0,Landing
14.100000000000001,-226.2150958421881,-954.5547231359648,180.71893965932836,0.04950345792569853,4.872843529746812,127.4809531377744,39.18785481327812,0.0,1.0,13.46580476328906,15.879942491590347,0.0,Landing
14.200000000000001,-227.80634125391492,-944.7192128586721,179.93474120876854,0.3550244468167532,4.879240702903564,127.37808008250067,39.34137438623983,0.0,1.0,13.46580476328906,15.879942491590347,0.0,Landing
14.3,-229.36230324669216,-945.7672708759674,178.6052397592915,-0.2853485023603063,5.0279301044723725,127.59249775195053,38.81137996580924,0.0,1.0,13.46580476328906,15.879942491590347,0.0,Landing
14.4,-230.94393219656794,-941.5829006578861,180.77342373614897,-0.08830884457143129,4.6916877847626735,127.3447393085969,38.53534818342687,0.0,1.0,13.46580476328906,15.879942491590347,0.0,Landing
14.5,-232.51425575720435,-945.7103425432875,180.29483298547723,0.06839409753002137,4.53963162369379,127.18451255052082,39.04266895684092,0.0,1.0,13.46580476328906,15.879942491590347,0.0,Landing
14.600000000000001,-234.0908549594086,-949.2392627266781,180.12003726572073,0.16100906415231744,4.782255007440291,127.64113223143073,38.455735346710334,0.0,1.0,13.46580476328906,15.879942491590347,0.0,Landing
14.700000000000001,-235.69012851020133,-959.5614247056404,178.15165836538014,-0.3734605678571779,5.189300831664845,127.51619492350204,38.26713762618736,0.0,1.0,13.46580476328906,15.879942491590347,0.0,Landing
14.8,-237.31206288073255,-965.8451676476375,179.27302570158736,-0.0379135278709474,4.942357516512449,127.48067407225949,38.701116671931025,0.0,1.0,13.46580476328906,15.879942491590347,0.0,Landing
14.9,-238.9200807976468,-968.8498042162165,179.27872954627324,0.0813494408731773,4.682437892476968,127.75812637023404,38.50087487504289,0.0,1.0,13.46580476328906,15.879942491590347,0.0,Landing
15.0,-240.53437753128242,-969.3498940994004,178.45887288050284,0.1706350240867354,4.890190733053519,127.6579558163944,38.599688858186596,0.0,1.0,13.46580476328906,15.879942491590347,0.0,Landing
15.100000000000001,-242.15881235122956,-947.6949183946716,179.36111329644942,-0.16202061777020377,4.629599767408122,127.52922249171314,38.791705967464644,0.0,1.0,13.46580476328906,15.879942491590347,0.0,Landing
15.200000000000001,-243.65855538962015,-934.9347903287311,180.6291843156551,0.057666842276149904,5.048086164346346,127.77501997441988,39.184279256204,0.0,1.0,13.46580476328906,15.879942491590347,0.0,Landing
15.3,-245.20905148292607,-913.0635090336965,180.50495448964318,-0.18026007163157343,5.16051265825463,127.6053303393503,38.9328824981976,0.0,1.0,13.46580476328906,15.879942491590347,0.0,Landing
15.4,-246.72412989639804,-938.4207294234044,179.86102390856183,-0.026623633059656322,4.944504744793521,127.70869382309286,38.390544621028944,0.0,1.0,13.46580476328906,15.879942491590347,0.0,Landing
15.5,-248.35065903673717,-955.048960975671,179.88760584033795,-0.014454542590216411,5.081432565324721,127.3198509609133,38.986399104484036,0.0,1.0,13.46580476328906,15.879942491590347,0.0,Landing
15.600000000000001,-249.98429628780443,-964.4056112897715,179.58718800378756,0.0366419435529793,4.8145412026698695,127.67759810340863,39.01631261490828,0.0,1.0,13.46580476328906,15.879942491590347,0.0,Landing
15.700000000000001,-251.5461579528469,-951.1020329768257,180.900781679002,0.2048763120025789,5.016021924020233,127.505862847208,39.059146694206134,0.0,1.0,13.46580476328906,15.879942491590347,0.0,Landing
15.8,-253.1061692016213,-932.8065121591236,181.12817460037368,-0.43862430262156815,5.0618807543136635,127.61168421113473,38.8303495962706,0.0,1.0,13.46580476328906,15.879942491590347,0.0,Landing
15.9,-254.64832884860004,-935.266471383386,180.97202981860505,-0.16622632872333998,5.001220184963709,127.85966185650159,39.064858913797046,0.0,1.0,13.46580476328906,15.879942491590347,0.0,Landing
16.0,-256.2224903097638,-938.1680375527822,179.48539017672567,-0.29769263573723864,5.245790376468295,127.42150653951279,38.82024550425369,0.0,1.0,13.46580476328906,15.879942491590347,0.0,Landing
16.1,-257.7970093893852,-942.7141438366903,179.52070619025372,-0.11183705888410195,4.815549396716696,127.39055514777101,39.063950729756534,0.0,1.0,13.46580476328906,15.879942491590347,0.0,Landing
16.2,-259.3618995677835,-923.6345252987462,181.27790561842843,0.31880797914098935,4.744578109235839,127.50187463135171,38.311903434587684,0.0,1.0,13.46580476328906,15.879942491590347,0.0,Landing
16.3,-260.84066293625756,-911.2282769537501,179.17758710294044,0.12289882724810308,5.0004513728359195,127.41135137827786,38.88513517725839,0.0,1.0,13.46580476328906,15.879942491590347,0.0,Landing
16.400000000000002,-262.35315077415396,-908.857519828075,180.4113066274782,-0.2985737937134533,4.824147286623239,127.52817650329462,38.569951857518845,0.0,1.0,13.46580476328906,15.879942491590347,0.0,Landing
16.5,-263.90618716692387,-925.7041220300835,177.70178780818003,0.011067892077032015,5.002932387027845,127.49601487703114,39.034072987445185,0.0,1.0,13.46580476328906,15.879942491590347,0.0,Landing
16.6,-265.469183546408,-918.330773000946,179.61932250924892,-0.13111182857711573,5.110149265704931,127.70945017002703,38.64799637465261,0.0,1.0,13.46580476328906,15.879942491590347,0.0,Landing
16.7,-266.9448046391587,-921.3936332173603,178.74017243139312,-0.4246713944543552,5.339753099321676,127.62835206565046,38.501931967844605,0.0,1.0,13.46580476328906,15.879942491590347,0.0,Landing
16.8,-268.5131553330107,-918.251014834857,178.89049491057915,-0.2700079182982045,4.970651162155407,127.67050935012247,38.68662049664565,0.0,1.0,13.46580476328906,15.879942491590347,0.0,Landing
16.900000000000002,-270.06043862058226,-927.7445816278259,178.6673847245075,0.46471967951312676,4.79573515605767,127.5592651564304,38.380489431839855,0.0,1.0,13.46580476328906,15.879942491590347,0.0,Landing
17.0,-271.5835275472978,-927.9173226576063,179.51508003207852,-0.2034795698281839,5.055607994898769,127.46169996799972,39.17642649053989,0.0,1.0,13.46580476328906,15.879942491590347,0.0,Landing
17.1,-273.1527419462987,-939.9248312799841,179.92731679583946,0.2974440770599417,5.150540475333351,127.55985717411977,38.850617476753115,0.0,1.0,13.46580476328906,15.879942491590347,0.0,Landing
17.2,-274.7600627769822,-938.8117379777668,178.39689116895272,-0.2535755615040275,4.886510127962428,127.69863738127424,39.02399803947776,0.0,1.0,13.46580476328906,15.879942491590347,0.0,Landing
17.3,-276.27758623718665,-964.0437049767002,180.61993345272728,0.10111251310997005,4.765800516717104,127.55663787434992,38.33829589760729,0.0,1.0,13.46580476328906,15.879942491590347,0.0,Landing
17.400000000000002,-277.9729604711822,-945.1641701190056,179.6053570862318,-0.13815017541313934,4.991499036383771,127.53625687694733,39.0554139485502,0.0,1.0,13.46580476328906,15.879942491590347,0.0,Landing
17.5,-279.4858836275772,-966.3037445538293,178.30556749841037,-0.2700854895550468,4.926848142195556,127.6331989900454,38.66133995588458,0.0,1.0,13.46580476328906,15.879942491590347,0.0,Landing
17.6,-281.1091049599558,-943.1359986933671,179.70969824914724,0.09666292308313384,4.973411119580801,127.43605573851266,38.89800938101817,0.0,1.0,13.46580476328906,15.879942491590347,0.0,Landing
17.7,-282.68864046464904,-961.1657919955974,179.68160573242488,-0.26688470784917484,5.111299125818575,127.3934113619676,38.12727005405742,0.0,1.0,13.46580476328906,15.879942491590347,0.0,Landing
17.8,-284.2917125875552,-933.4449882888975,180.28965264866568,-0.0908654337979394,4.915542658035264,127.58527773258794,38.89877653120424,0.0,1.0,13.46580476328906,15.879942491590347,0.0,Landing
17.900000000000002,-285.7763299014003,-900.2752530082262,178.48712537424586,-0.06444699477025925,4.976349236009504,127.62656472034297,38.51764427668236,0.0,1.0,13.46580476328906,15.879942491590347,0.0,Landing
18.0,-287.19001672969017,-894.5411577484037,179.95645279960561,0.10867887233859547,4.7434327419024935,127.3578815690924,38.41525505207511,0.0,1.0,13.46580476328906,15.879942491590347,0.0,Landing
18.1,-288.7644183762972,-916.3607834251366,180.60890429266502,0.169646774258999,5.18057953708048,127.32026196045405,39.040909428407005,0.0,1.0,13.46580476328906,15.879942491590347,0.0,Landing
18.2,-290.35813381852597,-944.0124166438636,180.46506101312963,0.3576024367330374,5.070800927886311,127.59310876780421,38.805043446942754,0.0,1.0,13.46580476328906,15.879942491590347,0.0,Landing
18.3,-291.9100788129095,-934.5484713772748,180.9478358156059,-0.14986020870914207,4.771505157264104,127.45800290514887,39.22789838307152,0.0,1.0,13.46580476328906,15.879942491590347,0.0,Landing
18.400000000000002,-293.4371607331836,-921.7437161167027,180.10639770738854,0.05275766887098453,4.702738645188589,127.59896117411256,38.5805225282942,0.0,1.0,13.46580476328906,15.879942491590347,0.0,Landing
18.5,-294.9668523991095,-909.1341453577115,179.32916477126474,0.21474208711563614,5.083728242952617,127.53536969956264,38.53347753686599,0.0,1.0,13.46580476328906,15.879942491590347,0.0,Landing
18.6,-296.45574953969805,-910.6497260602055,181.0590816808507,0.22781245303903253,4.804185308314814,127.53102069522652,38.30604315162488,0.0,1.0,13.46580476328906,15.879942491590347,0.0,Landing
18.7,-297.9904093634846,-907.1466618111913,179.26007816684776,0.24261274976714897,4.699570829333595,127.54178243465816,39.009863449188614,0.0,1.0,13.46580476328906,15.879942491590347,0.0,Landing
18.8,-299.50258570816544,-901.8210854011727,179.52159000573934,-0.19348174390362516,5.0244295693563545,127.29810474564067,38.37822764657437,0.0,1.0,13.46580476328906,15.879942491590347,0.0,Landing
18.900000000000002,-300.9648549667039,-898.9800262790368,179.4613866782817,-0.22692378088544463,4.992287001512532,127.42788461752014,39.0763484294846,0.0,1.0,13.46580476328906,15.879942491590347,0.0,Landing
19.0,-302.4853094948798,-911.997592945113,180.90874385454975,-0.052828442664761555,4.812854861793886,127.582318428353,38.45173817969216,0.0,1.0,13.46580476328906,15.879942491590347,0.0,Landing
19.1,-304.062573672891,-928.6287340562694,178.39057806469654,0.07001337726098555,4.666687452643972,127.48478201482152,38.76101535646601,0.0,1.0,13.46580476328906,15.879942491590347,0.0,Landing
19.200000000000003,-305.60799863698526,-934.6907007122354,179.67398788016345,-0.14947431137790396,4.974560957998143,127.34562112839637,38.69795715463693,0.0,1.0,13.46580476328906,15.879942491590347,0.0,Landing
19.3,-307.158762998441,-927.5887276210369,179.54489072893952,0.019064359046436552,4.753661713593489,127.39216780047144,38.408316831645465,0.0,1.0,13.46580476328906,15.879942491590347,0.0,Landing
19.400000000000002,-308.7005173109962,-934.7742126470393,180.5108310950632,-0.19679037306953098,5.328238796458808,127.49483215122757,38.548828207579604,0.0,1.0,13.46580476328906,15.879942491590347,0.0,Landing
19.5,-310.28186970022045,-946.7077297863511,178.40916239538362,-0.0605616466035168,5.242970130835156,127.50678991841676,38.99461642617694,0.0,1.0,13.46580476328906,15.879942491590347,0.0,Landing
19.6,-311.89230164737273,-958.9667026557663,179.29503003750776,-0.015195856739089207,5.291165056373282,127.5540173091756,39.018692779300395,0.0,1.0,13.46580476328906,15.879942491590347,0.0,Landing
19.700000000000003,-313.495350824275,-963.9637656085711,179.42511372320448,-0.03976660529671005,4.869729792906097,127.4112600788626,38.77453653693835,0.0,1.0,13.46580476328906,15.879942491590347,0.0,Landing
19.8,-315.1016885282633,-959.5901018411496,179.96562867673552,-0.031786469148060055,4.852279196410995,127.67923850938871,38.569457445787975,0.0,1.0,13.46580476328906,15.879942491590347,0.0,Landing
19.900000000000002,-316.6902521565785,-961.2112823739494,179.40956572944506,7.416246977358376e-05,5.214030621257058,127.51845769819613,38.611626724659935,0.0,1.0,13.46580476328906,15.879942491590347,0.0,Landing
20.0,-318.30140723614477,-951.4050360569286,181.34604612913333,-0.5363065627198942,4.920433670089492,127.5937068800435,37.9125148458274,0.0,1.0,13.46580476328906,15.879942491590347,0.0,Landing
20.1,-319.85871370854795,-933.0125529399083,178.58947848775955,-0.26457533428578106,4.82721960099773,127.55877333729006,38.36652804855494,0.0,1.0,13.46580476328906,15.879942491590347,0.0,Landing
20.200000000000003,-321.355314921278,-909.9154388199054,178.5708103759319,0.4508419641892494,4.833564246283638,127.47814466815794,38.66805397849469,0.0,1.0,13.46580476328906,15.879942491590347,0.0,Landing
20.3,-322.8509844302443,-913.1073166785313,179.726210414407,-0.06164328816921502,5.191529964279961,127.38927802809701,38.79712756129386,0.0,1.0,13.46580476328906,15.879942491590347,0.0,Landing
20.400000000000002,-324.4242502919406,-930.3934677774123,180.49305980685716,0.09385554154476675,4.999347131409847,127.4752731827499,38.594101008212235,0.0,1.0,13.46580476328906,15.879942491590347,0.0,Landing
20.5,-326.0072822601651,-956.7706091353671,179.1615062943246,0.018983774221514288,4.984880805408098,127.36897216590893,38.84229473057847,0.0,1.0,13.46580476328906,15.879942491590347,0.0,Landing
20.6,-327.63483747592113,-942.5944688884897,180.73767517221037,0.244891973890634,4.7890165642030835,127.49943253896794,38.950129981579416,0.0,1.0,13.46580476328906,15.879942491590347,0.0,Landing
20.700000000000003,-329.13722263638306,-946.2959803867193,180.17452248430106,-0.3770233788714267,5.1553315040772905,127.32483172034449,38.96828469478981,0.0,1.0,13.46580476328906,15.879942491590347,0.0,Landing
20.8,-330.7387621620987,-953.1784767102636,179.41848199919244,-0.1393398849614948,5.301448855344133,127.25781534834596,38.724430342785375,0.0,1.0,13.46580476328906,15.879942491590347,0.0,Landing
20.900000000000002,-332.40072985947245,-951.3714765948293,180.31403312702673,-0.09757867225069261,4.954038169141503,127.74914110026549,38.25666932846465,0.0,1.0,13.46580476328906,15.879942491590347,0.0,Landing
21.0,-333.8940800193572,-948.871168209007,179.57030896288788,0.014164576900995832,5.220679339649817,127.58330027013108,38.98330248107568,0.0,1.0,13.46580476328906,15.879942491590347,0.0,Landing
21.1,-335.4831180031437,-917.8790719277004,179.71019409522094,-0.36802271349187576,4.808787473630386,127.34028242351724,38.380122730838536,0.0,1.0,13.46580476328906,15.879942491590347,0.0,Landing
21.200000000000003,-336.99012521911095,-923.5142550796922,179.92258023770066,-0.6564905400457064,4.75687861358752,127.51457138277755,38.41249133510433,0.0,1.0,13.46580476328906,15.879942491590347,0.0,Landing
21.3,-338.51165129475567,-912.7838670785763,178.55500230067926,-0.2110524498965096,4.831593301634485,127.62748765628953,38.14006651881829,0.0,1.0,13.46580476328906,15.879942491590347,0.0,Landing
21.400000000000002,-340.0470373385366,-920.5286130574677,179.36694380050082,-0.03945695917578888,5.2357591245596415,127.5805085803351,38.65291157097275,0.0,1.0,13.46580476328906,15.879942491590347,0.0,Landing
21.5,-341.5927682843983,-936.0154856760573,179.54081522919282,0.1400974347008228,4.872591603411282,127.72860331334704,38.59226012966919,0.0,1.0,13.46580476328906,15.879942491590347,0.0,Landing
21.6,-343.19172872313595,-941.534851696349,178.58228655872654,-0.31986972322679236,4.942873341056575,127.59250999655927,38.578560558113544,0.0,1.0,13.46580476328906,15.879942491590347,0.0,Landing
21.700000000000003,-344.75471159701834,-936.8405769882202,179.5197307460404,0.090976176649715,4.874351390398085,127.3705610567431,38.82294163373208,0.0,1.0,13.46580476328906,15.879942491590347,0.0,Landing
21.8,-346.2769711693394,-918.6577393273865,181.44075958599427,0.3902199807459056,4.834580413188382,127.93315304200348,38.37399477260329,0.0,1.0,13.46580476328906,15.879942491590347,0.0,Landing
21.900000000000002,-347.7850174197729,-891.3180735340916,180.16687621885848,-0.21628400160565628,4.886107028495324,127.82835056250661,38.63824457561275,0.0,1.0,13.46580476328906,15.879942491590347,0.0,Landing
22.0,-349.2113019646888,-919.1137426531441,180.85999007376208,-0.25358551398454865,5.139420307948663,127.81802945239826,38.62758182426683,0.0,1.0,13.46580476328906,15.879942491590347,0.0,Landing
22.1,-350.8725398826051,-920.5114835538438,181.19545222845719,0.2039011288440017,4.986177130009332,127.57304312213967,38.97040465739767,0.0,1.0,13.46580476328906,15.879942491590347,0.0,Landing
22.200000000000003,-352.3875748375421,-963.438411681409,178.72151527274823,-0.4063291131348724,5.490182988141099,127.48806134207905,38.92030052869139,0.0,1.0,13.46580476328906,15.879942491590347,0.0,Landing
22.3,-354.02849402309585,-925.6384344530375,179.6520779437955,-0.17020270884992741,4.822525774841424,127.26956011823307,38.86274167816424,0.0,1.0,13.46580476328906,15.879942491590347,0.0,Landing
22.400000000000002,-355.5007320548703,-939.0358498332034,179.5774810396758,0.3559562802646879,5.0619185773784485,127.32436357916913,39.194331156272156,0.0,1.0,13.46580476328906,15.879942491590347,0.0,Landing
22.5,-357.0827540867081,-925.1176716263558,181.37282422007,0.03937159712739374,4.795090134565666,127.78391941379647,38.96013845990237,0.0,1.0,13.46580476328906,15.879942491590347,0.0,Landing
22.6,-358.6540823812276,-956.2156025230706,178.78782106005417,0.09725828060504127,5.137246205642932,127.42917573115727,38.528842418705956,0.0,1.0,13.46580476328906,15.879942491590347,0.0,Landing
22.700000000000003,-360.28181006748565,-932.2864311026933,180.7371663766225,-0.5440055190959006,5.001691388432401,127.62932668121005,38.39824026568712,0.0,1.0,13.46580476328906,15.879942491590347,0.0,Landing
22.8,-361.7441862422216,-947.2839039889777,179.6451008496032,-0.011161154957882856,4.824490316074535,127.44600647519349,38.710294612705994,0.0,1.0,13.46580476328906,15.879942491590347,0.0,Landing
22.900000000000002,-363.3905019011725,-942.5381594498049,178.82058639703732,0.27669926638229486,5.000933735900192,127.42709004723463,38.539347243399504,0.0,1.0,13.46580476328906,15.879942491590347,0.0,Landing
23.0,-364.9945008647347,-948.7927224265832,179.09993406004008,-0.2009271736498463,5.124149083372362,127.48686403487608,38.196235046366674,0.0,1.0,13.46580476328906,15.879942491590347,0.0,Landing
23.1,-366.4881498543545,-932.2580302170763,180.02812299704598,-0.21036137509643824,4.876044051711071,127.37952146966728,38.82154706330829,0.0,1.0,13.46580476328906,15.879942491590347,0.0,Landing
23.200000000000003,-368.0517920522579,-924.2185409348963,179.12869901990828,-0.16328246502665195,5.027741880679036,127.51340132385684,38.55404865849191,0.0,1.0,13.46580476328906,15.879942491590347,0.0,Landing
23.3,-369.61559356940916,-940.5360058960582,179.75823920797254,0.16942661777346588,4.674839073861856,127.69507062221692,38.737642799602376,0.0,1.0,13.46580476328906,15.879942491590347,0.0,Landing
23.400000000000002,-371.1908298838348,-944.0438209788795,180.0385550960251,0.04941763668127622,4.930604169335152,127.30768338847884,38.54891644436572,0.0,1.0,13.46580476328906,15.879942491590347,0.0,Landing
23.5,-372.7720111571523,-950.1543688879451,177.9945149133586,-0.11813524703394185,4.617069271797385,127.50898539544585,38.555676553959735,0.0,1.0,13.46580476328906,15.879942491590347,0.0,Landing
23.6,-374.3663654138489,-946.4717246320902,177.95590824224564,-0.44351192390610394,4.826423140684154,127.63196567220302,38.77059425508173,0.0,1.0,13.46580476328906,15.879942491590347,0.0,Landing
23.700000000000003,-375.92318850699525,-958.9877761906109,179.72848865009144,0.13670883943837858,4.927887140986555,127.31817417289881,38.647393934214634,0.0,1.0,13.46580476328906,15.879942491590347,0.0,Landing
23.8,-377.56695003810535,-955.9609723852759,179.325546917001,-0.02560710532602297,4.818920958690197,127.47697694251542,39.25626563352,0.0,1.0,13.46580476328906,15.879942491590347,0.0,Landing
23.900000000000002,-379.14617027577526,-955.7846879839985,180.28844981645065,0.07577931386716516,5.065540109294267,127.62416550344284,38.71154596251483,0.0,1.0,13.46580476328906,15.879942491590347,0.0,Landing
24.0,-380.70211194691524,-919.9631285494206,178.57024645070155,-0.2648238354185462,4.889882957427542,127.20448708830583,39.036128431493246,0.0,1.0,13.46580476328906,15.879942491590347,0.0,Landing
24.1,-382.16676568085245,-925.7088707779303,179.24830257302793,-0.002785132560806064,4.953681774693979,127.6563137490657,38.6764922525799,0.0,1.0,13.46580476328906,15.879942491590347,0.0,Landing
24.200000000000003,-383.7747146296649,-918.2709958063128,181.36647810701572,0.012886027411455878,5.141125996078197,127.62880021783121,38.8454706201923,0.0,1.0,13.46580476328906,15.879942491590347,0.0,Landing
24.3,-385.2934669259468,-929.051207002567,179.03755189574986,0.31091389628270677,4.894520155045981,127.57016068304404,38.577796057184,0.0,1.0,13.46580476328906,15.879942491590347,0.0,Landing
24.400000000000002,-386.8120217158653,-928.5436668176089,179.19100106678476,-0.021937066154429426,5.046091000590511,127.31159638137524,38.90980874636725,0.0,1.0,13.46580476328906,15.879942491590347,0.0,Landing
24.5,-388.41743296375296,-930.9299146589183,178.9923096052223,-0.016139290554786932,4.459702930747333,127.62881762057566,38.91879288252882,0.0,1.0,13.46580476328906,15.879942491590347,0.0,Landing
24.6,-389.9481164992414,-933.6157746326421,180.9287134976457,-0.21977943837160305,5.125848497485579,127.50934989616331,38.70357116017997,0.0,1.0,13.46580476328906,15.879942491590347,0.0,Landing
24.700000000000003,-391.4801005890285,-932.5263912139235,179.37591409810918,0.20733225822296386,5.042826636344365,127.42879042681011,38.67300559299227,0.0,1.0,13.46580476328906,15.879942491590347,0.0,Landing
24.8,-393.0800649198226,-930.0959510905386,181.18053836648556,-0.38593845984767944,4.794852599620123,127.76455783919789,38.61180854589398,0.0,1.0,13.46580476328906,15.879942491590347,0.0,Landing
24.900000000000002,-394.5985962546941,-927.4715679087194,179.60483212105655,-0.0379579821444043,4.748044025964214,127.54612520615945,38.98179795819137,0.0,1.0,13.46580476328906,15.879942491590347,0.0,Landing
25.0,-396.1174584285721,-914.7922610562091,180.0057682305203,0.205631470039634,4.718599001908846,127.59050707903452,38.5949352637414,0.0,1.0,13.46580476328906,15.879942491590347,0.0,Landing
25.1,-397.6540262251036,-925.238528863224,180.70545090509214,0.1194171300775782,5.129550779967453,127.4977388119562,38.89082325318426,0.0,1.0,13.46580476328906,15.879942491590347,0.0,Landing
25.200000000000003,-399.2247888990102,-939.4957537770324,180.79076450797038,-0.10461606991206299,5.305739084699978,127.5946093318239,39.04033261545165,0.0,1.0,13.46580476328906,15.879942491590347,0.0,Landing
25.3,-400.81493719745725,-939.5800730164069,180.12665121512316,0.02464987539607781,5.246263721579087,127.70774484762,38.62063787059161,0.0,1.0,13.46580476328906,15.879942491590347,0.0,Landing
25.400000000000002,-402.35192659018566,-935.036963220341,178.4051586907907,0.22789663835980695,5.098832371608154,127.5873902963458,39.26258729105353,0.0,1.0,13.46580476328906,15.879942491590347,0.0,Landing
25.5,-403.8999737151119,-932.3752675469223,179.8312594224167,0.03103027658501052,4.968768385900939,127.58907830971981,39.00625314212412,0.0,1.0,13.46580476328906,15.879942491590347,0.0,Landing
25.6,-405.47681353519187,-934.8661838412113,179.8346292358213,-0.2093361943977862,5.141781290081709,127.47739141431566,38.54734930411246,0.0,1.0,13.46580476328906,15.879942491590347,0.0,Landing
25.700000000000003,-407.0262575093917,-923.4600470177952,180.60846872244912,0.2559181945200707,5.236099889983423,127.42017872392859,38.97706659185214,0.0,1.0,13.46580476328906,15.879942491590347,0.0,Landing
25.8,-408.5172739502009,-920.1783691272681,179.9799664120697,-0.04571529724969983,5.111278218960453,127.48848896632893,38.751962274284345,0.0,1.0,13.46580476328906,15.879942491590347,0.0,Landing
25.900000000000002,-410.0777053808282,-928.4836733814359,180.4067852981341,-0.18785739401995832,4.82146383567576,127.4801571014732,38.732352139750475,0.0,1.0,13.46580476328906,15.879942491590347,0.0,Landing
26.0,-411.6686758762989,-943.0354426504891,180.3803143179132,-0.24777844391528245,5.36167485117375,127.56109245096411,38.61014782688914,0.0,1.0,13.46580476328906,15.879942491590347,0.0,Landing
26.1,-413.23245116345333,-940.486659445105,179.46715003831056,0.06612618604561954,4.672944353615757,127.64931736309501,38.606663765890055,0.0,1.0,13.46580476328906,15.879942491590347,0.0,Landing
26.200000000000003,-414.78013867805373,-920.6514370027435,178.53935828691883,-0.39127885030195003,5.109527651639396,127.36477297491058,38.58752470546776,0.0,1.0,13.46580476328906,15.879942491590347,0.0,Landing
26.3,-416.2719330613126,-929.7712532655737,179.44590762427256,0.21651556715745107,5.091590886340036,127.83418195862288,38.42983815505849,0.0,1.0,13.46580476328906,15.879942491590347,0.0,Landing
26.400000000000002,-417.8813074297812,-918.381350953041,177.45655655785836,-0.4049515589019011,4.572339716608861,127.70160113991489,38.93996253481934,0.0,1.0,13.46580476328906,15.879942491590347,0.0,Landing
26.5,-419.37204543281894,-931.8754711756469,179.96395871098358,-0.04205546083189471,4.800574785731537,127.50436893610782,38.59647693114168,0.0,1.0,13.46580476328906,15.879942491590347,0.0,Landing
26.6,-420.93131041719084,-912.103641617341,178.28886951334562,-0.4631889114821395,5.115453467853336,127.70065085144205,38.7552097922671,0.0,1.0,13.46580476328906,15.879942491590347,0.0,Landing
26.700000000000003,-422.4418256378679,-914.5818942019332,180.5573862564659,0.20513231946873262,5.097391597121615,127.41459374024691,38.93534757211208,0.0,1.0,13.46580476328906,15.879942491590347,0.0,Landing
26.8,-423.9449549038286,-905.7070699763813,178.6507678646818,-0.00042152152980046154,4.631134768795189,127.82533684496809,38.939473081520006,0.0,1.0,13.46580476328906,15.879942491590347,0.0,Landing
26.900000000000002,-425.45984576707275,-920.3038086524771,179.71572449086912,-0.06427992854749194,4.93827709841697,127.47396669819761,38.62537404838092,0.0,1.0,13.46580476328906,15.879942491590347,0.0,Landing
27.0,-427.0433446811303,-913.6210252787691,180.6733127961602,-0.06451768844124324,4.653607763161841,127.31419610026433,38.66300705614665,0.0,1.0,13.46580476328906,15.879942491590347,0.0,Landing
27.1,-428.51306003022245,-909.2736608594009,179.14362545087104,0.27918940900251316,4.879551298574758,127.77642547597645,38.56626344916066,0.0,1.0,13.46580476328906,15.879942491590347,0.0,Landing
27.200000000000003,-430.00621407136975,-909.0764782961969,180.40887138341844,-0.21165232405685516,4.832111901075464,127.60959460006438,38.777189590991306,0.0,1.0,13.46580476328906,15.879942491590347,0.0,Landing
27.3,-431.5887270726113,-916.0196768859805,180.01052681724343,-0.5063971962026065,4.815367279799246,127.51307963781016,39.36260078021422,0.0,1.0,13.46580476328906,15.879942491590347,0.0,Landing
27.400000000000002,-433.09315841465235,-920.1263201111146,180.36242095013412,0.2758956715534143,4.99830210851544,127.31721664327341,39.19298009239251,0.0,1.0,13.46580476328906,15.879942491590347,0.0,Landing
27.5,-434.6068456719253,-920.2153094907089,179.0982947623231,0.03395571494876114,5.3025462312544045,127.41919231077338,39.00368023703047,0.0,1.0,13.46580476328906,15.879942491590347,0.0,Landing
27.6,-436.1898036200648,-931.7170847145348,179.85594576631385,-0.1721939767992289,4.993165147149141,127.42101920561163,38.679256536184305,0.0,1.0,13.46580476328906,15.879942491590347,0.0,Landing
27.700000000000003,-437.751743838225,-940.4615735400057,179.28116503578696,-0.053677134491830605,5.261702122358744,127.41809291947908,38.71704202174442,0.0,1.0,13.46580476328906,15.879942491590347,0.0,Landing
27.8,-439.30915353962536,-932.556666358164,179.71846995062975,-0.05657466900443005,5.221496448006876,127.58824146044685,38.5036391786674,0.0,1.0,13.46580476328906,15.879942491590347,0.0,Landing
27.900000000000002,-440.85258695185564,-920.7295296624693,178.7690657601702,-0.04377428410300571,5.0583666226984905,127.49976001135155,39.004450712845774,0.0,1.0,13.46580476328906,15.879942491590347,0.0,Landing
28.0,-442.35539148653737,-914.2985289246667,180.0181138085289,-0.18311728951407372,4.852504605146194,127.5063096741028,38.38924039110879,0.0,1.0,13.46580476328906,15.879942491590347,0.0,Landing
28.1,-443.8806461842487,-907.1339320767947,181.2782836445163,0.31010851541324436,4.841317142894224,127.59841896388053,38.911702098151835,0.0,1.0,13.46580476328906,15.879942491590347,0.0,Landing
28.200000000000003,-445.3882566122396,-910.8618057433318,180.72253642711576,0.1893048448360582,4.7217588646655155,127.69655559600005,38.62225045626979,0.0,1.0,13.46580476328906,15.879942491590347,0.0,Landing
28.3,-446.90970051525403,-921.3885988493303,180.9708776381082,-0.19657233521803197,4.910217320436156,127.25764351783198,39.210000099060004,0.0,1.0,13.46580476328906,15.879942491590347,0.0,Landing
28.400000000000002,-448.48758917849534,-914.2662066294065,179.71553260914055,-0.09977475040071328,5.117327794109805,127.5683246909079,39.390621358270884,0.0,1.0,13.46580476328906,15.879942491590347,0.0,Landing
28.5,-449.95958764538665,-920.9845514929043,177.81960362824447,0.08418634100910677,5.134927246670315,127.48885806404866,38.59809082934976,0.0,1.0,13.46580476328906,15.879942491590347,0.0,Landing
28.6,-451.51462327271855,-904.9402147573119,179.2139042890063,0.1498846711721077,5.087072341545902,127.43850565831622,38.75984534160511,0.0,1.0,13.46580476328906,15.879942491590347,0.0,Landing
28.700000000000003,-453.0122902522819,-926.1883529328543,178.71517338887574,0.10062783634938385,4.912994066661366,127.4357809143412,39.015117375956656,0.0,1.0,13.46580476328906,15.879942491590347,0.0,Landing
28.8,-454.5905294100509,-925.5506329004675,178.9350398953883,0.243043530255875,5.179123404165426,127.60244995840077,38.57645553050511,0.0,1.0,13.46580476328906,15.879942491590347,0.0,Landing
28.900000000000002,-456.1423764372209,-925.9436329519644,178.62289417082692,0.06064697574826114,4.7377050618868894,127.57155346232457,38.10653601700764,0.0,1.0,13.46580476328906,15.879942491590347,0.0,Landing
29.0,-457.6420084170417,-921.2060055167171,179.89145843757427,-0.007126859460654361,4.734340042415078,127.60282276492262,38.31053067423655,0.0,1.0,13.46580476328906,15.879942491590347,0.0,Landing
29.1,-459.1965594376345,-922.4689690058199,180.65012671038144,0.07114857578758038,4.859799590128455,127.51559808494369,39.19127896297522,0.0,1.0,13.46580476328906,15.879942491590347,0.0,Landing
29.200000000000003,-460.75472128225,-919.5862426648318,179.22610535973723,-0.16575487473636985,4.987707602518664,127.68205125670806,38.72817588989282,0.0,1.0,13.46580476328906,15.879942491590347,0.0,Landing
29.3,-462.2399396303659,-929.7866029771058,179.70854396396655,-0.02423288826092604,5.110779179687318,127.81661644705724,39.18638231622941,0.0,1.0,13.46580476328906,15.879942491590347,0.0,Landing
29.400000000000002,-463.84549245252003,-916.3635944331872,179.6845614687082,0.025078368849029933,4.542336574672175,127.5796523352385,38.554316104555156,0.0,1.0,13.46580476328906,15.879942491590347,0.0,Landing
29.5,-465.3365392544159,-925.0663470226527,178.98159767900978,-0.33418616770285664,4.61122972647048,127.67185971455416,38.92237678748253,0.0,1.0,13.46580476328906,15.879942491590347,0.0,Landing
29.6,-466.86527136547915,-900.5614010170348,178.72763962095615,-0.10592086863880415,4.799319493672433,127.52731602177937,38.536299762560745,0.0,1.0,13.46580476328906,15.879942491590347,0.0,Landing
29.700000000000003,-468.3482994576052,-918.177230510446,181.05724837137063,-0.15853870298756031,4.732478978293593,127.68868387345674,38.205020372503576,0.0,1.0,13.46580476328906,15.879942491590347,0.0,Landing
29.8,-469.92742540696815,-923.2827718713907,180.08020166368937,0.0717613350285195,4.75513601143495,127.55154995219107,39.14005009847456,0.0,1.0,13.46580476328906,15.879942491590347,0.0,Landing
29.900000000000002,-471.4816852248361,-943.0921873292277,179.86454685153436,-0.14820122914265155,4.8128549662491755,127.95776072181877,38.47797949464082,0.0,1.0,13.46580476328906,15.879942491590347,0.0,Landing
