time_s,altitude_ft,vertical_speed_fpm,ias_kt,pitch_deg,roll_deg,heading_deg,throttle_pct,afterburner_on,gear_down,flaps_deg,speedbrake_pct,weight_on_wheels,label
0.0,-2.042411628380349,-620.1446364395566,164.01599164193516,3.9139670624102756,2.027409676256571,63.92828262251135,30.960516242808794,0.0,1.0,18.393347891345826,4.701907632213822,0.0,Landing
0.1,-4.109560416512204,-834.8253327346674,163.24047350131391,3.827564185529601,2.260837236011629,63.78096503274833,30.43540992538713,0.0,1.0,18.393347891345826,4.701907632213822,0.0,Landing
0.2,-6.216538292053686,-1264.6383945357884,162.22218355405107,4.06722137170168,2.099141211218044,63.953014354679794,30.66847667713606,0.0,1.0,18.393347891345826,4.701907632213822,0.0,Landing
0.30000000000000004,-8.365603601059291,-1277.0593090524217,164.46910933968653,3.302128006613869,2.2456012371088545,64.01153891227011,30.394299724874354,0.0,1.0,18.393347891345826,4.701907632213822,0.0,Landing
0.4,-10.494856961774312,-1282.765754864896,163.1816774635542,3.9790361220522876,1.9872469832160433,63.974575442213165,30.279385647836605,0.0,1.0,18.393347891345826,4.701907632213822,0.0,Landing
0.5,-12.630367066378167,-1290.9784733853323,163.80609503515646,3.4921980523503056,2.063121911770786,63.906576771336574,30.8617165205485,0.0,1.0,18.393347891345826,4.701907632213822,0.0,Landing
0.6000000000000001,-14.820495967985954,-1295.0082726834896,163.70181408060466,4.079901971610996,2.0833564347901485,63.88569165841011,30.18291622678899,0.0,1.0,18.393347891345826,4.701907632213822,0.0,Landing
0.7000000000000001,-16.96989832519176,-1290.9996618444402,163.90928939347222,3.7346578254578615,2.047392664911763,63.90340341202125,30.224346210960213,0.0,1.0,18.393347891345826,4.701907632213822,0.0,Landing
0.8,-19.085365375600368,-1262.8940995804169,162.67612083037298,3.8758091083768766,2.049786837801957,64.06675901295233,30.46381675370855,0.0,1.0,18.393347891345826,4.701907632213822,0.0,Landing
0.9,-21.134966465888038,-1242.508545013049,164.75013746802708,3.94848656470894,1.891106002711266,63.95454926342671,30.43354388090218,0.0,1.0,18.393347891345826,4.701907632213822,0.0,Landing
1.0,-23.182441050257005,-1218.1988458796775,160.52883679119927,3.8597482349420105,2.4918739025360543,63.76425714549276,30.856808092804858,0.0,1.0,18.393347891345826,4.701907632213822,0.0,Landing
1.1,-25.176359604998755,-1219.622403011261,163.2176887648798,4.291849821585012,2.07524465933396,63.79757938437882,30.679111354977035,0.0,1.0,18.393347891345826,4.701907632213822,0.0,Landing
1.2000000000000002,-27.233078480944343,-1247.1412946771338,162.47384947999382,3.5631529183270785,2.5690003821643748,63.81592558759087,30.790143909705442,0.0,1.0,18.393347891345826,4.701907632213822,0.0,Landing
1.3,-29.418147523642673,-1259.8208635305036,163.1639477886456,3.6985812990529086,2.2717326859823883,63.641865735953274,30.43404199338846,0.0,1.0,18.393347891345826,4.701907632213822,0.0,Landing
1.4000000000000001,-31.475463922651272,-1254.4964588757196,163.42396472678976,3.373940238682512,2.1630006163657276,63.81228969192489,30.23260033050939,0.0,1.0,18.393347891345826,4.701907632213822,0.0,Landing
1.5,-33.50556077532294,-1232.2048557917014,163.29160258696464,3.9137595968629943,2.2166658718587233,63.829929124827856,30.6736476454958,0.0,1.0,18.393347891345826,4.701907632213822,0.0,Landing
1.6,-35.57917180260118,-1230.6168123540772,163.24103176295534,3.7658909594838925,2.338587243056054,63.873080944530955,30.545034503587793,0.0,1.0,18.393347891345826,4.701907632213822,0.0,Landing
1.7000000000000002,-37.62854798442166,-1235.0657795751983,162.56994068996897,3.588241104186698,2.2695277711145843,64.26308501817266,30.911867425257423,0.0,1.0,18.393347891345826,4.701907632213822,0.0,Landing
1.8,-39.680889673198934,-1228.5567703212023,163.23825830961184,3.6373145407815133,1.7813640315954686,63.93572010138399,31.203899987285354,0.0,1.0,18.393347891345826,4.701907632213822,0.0,Landing
1.9000000000000001,-41.72195565420719,-1247.1357386632192,161.76270912077914,3.724488859633637,1.7628767493904398,64.09135309559792,30.44286589695185,0.0,1.0,18.393347891345826,4.701907632213822,0.0,Landing
2.0,-43.864226677737754,-1250.2395647454732,163.14519771886424,3.8558397479262267,2.1961037424054046,63.89265260720737,30.313815438237736,0.0,1.0,18.393347891345826,4.701907632213822,0.0,Landing
2.1,-45.9320874969263,-1261.863819071658,163.7541236962315,3.697741427006779,2.030184479809559,63.844405856832395,30.769878367433684,0.0,1.0,18.393347891345826,4.701907632213822,0.0,Landing
2.2,-48.03127474956548,-1225.5755043905156,162.9589194213432,3.8298173641202706,2.0631716932131976,64.14381951853602,30.24695768045764,0.0,1.0,18.393347891345826,4.701907632213822,0.0,Landing
2.3000000000000003,-49.99210419969033,-1233.7914881975805,161.68396013555423,3.711393408740416,2.0831193308089087,63.94815531363429,30.375783874048206,0.0,1.0,18.393347891345826,4.701907632213822,0.0,Landing
2.4000000000000004,-52.1010449379142,-1233.4318954701746,164.04065260473072,4.076762120162608,1.9419617072000663,63.745907261154684,30.69870948478197,0.0,1.0,18.393347891345826,4.701907632213822,0.0,Landing
2.5,-54.198434226916355,-1264.5309542794591,162.34181176663463,3.7140133384104135,2.0397349067362107,63.781630634037015,30.317889630511488,0.0,1.0,18.393347891345826,4.701907632213822,0.0,Landing
2.6,-56.31475897108763,-1246.532419111182,162.93621506284228,4.062256638392506,2.032187918974719,64.17180355945675,30.600957903404474,0.0,1.0,18.393347891345826,4.701907632213822,0.0,Landing
2.7,-58.33370703347011,-1226.984970412532,163.78381880336067,3.6258926060828562,1.9243663241690496,64.12871927126093,30.545637116125935,0.0,1.0,18.393347891345826,4.701907632213822,0.0,Landing
2.8000000000000003,-60.333359078979015,-1227.9794009696404,162.579257095468,4.035845822856565,2.3802868633877114,63.96518496234171,30.30465627017907,0.0,1.0,18.393347891345826,4.701907632213822,0.0,Landing
2.9000000000000004,-62.45465597593583,-1254.1159120510385,160.6016866224763,4.053822453475123,1.9562610349234355,63.91391523885363,30.273460598061156,0.0,1.0,18.393347891345826,4.701907632213822,0.0,Landing
3.0,-64.6042865937253,-1268.0374640422913,163.8449989061728,3.6488208027718674,2.0116398295573066,64.32950580863161,30.65684723800708,0.0,1.0,18.393347891345826,4.701907632213822,0.0,Landing
3.1,-66.67354639919047,-1234.1603240920206,161.7651200894574,3.9259466826521328,2.1344178957480064,63.595049481148635,30.53298139600038,0.0,1.0,18.393347891345826,4.701907632213822,0.0,Landing
3.2,-68.62545759639593,-1207.0434471480783,163.10119311386134,3.6633882418118437,2.0869070160046452,64.01500422902211,30.607682339073094,0.0,1.0,18.393347891345826,4.701907632213822,0.0,Landing
3.3000000000000003,-70.6395038294657,-1201.7456187314651,162.93440045886626,3.723920421050758,2.396978810370069,63.58500648543975,30.013279713367986,0.0,1.0,18.393347891345826,4.701907632213822,0.0,Landing
3.4000000000000004,-72.6822744928478,-1232.501851681357,162.94985243829873,3.846802046249369,1.9046425296664424,63.8608259270128,30.325255119413505,0.0,1.0,18.393347891345826,4.701907632213822,0.0,Landing
3.5,-74.78796685480272,-1244.0532746277086,162.977171025661,4.139748872253065,1.8229298978678614,63.68791603628739,30.13033082260467,0.0,1.0,18.393347891345826,4.701907632213822,0.0,Landing
3.6,-76.85977020260424,-1246.3929288602571,163.8320718975286,3.7158946062609752,2.1836576536220194,63.948651516337065,30.59393414476839,0.0,1.0,18.393347891345826,4.701907632213822,0.0,Landing
3.7,-78.91423913714908,-1227.3999886659767,162.4698331081469,3.7542673543330767,1.559716693110747,63.8426402826513,30.46280080370806,0.0,1.0,18.393347891345826,4.701907632213822,0.0,Landing
3.8000000000000003,-80.9249667981326,-1218.1578681927333,163.0185335276418,3.741110232238151,1.967123385944524,63.765969417604026,30.281812193004182,0.0,1.0,18.393347891345826,4.701907632213822,0.0,Landing
3.9000000000000004,-82.9505595435679,-1210.9537333940978,162.58773316049962,3.801251026642844,1.896084284961893,63.778271528726634,30.08133987759674,0.0,1.0,18.393347891345826,4.701907632213822,0.0,Landing
4.0,-84.96900780411957,-1211.171989609008,163.3738068765308,4.037669852201097,2.0666721651809667,63.81215011826828,30.86569410495677,0.0,1.0,18.393347891345826,4.701907632213822,0.0,Landing
4.1000000000000005,-86.98082674617764,-1201.2971175842551,163.3431381645803,3.89596688145609,2.2345760853301977,63.89162158520503,30.612132581159457,0.0,1.0,18.393347891345826,4.701907632213822,0.0,Landing
4.2,-88.95704513148918,-1222.0174636768322,162.45826601342605,3.9931424518057366,2.0792800357996555,63.89868071605662,30.478974284183078,0.0,1.0,18.393347891345826,4.701907632213822,0.0,Landing
4.3,-91.07909512250373,-1221.0068236263025,162.96975477791122,3.598198027936579,2.306514675144783,63.64308240517636,30.110407349906335,0.0,1.0,18.393347891345826,4.701907632213822,0.0,Landing
4.4,-93.08586086430915,-1246.6995293199204,164.6584737295533,3.771993574953212,1.9209540904950444,63.66327692007974,30.915037883678632,0.0,1.0,18.393347891345826,4.701907632213822,0.0,Landing
4.5,-95.19054277808878,-1233.07771544751,162.07931852342088,3.7078296550260674,2.326014229828738,63.74997452986463,30.822383686550555,0.0,1.0,18.393347891345826,4.701907632213822,0.0,Landing
4.6000000000000005,-97.24448369974128,-1252.3025443342901,162.83516045201523,3.7695890536448826,1.963042672541114,63.75904046075817,30.1235882031143,0.0,1.0,18.393347891345826,4.701907632213822,0.0,Landing
4.7,-99.3473735859806,-1254.3724675729095,163.71485103541247,3.9578533007045187,1.9966833125526882,64.12071829349838,30.53875549730349,0.0,1.0,18.393347891345826,4.701907632213822,0.0,Landing
4.800000000000001,-101.46240511595333,-1235.9193248424617,162.37078479433444,3.897965274278779,2.3666261187824422,64.07989209602488,30.7927723483144,0.0,1.0,18.393347891345826,4.701907632213822,0.0,Landing
4.9,-103.42408032395359,-1218.661960530281,162.94819705253855,3.8775006219996278,1.8190190774350903,63.995051784670636,30.19005254828121,0.0,1.0,18.393347891345826,4.701907632213822,0.0,Landing
5.0,-105.44068338863201,-1192.775067091273,163.37590128488523,3.9851272480846713,1.895995253304947,63.71189916079294,30.079887912635307,0.0,1.0,18.393347891345826,4.701907632213822,0.0,Landing
5.1000000000000005,-107.4262804514097,-1187.0815802440802,162.54639163009347,3.9786633760560886,2.2054316737684867,63.90226021667928,30.358634329546753,0.0,1.0,18.393347891345826,4.701907632213822,0.0,Landing
5.2,-109.35948822517399,-1174.6525100510469,161.31659124025845,4.0347002074772185,2.1920388499288626,63.64101547502992,30.793814130504163,0.0,1.0,18.393347891345826,4.701907632213822,0.0,Landing
5.300000000000001,-111.31394593888724,-1168.38260501668,159.77630832381985,3.4342655639182027,2.3444475472780724,64.23039501313747,30.472015494961312,0.0,1.0,18.393347891345826,4.701907632213822,0.0,Landing
5.4,-113.2681934764931,-1173.3241859193072,163.2037048391401,4.365988018671713,2.0917239846238886,63.73939672271803,30.68016766028418,0.0,1.0,18.393347891345826,4.701907632213822,0.0,Landing
5.5,-115.22610915477053,-1183.7128799843356,163.66803918735837,4.192749099412886,2.1097502832589803,64.01073328129337,30.45736733855381,0.0,1.0,18.393347891345826,4.701907632213822,0.0,Landing
5.6000000000000005,-117.23251033880892,-1192.651494446659,161.93095841963984,3.8777890434731943,2.060234189067005,63.8759470573749,30.70061234363754,0.0,1.0,18.393347891345826,4.701907632213822,0.0,Landing
5.7,-119.23145094872639,-1207.5663040767722,163.1619656488507,3.888845860286451,2.2487292152008065,64.1586758335419,30.486571651372753,0.0,1.0,18.393347891345826,4.701907632213822,0.0,Landing
5.800000000000001,-121.26394067515439,-1210.716724598558,162.88596711193327,4.039891027518449,2.1228028542849224,63.80616208013657,30.41072705691972,0.0,1.0,18.393347891345826,4.701907632213822,0.0,Landing
5.9,-123.28609396180171,-1229.148987800042,161.9867563850491,3.787855198300403,2.184299873876517,63.88793592178388,30.101093169671863,0.0,1.0,18.393347891345826,4.701907632213822,0.0,Landing
6.0,-125.3771958877266,-1217.150825947084,162.6399323388123,3.493537531950421,2.486767925246295,63.84403264034438,30.588925601798653,0.0,1.0,18.393347891345826,4.701907632213822,0.0,Landing
6.1000000000000005,-127.34969480488981,-1195.5753546910132,162.8395527403746,3.7111982552103733,2.0333091587386547,63.85006366924597,30.787401005664197,0.0,1.0,18.393347891345826,4.701907632213822,0.0,Landing
6.2,-129.26397073525678,-1194.3157205425111,163.19873570147115,3.9693091229829256,2.2540673779028975,63.715565765765746,30.973192444731414,0.0,1.0,18.393347891345826,4.701907632213822,0.0,Landing
6.300000000000001,-131.34877449043915,-1199.2265189580366,164.17477037500686,3.9418569827228818,2.193474916814511,63.63540379489427,30.211917999247746,0.0,1.0,18.393347891345826,4.701907632213822,0.0,Landing
6.4,-133.34582739968,-1215.7055742606701,161.52945266275887,3.9108590135108874,2.1831989839926713,63.76674331254651,30.53320775693191,0.0,1.0,18.393347891345826,4.701907632213822,0.0,Landing
6.5,-135.34249860656013,-1174.2320700782445,161.41584713689267,3.8232773750793294,2.4769449247470097,64.20367447958989,30.207260445812643,0.0,1.0,18.393347891345826,4.701907632213822,0.0,Landing
6.6000000000000005,-137.21993484083038,-1174.3629480421703,162.33363566147892,3.7437369971152386,2.3860876644697737,63.78063649699908,30.950573827720408,0.0,1.0,18.393347891345826,4.701907632213822,0.0,Landing
6.7,-139.21764213989084,-1176.3417557755586,163.32315219225336,3.912791408084075,2.2464186783910876,63.945302679625684,30.470322700674384,0.0,1.0,18.393347891345826,4.701907632213822,0.0,Landing
6.800000000000001,-141.22420738543792,-1194.9494355916497,162.56880891626548,3.633311238213015,2.151962116043163,63.592425287886215,30.557477548231233,0.0,1.0,18.393347891345826,4.701907632213822,0.0,Landing
6.9,-143.19468201878863,-1184.9956655195456,161.16987608608287,3.9539147808032666,2.1457603747134675,63.805350955667336,30.33154218170745,0.0,1.0,18.393347891345826,4.701907632213822,0.0,Landing
7.0,-145.14262046748857,-1176.208759855649,163.69785515421984,3.9685465127126434,2.304815228579055,63.939577108649814,30.77399692610068,0.0,1.0,18.393347891345826,4.701907632213822,0.0,Landing
7.1000000000000005,-147.10525118471617,-1173.2105342827597,161.40632460160637,4.0129896378066725,1.9935310828682513,64.06131807639025,30.27621310190203,0.0,1.0,18.393347891345826,4.701907632213822,0.0,Landing
7.2,-149.06073469020242,-1179.296176634051,162.95999612619363,3.844125028724245,2.135541470792747,63.534570230229804,30.52373806708945,0.0,1.0,18.393347891345826,4.701907632213822,0.0,Landing
7.300000000000001,-151.03910135065883,-1173.2716025247898,163.21460262883426,3.6915552290906315,1.6917711084326288,63.85280884359253,30.51162641106733,0.0,1.0,18.393347891345826,4.701907632213822,0.0,Landing
7.4,-152.97160919734011,-1182.5174790217145,161.75943713352171,3.7492440048039706,1.8616336514205944,64.02734056409906,30.757484280692697,0.0,1.0,18.393347891345826,4.701907632213822,0.0,Landing
7.5,-154.973322085311,-1201.5793403757414,160.90684680352703,4.251420480243306,1.932763080308058,63.606892071201855,30.490790676631985,0.0,1.0,18.393347891345826,4.701907632213822,0.0,Landing
7.6000000000000005,-157.04699805253753,-1210.8956641171062,162.94373436154302,4.0268820881407095,2.101527038829815,63.79276939024959,30.589737746867797,0.0,1.0,18.393347891345826,4.701907632213822,0.0,Landing
7.7,-159.02608751792565,-1206.7936672350127,164.24565519185055,4.2544100457531515,2.1570159966328184,63.866003862085904,30.66070803975918,0.0,1.0,18.393347891345826,4.701907632213822,0.0,Landing
7.800000000000001,-161.00729042148606,-1180.5328985513654,162.7419138671934,3.6442622127413498,1.9468859301692967,64.24320433129446,30.285223337616543,0.0,1.0,18.393347891345826,4.701907632213822,0.0,Landing
7.9,-162.94966254529436,-1171.0320384934448,161.49124460731773,3.7689571422167485,1.9648371741449906,64.1376245938111,29.894018179333585,0.0,1.0,18.393347891345826,4.701907632213822,0.0,Landing
8.0,-164.88124771039287,-1156.3575384583316,162.9321994076094,3.9505807459200604,1.7831622352537813,63.90810191524923,30.027425586352383,0.0,1.0,18.393347891345826,4.701907632213822,0.0,Landing
8.1,-166.78907811377772,-1167.6578871553545,162.17282897424394,3.7631544759135442,2.389392048823551,63.73358361144187,30.00132454556612,0.0,1.0,18.393347891345826,4.701907632213822,0.0,Landing
8.200000000000001,-168.78795198107113,-1174.497274433418,164.39005076196787,3.6886564631704206,2.1977934877082994,63.954423754918366,30.82599656702337,0.0,1.0,18.393347891345826,4.701907632213822,0.0,Landing
8.3,-170.75373408255996,-1195.234157103016,163.81295384416185,4.059114908037781,2.1374566899543717,63.912175741751184,30.244348972972702,0.0,1.0,18.393347891345826,4.701907632213822,0.0,Landing
8.4,-172.7652488992928,-1187.6242002438232,162.7297331491771,3.9294073287707008,2.2451410656038906,63.90865410804116,29.98502769434271,0.0,1.0,18.393347891345826,4.701907632213822,0.0,Landing
8.5,-174.72607298229025,-1173.9621190076662,163.1909543428735,3.986454450943807,2.2421556045711477,63.84869584105775,30.660517457142884,0.0,1.0,18.393347891345826,4.701907632213822,0.0,Landing
8.6,-176.6235446775983,-1169.2440349110939,163.67732468253257,3.9076457571529435,2.287658736462825,64.0753838667938,30.826862572694086,0.0,1.0,18.393347891345826,4.701907632213822,0.0,Landing
8.700000000000001,-178.61146907384827,-1173.2683296862945,163.68036165873775,4.007861152819536,1.942458987735698,64.08959738782517,30.762673553618104,0.0,1.0,18.393347891345826,4.701907632213822,0.0,Landing
8.8,-180.59241463072172,-1201.1654513963038,162.79182607404667,4.133881334378783,1.9658569410755038,63.835851898316605,30.263737657017206,0.0,1.0,18.393347891345826,4.701907632213822,0.0,Landing
8.9,-182.6293719345798,-1197.3161971021739,162.4774126468501,3.8054748792612125,2.3448313954063695,63.88039133068554,31.130331635823804,0.0,1.0,18.393347891345826,4.701907632213822,0.0,Landing
9.0,-184.59805005935914,-1182.7112144867044,163.26080890714198,3.742096853411474,2.0772911046056475,63.87403303374805,30.484355731863428,0.0,1.0,18.393347891345826,4.701907632213822,0.0,Landing
9.1,-186.50597070315524,-1153.7121391537028,161.25761338939276,3.5038587595509756,2.0752685223296363,63.816292974552994,30.71289546207548,0.0,1.0,18.393347891345826,4.701907632213822,0.0,Landing
9.200000000000001,-188.39793263034832,-1143.6479978801,166.0901032983651,3.8892482424161,2.4146673062674133,63.861264592736404,30.3084292109795,0.0,1.0,18.393347891345826,4.701907632213822,0.0,Landing
9.3,-190.31629004875964,-1144.5770869055934,160.2704591266325,3.805793037979618,1.8940138668153303,64.1604710149877,30.18246171534955,0.0,1.0,18.393347891345826,4.701907632213822,0.0,Landing
9.4,-192.2288561376832,-1161.440533209634,160.48340658883572,4.038689239291694,2.301639397232887,63.76972469902012,30.568367429628356,0.0,1.0,18.393347891345826,4.701907632213822,0.0,Landing
9.5,-194.2051352963965,-1146.970337684138,164.440013718864,3.6064990292559806,2.239629043761381,64.1061331449182,30.633967089383244,0.0,1.0,18.393347891345826,4.701907632213822,0.0,Landing
9.600000000000001,-196.05114173718033,-1165.6212710303123,163.857665628694,3.8665758788737223,2.242604164917884,64.06985328814204,30.186769717633258,0.0,1.0,18.393347891345826,4.701907632213822,0.0,Landing
9.700000000000001,-198.05696249283477,-1158.7806619830587,163.10922719173618,3.9944317383652352,2.0972220534545345,63.75778820574345,30.0491929912443,0.0,1.0,18.393347891345826,4.701907632213822,0.0,Landing
9.8,-199.99903860631179,-1169.607561494655,162.27056860299686,3.7107962385799804,2.133350749680352,64.05183434789575,30.71366451099755,0.0,1.0,18.393347891345826,4.701907632213822,0.0,Landing
9.9,-201.8991795446536,-1145.2925488118979,162.89010236399494,3.8088189295597443,2.442602170290048,63.86530623624333,30.306561130451716,0.0,1.0,18.393347891345826,4.701907632213822,0.0,Landing
10.0,-203.78342523689426,-1132.3177776228079,162.1367545811532,3.5974294005392906,1.9523994591999663,64.01476226721326,30.42953850686878,0.0,1.0,18.393347891345826,4.701907632213822,0.0,Landing
10.100000000000001,-205.66062749442582,-1102.7367009474688,162.00649327748093,3.8073954172840865,2.2545655594350604,63.86601440115004,30.424149358480374,0.0,1.0,18.393347891345826,4.701907632213822,0.0,Landing
10.200000000000001,-207.41286304939095,-1107.3645051820165,162.86122723855456,3.6739023319320783,2.4561272630828106,63.93868600573376,30.164908111575524,0.0,1.0,18.393347891345826,4.701907632213822,0.0,Landing
10.3,-209.32024776280434,-1098.5468670187402,163.51308696360846,3.8565953393946306,2.239728146142129,64.10083120951333,30.38554279662054,0.0,1.0,18.393347891345826,4.701907632213822,0.0,Landing
10.4,-211.15336182951953,-1145.3383849897762,163.0555318261511,3.8141971316734207,1.81538836122256,63.62228378840359,30.464416909741264,0.0,1.0,18.393347891345826,4.701907632213822,0.0,Landing
10.5,-213.13955497433983,-1152.159133310505,162.5444646981108,3.845607407724776,2.3861624927540888,63.8008603646648,30.096364802767557,0.0,1.0,18.393347891345826,4.701907632213822,0.0,Landing
10.600000000000001,-215.08104342935687,-1167.450756625766,163.3536225279456,3.9285916721708665,1.9481508487266155,63.77187176273537,30.145158425253165,0.0,1.0,18.393347891345826,4.701907632213822,0.0,Landing
10.700000000000001,-216.99061561264836,-1145.1735086236965,163.07574707177102,3.696811903544441,1.7712112774742597,64.0232320351675,29.69538719220902,0.0,1.0,18.393347891345826,4.701907632213822,0.0,Landing
10.8,-218.8654225174583,-1146.0021429434619,163.47234370321425,3.5881333479332955,1.9354910960028735,63.77073191403554,31.42858195260868,0.0,1.0,18.393347891345826,4.701907632213822,0.0,Landing
10.9,-220.81105414407418,-1149.8095974386445,163.1729571910137,4.133407658280471,2.299823641841797,64.0489539191093,30.530916564234904,0.0,1.0,18.393347891345826,4.701907632213822,0.0,Landing
11.0,-222.73966359984158,-1143.5171526849217,163.29031416845396,3.6924513222617223,2.041878254900227,64.14470659962444,30.986265490218866,0.0,1.0,18.393347891345826,4.701907632213822,0.0,Landing
11.100000000000001,-224.58300828088292,-1126.1808027654354,162.19251938018326,4.146028158220897,1.8826783000019132,63.93873172014986,31.03685729935411,0.0,1.0,18.393347891345826,4.701907632213822,0.0,Landing
11.200000000000001,-226.44195815790135,-1130.4882907233548,162.87870811827804,4.044237153594184,2.0535581749781264,63.695343758437104,30.405592558124674,0.0,1.0,18.393347891345826,4.701907632213822,0.0,Landing
11.3,-228.39210505345835,-1134.0892850265618,163.321209500378,4.0418288887208025,2.1231790904847045,63.93306696261487,29.97674396802491,0.0,1.0,18.393347891345826,4.701907632213822,0.0,Landing
11.4,-230.25345470601573,-1136.1146562126407,161.9802692531997,3.7016382152437877,2.3120675953778207,63.94706850829107,30.992858116087717,0.0,1.0,18.393347891345826,4.701907632213822,0.0,Landing
11.5,-232.12253143896456,-1118.9408950644975,162.80472236798727,3.6950386810798115,1.9632843274635923,63.815818082907185,30.59621797862257,0.0,1.0,18.393347891345826,4.701907632213822,0.0,Landing
11.600000000000001,-233.98680952878084,-1126.9252036163493,161.6176354822491,3.4940115980055935,2.369494835845321,63.875006845418,30.551391383130614,0.0,1.0,18.393347891345826,4.701907632213822,0.0,Landing
11.700000000000001,-235.88808072409748,-1137.3738654434305,161.95033870221812,3.651793847715033,2.328924741315424,64.100723419031,30.385423951749946,0.0,1.0,18.393347891345826,4.701907632213822,0.0,Landing
11.8,-237.8094007661817,-1127.1076556376445,164.2374634291988,3.586960461536875,1.5633357815283841,63.94500448839432,30.3224507214334,0.0,1.0,18.393347891345826,4.701907632213822,0.0,Landing
11.9,-239.62234780696906,-1126.1846075800804,163.80510887463365,3.6887312405393162,2.0842137950148416,63.86460772275598,30.55181789601567,0.0,1.0,18.393347891345826,4.701907632213822,0.0,Landing
12.0,-241.51900376199788,-1118.7141754412153,162.11942232090138,3.8679974654645486,2.466526879377583,63.74928367768484,30.581756530791267,0.0,1.0,18.393347891345826,4.701907632213822,0.0,Landing
12.100000000000001,-243.4029716433878,-1143.4809605963776,160.61397743929362,4.077072680865462,2.105084971937462,63.908531901289734,30.251943866630636,0.0,1.0,18.393347891345826,4.701907632213822,0.0,Landing
12.200000000000001,-245.33975260995095,-1150.2122226685117,162.71342500039117,3.915871528069719,2.022318752909715,63.82614288752774,30.35536179378175,0.0,1.0,18.393347891345826,4.701907632213822,0.0,Landing
12.3,-247.27006487534044,-1149.4214112243071,161.47551755362625,3.7423932680447654,2.124728024163728,63.97838453003277,30.371523626318634,0.0,1.0,18.393347891345826,4.701907632213822,0.0,Landing
12.4,-249.15007869950932,-1130.5730720311885,162.0758854273379,3.9182556944583555,2.125408715295013,64.10755666135918,30.25026611030885,0.0,1.0,18.393347891345826,4.701907632213822,0.0,Landing
12.5,-250.9926179701069,-1105.6497960224417,163.68956556244015,3.754594401200495,2.1688157538131194,63.91824650853016,30.598967585057785,0.0,1.0,18.393347891345826,4.701907632213822,0.0,Landing
12.600000000000001,-252.79831385545265,-1110.6454820580836,161.12994867821038,3.9209773518906093,2.0616764443399154,64.05172509986778,30.998787806117686,0.0,1.0,18.393347891345826,4.701907632213822,0.0,Landing
12.700000000000001,-254.70330610979974,-1124.7847628750606,161.8317739771089,3.438329957222449,2.442361148363549,63.8493816708617,30.659029005636725,0.0,1.0,18.393347891345826,4.701907632213822,0.0,Landing
12.8,-256.6165417844822,-1140.1511120310827,162.7916905892486,4.149257392458886,2.330023454198267,63.75227066913044,30.42242914009619,0.0,1.0,18.393347891345826,4.701907632213822,0.0,Landing
12.9,-258.49906941560806,-1131.6322175742073,162.91227600188265,4.0725291154583925,2.199354434258908,63.761246494015154,30.85714166246161,0.0,1.0,18.393347891345826,4.701907632213822,0.0,Landing
13.0,-260.3614671976708,-1137.8836302718582,162.97234650341113,3.862422810245228,2.467840018912105,63.738245567579725,30.30681711790413,0.0,1.0,18.393347891345826,4.701907632213822,0.0,Landing
13.100000000000001,-262.3059599358415,-1145.1462052509441,161.30717988085556,3.775559192250555,1.8753330664678158,64.07572341112677,29.968684063114917,0.0,1.0,18.393347891345826,4.701907632213822,0.0,Landing
13.200000000000001,-264.2248004418628,-1160.1553023397512,161.74995739206534,3.7073346670082867,2.0186332665796733,63.91334623975058,30.445639930392392,0.0,1.0,18.393347891345826,4.701907632213822,0.0,Landing
13.3,-266.16224370936953,-1138.9311790983018,164.3467355427969,3.5867097160085244,1.981091351134464,63.69767964957839,30.3449267317607,0.0,1.0,18.393347891345826,4.701907632213822,0.0,Landing
13.4,-268.000615831333,-1113.6461909203945,162.81544266923234,4.0230978980047265,2.2663579437796306,63.82191039801285,31.100595855443885,0.0,1.0,18.393347891345826,4.701907632213822,0.0,Landing
13.5,-269.79303139646476,-1099.8669151861804,161.7727329240299,4.055376047909669,1.92264710648345,63.972507831681355,30.190014528793206,0.0,1.0,18.393347891345826,4.701907632213822,0.0,Landing
13.600000000000001,-271.66157828530044,-1112.4283422174924,162.26646947639432,3.8586014454549162,2.17289421527439,63.798275966462484,30.686270685385672,0.0,1.0,18.393347891345826,4.701907632213822,0.0,Landing
13.700000000000001,-273.56275754242046,-1141.9510855938486,164.9789419369531,3.7065842192468454,2.2795724657339838,63.93784867749531,30.681846613505527,0.0,1.0,18.393347891345826,4.701907632213822,0.0,Landing
13.8,-275.502786824434,-1146.9259475678543,162.8307972543226,3.683225542204988,2.349439205184756,64.02070541397399,30.3996929576032,0.0,1.0,18.393347891345826,4.701907632213822,0.0,Landing
13.9,-277.3962080231397,-1159.6640878481594,161.41157933152758,3.956660016438535,1.9799117588024315,63.81728438410306,30.235630637021718,0.0,1.0,18.393347891345826,4.701907632213822,0.0,Landing
14.0,-279.36107798166125,-1135.9217416880367,163.49835497359535,3.888322654572011,2.2084007594276036,63.71235077800992,30.35117461652001,0.0,1.0,18.393347891345826,4.701907632213822,0.0,Landing
14.100000000000001,-281.1823955328742,-1118.2014153919793,163.1980507261189,3.8065705920205493,2.022862904927547,63.72734608393944,30.81978927863474,0.0,1.0,18.393347891345826,4.701907632213822,0.0,Landing
14.200000000000001,-282.9872151000996,-1099.1186464121483,161.97630146967833,3.4912808099714816,2.693452258270413,64.00952726003874,30.308031137364647,0.0,1.0,18.393347891345826,4.701907632213822,0.0,Landing
14.3,-284.856671213722,-1105.8438819551727,163.13198567162286,3.571798370032915,2.1869687152370525,64.01347496934159,30.994487336649325,0.0,1.0,18.393347891345826,4.701907632213822,0.0,Landing
14.4,-286.71161494265004,-1102.7051159454347,163.65293642912349,3.781829651261634,1.7489582535284394,64.13068589581201,30.208929781926724,0.0,1.0,18.393347891345826,4.701907632213822,0.0,Landing
14.5,-288.5007406798268,-1105.5724240556062,162.4702425302863,4.07489208474316,2.111160870182072,63.81059821652036,30.325938452653435,0.0,1.0,18.393347891345826,4.701907632213822,0.0,Landing
14.600000000000001,-290.384533334,-1108.7007865826192,162.4059908913232,3.992362194468508,2.0186075875898797,63.72774531914661,30.32440610844586,0.0,1.0,18.393347891345826,4.701907632213822,0.0,Landing
14.700000000000001,-292.25511887556314,-1118.7515497050754,163.62327150502296,3.8556618889278917,2.2075041688696606,63.71458990880387,30.782484200405197,0.0,1.0,18.393347891345826,4.701907632213822,0.0,Landing
14.8,-294.09449842835215,-1116.1788778572484,160.88298672363328,3.674747393125062,2.093507513261112,63.86061958232119,30.586690408535162,0.0,1.0,18.393347891345826,4.701907632213822,0.0,Landing
14.9,-295.96542772328627,-1116.2550150512632,163.72500416254687,3.7439155442626446,2.136896028122274,64.10080185974948,30.645081940254578,0.0,1.0,18.393347891345826,4.701907632213822,0.0,Landing
15.0,-297.83639395081946,-1107.6862196681416,163.39501075342318,4.288188009131509,1.5068488708363614,64.06039476253267,30.231844898919988,0.0,1.0,18.393347891345826,4.701907632213822,0.0,Landing
15.100000000000001,-299.63292952669286,-1070.3837181727522,161.9767615200359,3.835764310497679,1.9964152314655585,63.726534994480346,30.744554618120485,0.0,1.0,18.393347891345826,4.701907632213822,0.0,Landing
15.200000000000001,-301.31734631415003,-1068.9787410302072,163.49253777019166,3.5329792374106677,2.007091007305163,64.11378103309977,30.696670311559654,0.0,1.0,18.393347891345826,4.701907632213822,0.0,Landing
15.3,-303.1812876559705,-1078.5326755399637,164.14795475279723,3.7234492521010605,2.1680533993611437,64.01271551563167,30.474427220407385,0.0,1.0,18.393347891345826,4.701907632213822,0.0,Landing
15.4,-305.0255929043927,-1108.4469330430693,161.41854138832284,3.34240527288035,2.227363591501226,63.88112980788998,30.50964893089579,0.0,1.0,18.393347891345826,4.701907632213822,0.0,Landing
15.5,-306.8595809793654,-1110.3339215076064,162.25297760596024,4.007575940531885,1.7583609928061736,63.7508639644289,30.269534198139215,0.0,1.0,18.393347891345826,4.701907632213822,0.0,Landing
15.600000000000001,-308.7329572635085,-1115.5412949151585,161.10065308739473,3.825933884925118,2.0998966072037892,63.789626734476656,30.788980036328987,0.0,1.0,18.393347891345826,4.701907632213822,0.0,Landing
15.700000000000001,-310.6032993789685,-1106.9175402819499,162.5936847821442,4.044318714533594,1.8578590493992027,63.875943849973396,30.732560190457537,0.0,1.0,18.393347891345826,4.701907632213822,0.0,Landing
15.8,-312.3941686807751,-1088.950588095713,162.8015542832983,3.8817247308931027,2.0055909242366194,63.96288305435411,30.614215690249225,0.0,1.0,18.393347891345826,4.701907632213822,0.0,Landing
15.9,-314.1777102039871,-1079.994690271121,160.61276614131012,3.9875585812282703,2.215770517239681,63.882297330767585,30.791465416917394,0.0,1.0,18.393347891345826,4.701907632213822,0.0,Landing
16.0,-316.0032728303241,-1091.5524833274276,164.2186146028418,4.129685580714467,2.2089611819745643,64.00986986021485,30.495040962633663,0.0,1.0,18.393347891345826,4.701907632213822,0.0,Landing
16.1,-317.85193109741226,-1109.419123145278,162.29898027819277,3.9612905168357995,1.754184991645254,64.04584539664484,30.83230576592393,0.0,1.0,18.393347891345826,4.701907632213822,0.0,Landing
16.2,-319.7248058197135,-1112.7631907937257,162.0561257300261,3.5970822043444324,1.9228505317352331,63.77772015865531,30.59293214512536,0.0,1.0,18.393347891345826,4.701907632213822,0.0,Landing
16.3,-321.5670887842927,-1107.2951079920015,164.85939669510103,3.8132748545127053,2.509597714122637,63.941845908189464,31.16042608463438,0.0,1.0,18.393347891345826,4.701907632213822,0.0,Landing
16.400000000000002,-323.38840663737227,-1094.6358104091132,162.57774818145865,3.7276972414603784,1.9906337916174723,63.82789871723082,30.86486604829571,0.0,1.0,18.393347891345826,4.701907632213822,0.0,Landing
16.5,-325.19798487175905,-1090.93419565387,161.5350026696844,3.9291507756177415,1.838985257429897,63.963136174121814,30.62190333750995,0.0,1.0,18.393347891345826,4.701907632213822,0.0,Landing
16.6,-327.02175976256206,-1092.7472356254839,161.46058721136336,3.433980188758372,2.462000318778096,63.96129459584512,30.858089740230007,0.0,1.0,18.393347891345826,4.701907632213822,0.0,Landing
16.7,-328.8521428154997,-1106.4220574775618,165.35749682519648,4.181095128281457,2.2679005473416467,64.03292214139759,29.767210126986484,0.0,1.0,18.393347891345826,4.701907632213822,0.0,Landing
16.8,-330.73009515914686,-1091.718257146624,163.95111729427518,3.826389698163361,2.094440290336543,63.82293293145011,30.330846697986274,0.0,1.0,18.393347891345826,4.701907632213822,0.0,Landing
16.900000000000002,-332.4803510482952,-1076.5212998812558,161.56880859343653,3.6764445416911924,1.833896923594051,63.772168478115475,29.936559059240217,0.0,1.0,18.393347891345826,4.701907632213822,0.0,Landing
17.0,-334.23474931490597,-1061.3111384895435,162.44156060493557,3.83343163458328,2.0769233119127155,63.889746071518914,30.50105120634313,0.0,1.0,18.393347891345826,4.701907632213822,0.0,Landing
17.1,-336.0366508515946,-1069.6356118006977,163.21675011707433,3.904990670291066,2.1860752054795864,64.00236475965767,31.035874885673767,0.0,1.0,18.393347891345826,4.701907632213822,0.0,Landing
17.2,-337.82852910729866,-1083.4318275666647,163.28419033157536,3.901992004797028,2.0416994927905865,63.82038321161309,30.595337926493023,0.0,1.0,18.393347891345826,4.701907632213822,0.0,Landing
17.3,-339.6519084527393,-1093.3351048436973,163.50142272247,3.7706561669899545,1.613062358217047,63.864988309620855,30.361329379869023,0.0,1.0,18.393347891345826,4.701907632213822,0.0,Landing
17.400000000000002,-341.50332637581306,-1092.5873394876135,162.38384207194542,3.7052042458800223,2.235916863648837,63.78369335608909,30.016458696529654,0.0,1.0,18.393347891345826,4.701907632213822,0.0,Landing
17.5,-343.29146580473673,-1071.208591491734,162.09533216051634,4.125905296760521,1.9593849488860713,64.13940653001038,30.58697260229577,0.0,1.0,18.393347891345826,4.701907632213822,0.0,Landing
17.6,-345.00795141019796,-1057.8449438903024,161.7908303417278,3.6991384171551016,2.34532902319132,64.23499252178743,30.884176740745804,0.0,1.0,18.393347891345826,4.701907632213822,0.0,Landing
17.7,-346.79255109526457,-1065.9242767701128,161.9108986326263,3.905711816393871,2.261530050212893,64.02529921143889,30.148476063489085,0.0,1.0,18.393347891345826,4.701907632213822,0.0,Landing
17.8,-348.6210871885873,-1101.537881464128,162.8711463280513,3.4521699366932515,2.0847320892215144,63.73175163047108,30.33443390091896,0.0,1.0,18.393347891345826,4.701907632213822,0.0,Landing
17.900000000000002,-350.5156408175186,-1085.2633871577154,161.9240602478133,3.8710226546469864,2.158686887598518,63.86336811669827,30.500442668230843,0.0,1.0,18.393347891345826,4.701907632213822,0.0,Landing
18.0,-352.21886803105315,-1077.250892018708,162.56292613555618,3.821452571516437,2.037746444894381,63.83398372109883,30.28823125732445,0.0,1.0,18.393347891345826,4.701907632213822,0.0,Landing
18.1,-354.00734164868084,-1076.170972120758,164.39498917525128,3.5783650993987477,2.248639063232027,63.83382959132928,30.58121535714781,0.0,1.0,18.393347891345826,4.701907632213822,0.0,Landing
18.2,-355.8964956781224,-1091.236056682976,163.06973534619087,4.064881085485121,1.8926060598625907,63.90011992463883,30.36281487336341,0.0,1.0,18.393347891345826,4.701907632213822,0.0,Landing
18.3,-357.67504831446803,-1072.680254200429,161.31817579294005,3.796011529297018,2.3226630780351876,63.746451123731106,30.236694909317247,0.0,1.0,18.393347891345826,4.701907632213822,0.0,Landing
18.400000000000002,-359.370742919683,-1059.6728337867828,162.8606350948385,3.8314052953841253,2.273827255726021,63.975977970563804,30.89022551173313,0.0,1.0,18.393347891345826,4.701907632213822,0.0,Landing
18.5,-361.1948598470563,-1040.8880481473261,161.24711669966777,3.5630758956672683,1.8637783033571185,63.98716575903137,30.542671070210666,0.0,1.0,18.393347891345826,4.701907632213822,0.0,Landing
18.6,-362.87948855520466,-1057.3930596428115,163.3252982084938,4.26433304397184,2.123420326912505,64.08205105451242,31.11271747371084,0.0,1.0,18.393347891345826,4.701907632213822,0.0,Landing
18.7,-364.65770821789704,-1031.0718294226833,162.79965212517814,3.693534968318572,1.9057375091143252,63.90834040911756,30.03403196427843,0.0,1.0,18.393347891345826,4.701907632213822,0.0,Landing
18.8,-366.3502189941697,-1048.365104634934,162.02133145231417,4.0574352470942285,1.88965406240108,63.959776532551246,30.60511283246797,0.0,1.0,18.393347891345826,4.701907632213822,0.0,Landing
18.900000000000002,-368.1213140783793,-1064.7513954879287,161.48486998089643,3.5337412763797187,2.039110965991283,63.854481317662135,30.443171086356415,0.0,1.0,18.393347891345826,4.701907632213822,0.0,Landing
19.0,-369.9814651953367,-1066.1169621057409,163.30361126770444,4.082546298469911,2.2320499559428786,63.76073095022656,30.63528022643439,0.0,1.0,18.393347891345826,4.701907632213822,0.0,Landing
19.1,-371.6808038046984,-1047.7481582862195,162.31544021215953,4.010966378987107,2.0373422200300655,63.97586327863604,30.424258940605302,0.0,1.0,18.393347891345826,4.701907632213822,0.0,Landing
19.200000000000003,-373.3600548698104,-1049.3127549169685,162.42211018005523,4.287967001337802,2.2742253956534126,63.94784406616543,30.229781978101663,0.0,1.0,18.393347891345826,4.701907632213822,0.0,Landing
19.3,-375.2280289699215,-1051.82912021952,161.09500201439965,3.5799864980089873,1.800397216169586,64.12469867257062,30.50478620290376,0.0,1.0,18.393347891345826,4.701907632213822,0.0,Landing
19.400000000000002,-376.939949405796,-1062.244797738549,160.78863667111102,3.923907850248283,2.595769988613363,63.79732412813502,30.3072309057823,0.0,1.0,18.393347891345826,4.701907632213822,0.0,Landing
19.5,-378.6712788585032,-1058.1316016898427,161.93331849688744,4.118796231966592,2.07566841728903,63.94049239131931,30.399065717765204,0.0,1.0,18.393347891345826,4.701907632213822,0.0,Landing
19.6,-380.51868697837074,-1056.2793475402145,163.3911368463266,3.7844316586068554,2.2424901676330027,63.80749169459324,30.33399398632625,0.0,1.0,18.393347891345826,4.701907632213822,0.0,Landing
19.700000000000003,-382.2213461434971,-1065.1696329274387,161.32191835516582,3.804753793862951,2.3084295041697436,63.89551369649007,30.37410511340891,0.0,1.0,18.393347891345826,4.701907632213822,0.0,Landing
19.8,-383.99712702314037,-1057.1199718908588,162.9406756109413,4.14593727524605,2.003423844609089,63.865911875557345,30.44361650952963,0.0,1.0,18.393347891345826,4.701907632213822,0.0,Landing
19.900000000000002,-385.80428683782503,-1072.7745516103028,162.49354427047652,3.699674387837915,2.168833276473782,63.76706976385077,30.0937027673674,0.0,1.0,18.393347891345826,4.701907632213822,0.0,Landing
20.0,-387.5852189015486,-1082.1974796855216,160.7766698562077,4.07851423215989,2.139867446712474,63.7541872909149,30.90425060058574,0.0,1.0,18.393347891345826,4.701907632213822,0.0,Landing
20.1,-389.408114421568,-1074.7976379738475,164.09042268278006,4.013679913635509,2.0121772912509037,64.25092184757779,30.796829663965116,0.0,1.0,18.393347891345826,4.701907632213822,0.0,Landing
20.200000000000003,-391.17827502769427,-1069.1339263677946,160.5668739480183,3.9847029351790484,2.160936415225787,63.89585842981904,30.011830442903783,0.0,1.0,18.393347891345826,4.701907632213822,0.0,Landing
20.3,-392.9308885333876,-1066.4613522424133,164.9690213407656,4.128469199965901,2.020263084964288,63.842108721073146,29.94897169659969,0.0,1.0,18.393347891345826,4.701907632213822,0.0,Landing
20.400000000000002,-394.74042118278004,-1059.376849465093,163.0017324424694,3.8066049870850542,1.9178460124276824,63.803361035847956,30.577450225957826,0.0,1.0,18.393347891345826,4.701907632213822,0.0,Landing
20.5,-396.47515927501973,-1067.0497310065116,163.39460812410243,3.9714605107510432,2.0846458236974064,63.94016657573354,30.710818411650205,0.0,1.0,18.393347891345826,4.701907632213822,0.0,Landing
20.6,-398.26613718842015,-1043.4035992030658,161.63757077553535,4.230914627070952,1.8856968774443619,64.07112937357806,30.543741400593085,0.0,1.0,18.393347891345826,4.701907632213822,0.0,Landing
20.700000000000003,-399.95743917879537,-1043.4565660272028,161.889335877957,3.8304209789734784,2.014074791221898,64.15650383308105,30.664913893168972,0.0,1.0,18.393347891345826,4.701907632213822,0.0,Landing
20.8,-401.69244210515575,-1041.041702007385,160.99408678574278,4.197191539965123,1.8864844823707492,63.80963711105596,30.261952009321288,0.0,1.0,18.393347891345826,4.701907632213822,0.0,Landing
20.900000000000002,-403.47134569845707,-1043.400216279008,162.90352427165914,3.9901668915703965,2.0756089068498205,63.97366498282224,30.24655733146923,0.0,1.0,18.393347891345826,4.701907632213822,0.0,Landing
21.0,-405.1744402601904,-1041.1315724092901,161.09524749353014,3.8334083960315186,2.256112482274844,64.17391754225662,30.57252868534511,0.0,1.0,18.393347891345826,4.701907632213822,0.0,Landing
21.1,-406.8980999672022,-1032.2468795554528,160.44699306039067,3.407708250495842,1.8030379031372976,64.16929735745816,30.399957611846112,0.0,1.0,18.393347891345826,4.701907632213822,0.0,Landing
21.200000000000003,-408.63258009623434,-1045.469836831478,162.36150478787465,4.081758197351715,2.1686101484895004,63.87212161576889,31.073869163267375,0.0,1.0,18.393347891345826,4.701907632213822,0.0,Landing
21.3,-410.4017894443478,-1071.26553844289,163.66379231784097,3.693030009868677,2.2747943257951007,63.72736993902811,30.45464822367623,0.0,1.0,18.393347891345826,4.701907632213822,0.0,Landing
21.400000000000002,-412.25442765941665,-1073.7380460432178,162.48669782900447,3.8883922045885906,2.2092649114462257,63.890510994284284,30.796339599676593,0.0,1.0,18.393347891345826,4.701907632213822,0.0,Landing
21.5,-414.0012703264504,-1067.4818414395645,162.55805268199978,4.278274558512434,2.3093930742084043,63.94977408193705,30.34888693836414,0.0,1.0,18.393347891345826,4.701907632213822,0.0,Landing
21.6,-415.7391986515456,-1031.02734788024,163.00274589901645,3.848283965329168,2.0800028858109436,63.736546245192926,30.511488801774746,0.0,1.0,18.393347891345826,4.701907632213822,0.0,Landing
21.700000000000003,-417.40956439881785,-1041.4749251338321,162.797309763788,3.5161810045114295,1.9364525834114323,63.743347265193336,30.685885775632467,0.0,1.0,18.393347891345826,4.701907632213822,0.0,Landing
21.8,-419.2086449521196,-1033.7555226244149,162.75237789600283,3.8775346887992255,2.0678381778615598,63.920906734073355,31.082860431762764,0.0,1.0,18.393347891345826,4.701907632213822,0.0,Landing
21.900000000000002,-420.9079762646677,-1041.2434216625002,162.30189641325788,3.8837266098162306,1.93310744576834,63.97566157202414,29.7519977607205,0.0,1.0,18.393347891345826,4.701907632213822,0.0,Landing
22.0,-422.61578150713035,-1030.722383991838,162.50137436225756,3.8359657303012242,1.893236408954859,64.1028338644515,29.845659648194623,0.0,1.0,18.393347891345826,4.701907632213822,0.0,Landing
22.1,-424.3622568720788,-1033.9914630321005,164.91402470506497,3.7621045480095434,2.022523748727852,63.44295854566627,30.637273951288922,0.0,1.0,18.393347891345826,4.701907632213822,0.0,Landing
22.200000000000003,-426.0779335798282,-1046.3837507300013,162.07855720560192,4.015907175838489,1.9199886980605787,63.86780912443072,30.416615623605587,0.0,1.0,18.393347891345826,4.701907632213822,0.0,Landing
22.3,-427.84770026078036,-1049.5970295584357,162.31937820349663,3.843095488765195,1.8102671720018875,63.731664021526456,30.688671710887036,0.0,1.0,18.393347891345826,4.701907632213822,0.0,Landing
22.400000000000002,-429.61024201987095,-1042.2225263920723,162.44017826751022,4.013644833943898,2.00042365463977,64.13470117837858,30.097180069622,0.0,1.0,18.393347891345826,4.701907632213822,0.0,Landing
22.5,-431.28904621178856,-1030.0055900141501,163.0926197469358,4.016692053869494,2.0874162296369034,63.691519850357054,30.60747350831291,0.0,1.0,18.393347891345826,4.701907632213822,0.0,Landing
22.6,-432.9977282108511,-1013.6771037976018,163.16064515072551,3.6521018232420572,2.042187438749231,63.724414786372165,30.941179368368623,0.0,1.0,18.393347891345826,4.701907632213822,0.0,Landing
22.700000000000003,-434.67862753885896,-1017.7177892896907,164.85433875842918,3.8174122814625644,2.2451239963280067,64.045508446942,30.85184280378739,0.0,1.0,18.393347891345826,4.701907632213822,0.0,Landing
22.8,-436.377635158237,-1024.6428951542498,162.59104558863578,3.7350746730687234,2.2685373232994537,63.99278050437732,30.70250698579015,0.0,1.0,18.393347891345826,4.701907632213822,0.0,Landing
22.900000000000002,-438.12094268662236,-1012.6388036456092,162.9783991231311,3.6767947271110857,2.081569154558657,63.83916162944058,30.5657701252564,0.0,1.0,18.393347891345826,4.701907632213822,0.0,Landing
23.0,-439.741821557087,-1026.213005965053,163.30656504906085,3.71768693311404,2.013301251924751,64.06349855710147,30.829012320414353,0.0,1.0,18.393347891345826,4.701907632213822,0.0,Landing
23.1,-441.5087001880623,-1031.8398131557956,162.11787886397073,3.283002408929702,1.9877441432640583,64.19990565224515,30.17658619029936,0.0,1.0,18.393347891345826,4.701907632213822,0.0,Landing
23.200000000000003,-443.28014175240133,-1040.4851993371267,161.30958665131476,3.3891434993853817,2.3022634433203337,63.998068448995355,30.558708101132336,0.0,1.0,18.393347891345826,4.701907632213822,0.0,Landing
23.3,-444.94424755377264,-1011.2444242994229,162.31410989204284,4.091167466435103,2.30802091461647,63.96443701980576,30.478418980397933,0.0,1.0,18.393347891345826,4.701907632213822,0.0,Landing
23.400000000000002,-446.5649223095594,-999.4292658280415,161.53462380901436,3.964382339900096,2.2106930539358025,63.81233759352676,30.651637992442563,0.0,1.0,18.393347891345826,4.701907632213822,0.0,Landing
23.5,-448.27728808154154,-1010.2471320334757,162.5216815366014,3.8841194177896043,2.12206760355418,64.23439459166883,31.02213434786556,0.0,1.0,18.393347891345826,4.701907632213822,0.0,Landing
23.6,-449.99548321394,-1034.8046495345784,161.4233882046993,3.9169106125600828,1.8490216998933986,63.55165604623244,30.330658485468522,0.0,1.0,18.393347891345826,4.701907632213822,0.0,Landing
23.700000000000003,-451.7389455572323,-1030.784545981919,161.6297674082111,3.7014178690823853,1.8891470431642656,63.78507396668584,30.34502996740927,0.0,1.0,18.393347891345826,4.701907632213822,0.0,Landing
23.8,-453.43121081145114,-1007.720646531925,161.49131176557975,3.7111981862311363,2.0411408031272957,64.01842907361396,30.20324161524105,0.0,1.0,18.393347891345826,4.701907632213822,0.0,Landing
23.900000000000002,-455.03408644659964,-1002.6500558570547,161.80941534817887,3.8982860649856903,2.238787195665083,64.04136667100789,30.14391220421902,0.0,1.0,18.393347891345826,4.701907632213822,0.0,Landing
24.0,-456.75219583651756,-1012.3176710848156,164.50564813891927,3.5752723583848818,2.311362993033288,63.7287182965718,30.43237341436003,0.0,1.0,18.393347891345826,4.701907632213822,0.0,Landing
24.1,-458.4927991668752,-1031.277323733343,163.7805407005528,3.72070101264618,2.030739018378688,63.5881780327702,30.81856098310282,0.0,1.0,18.393347891345826,4.701907632213822,0.0,Landing
24.200000000000003,-460.19047306526636,-1023.0304009091242,161.39822059484115,3.96360378563194,2.2391368766377466,63.98537178728765,30.540680758615085,0.0,1.0,18.393347891345826,4.701907632213822,0.0,Landing
24.3,-461.8673478410632,-1012.1573763802189,162.86520081008683,3.773609829782063,2.2505950536294352,63.53777838306826,30.74136777338031,0.0,1.0,18.393347891345826,4.701907632213822,0.0,Landing
24.400000000000002,-463.5535860487763,-1012.3489794878196,163.0833997596474,3.9164436422504254,2.372926140152901,63.8716903954915,30.83992157506014,0.0,1.0,18.393347891345826,4.701907632213822,0.0,Landing
24.5,-465.25221796270546,-1012.2119419133128,163.42950838112807,3.7712320368138825,2.1410272573058324,63.70452537150976,30.330698752256698,0.0,1.0,18.393347891345826,4.701907632213822,0.0,Landing
24.6,-466.92840755062974,-1001.5519104307032,162.67244235882453,3.7747207726815764,2.33447248793873,63.88344664417036,30.72210232911653,0.0,1.0,18.393347891345826,4.701907632213822,0.0,Landing
24.700000000000003,-468.5613456009298,-1012.92196260124,161.9900657598884,3.7024617892247402,2.0557325922205845,63.92823996745199,31.07657508130032,0.0,1.0,18.393347891345826,4.701907632213822,0.0,Landing
24.8,-470.31682777571166,-1016.4510624623404,164.27869549080964,3.7909681621829967,2.334690129474682,63.90201670732006,30.057762530069564,0.0,1.0,18.393347891345826,4.701907632213822,0.0,Landing
24.900000000000002,-472.01066286294144,-1027.6650326555796,162.12172751631158,3.9275702243216433,1.7903007841774197,63.94966534607181,30.657807663173156,0.0,1.0,18.393347891345826,4.701907632213822,0.0,Landing
25.0,-473.6996707642077,-1019.7781844732162,161.39447777601615,4.016630770522429,2.106820685494908,63.71632156665987,30.467757546216905,0.0,1.0,18.393347891345826,4.701907632213822,0.0,Landing
25.1,-475.41571869807774,-1012.7852001120914,162.50540028686427,4.094703084610733,2.5841988536339646,63.83021931302943,30.72625469348704,0.0,1.0,18.393347891345826,4.701907632213822,0.0,Landing
25.200000000000003,-477.0745888635019,-1020.8666466444697,163.16841904997767,4.0717296967987435,1.8554644335708927,63.90041690339763,30.464160646117996,0.0,1.0,18.393347891345826,4.701907632213822,0.0,Landing
25.3,-478.8040039974301,-1011.8516766230869,162.58633896331813,4.013304562465874,1.8808423031585975,63.75066255975463,30.463263802345256,0.0,1.0,18.393347891345826,4.701907632213822,0.0,Landing
25.400000000000002,-480.4749770811932,-1013.9725972531664,162.14773723858556,3.8758764811704447,1.7461238940095916,63.912761527255554,30.67345306038694,0.0,1.0,18.393347891345826,4.701907632213822,0.0,Landing
25.5,-482.14445184976773,-1008.9525116958043,162.84765804865646,3.7321301101491935,2.317141333562073,63.753988537538476,30.28992526805484,0.0,1.0,18.393347891345826,4.701907632213822,0.0,Landing
25.6,-483.8487665559091,-1011.7230042718575,162.23992022235365,3.600197682003134,1.9042657995526646,63.825922882113275,30.11915555267082,0.0,1.0,18.393347891345826,4.701907632213822,0.0,Landing
25.700000000000003,-485.53359210255246,-1002.6189204307002,161.196333437009,4.139932712047396,2.207709851991638,63.84807236568162,30.023083330508396,0.0,1.0,18.393347891345826,4.701907632213822,0.0,Landing
25.8,-487.15754645192123,-990.6331150035612,163.15313582125677,3.862258734030063,2.2730307683617545,63.97133894492816,30.78189402131411,0.0,1.0,18.393347891345826,4.701907632213822,0.0,Landing
25.900000000000002,-488.8019321309269,-990.5284254874346,162.15090663241315,4.288047705448575,2.0373194376225663,63.761536002428784,29.932754952182723,0.0,1.0,18.393347891345826,4.701907632213822,0.0,Landing
26.0,-490.48623422998963,-1000.1468834515094,162.49618884811773,3.6578897660882115,2.177579210168576,64.15525700543958,30.58319999146393,0.0,1.0,18.393347891345826,4.701907632213822,0.0,Landing
26.1,-492.1582808691788,-998.0813053062775,162.5239533881757,4.095088664492493,2.113265189426799,64.07365597365805,30.282934770807646,0.0,1.0,18.393347891345826,4.701907632213822,0.0,Landing
26.200000000000003,-493.7923386574583,-1009.8250927037157,161.2172971508433,3.958781175331546,2.1015958336893363,63.84527787326141,30.570336959462,0.0,1.0,18.393347891345826,4.701907632213822,0.0,Landing
26.3,-495.5353596935082,-996.3225483768952,162.50355732547465,3.7341215853188476,2.270778320195993,63.79230115925475,30.30846943525563,0.0,1.0,18.393347891345826,4.701907632213822,0.0,Landing
26.400000000000002,-497.13989361106326,-988.3045583229773,162.56862347929766,3.56276822076333,2.0048355980137456,63.97828619338759,30.841682860581596,0.0,1.0,18.393347891345826,4.701907632213822,0.0,Landing
26.5,-498.7338614490732,-963.150181553533,163.85761544261965,3.6945029174829185,1.66169485182119,64.04069312236555,30.68050573526881,0.0,1.0,18.393347891345826,4.701907632213822,0.0,Landing
26.6,-500.3511106012759,-985.4166212960308,162.30350317134113,3.768152645265471,2.1987312123766984,63.518960020465386,30.706354088646073,0.0,1.0,18.393347891345826,4.701907632213822,0.0,Landing
26.700000000000003,-502.0669767175434,-994.6175732769916,162.94209686117753,3.866366793257121,2.258222035467446,64.08589357954116,30.479286506674786,0.0,1.0,18.393347891345826,4.701907632213822,0.0,Landing
26.8,-503.70694931545813,-1004.839569935325,162.79905105023778,3.942789985097354,2.138094529760603,63.799772288666304,29.89959305364124,0.0,1.0,18.393347891345826,4.701907632213822,0.0,Landing
26.900000000000002,-505.3753084509525,-995.0931486777563,160.66307879870791,4.0269748835146295,2.1044026642279876,64.0169853948679,30.815470820623315,0.0,1.0,18.393347891345826,4.701907632213822,0.0,Landing
27.0,-507.0424424609322,-999.0234715919996,160.59678749698048,4.441429317093619,2.1158976583969316,63.93887900332936,30.385862757147102,0.0,1.0,18.393347891345826,4.701907632213822,0.0,Landing
27.1,-508.70206667341813,-990.8149384276726,163.16623588124756,4.081148589412719,2.0934950955291285,63.93154752297346,30.736523924307647,0.0,1.0,18.393347891345826,4.701907632213822,0.0,Landing
27.200000000000003,-510.32938314309087,-985.2655778874009,163.30689095861163,3.7688492581654107,2.1481339919857576,64.04227633548714,30.641041777675472,0.0,1.0,18.393347891345826,4.701907632213822,0.0,Landing
27.3,-511.9687703503692,-966.442427053812,163.7920780141999,3.7565941616584566,2.0498272205170034,64.04526786531846,30.364584600100255,0.0,1.0,18.393347891345826,4.701907632213822,0.0,Landing
27.400000000000002,-513.5342788086872,-970.2856533768568,161.72806160863163,3.970035280542481,2.108105314901585,63.967297787812356,30.548408911456754,0.0,1.0,18.393347891345826,4.701907632213822,0.0,Landing
27.5,-515.1808114099751,-971.537122754296,163.38652452904296,3.818806490417855,2.533050514502691,63.67929461604217,30.339738359894056,0.0,1.0,18.393347891345826,4.701907632213822,0.0,Landing
27.6,-516.8264559641407,-989.8757888655382,164.30512047599947,3.968954403792487,2.2714679244583,64.17635597786233,30.40484314165666,0.0,1.0,18.393347891345826,4.701907632213822,0.0,Landing
27.700000000000003,-518.4836577530149,-996.6691328384741,161.38722450285883,3.274461282291922,2.315470457618059,63.961750746798145,30.32319684643299,0.0,1.0,18.393347891345826,4.701907632213822,0.0,Landing
27.8,-520.1641570741675,-980.5782646333,161.80820260244684,3.8573169915079837,2.0068030788869584,63.994752213618995,30.346428459609843,0.0,1.0,18.393347891345826,4.701907632213822,0.0,Landing
27.900000000000002,-521.7293472873072,-976.3447914343487,162.19774625436312,3.7094664390259697,2.337133440832435,63.85624052416284,30.407452842396356,0.0,1.0,18.393347891345826,4.701907632213822,0.0,Landing
28.0,-523.3653817101866,-954.5267687355363,162.6329337308195,4.003076102210664,1.5103016437940169,63.839093124519195,30.68863980419199,0.0,1.0,18.393347891345826,4.701907632213822,0.0,Landing
28.1,-524.9367909178452,-971.9487156997957,161.8584907212446,3.708724070017277,1.9349175938728735,64.022059244574,30.506267154740836,0.0,1.0,18.393347891345826,4.701907632213822,0.0,Landing
28.200000000000003,-526.5890908658062,-981.907013194018,162.27072474007196,3.4993721279692225,2.1449252478500545,64.03358619774383,30.639497061205,0.0,1.0,18.393347891345826,4.701907632213822,0.0,Landing
28.3,-528.2749167761567,-993.6032335475602,163.21853683549296,3.749438020968403,1.977297013893391,63.70201349734924,31.375982457692377,0.0,1.0,18.393347891345826,4.701907632213822,0.0,Landing
28.400000000000002,-529.904807085583,-982.0142145874343,162.11313487303292,3.671630342823772,1.8440831987282218,63.915686819720804,30.135836127080744,0.0,1.0,18.393347891345826,4.701907632213822,0.0,Landing
28.5,-531.4991619387433,-980.2297641097994,161.70304136967718,3.692314968393217,1.9603107961041917,63.981626275450424,30.639576618280156,0.0,1.0,18.393347891345826,4.701907632213822,0.0,Landing
28.6,-533.1760655967057,-992.858727488283,162.80330362182303,3.359250652604941,2.0304697097640707,63.96496355358477,30.45518113422582,0.0,1.0,18.393347891345826,4.701907632213822,0.0,Landing
28.700000000000003,-534.8691007230244,-978.8041504646117,163.7243066494688,3.830582551893442,1.9250026341764799,63.8438788850558,30.378245352452574,0.0,1.0,18.393347891345826,4.701907632213822,0.0,Landing
28.8,-536.3931826910664,-967.5232620700399,163.1948360340809,3.772346669806795,1.891031824700723,63.78982824169094,31.102172206476414,0.0,1.0,18.393347891345826,4.701907632213822,0.0,Landing
28.900000000000002,-538.0136819070559,-941.1622325352255,161.46756866606356,4.031340739260116,1.8973095149334875,63.945927822599856,30.495052966655646,0.0,1.0,18.393347891345826,4.701907632213822,0.0,Landing
29.0,-539.5749118857005,-952.7454528909402,163.10167774663935,3.873955936294587,2.277237796349581,64.03619348459688,30.360840411674168,0.0,1.0,18.393347891345826,4.701907632213822,0.0,Landing
29.1,-541.1569099555211,-954.3684208833838,163.33965457356825,3.6886872280113736,2.2699968037401046,63.903777892481344,30.649267567364294,0.0,1.0,18.393347891345826,4.701907632213822,0.0,Landing
29.200000000000003,-542.7855240114728,-971.3418932066588,161.7325906946488,3.381005723344834,2.5171955547540517,63.98844864444408,30.410100468412548,0.0,1.0,18.393347891345826,4.701907632213822,0.0,Landing
29.3,-544.4316213517338,-983.0725769373203,162.72036069910155,4.274546317098036,2.406426884679602,63.894976568242214,30.88298985628605,0.0,1.0,18.393347891345826,4.701907632213822,0.0,Landing
29.400000000000002,-546.0722728402077,-949.9290032690396,162.1399098210457,4.000867803931326,2.152692313703831,63.71251205576772,30.636931455689925,0.0,1.0,18.393347891345826,4.701907632213822,0.0,Landing
29.5,-547.535169027818,-950.7157516668713,162.2375540251128,3.8967032621151554,1.999922260928385,63.82724167232817,30.32670050221739,0.0,1.0,18.393347891345826,4.701907632213822,0.0,Landing
29.6,-549.1852001100682,-961.6964313072003,161.31921302742094,3.6148548268127163,1.9435645523931742,63.774163408266645,30.301511661859887,0.0,1.0,18.393347891345826,4.701907632213822,0.0,Landing
29.700000000000003,-550.8807549967437,-983.0965846210347,162.550593108468,3.7877972338011356,2.2076394569128115,64.00209068666243,30.44236821712516,0.0,1.0,18.393347891345826,4.701907632213822,0.0,Landing
29.8,-552.4506519509232,-970.5930091980008,165.36990776824456,3.8425599976037024,2.226011581222389,63.83675601607894,29.581691838043028,0.0,1.0,18.393347891345826,4.701907632213822,0.0,Landing
29.900000000000002,-554.0381651560582,-947.2674204203713,161.68122208688675,4.143530115905067,1.8568061604867925,63.8037909935843,30.180284129888335,0.0,1.0,18.393347891345826,4.701907632213822,0.0,Landing
30.0,-555.6170920988455,-948.0636972601133,163.44972956007555,3.7484651456038183,1.960773923574065,63.77956174051559,29.61726387087348,0.0,1.0,18.393347891345826,4.701907632213822,0.0,Landing
30.1,-557.1909704372238,-950.5746315481701,161.37970928479442,3.6888120516196334,2.273174933208057,63.91375162991852,30.719220111298476,0.0,1.0,18.393347891345826,4.701907632213822,0.0,Landing
