time_s,altitude_ft,vertical_speed_fpm,ias_kt,pitch_deg,roll_deg,heading_deg,throttle_pct,afterburner_on,gear_down,flaps_deg,speedbrake_pct,weight_on_wheels,label
0.0,-1.7735241344312616,-510.1056619746489,168.54712184096886,-0.7077076949081542,1.2172252203010754,307.32192744117447,33.81730972557455,0.0,1.0,16.903782430051617,16.730473887139578,0.0,Landing
0.1,-3.473876341013425,-677.5768905509667,167.53093282837466,-1.0434579761350564,1.1783799235723482,307.51758138513026,33.497856435669554,0.0,1.0,16.903782430051617,16.730473887139578,0.0,Landing
0.2,-5.161408587186095,-1020.781720671877,167.33302892139898,-0.4901930910319458,1.4502298361492172,307.25627558080623,33.5564650373884,0.0,1.0,16.903782430051617,16.730473887139578,0.0,Landing
0.30000000000000004,-6.877432737790647,-1021.666799087437,169.69539322494364,-0.8554368424567111,1.123957439965792,307.22836769916944,33.20002060176182,0.0,1.0,16.903782430051617,16.730473887139578,0.0,Landing
0.4,-8.58221033645061,-1022.3516225918476,168.61729927673323,-0.4984254271479341,1.5715374069627601,307.5871253640855,33.67536480712919,0.0,1.0,16.903782430051617,16.730473887139578,0.0,Landing
0.5,-10.273166700145334,-1016.1883667802293,168.49811735556446,-0.3600609040206684,1.3063754344795677,307.4389985290902,33.882249751737895,0.0,1.0,16.903782430051617,16.730473887139578,0.0,Landing
0.6000000000000001,-11.958374571691794,-1018.2776898473654,168.07843589071203,-0.8513396639715805,1.4047997382894881,307.2796633840279,33.8495601446843,0.0,1.0,16.903782430051617,16.730473887139578,0.0,Landing
0.7000000000000001,-13.673598785687437,-1000.9813231967804,169.12100946114228,-0.7941081864944523,1.3870726978129913,307.3415466530182,33.19344815337676,0.0,1.0,16.903782430051617,16.730473887139578,0.0,Landing
0.8,-15.278073316129236,-1010.2574484876772,168.72095241320895,-0.5858198428339556,1.559604181459793,307.4548604343488,33.65654939949437,0.0,1.0,16.903782430051617,16.730473887139578,0.0,Landing
0.9,-17.00966181413018,-1002.6494318100905,170.2549297647653,-0.9149751819990055,1.0785090662962684,306.98995312997044,33.51771618470439,0.0,1.0,16.903782430051617,16.730473887139578,0.0,Landing
1.0,-18.68684594473789,-1021.0041402550974,168.91264599722214,-1.13447025919654,1.1773908715280297,307.10070016122995,33.74694974254176,0.0,1.0,16.903782430051617,16.730473887139578,0.0,Landing
1.1,-20.383094017404723,-1022.4260348636158,167.9744956387997,-0.8702151770762229,1.6967667462949276,307.244965675318,32.867289644416076,0.0,1.0,16.903782430051617,16.730473887139578,0.0,Landing
1.2000000000000002,-22.12179198844826,-1055.2674320838478,166.02722369970903,-0.9435840144024149,1.4612210897471503,307.58247759119627,33.70439842003562,0.0,1.0,16.903782430051617,16.730473887139578,0.0,Landing
1.3,-23.96318310515713,-1050.5025218832563,169.58980845733632,-0.5882229773815246,1.191456055443881,307.12241971072353,33.79996529094768,0.0,1.0,16.903782430051617,16.730473887139578,0.0,Landing
1.4000000000000001,-25.635606626821005,-1039.0649347857413,167.8018125199347,-0.40087376791953233,1.1185032881903867,307.26501812573406,34.392568136557955,0.0,1.0,16.903782430051617,16.730473887139578,0.0,Landing
1.5,-27.317116662376964,-1000.3304480544699,168.82720973801213,-0.7086537387989594,1.194598475035896,307.5645475650517,33.586232477665945,0.0,1.0,16.903782430051617,16.730473887139578,0.0,Landing
1.6,-28.964835345429478,-998.2450298452882,168.14215407176374,-0.5381181090069168,1.4212196141710525,307.6038605491228,33.84125613908174,0.0,1.0,16.903782430051617,16.730473887139578,0.0,Landing
1.7000000000000002,-30.626831776047446,-1016.7627667607768,169.740511665393,-0.4221397500709668,1.7820527322530997,307.15191715905064,33.56341500105245,0.0,1.0,16.903782430051617,16.730473887139578,0.0,Landing
1.8,-32.40093049618085,-1043.5368570224143,167.39010890347126,-1.3723609914454395,1.3950921042916486,307.19375860939033,34.14657905883804,0.0,1.0,16.903782430051617,16.730473887139578,0.0,Landing
1.9000000000000001,-34.18251963054155,-1062.2471713710681,168.60433642167988,-0.36193651910631575,1.891995915954395,307.16554353903814,33.99375294567383,0.0,1.0,16.903782430051617,16.730473887139578,0.0,Landing
2.0,-35.938067632902786,-1041.2125677145284,168.75783015502742,-0.9625848730798297,1.514489334166807,307.0597815706876,33.65725420879426,0.0,1.0,16.903782430051617,16.730473887139578,0.0,Landing
2.1,-37.60699333475349,-1039.5084169968159,170.7959650150344,-0.8838113274478848,1.417592122668942,307.2406116262165,33.97288012855792,0.0,1.0,16.903782430051617,16.730473887139578,0.0,Landing
2.2,-39.38006171552563,-1025.3712624254163,169.7364961061705,-0.5586876393853913,1.31884268530004,307.3079546379356,34.21419702607578,0.0,1.0,16.903782430051617,16.730473887139578,0.0,Landing
2.3000000000000003,-41.06492394502987,-1018.4426571071455,168.522215958446,-1.0118295999420055,1.7713722996929453,307.2573411247513,33.15573246955632,0.0,1.0,16.903782430051617,16.730473887139578,0.0,Landing
2.4000000000000004,-42.69920662028922,-1025.3090223092597,168.26939228903785,-0.7663151154143043,1.1084663223908535,307.2598844686356,34.1484909390119,0.0,1.0,16.903782430051617,16.730473887139578,0.0,Landing
2.5,-44.50660682707193,-1028.3822341085895,168.80603145899184,-1.1087722722426676,1.4243852584354637,307.3101179638245,33.74147954344501,0.0,1.0,16.903782430051617,16.730473887139578,0.0,Landing
2.6,-46.206835115572815,-1033.2317618503794,168.50258603816494,-0.698467385279088,1.5350740822329287,307.1868293267828,33.44482939666318,0.0,1.0,16.903782430051617,16.730473887139578,0.0,Landing
2.7,-47.865365429541114,-1016.7550652049513,168.15482205691907,-0.6945812853687645,1.1438392185032975,307.6221570805417,33.53261713432404,0.0,1.0,16.903782430051617,16.730473887139578,0.0,Landing
2.8000000000000003,-49.590382153096684,-1012.2459885744547,168.0438464092512,-0.7147768571420009,1.6194448737257603,306.8718420197009,33.47484212472013,0.0,1.0,16.903782430051617,16.730473887139578,0.0,Landing
2.9000000000000004,-51.26806505844509,-1017.7143834172697,168.54896300760345,-0.48938629929022276,1.3296171105049446,307.0895341306401,33.86725020649025,0.0,1.0,16.903782430051617,16.730473887139578,0.0,Landing
3.0,-52.95393734662746,-1016.6923148896727,168.2924150369786,-0.826122288018702,1.6081301246369024,307.3520139333375,33.587502580806344,0.0,1.0,16.903782430051617,16.730473887139578,0.0,Landing
3.1,-54.67384372754505,-1022.8710870558842,169.65564623049954,-0.5864726575600651,1.3938114636436454,307.3984379589251,33.85842901707515,0.0,1.0,16.903782430051617,16.730473887139578,0.0,Landing
3.2,-56.38242049372451,-1043.9394320806016,167.33395617493264,-0.6861845826954569,1.3491955716801842,307.2018960257942,34.32662302901501,0.0,1.0,16.903782430051617,16.730473887139578,0.0,Landing
3.3000000000000003,-58.17363450703047,-1036.7360530360017,168.14677749938795,-0.8274424915284523,1.1840304325198017,307.07265712564003,33.99174927569138,0.0,1.0,16.903782430051617,16.730473887139578,0.0,Landing
3.4000000000000004,-59.857523992725056,-1023.5792418477189,168.81812602360745,-0.9490102806275625,1.7562578995948135,307.2535015433257,33.79334687570642,0.0,1.0,16.903782430051617,16.730473887139578,0.0,Landing
3.5,-61.500316702963104,-1000.4946377533173,169.09816597218247,-0.6278015293135253,1.5335657888994325,307.3382970939117,34.21565669656452,0.0,1.0,16.903782430051617,16.730473887139578,0.0,Landing
3.6,-63.17610769579706,-1015.8388340358201,168.3612167558088,-0.7821175974478489,1.2001227602572029,307.3968875890582,33.61246120893523,0.0,1.0,16.903782430051617,16.730473887139578,0.0,Landing
3.7,-64.93671816290416,-1010.7149972411122,168.12312321303963,-0.9334627472891014,1.5593771559548277,307.4738928539216,33.42802090007174,0.0,1.0,16.903782430051617,16.730473887139578,0.0,Landing
3.8000000000000003,-66.55389168916867,-1011.1676281927657,170.50159306626117,-0.7779080284221196,1.3031002909399743,307.1552616721883,33.79410506215477,0.0,1.0,16.903782430051617,16.730473887139578,0.0,Landing
3.9000000000000004,-68.23194583676089,-996.7265644270441,166.1134984091266,-0.7011193435433953,1.4588247709261633,307.41692647472155,34.248541233989194,0.0,1.0,16.903782430051617,16.730473887139578,0.0,Landing
4.0,-69.92035098503938,-1018.3817879468506,168.15568240105966,-1.0622381284791702,1.4166155275938055,307.3502589455452,33.79111286668947,0.0,1.0,16.903782430051617,16.730473887139578,0.0,Landing
4.1000000000000005,-71.64580062890292,-1013.8403864977676,169.96596072798428,-0.7216371602579068,1.7529534526963138,307.2533829112581,34.158208333102166,0.0,1.0,16.903782430051617,16.730473887139578,0.0,Landing
4.2,-73.30114776924972,-1005.3436314776177,167.12073516297215,-0.6791917209718124,1.8035835897413026,307.2925628447158,33.612992917268535,0.0,1.0,16.903782430051617,16.730473887139578,0.0,Landing
4.3,-74.94706914242747,-995.0686344325248,167.11970324902197,-0.6468311512986624,1.6030781221274377,307.3731999624397,33.66867601680101,0.0,1.0,16.903782430051617,16.730473887139578,0.0,Landing
4.4,-76.62114380106554,-994.400673450636,168.89045617771092,-1.0078621159894472,1.3392446014460218,307.30545475007034,34.22287022209583,0.0,1.0,16.903782430051617,16.730473887139578,0.0,Landing
4.5,-78.2731511365029,-1016.0621154272491,169.3753070942945,-0.501988137084056,1.4640190640893302,307.38772514149537,34.10731124757925,0.0,1.0,16.903782430051617,16.730473887139578,0.0,Landing
4.6000000000000005,-80.02737971956371,-1027.6169620461276,167.91742176532333,-1.0945837482630492,1.4259866675438673,307.0591619103227,33.98389524415312,0.0,1.0,16.903782430051617,16.730473887139578,0.0,Landing
4.7,-81.75922861129618,-1028.9536284082772,169.9436721619203,-1.132474390893144,1.20643190608324,307.38720860173055,33.358831866832766,0.0,1.0,16.903782430051617,16.730473887139578,0.0,Landing
4.800000000000001,-83.41791927854429,-1000.8169612182938,166.71752780146363,-0.1441884634995142,1.5113832974029586,307.30084863786374,33.7169075722208,0.0,1.0,16.903782430051617,16.730473887139578,0.0,Landing
4.9,-85.03146452565518,-993.7192982175047,168.6084859043673,-1.0807306295467813,1.4797270322555343,307.1118661974415,33.649489480869775,0.0,1.0,16.903782430051617,16.730473887139578,0.0,Landing
5.0,-86.7278251023837,-1000.7181895115706,169.42960245739786,-0.6698769427670273,1.3348427968818892,307.2195367773652,33.498049195557535,0.0,1.0,16.903782430051617,16.730473887139578,0.0,Landing
5.1000000000000005,-88.42151022610214,-1001.3496365553975,166.63312509440215,-0.7813528460162913,1.5664897921785237,307.2274957747304,33.262807577783285,0.0,1.0,16.903782430051617,16.730473887139578,0.0,Landing
5.2,-90.03821270843217,-984.5455181861694,167.82034987720482,-0.36406801426843066,1.5084972716895328,307.4685459555401,33.7275850921537,0.0,1.0,16.903782430051617,16.730473887139578,0.0,Landing
5.300000000000001,-91.65055269331455,-990.3389508749625,167.57302922998628,-0.5464247768496253,1.341633067961205,307.3529157260775,34.200240166327326,0.0,1.0,16.903782430051617,16.730473887139578,0.0,Landing
5.4,-93.37320498047696,-1013.3845869415636,169.14294313996473,-0.5170861289953839,1.4392338039542985,307.2148693587261,33.73615684969975,0.0,1.0,16.903782430051617,16.730473887139578,0.0,Landing
5.5,-95.10513564313999,-1025.2358381858214,167.74077011031244,-0.76797270616728,1.7921723687669222,307.4150756544044,33.70309946222411,0.0,1.0,16.903782430051617,16.730473887139578,0.0,Landing
5.6000000000000005,-96.77673188424366,-989.4514820717744,169.53550633961652,-0.8384477995972417,1.3549325717414256,307.2541561998712,33.31065405603374,0.0,1.0,16.903782430051617,16.730473887139578,0.0,Landing
5.7,-98.32046239083583,-987.3492313013712,169.60105473576974,-0.3777301281368423,1.3713613332760872,307.0380214235056,34.13097721543691,0.0,1.0,16.903782430051617,16.730473887139578,0.0,Landing
5.800000000000001,-100.04188179964684,-995.075829204154,169.3717897167011,-1.1268337793736203,1.1331599977858335,307.40746525491795,34.10248092445216,0.0,1.0,16.903782430051617,16.730473887139578,0.0,Landing
5.9,-101.75211103026443,-1008.3385024209177,167.3541536586925,-0.9303439228031892,1.342485824030174,307.39470619241536,33.46903483966406,0.0,1.0,16.903782430051617,16.730473887139578,0.0,Landing
6.0,-103.36215490294042,-999.8314467192613,167.7164730669421,-0.6020504527049014,1.4362278192808602,307.37678481385456,33.62025539507895,0.0,1.0,16.903782430051617,16.730473887139578,0.0,Landing
6.1000000000000005,-105.04103903324315,-1000.3463227443432,168.35649745498216,-0.6330254073468505,1.4891655374345352,307.04745278696714,33.68594526951666,0.0,1.0,16.903782430051617,16.730473887139578,0.0,Landing
6.2,-106.75384264398615,-1003.1569416267615,168.3847881994685,-0.8609650041692793,1.3776262270231912,307.40504591642025,33.95805617862731,0.0,1.0,16.903782430051617,16.730473887139578,0.0,Landing
6.300000000000001,-108.37793961107423,-983.1394453729841,167.68008086007524,-0.9321388162578071,1.0928931230893169,307.3979351685191,33.68501347408782,0.0,1.0,16.903782430051617,16.730473887139578,0.0,Landing
6.4,-109.95673626010807,-975.24316966265,168.4385038378031,-0.7498559172032246,1.457721500820031,307.337473118337,33.84774005962262,0.0,1.0,16.903782430051617,16.730473887139578,0.0,Landing
6.5,-111.6300584922994,-999.3532135111876,168.9305608608884,-0.7394083837733695,1.3729954857521662,307.5012887071018,33.73193036520546,0.0,1.0,16.903782430051617,16.730473887139578,0.0,Landing
6.6000000000000005,-113.37470567863016,-1022.9090827766695,168.12573990415842,-0.9462588357409475,1.2379414602310868,307.1012291844095,33.705741773392965,0.0,1.0,16.903782430051617,16.730473887139578,0.0,Landing
6.7,-115.07128167399142,-1030.4968555128992,167.71244704078143,-0.9324693971180645,1.3104247248751677,307.35521383621676,33.57146121862014,0.0,1.0,16.903782430051617,16.730473887139578,0.0,Landing
6.800000000000001,-116.7825427698639,-1003.5343874850809,170.4594837627992,-0.8140031921575047,0.960144578969756,307.4796680344209,33.81713196627417,0.0,1.0,16.903782430051617,16.730473887139578,0.0,Landing
6.9,-118.39237761605557,-995.2899913147716,168.68541748387406,-0.7894235120600024,1.5716331771777543,307.3120883016941,33.55047517469091,0.0,1.0,16.903782430051617,16.730473887139578,0.0,Landing
7.0,-120.04773163056528,-984.7480176595296,168.37782240456434,-0.7685611004102765,1.4679038318250937,307.0897241792758,33.86377751683164,0.0,1.0,16.903782430051617,16.730473887139578,0.0,Landing
7.1000000000000005,-121.70628285816154,-984.3339119394982,168.1115959740225,-1.147923779624977,1.288785627681904,307.2908425939555,34.085274105708635,0.0,1.0,16.903782430051617,16.730473887139578,0.0,Landing
7.2,-123.31404717575306,-977.1850972057108,168.24338078213086,-0.9869511991994254,1.1405036123268848,307.32630372045264,33.47444814120896,0.0,1.0,16.903782430051617,16.730473887139578,0.0,Landing
7.300000000000001,-124.93365711659384,-959.533229732861,169.70555493015019,-0.8408087649618785,1.518410224589622,307.30733521491084,33.963187921883346,0.0,1.0,16.903782430051617,16.730473887139578,0.0,Landing
7.4,-126.50394900682585,-975.4204803247062,167.92955546606026,-0.8503341479716809,1.2529723809902829,307.40041475449607,34.04069852043898,0.0,1.0,16.903782430051617,16.730473887139578,0.0,Landing
7.5,-128.1911495773766,-986.7291270867637,166.89187963446145,-0.80654657255286,1.4349828831062041,307.3813497876131,33.619848478460774,0.0,1.0,16.903782430051617,16.730473887139578,0.0,Landing
7.6000000000000005,-129.86730275202765,-998.9052108070209,168.9519163340174,-1.1035314340315583,1.5131549668881903,307.3755841618713,33.41412947451426,0.0,1.0,16.903782430051617,16.730473887139578,0.0,Landing
7.7,-131.49847506086095,-989.3636009188923,168.3467377810684,-1.1789803630737212,1.6495228905512522,307.202768247683,33.55857128045573,0.0,1.0,16.903782430051617,16.730473887139578,0.0,Landing
7.800000000000001,-133.13796758197105,-978.9316460929568,167.33698535544244,-1.0028367431256002,1.504905414141714,307.23381146615156,33.46829212815337,0.0,1.0,16.903782430051617,16.730473887139578,0.0,Landing
7.9,-134.76196098249244,-985.1241311195166,168.48329429561477,-0.7672058135855734,1.4894339734687023,307.2610654483532,33.482074008717966,0.0,1.0,16.903782430051617,16.730473887139578,0.0,Landing
8.0,-136.42409571645854,-978.1958550616705,168.3631820326248,-0.6889696943190091,1.6475684682403955,307.08079178077946,34.24547268424728,0.0,1.0,16.903782430051617,16.730473887139578,0.0,Landing
8.1,-138.0289468572794,-981.0846788426429,167.86099285694232,-0.4083048750506648,1.068584573951913,307.3972340898258,33.7377277219342,0.0,1.0,16.903782430051617,16.730473887139578,0.0,Landing
8.200000000000001,-139.66738437670566,-973.8097779107362,168.65052220929695,-0.7056475246779396,1.01519751370023,307.1783965110924,33.12101674258254,0.0,1.0,16.903782430051617,16.730473887139578,0.0,Landing
8.3,-141.29314460601222,-986.485138722736,168.88385992755983,-0.858555434181749,0.9519230904742146,307.3916196426296,33.81681454039485,0.0,1.0,16.903782430051617,16.730473887139578,0.0,Landing
8.4,-142.9613725508931,-994.8148005407062,168.3303854286054,-0.7402280377306403,1.2293386952518275,307.2139473008235,33.51299990546007,0.0,1.0,16.903782430051617,16.730473887139578,0.0,Landing
8.5,-144.6414583794092,-1015.8173140386507,169.99988501200332,-0.7119432074445888,1.4973727735707383,307.3547330054671,34.356722476514186,0.0,1.0,16.903782430051617,16.730473887139578,0.0,Landing
8.6,-146.37223117620547,-1016.6482954673596,169.21994921151702,-0.731016731768964,1.3789895230010387,307.26059733171746,34.21123439632972,0.0,1.0,16.903782430051617,16.730473887139578,0.0,Landing
8.700000000000001,-148.0446140282299,-1008.6318437682961,168.28992418844322,-0.8218428816077427,1.367194326982848,307.271033856268,33.761653129704875,0.0,1.0,16.903782430051617,16.730473887139578,0.0,Landing
8.8,-149.68461759825067,-978.6450421610538,168.70726549840728,-1.0473696148490925,1.328725582857744,307.1776658744416,34.1605568989061,0.0,1.0,16.903782430051617,16.730473887139578,0.0,Landing
8.9,-151.26545638701074,-965.4481105927458,168.18841417125432,-0.8664093386641714,1.3457657544056283,307.2790880708883,33.64832314504403,0.0,1.0,16.903782430051617,16.730473887139578,0.0,Landing
9.0,-152.87185458119362,-985.351952242564,168.23893315712104,-0.6701014094178327,1.2276560382222734,307.1686219357679,33.946535374041176,0.0,1.0,16.903782430051617,16.730473887139578,0.0,Landing
9.1,-154.6113773594635,-997.4401737031882,167.63723149166051,-0.7370726567749363,1.1034393695425937,307.26844175299834,33.505495636147444,0.0,1.0,16.903782430051617,16.730473887139578,0.0,Landing
9.200000000000001,-156.25265725552669,-1017.9338930816866,169.97399580853167,-0.6617956374646037,1.3838261119988824,307.3306053889462,34.15927472399719,0.0,1.0,16.903782430051617,16.730473887139578,0.0,Landing
9.3,-157.96152404660205,-1004.7363049432475,169.04069982969568,-0.5965139995971759,1.3669780013136588,307.2064316276451,33.39535451626816,0.0,1.0,16.903782430051617,16.730473887139578,0.0,Landing
9.4,-159.63505888417973,-998.6256883849989,168.66505547993984,-0.3594197881545464,1.4091322991875435,307.16629871188763,33.66738437924494,0.0,1.0,16.903782430051617,16.730473887139578,0.0,Landing
9.5,-161.24578569745168,-991.520901672362,167.35077940801386,-0.7076125605853465,1.0791293255593164,307.0067738822165,33.80090066799024,0.0,1.0,16.903782430051617,16.730473887139578,0.0,Landing
9.600000000000001,-162.91912855496386,-969.3384093175097,170.31882973219334,-0.7165035196623175,1.5360880756514146,307.17908522029006,34.21571386125037,0.0,1.0,16.903782430051617,16.730473887139578,0.0,Landing
9.700000000000001,-164.48175093076728,-971.9298130265597,169.67155920507568,-1.0242841121887725,1.189914975216111,307.21918250558224,34.3540680287066,0.0,1.0,16.903782430051617,16.730473887139578,0.0,Landing
9.8,-166.10543476258448,-960.1480796920838,169.0650598754559,-0.7015411684506572,1.1965663861624076,307.3134569487761,33.585203822279944,0.0,1.0,16.903782430051617,16.730473887139578,0.0,Landing
9.9,-167.71986895342428,-973.365416167121,169.37650952508827,-1.1724304436962385,1.3425513663717406,307.61886308011026,33.27830865838905,0.0,1.0,16.903782430051617,16.730473887139578,0.0,Landing
10.0,-169.34857801160288,-965.1823604298497,169.12391596577575,-0.5986843051961139,1.18047857373246,307.6908184415663,34.00819467211646,0.0,1.0,16.903782430051617,16.730473887139578,0.0,Landing
10.100000000000001,-170.93134656473373,-968.5809687490972,169.9605924558137,-1.0117412540016137,1.3844287929909793,307.10280352125267,33.717727057529295,0.0,1.0,16.903782430051617,16.730473887139578,0.0,Landing
10.200000000000001,-172.56277379716977,-968.6293139747589,168.9566916223024,-0.9765383465014283,1.4183629630360675,307.2986968483958,34.16777522844094,0.0,1.0,16.903782430051617,16.730473887139578,0.0,Landing
10.3,-174.19172458147668,-979.712488820786,166.36569577358816,-0.8703277519417936,1.2548676553422364,307.60499171727406,33.52397962823712,0.0,1.0,16.903782430051617,16.730473887139578,0.0,Landing
10.4,-175.82990900883766,-983.6265426596809,168.7677239607771,-1.1510625449683705,1.5607884150232054,307.2887924243114,33.543178536147174,0.0,1.0,16.903782430051617,16.730473887139578,0.0,Landing
10.5,-177.48090651046817,-975.7138101333452,166.99669482667198,-0.926939140783526,1.388973526525227,307.34521574043595,33.66774418745711,0.0,1.0,16.903782430051617,16.730473887139578,0.0,Landing
10.600000000000001,-179.0702936321434,-968.5745945712994,167.7389196959087,-0.4663579591985963,1.2057920714542647,307.4213761353574,34.120607913686,0.0,1.0,16.903782430051617,16.730473887139578,0.0,Landing
10.700000000000001,-180.67278198169416,-968.7145632718453,169.6416102188725,-0.9817752066768066,1.4659365298062081,307.2921277679982,33.74667561851594,0.0,1.0,16.903782430051617,16.730473887139578,0.0,Landing
10.8,-182.3244793268274,-979.4622384638955,167.86237570787887,-0.7736368475445222,1.3796622787260184,307.21511580536094,33.42612468562547,0.0,1.0,16.903782430051617,16.730473887139578,0.0,Landing
10.9,-183.96760482446288,-994.6046673791669,169.40890762097766,-0.7355938223568006,1.1149428211963475,307.2385821293103,33.81412860881004,0.0,1.0,16.903782430051617,16.730473887139578,0.0,Landing
11.0,-185.64580531859,-995.41246450608,169.71302510656017,-0.9487726450443248,1.251348261839852,307.24070098610287,34.18244152733772,0.0,1.0,16.903782430051617,16.730473887139578,0.0,Landing
11.100000000000001,-187.3015416493578,-993.4569207256287,169.64110214247663,-0.5299697433708599,1.253682525595919,307.3780455884838,33.66024451815951,0.0,1.0,16.903782430051617,16.730473887139578,0.0,Landing
11.200000000000001,-188.93488942809103,-982.0408486686856,167.4740723105116,-0.6918205213897294,1.715388245962139,307.08950661098083,33.92018464454764,0.0,1.0,16.903782430051617,16.730473887139578,0.0,Landing
11.3,-190.55600956193342,-975.6698069741502,170.3071557099753,-0.7714605646202803,1.272961534504951,307.26359455756415,33.75030501257737,0.0,1.0,16.903782430051617,16.730473887139578,0.0,Landing
11.4,-192.17989068422855,-976.726468530694,168.20864111840172,-0.8535404549518112,1.1892779735177885,307.32361708913527,33.73692363238905,0.0,1.0,16.903782430051617,16.730473887139578,0.0,Landing
11.5,-193.8185217707445,-987.078228037211,168.7582623236826,-0.4649692491585657,1.8408955431596965,306.9672992655387,33.611446646024966,0.0,1.0,16.903782430051617,16.730473887139578,0.0,Landing
11.600000000000001,-195.49140070211948,-985.8142206616263,167.84817929862533,-0.6239546614192373,1.1476906089482855,307.23550294112556,33.80589999458804,0.0,1.0,16.903782430051617,16.730473887139578,0.0,Landing
11.700000000000001,-197.10896178753669,-999.9518009438815,167.88286220773978,-1.3094526201424965,1.4748524241453276,307.10924749827666,34.117677290196404,0.0,1.0,16.903782430051617,16.730473887139578,0.0,Landing
11.8,-198.8182807754639,-992.8105388274558,168.08959229734805,-0.7484695631081091,1.4046771000598746,307.37771015743897,33.66314567956963,0.0,1.0,16.903782430051617,16.730473887139578,0.0,Landing
11.9,-200.45545339625676,-1002.1387025166347,168.0129535842232,-1.0293449088419817,1.859005785316874,307.2496017317326,33.48503167695472,0.0,1.0,16.903782430051617,16.730473887139578,0.0,Landing
12.0,-202.11965530011986,-992.0401654331896,169.32210815318004,-0.7682317844198856,1.364946151908305,307.0638123774354,33.585688085923024,0.0,1.0,16.903782430051617,16.730473887139578,0.0,Landing
12.100000000000001,-203.77848160262985,-979.9270188220531,168.7148698011502,-0.8718560228306975,1.396333123913476,307.40534923273094,33.70956289073785,0.0,1.0,16.903782430051617,16.730473887139578,0.0,Landing
12.200000000000001,-205.35508849036702,-982.203948174907,169.08914145720536,-0.3418623508805918,1.5616748265656706,307.3830170800709,33.05790600593709,0.0,1.0,16.903782430051617,16.730473887139578,0.0,Landing
12.3,-207.0306750409944,-974.3309480501975,169.17473353175617,-0.4831957635030485,1.5321748161084858,307.19492816877755,33.17038603570159,0.0,1.0,16.903782430051617,16.730473887139578,0.0,Landing
12.4,-208.65013634288084,-976.9108677378823,167.66839755040732,-0.8146607792150173,1.327598425983809,307.05815914149196,33.46600687343045,0.0,1.0,16.903782430051617,16.730473887139578,0.0,Landing
12.5,-210.23964282905644,-964.0126078153398,168.12278605970684,-0.6672730644854709,1.327828633424506,307.34649051338624,34.099597183441944,0.0,1.0,16.903782430051617,16.730473887139578,0.0,Landing
12.600000000000001,-211.8507380800711,-956.1344591161456,168.8182959918129,-0.6365999641970866,1.7577577663052428,307.034526586233,33.62030654095906,0.0,1.0,16.903782430051617,16.730473887139578,0.0,Landing
12.700000000000001,-213.43080863846157,-954.5915142009162,168.8723642095231,-0.8788007956478725,1.063630344955029,307.20150582659176,33.78839527883147,0.0,1.0,16.903782430051617,16.730473887139578,0.0,Landing
12.8,-215.01260040006102,-947.869699784644,166.381398070993,-1.1926329939654994,1.56446689125594,307.36877321055726,33.76381025741054,0.0,1.0,16.903782430051617,16.730473887139578,0.0,Landing
12.9,-216.59008657899432,-970.1776912550768,168.08611946147644,-0.9320661334721949,1.4812166413347405,307.12018892908577,33.53378880766823,0.0,1.0,16.903782430051617,16.730473887139578,0.0,Landing
13.0,-218.28169709473696,-967.6579152817793,168.041501897327,-0.46803917430612696,1.4598381449135216,307.0430034133626,33.50606043593996,0.0,1.0,16.903782430051617,16.730473887139578,0.0,Landing
13.100000000000001,-219.85088997646992,-954.5315890485653,168.92593511738787,-0.7427700497393569,1.499519101014408,307.1817980547029,33.485864152137296,0.0,1.0,16.903782430051617,16.730473887139578,0.0,Landing
13.200000000000001,-221.36274452423714,-941.778490499223,168.1359806900787,-0.5181109569510731,1.3169643612772373,307.1081853483362,33.425892446099034,0.0,1.0,16.903782430051617,16.730473887139578,0.0,Landing
13.3,-222.99058954723307,-936.0394745032407,169.3497740048741,-0.6443440698010818,1.625726144686655,307.27152709086977,33.8157835149105,0.0,1.0,16.903782430051617,16.730473887139578,0.0,Landing
13.4,-224.53108734898612,-974.4542186137209,169.4518348322123,-0.7002387993896886,1.5185940408982261,307.17495562612976,33.72933961566935,0.0,1.0,16.903782430051617,16.730473887139578,0.0,Landing
13.5,-226.23501561730575,-970.0943609915099,166.88818809242534,-0.9577517765897596,1.4708110892232147,307.4516530119366,33.739303894394126,0.0,1.0,16.903782430051617,16.730473887139578,0.0,Landing
13.600000000000001,-227.84106135219062,-973.525451939065,167.25512882420117,-0.8109046364904963,1.3869402234226968,307.4567084381538,33.44171704509153,0.0,1.0,16.903782430051617,16.730473887139578,0.0,Landing
13.700000000000001,-229.39871460868144,-953.8597383183911,169.1855736311066,-0.7750768791013058,1.555195730031656,307.34623976523335,33.64047375879853,0.0,1.0,16.903782430051617,16.730473887139578,0.0,Landing
13.8,-231.0043143088977,-944.3368612200969,169.49618823371878,-1.0491914927313684,1.6155215302924395,307.441526230446,33.7567996655886,0.0,1.0,16.903782430051617,16.730473887139578,0.0,Landing
13.9,-232.5627456582911,-946.1481260474328,168.90971506207487,-0.867526866030603,1.2685872343243505,307.11788279270957,33.45237551733838,0.0,1.0,16.903782430051617,16.730473887139578,0.0,Landing
14.0,-234.1294552389186,-924.8647191361384,168.75485571157986,-0.8964790753223232,1.3236402265619298,307.4067028234449,33.82226089601218,0.0,1.0,16.903782430051617,16.730473887139578,0.0,Landing
14.100000000000001,-235.6286379045784,-924.1766861647817,169.43210712067457,-0.5487218896934567,1.335024235059128,307.3712540564022,34.3992408667991,0.0,1.0,16.903782430051617,16.730473887139578,0.0,Landing
14.200000000000001,-237.18362908911502,-938.6921632912445,169.38809857759782,-0.7031511969890307,1.3012481143211811,307.1853441864546,33.82586490865078,0.0,1.0,16.903782430051617,16.730473887139578,0.0,Landing
14.3,-238.82291605537483,-967.2726989499323,170.58486402985258,-1.0808071159562844,1.4507163504266058,307.39937322259766,33.133463039786676,0.0,1.0,16.903782430051617,16.730473887139578,0.0,Landing
14.4,-240.46500139932806,-985.7618008882182,169.0191628881513,-0.8249768364557175,1.1305512094692718,307.1416798208162,33.88658033248715,0.0,1.0,16.903782430051617,16.730473887139578,0.0,Landing
14.5,-242.1124380935561,-992.2845101578274,167.9192214177233,-0.8614198204119895,1.2989903898022046,307.3813183300439,33.87992092595939,0.0,1.0,16.903782430051617,16.730473887139578,0.0,Landing
14.600000000000001,-243.78433860616397,-983.6711199066143,166.51696134865432,-0.517817207304718,1.3949252545480255,307.12483096619724,33.30969549750274,0.0,1.0,16.903782430051617,16.730473887139578,0.0,Landing
14.700000000000001,-245.38335699886113,-959.3152179529737,166.91869440191007,-1.0189501781207093,1.618218877386312,307.35039269118636,33.64009721372069,0.0,1.0,16.903782430051617,16.730473887139578,0.0,Landing
14.8,-246.90901418332098,-930.4321524436715,167.69841807908796,-0.7015109745858439,1.2268832263255702,307.5922118498338,33.470743736829576,0.0,1.0,16.903782430051617,16.730473887139578,0.0,Landing
14.9,-248.43649936838233,-917.2841489821676,168.06696388217597,-0.4933147889139345,1.4542907083716934,307.1857682908899,33.714630362219516,0.0,1.0,16.903782430051617,16.730473887139578,0.0,Landing
15.0,-249.96977774377197,-933.3098494257227,170.18812107301972,-0.7792381422679813,1.1535103160103701,307.14413234675726,33.42446473335885,0.0,1.0,16.903782430051617,16.730473887139578,0.0,Landing
15.100000000000001,-251.5755634304496,-963.1803021354186,167.41829239595222,-0.6083568569429193,1.5644514369443452,307.3351386644996,33.710097700585344,0.0,1.0,16.903782430051617,16.730473887139578,0.0,Landing
15.200000000000001,-253.25240087905942,-977.3549601134788,168.56194701978768,-0.8920225722598698,1.3413173531295604,307.0472907947815,34.26730191309848,0.0,1.0,16.903782430051617,16.730473887139578,0.0,Landing
15.3,-254.85655254433937,-963.6557274131119,168.4932347574438,-0.3863911291314967,1.226320458314527,307.31573623823965,33.635648545501354,0.0,1.0,16.903782430051617,16.730473887139578,0.0,Landing
15.4,-256.39384206751515,-948.5223366248589,168.76612302406687,-1.009408898612077,1.3112290757910954,307.0836651642485,33.831199591274725,0.0,1.0,16.903782430051617,16.730473887139578,0.0,Landing
15.5,-257.9950125621837,-953.7567713822112,167.6608528346518,-0.7619188723338822,1.2094819109671175,307.33022770862567,33.54469409797746,0.0,1.0,16.903782430051617,16.730473887139578,0.0,Landing
15.600000000000001,-259.6253364012504,-951.1166559646766,169.31205590125077,-0.5796948261684797,1.5590286167501048,307.1205925843391,33.620559309520104,0.0,1.0,16.903782430051617,16.730473887139578,0.0,Landing
15.700000000000001,-261.14942534733854,-951.5083105101211,169.26981426125198,-0.5115033479273396,1.6244865040933827,306.9991942502535,33.74370275577011,0.0,1.0,16.903782430051617,16.730473887139578,0.0,Landing
15.8,-262.7525541147343,-955.6113921021846,169.1021613361003,-0.6036629343085926,1.4743382744021847,307.2354432464822,33.62493246237379,0.0,1.0,16.903782430051617,16.730473887139578,0.0,Landing
15.9,-264.40339336176135,-958.5853337854018,169.63455244028128,-0.884362098199714,1.4313261203623715,307.16810853404274,34.217810049503456,0.0,1.0,16.903782430051617,16.730473887139578,0.0,Landing
16.0,-265.94235201626554,-956.9638830453526,168.86905926655118,-0.9347589572824363,1.1140870321397276,307.31727923207836,33.59315406635349,0.0,1.0,16.903782430051617,16.730473887139578,0.0,Landing
16.1,-267.5373735299611,-941.2894060717234,168.626040126786,-0.44987549045152253,1.3160421481316413,307.3589496753782,33.923298465514414,0.0,1.0,16.903782430051617,16.730473887139578,0.0,Landing
16.2,-269.10984039211996,-945.4444110693315,168.52654302119663,-0.8442525050626215,1.2088921076786412,307.27077455116887,34.37430344786358,0.0,1.0,16.903782430051617,16.730473887139578,0.0,Landing
16.3,-270.6695740716122,-940.3718800030787,168.1533672940341,-0.8016457832257876,1.5018842407119708,307.49117635657035,33.598018421488035,0.0,1.0,16.903782430051617,16.730473887139578,0.0,Landing
16.400000000000002,-272.2392329299765,-937.8399031337607,170.1662123910828,-0.9088602628976562,0.9498785755871149,306.8817247093948,33.73401025808736,0.0,1.0,16.903782430051617,16.730473887139578,0.0,Landing
16.5,-273.79903990778877,-934.4862702905174,168.8138647284708,-0.8046533452031938,1.210369899086413,307.23855265814996,33.714090963200945,0.0,1.0,16.903782430051617,16.730473887139578,0.0,Landing
16.6,-275.3420054230648,-951.0697223056922,168.21018069404838,-0.6028910255965624,1.523742058908829,307.1479529481952,33.14557123085521,0.0,1.0,16.903782430051617,16.730473887139578,0.0,Landing
16.7,-276.99458154150494,-957.9707811813931,169.9872188011327,-0.5670200432273043,1.3160167157093887,307.367884889331,33.48199817116062,0.0,1.0,16.903782430051617,16.730473887139578,0.0,Landing
16.8,-278.58889381369573,-963.3935130280064,168.24032519950856,-1.1298098440667579,1.5178676599566656,307.3288945551644,33.75545551310129,0.0,1.0,16.903782430051617,16.730473887139578,0.0,Landing
16.900000000000002,-280.1589729882048,-949.5762406144535,167.7352819364105,-0.9185216470720219,1.4169635935044522,307.00364936832716,33.71662804670114,0.0,1.0,16.903782430051617,16.730473887139578,0.0,Landing
17.0,-281.7424627445772,-946.8266000414814,169.02077485218422,-0.8533018253101375,1.2173888336657503,307.2224017590705,33.363397254062846,0.0,1.0,16.903782430051617,16.730473887139578,0.0,Landing
17.1,-283.32302681390314,-948.1600960424997,169.80181603472616,-0.8039399485352454,1.6332868660786022,307.39295428576384,33.35719279575213,0.0,1.0,16.903782430051617,16.730473887139578,0.0,Landing
17.2,-284.8997734684173,-932.1530337386433,168.2353811248727,-0.9159687718493067,1.4557809772489936,307.48050430456976,34.12110779152222,0.0,1.0,16.903782430051617,16.730473887139578,0.0,Landing
17.3,-286.4032279132704,-930.833283359027,168.19315621315815,-0.5986580173835441,1.4724297588077064,307.3020825538516,34.34043018109524,0.0,1.0,16.903782430051617,16.730473887139578,0.0,Landing
17.400000000000002,-287.9771932306983,-917.9721090643055,169.3720830313701,-0.6694706169706273,1.2101900575679976,307.31122794053,33.85016168899697,0.0,1.0,16.903782430051617,16.730473887139578,0.0,Landing
17.5,-289.48963401373885,-942.1485681607236,167.73554818197206,-0.8756442975364042,1.3727196256275624,307.15372181237717,33.69420694402112,0.0,1.0,16.903782430051617,16.730473887139578,0.0,Landing
17.6,-291.11397075407405,-931.7832153826542,168.8786561945836,-0.8222979900416852,1.5436198265052852,307.2413160721601,33.63136439459676,0.0,1.0,16.903782430051617,16.730473887139578,0.0,Landing
17.7,-292.63610930761155,-941.9696617931094,168.50713596011204,-0.8484600469590435,1.0367692834919584,307.26537683189565,33.306898675120976,0.0,1.0,16.903782430051617,16.730473887139578,0.0,Landing
17.8,-294.1994823227044,-928.2052126743905,167.97671732268103,-0.42895887082611317,1.4972222132952548,307.2212510091374,33.79292465331063,0.0,1.0,16.903782430051617,16.730473887139578,0.0,Landing
17.900000000000002,-295.754996817446,-945.1990636119602,169.24835524131703,-0.7183599501017249,1.2545777298833178,307.51164232239535,33.733399403492484,0.0,1.0,16.903782430051617,16.730473887139578,0.0,Landing
18.0,-297.36210462567135,-932.1353629276017,169.2361597927398,-1.0160701012513578,1.700456945956883,307.2976731675062,34.129217368466314,0.0,1.0,16.903782430051617,16.730473887139578,0.0,Landing
18.1,-298.8601591373424,-927.1253830745876,168.51420737939733,-0.7840219992696117,1.218206487075648,307.2474990077785,33.99381394767132,0.0,1.0,16.903782430051617,16.730473887139578,0.0,Landing
18.2,-300.39062373281894,-912.345593814939,168.14591380465689,-1.2106590587776869,1.097807332381195,307.1947352056213,33.7776148960781,0.0,1.0,16.903782430051617,16.730473887139578,0.0,Landing
18.3,-301.92383259474605,-931.1831758798802,167.37593370758546,-0.9346019986905071,1.4632015561184502,307.55393501791934,33.704105773181126,0.0,1.0,16.903782430051617,16.730473887139578,0.0,Landing
18.400000000000002,-303.5160750167418,-944.5146045718615,167.3931335110191,-0.4521236238100426,1.4319969077633599,307.38683875867787,33.68967003294343,0.0,1.0,16.903782430051617,16.730473887139578,0.0,Landing
18.5,-305.11319675567825,-956.5895893210267,167.35968982120107,-0.6242250438584543,1.2721484195363082,307.51745075757026,33.604242779875676,0.0,1.0,16.903782430051617,16.730473887139578,0.0,Landing
18.6,-306.7067805413512,-937.9287288072645,169.1000427026671,-0.4974917048045189,1.3310568742433913,307.29288273144937,34.1745799257917,0.0,1.0,16.903782430051617,16.730473887139578,0.0,Landing
18.7,-308.20571866077813,-917.9851908432737,170.75926190184683,-0.5914959027721236,1.3823635007778226,307.2329665522043,34.13695632543737,0.0,1.0,16.903782430051617,16.730473887139578,0.0,Landing
18.8,-309.7031227098946,-928.6564384177949,169.6742734210515,-0.9549041397296147,1.3374644790687056,307.2671733518621,33.28967164810101,0.0,1.0,16.903782430051617,16.730473887139578,0.0,Landing
18.900000000000002,-311.35006273344015,-931.0304043623431,168.5321191118031,-0.5977533184906129,0.9928202903358572,307.24219704104803,33.747988497930294,0.0,1.0,16.903782430051617,16.730473887139578,0.0,Landing
19.0,-312.86087068258985,-944.7738072207698,167.483572649136,-0.8146082293193304,1.4382253013703254,307.1654646704644,34.546793580761,0.0,1.0,16.903782430051617,16.730473887139578,0.0,Landing
19.1,-314.42699174599846,-929.8615718506879,168.87950860376853,-0.44904765303122696,0.9453060442819232,307.42395820521574,33.97745126033236,0.0,1.0,16.903782430051617,16.730473887139578,0.0,Landing
19.200000000000003,-315.9993705926936,-935.1961031914128,168.43459605347874,-1.0388620000373783,1.4318145471480126,307.43213605128267,34.36816220772799,0.0,1.0,16.903782430051617,16.730473887139578,0.0,Landing
19.3,-317.5368511985469,-936.2055057382348,169.45154654520007,-0.9982181544520405,1.324233983880696,307.2635197871675,33.6370684852157,0.0,1.0,16.903782430051617,16.730473887139578,0.0,Landing
19.400000000000002,-319.10801927468964,-938.8184166551013,167.96072806605991,-0.9953218284109324,1.2710007231152893,307.26248544806265,33.74262309203665,0.0,1.0,16.903782430051617,16.730473887139578,0.0,Landing
19.5,-320.6934626759691,-947.5274750142033,167.90340544126016,-0.4327256678457893,0.892177658699491,307.3309882694721,33.52535009410286,0.0,1.0,16.903782430051617,16.730473887139578,0.0,Landing
19.6,-322.27448857361793,-940.125501575801,166.23170833175283,-0.4012952392707239,1.4754461723269274,307.1116028658937,33.20563840011241,0.0,1.0,16.903782430051617,16.730473887139578,0.0,Landing
19.700000000000003,-323.80864678256864,-916.6138554029429,166.3807572760698,-0.9523528334139146,1.2170545167734461,307.2130583547191,33.82405858665736,0.0,1.0,16.903782430051617,16.730473887139578,0.0,Landing
19.8,-325.2765319529838,-904.9707109017503,167.13008799722905,-0.7748514760999989,1.1971048657169892,307.0510327290011,33.700175975890936,0.0,1.0,16.903782430051617,16.730473887139578,0.0,Landing
19.900000000000002,-326.7993421281267,-891.8950717389179,168.56652170035295,-0.9812225332128176,1.281625294503505,307.4427031081898,33.79709197455476,0.0,1.0,16.903782430051617,16.730473887139578,0.0,Landing
20.0,-328.26812214126323,-897.731427859071,167.33650248194704,-0.924149155890757,1.3460865329536111,307.17182520695735,33.802137563039466,0.0,1.0,16.903782430051617,16.730473887139578,0.0,Landing
20.1,-329.7651890922792,-898.499447496556,168.5951997481345,-0.8375980508570553,1.3228411007955816,307.2675596583041,33.998807687060335,0.0,1.0,16.903782430051617,16.730473887139578,0.0,Landing
20.200000000000003,-331.29183936560946,-894.4606829382791,168.74633785028607,-0.46823122856944704,1.2063539507728096,307.3472654867671,33.91327418361898,0.0,1.0,16.903782430051617,16.730473887139578,0.0,Landing
20.3,-332.74042555595463,-889.7326011217955,168.86841344341843,-1.0288475681788154,1.296812447012144,307.08571250993555,33.06382881396048,0.0,1.0,16.903782430051617,16.730473887139578,0.0,Landing
20.400000000000002,-334.21385209788815,-890.808078275404,168.10609825303152,-0.7274795202471234,1.2143989138781306,307.26924867184255,34.356881962984986,0.0,1.0,16.903782430051617,16.730473887139578,0.0,Landing
20.5,-335.7458797569865,-904.1122544279004,166.4168789737578,-0.453576126555734,1.0746615427934483,307.25474260981207,34.0254006729808,0.0,1.0,16.903782430051617,16.730473887139578,0.0,Landing
20.6,-337.26098682809413,-914.0522253570451,168.16954374385278,-0.3971740631284487,1.2367410840216515,307.4275949704462,33.83368169240178,0.0,1.0,16.903782430051617,16.730473887139578,0.0,Landing
20.700000000000003,-338.7841132246734,-913.3185038247233,168.2072481187098,-0.7396604802748684,1.5043762328470798,307.42777780161737,33.45404552320796,0.0,1.0,16.903782430051617,16.730473887139578,0.0,Landing
20.8,-340.3124722761101,-914.6889681137621,168.94120731306856,-0.6273565388034317,1.0565409176471343,307.3067596661019,33.468196123138526,0.0,1.0,16.903782430051617,16.730473887139578,0.0,Landing
20.900000000000002,-341.83443166866294,-906.5807812961224,168.7704765010438,-0.7484362035634954,1.4067555976076198,307.2399926440114,33.539596278164176,0.0,1.0,16.903782430051617,16.730473887139578,0.0,Landing
21.0,-343.317017131154,-931.5197036540097,169.44211163462498,-0.6326926265227473,1.5599945652368317,307.1226156570599,33.70770002455278,0.0,1.0,16.903782430051617,16.730473887139578,0.0,Landing
21.1,-344.97007079438015,-950.925463401802,169.25214029397608,-0.7478044465485237,1.229868441926064,307.2309600331023,33.423036169776225,0.0,1.0,16.903782430051617,16.730473887139578,0.0,Landing
21.200000000000003,-346.58905898567195,-965.4942156473679,171.75330514478088,-0.5901028182678858,1.3591072492342238,307.28885330206936,33.886247973151086,0.0,1.0,16.903782430051617,16.730473887139578,0.0,Landing
21.3,-348.14448820939083,-938.6843592412787,169.78735091624608,-0.9248480074183797,1.4675628272396977,307.26179107220185,34.00486307071739,0.0,1.0,16.903782430051617,16.730473887139578,0.0,Landing
21.400000000000002,-349.66349259058654,-918.5869248870175,168.82705473064223,-0.7431694160025593,1.1545725827338824,307.03066706685377,34.147237238854046,0.0,1.0,16.903782430051617,16.730473887139578,0.0,Landing
21.5,-351.18199361010704,-925.7131759896992,167.458848074457,-0.9195374684474024,0.9218823243515238,307.18345116454816,33.8916253466566,0.0,1.0,16.903782430051617,16.730473887139578,0.0,Landing
21.6,-352.7730540893393,-939.7757574226943,168.68967266587666,-1.0570525265722406,1.095225088876746,306.93131482208844,34.06067391168497,0.0,1.0,16.903782430051617,16.730473887139578,0.0,Landing
21.700000000000003,-354.3623713777,-946.8109313631088,168.99336813616833,-0.5745312028809455,1.520284089472187,307.2072519178107,33.64921974819646,0.0,1.0,16.903782430051617,16.730473887139578,0.0,Landing
21.8,-355.9160482669226,-938.7619098092954,166.92029948484856,-0.6269773484007335,0.9488358368574401,307.3222482450685,33.398761213935266,0.0,1.0,16.903782430051617,16.730473887139578,0.0,Landing
21.900000000000002,-357.4668636383858,-930.3174393469361,169.01134990585257,-0.40825810055868417,1.377771716818587,307.8295371430679,33.465434568873945,0.0,1.0,16.903782430051617,16.730473887139578,0.0,Landing
22.0,-359.0139585744347,-914.5440739305967,167.61429176080605,-0.8224214637343825,1.511184910135471,307.36443908254205,33.834650010274096,0.0,1.0,16.903782430051617,16.730473887139578,0.0,Landing
22.1,-360.48876863657557,-916.3443120443616,168.77194546672132,-0.6112670124828214,1.1428286755589587,307.447594546991,33.58396441418557,0.0,1.0,16.903782430051617,16.730473887139578,0.0,Landing
22.200000000000003,-362.0485851986076,-915.4044401262694,169.79438822396003,-0.9127926170218679,0.8767763159139429,307.3472181223192,33.77860802280825,0.0,1.0,16.903782430051617,16.730473887139578,0.0,Landing
22.3,-363.59098077506604,-927.6991758925873,168.59753011579932,-0.9828020224435463,1.3466337039227831,307.205395596906,33.1012520341962,0.0,1.0,16.903782430051617,16.730473887139578,0.0,Landing
22.400000000000002,-365.1272645160385,-915.9498718948156,168.19695326017498,-0.42027506352556204,0.9887061045668251,307.28521330946126,33.556192657636565,0.0,1.0,16.903782430051617,16.730473887139578,0.0,Landing
22.5,-366.6283345580817,-910.5080763741511,169.90840267883289,-0.6394025568974465,1.2999567043317066,306.9825673674727,33.967599057368446,0.0,1.0,16.903782430051617,16.730473887139578,0.0,Landing
22.6,-368.1435211569368,-910.4929758038905,167.89097306274783,-0.8284482270066496,1.2280967214302003,307.09876629535347,33.72260162637582,0.0,1.0,16.903782430051617,16.730473887139578,0.0,Landing
22.700000000000003,-369.67972939505796,-917.9132812299712,167.35593632766512,-0.9640704362452643,1.575429098565215,307.2195544833055,33.81743890367225,0.0,1.0,16.903782430051617,16.730473887139578,0.0,Landing
22.8,-371.21790096423155,-914.9214653732882,168.85745087820902,-0.8563071286459409,1.4053039270215921,307.0587145302495,33.76245026282966,0.0,1.0,16.903782430051617,16.730473887139578,0.0,Landing
22.900000000000002,-372.71812848380324,-909.4288874982225,170.04664394975333,-0.6889870075514706,1.281406587877044,307.3301859053918,33.769384639909056,0.0,1.0,16.903782430051617,16.730473887139578,0.0,Landing
23.0,-374.2268738325491,-928.0915685661965,167.20158970732172,-0.6353874411057504,1.5507404679685992,307.252889191078,34.09966171718087,0.0,1.0,16.903782430051617,16.730473887139578,0.0,Landing
23.1,-375.85835880706253,-935.4119484447209,168.93602383447325,-1.1694549547844606,1.4038834765949095,307.1966042172319,33.42506624880105,0.0,1.0,16.903782430051617,16.730473887139578,0.0,Landing
23.200000000000003,-377.39518822602685,-940.2798884679781,168.15756441013696,-1.0804588377074673,1.2882116288923926,307.4462096724185,33.70825125340743,0.0,1.0,16.903782430051617,16.730473887139578,0.0,Landing
23.3,-378.92827327488897,-933.0059861447124,169.29971503799075,-0.7531439548698644,1.0259545477809544,307.23764189236795,34.29406483391808,0.0,1.0,16.903782430051617,16.730473887139578,0.0,Landing
23.400000000000002,-380.5233887377861,-944.4817143885642,168.2333996077685,-0.6389866365436563,1.3932427592487573,307.30459075708166,34.040347583168774,0.0,1.0,16.903782430051617,16.730473887139578,0.0,Landing
23.5,-382.11759679796967,-937.226491398519,167.21904231596446,-0.8377339185279429,1.170448508633151,307.3893413799685,33.41895672601535,0.0,1.0,16.903782430051617,16.730473887139578,0.0,Landing
23.6,-383.61440573188156,-928.6941590418677,168.1021370037883,-0.8466435125105725,1.213626714005358,307.2216990257032,33.778330145576845,0.0,1.0,16.903782430051617,16.730473887139578,0.0,Landing
23.700000000000003,-385.16685953299543,-913.7893680153069,167.89726864623537,-0.6164540614322378,1.4240901130401982,307.22769654071453,34.017805592098554,0.0,1.0,16.903782430051617,16.730473887139578,0.0,Landing
23.8,-386.6865436380462,-923.5139116400659,168.23874089316556,-0.4595857493209433,1.112176003804529,307.2111207487478,33.84101950579365,0.0,1.0,16.903782430051617,16.730473887139578,0.0,Landing
23.900000000000002,-388.2319752900819,-905.6122113221817,168.30940711130015,-0.5185271109067242,1.6837938639635723,307.3441210561082,33.5546293119192,0.0,1.0,16.903782430051617,16.730473887139578,0.0,Landing
24.0,-389.69492058960634,-898.2598255705396,168.57778062050622,-0.4940550746701544,1.2788862452979528,307.3862512188383,33.77820881987878,0.0,1.0,16.903782430051617,16.730473887139578,0.0,Landing
24.1,-391.1778427658989,-906.778757974257,167.29605732218516,-0.8699430132531186,1.8777912030595965,307.11434689609746,33.78715115401723,0.0,1.0,16.903782430051617,16.730473887139578,0.0,Landing
24.200000000000003,-392.7658690799532,-925.9805961566143,169.23294618361,-0.463893719407564,1.6054542355964663,307.1324231494698,34.14543140900177,0.0,1.0,16.903782430051617,16.730473887139578,0.0,Landing
24.3,-394.3248235703894,-940.335389941822,167.61708056728835,-0.8579798221123359,1.5063646437690403,307.22562605679013,33.523483209184796,0.0,1.0,16.903782430051617,16.730473887139578,0.0,Landing
24.400000000000002,-395.879519715608,-948.7330170245967,169.6974493360133,-1.3348742393774446,1.3094531857828455,307.350576022283,33.4536713192346,0.0,1.0,16.903782430051617,16.730473887139578,0.0,Landing
24.5,-397.50953416507616,-946.707764175528,168.51963259724397,-0.7845302086088244,1.7036219699144746,307.27635178877813,33.52880558793548,0.0,1.0,16.903782430051617,16.730473887139578,0.0,Landing
24.6,-399.05836239126705,-934.328073902759,168.72531856039285,-0.6688912596090509,1.085025880197982,307.22128060672935,33.8228457774698,0.0,1.0,16.903782430051617,16.730473887139578,0.0,Landing
24.700000000000003,-400.5511600851218,-898.6471922543727,167.0026641392863,-1.1656607179844078,1.192521821254286,307.06611655825554,33.378764845039704,0.0,1.0,16.903782430051617,16.730473887139578,0.0,Landing
24.8,-402.002770126348,-876.6023482989907,167.41022573251126,-0.9059173419338262,1.1994292276414482,307.3497574542347,33.36222814317584,0.0,1.0,16.903782430051617,16.730473887139578,0.0,Landing
24.900000000000002,-403.441374132762,-882.5148687182945,166.92020957258546,-0.7346180079866902,1.0187766368464835,307.26804018779535,33.968203140943935,0.0,1.0,16.903782430051617,16.730473887139578,0.0,Landing
25.0,-404.9637344287133,-897.3941320220091,168.53857750762938,-0.5879038300061911,1.3024652623595927,307.1538904377594,33.299993578002336,0.0,1.0,16.903782430051617,16.730473887139578,0.0,Landing
25.1,-406.48974078645807,-917.1986168588318,169.35631898104387,-0.7210055185266957,1.5371178985299285,307.317776194908,33.82716626206817,0.0,1.0,16.903782430051617,16.730473887139578,0.0,Landing
25.200000000000003,-408.02736721705617,-910.8436729908134,167.09604212131737,-0.6067664345398288,1.5604186650493201,307.3187228014008,33.952212520042245,0.0,1.0,16.903782430051617,16.730473887139578,0.0,Landing
25.3,-409.51795279366735,-918.6286802599965,169.5326267190328,-0.7870068161213652,1.4925531279720055,306.85309818951464,33.98662713005309,0.0,1.0,16.903782430051617,16.730473887139578,0.0,Landing
25.400000000000002,-411.08288418775805,-916.6182891258358,169.3530488488604,-0.6454973405074557,1.1127542547187028,307.3157351376291,33.931958948073174,0.0,1.0,16.903782430051617,16.730473887139578,0.0,Landing
25.5,-412.61045866268535,-915.5925134400717,169.2529136578864,-0.9234414966241492,1.2205405998176277,307.1603597093981,33.19280993485336,0.0,1.0,16.903782430051617,16.730473887139578,0.0,Landing
25.6,-414.0959153608677,-906.1600028044153,168.80070878852584,-0.8022364730303144,1.170564052474784,307.2303270706716,33.59347263095882,0.0,1.0,16.903782430051617,16.730473887139578,0.0,Landing
25.700000000000003,-415.61368420178013,-896.615345529858,169.8209865362726,-1.0195341675772993,0.9112344076854559,307.32050422643624,33.650758572470565,0.0,1.0,16.903782430051617,16.730473887139578,0.0,Landing
25.8,-417.09353539033464,-900.4390839864185,169.7539561957476,-0.8259831032720475,1.334010812285427,307.6871315002346,34.09233210523668,0.0,1.0,16.903782430051617,16.730473887139578,0.0,Landing
25.900000000000002,-418.5981107807998,-884.2914241284574,169.9306143935731,-0.8859503989863634,1.4061474549160375,307.03545664468777,33.94147959430207,0.0,1.0,16.903782430051617,16.730473887139578,0.0,Landing
26.0,-420.0351413224224,-888.4882745844151,169.40647722955399,-0.706697353337945,1.1777440794339762,307.3601530466474,33.62894740807215,0.0,1.0,16.903782430051617,16.730473887139578,0.0,Landing
26.1,-421.5359767632567,-894.2977031685358,169.1916375793503,-0.7985618373550468,1.2110220641906924,307.3067843614392,34.2468805675878,0.0,1.0,16.903782430051617,16.730473887139578,0.0,Landing
26.200000000000003,-423.0695992966425,-911.1309195517264,169.60895750044233,-0.913307382288239,1.4605297757594473,307.4157274178327,33.665973915277135,0.0,1.0,16.903782430051617,16.730473887139578,0.0,Landing
26.3,-424.59079592018105,-923.0170153458743,169.80650453104738,-0.8248278153757044,0.6485160293463786,307.4997404948467,33.5573083206464,0.0,1.0,16.903782430051617,16.730473887139578,0.0,Landing
26.400000000000002,-426.1510618399861,-916.9462842123379,167.9893333090714,-1.0851300688853467,0.4766480877714956,307.1727417322911,33.611143953143625,0.0,1.0,16.903782430051617,16.730473887139578,0.0,Landing
26.5,-427.65433071770417,-909.0596354666103,168.9316512461174,-0.6302010195283074,1.4099288189997983,307.2167739416449,34.13100119027117,0.0,1.0,16.903782430051617,16.730473887139578,0.0,Landing
26.6,-429.1360940975141,-904.514943556603,167.25571311273671,-0.7168523681341827,1.115973501245236,307.20451140148,34.004742417192254,0.0,1.0,16.903782430051617,16.730473887139578,0.0,Landing
26.700000000000003,-430.6736365577691,-896.5934982570728,166.9459423852433,-0.3827816584419333,1.1658072310618923,307.3938588594391,33.74437831114283,0.0,1.0,16.903782430051617,16.730473887139578,0.0,Landing
26.8,-432.13729820898953,-895.8495929763102,170.10742342147753,-0.5428791504970536,1.2550615885213618,307.1922902083388,33.47061824766932,0.0,1.0,16.903782430051617,16.730473887139578,0.0,Landing
26.900000000000002,-433.61534206239565,-873.5412796627996,168.2772585216317,-0.5174511084078913,1.0952500239926635,307.3127315705774,33.836877736173854,0.0,1.0,16.903782430051617,16.730473887139578,0.0,Landing
27.0,-435.0413429560831,-871.2375532103009,168.15317630040929,-1.1080051678080063,1.650041424832422,307.16093720921845,34.01858677174871,0.0,1.0,16.903782430051617,16.730473887139578,0.0,Landing
27.1,-436.49348597504104,-870.1349117327821,169.64601196535486,-1.4430288998513217,1.1457465542835132,307.53761613178574,33.37120408905393,0.0,1.0,16.903782430051617,16.730473887139578,0.0,Landing
27.200000000000003,-437.96601662105957,-876.7928175456176,167.93784382766114,-0.7180348321909543,1.620929262485471,307.3764591507654,33.62604271351652,0.0,1.0,16.903782430051617,16.730473887139578,0.0,Landing
27.3,-439.4253070438112,-879.5795718746148,169.57699559648833,-0.595789585739614,1.4155622757606863,307.26477842539134,33.70526618128571,0.0,1.0,16.903782430051617,16.730473887139578,0.0,Landing
27.400000000000002,-440.8913838344141,-884.238036648412,169.16477895994248,-0.564277843799985,1.452778712175058,306.9776781866834,33.90393185958177,0.0,1.0,16.903782430051617,16.730473887139578,0.0,Landing
27.5,-442.3872068043016,-885.7360786778712,169.03003634195056,-0.7151442092140163,1.367437107872207,307.2943207112637,33.11434756648785,0.0,1.0,16.903782430051617,16.730473887139578,0.0,Landing
27.6,-443.85398743720054,-872.5624295161537,170.10537906760607,-0.5855822362711551,1.593333324125493,307.22469322339737,33.896504126537245,0.0,1.0,16.903782430051617,16.730473887139578,0.0,Landing
27.700000000000003,-445.2541959819949,-877.8727568752628,168.19858833804895,-0.9905804325872245,1.1590344416667944,307.15854115578486,33.75354868015684,0.0,1.0,16.903782430051617,16.730473887139578,0.0,Landing
27.8,-446.77657058867794,-881.155176403763,168.6387260783289,-0.9561634650209063,1.5032800721740225,307.3874853027131,33.37092709415098,0.0,1.0,16.903782430051617,16.730473887139578,0.0,Landing
27.900000000000002,-448.25976331921936,-905.6578524592054,167.65430795939992,-0.48794335418813134,1.358082194279867,307.28070113675903,33.38896544936385,0.0,1.0,16.903782430051617,16.730473887139578,0.0,Landing
28.0,-449.7824852442909,-909.1169423683594,169.35801791943527,-0.7840274040601811,1.4264007810916068,307.1657206940073,33.6394968794624,0.0,1.0,16.903782430051617,16.730473887139578,0.0,Landing
28.1,-451.32215530051974,-902.3942048275557,167.98264178270816,-0.7314136880695059,1.2173931067776878,307.06019984623936,34.04789269138969,0.0,1.0,16.903782430051617,16.730473887139578,0.0,Landing
28.200000000000003,-452.77173434335714,-894.4310924133105,166.78572604686298,-0.8331811162113727,1.4574685726127428,307.6806208481722,33.767974389161516,0.0,1.0,16.903782430051617,16.730473887139578,0.0,Landing
28.3,-454.25464070635746,-896.1470747350403,168.30149948314806,-0.8427960369542112,1.127516769717162,307.3128743661464,33.91325804186555,0.0,1.0,16.903782430051617,16.730473887139578,0.0,Landing
28.400000000000002,-455.80289067419494,-920.0760162920573,168.25082481586355,-0.8847358040733985,1.5100603150477623,307.2106434033245,33.73721198137543,0.0,1.0,16.903782430051617,16.730473887139578,0.0,Landing
28.5,-457.3721144248174,-912.4277591422696,167.73829041548635,-0.8143728542475374,1.2797983700103093,307.31781873085026,34.506871441846826,0.0,1.0,16.903782430051617,16.730473887139578,0.0,Landing
28.6,-458.8167795020688,-904.992654326952,168.6992330996363,-0.8694151184411991,1.4053002678004276,307.08149716299135,33.230418378873466,0.0,1.0,16.903782430051617,16.730473887139578,0.0,Landing
28.700000000000003,-460.3278539458297,-894.0452077110875,169.2431193021025,-0.745775167050528,1.4896902999224815,307.2595422753974,33.50314532669045,0.0,1.0,16.903782430051617,16.730473887139578,0.0,Landing
28.8,-461.84234046337286,-898.2593717567851,169.03832262097785,-0.7911916153931954,1.343354503821819,307.29483543202787,33.72271325892376,0.0,1.0,16.903782430051617,16.730473887139578,0.0,Landing
28.900000000000002,-463.30807636085274,-899.3654580355723,169.54339450460876,-0.8661710648182898,1.4978591740474885,307.4272862290702,33.81171074919913,0.0,1.0,16.903782430051617,16.730473887139578,0.0,Landing
29.0,-464.82468123600756,-891.6580109443997,170.47200158574302,-0.6145150963313399,1.3230472173669345,307.24410396262704,33.671559040692806,0.0,1.0,16.903782430051617,16.730473887139578,0.0,Landing
29.1,-466.30063051809486,-878.0201409794926,167.30372507520428,-0.5361183744448884,1.0259192346158914,307.2794278640026,34.30947556816202,0.0,1.0,16.903782430051617,16.730473887139578,0.0,Landing
29.200000000000003,-467.6981770657502,-888.2540064748467,168.43450921759788,-0.7640812005730909,1.5068191910889335,307.46035819887175,33.60525837443022,0.0,1.0,16.903782430051617,16.730473887139578,0.0,Landing
29.3,-469.2659512683818,-880.9309849620603,167.27296067075318,-0.9856097043987618,1.492652660363332,307.22322831006454,33.828644960332554,0.0,1.0,16.903782430051617,16.730473887139578,0.0,Landing
29.400000000000002,-470.70528544290516,-890.7125278908665,167.56615804600972,-0.9625176304933248,1.1030309221198666,307.3802420335087,33.10206264061539,0.0,1.0,16.903782430051617,16.730473887139578,0.0,Landing
29.5,-472.15173970520453,-867.3684427451689,169.16666387857057,-0.8681997736598706,1.3832724531086757,307.38770441794736,34.0928381590983,0.0,1.0,16.903782430051617,16.730473887139578,0.0,Landing
29.6,-473.60279348210764,-889.6526720737937,167.07443225193427,-0.5967510841681147,1.2695234498263492,307.0920590406795,33.811653245548875,0.0,1.0,16.903782430051617,16.730473887139578,0.0,Landing
29.700000000000003,-475.15354880327413,-878.1239717355105,168.62800615421122,-0.8713572531428864,1.582743329809794,307.2214581517678,33.97298615502028,0.0,1.0,16.903782430051617,16.730473887139578,0.0,Landing
