time_s,altitude_ft,vertical_speed_fpm,ias_kt,pitch_deg,roll_deg,heading_deg,throttle_pct,afterburner_on,gear_down,flaps_deg,speedbrake_pct,weight_on_wheels,label
0.0,0.050797324238568344,-39.30384342092378,16.63117130841822,-0.12964285560714267,-1.2311199128618335,328.5448279746065,20.846900307842628,0.0,1.0,0.0,0.0,1.0,Taxi
0.1,-0.08021548716451093,-32.06674118858058,17.36590691340732,-0.022369496548503204,0.07762437227104706,328.6051722201364,21.81909247007626,0.0,1.0,0.0,0.0,1.0,Taxi
0.2,-0.10953638170433455,-12.470455640613814,16.683669574520266,-0.2606477829846079,0.5240577193042373,328.5532560601564,22.153687259277486,0.0,1.0,0.0,0.0,1.0,Taxi
0.30000000000000004,-0.011554953964500722,9.76410355252723,17.452713616228678,-0.3379968591818635,0.3411086299199566,328.59790431247666,22.993540710643586,0.0,1.0,0.0,0.0,1.0,Taxi
0.4,-0.031394969401874785,5.945263947018031,16.717388867692655,-0.23184034264445819,0.06249068279459488,328.7117369334169,21.600309329913564,0.0,1.0,0.0,0.0,1.0,Taxi
0.5,-0.0798100619692444,-25.926704836546453,17.023233011904964,0.07129269957872844,0.017243885651790587,328.6063095450006,21.46531037468732,0.0,1.0,0.0,0.0,1.0,Taxi
0.6000000000000001,-0.141188478147233,35.6262559585935,17.217938937230365,-0.10886980341428656,0.04781020470111865,328.61749296522055,21.793964464924766,0.0,1.0,0.0,0.0,1.0,Taxi
0.7000000000000001,0.14673631039109272,8.567191197659056,17.457717375792267,-0.10113596138722541,0.05883455588277126,328.56122227285846,21.937332953910435,0.0,1.0,0.0,0.0,1.0,Taxi
0.8,-0.03697410598094907,35.18269621029319,17.750336600336126,-0.1839672230580031,0.021056898043718873,328.5686161249098,22.26262577787934,0.0,1.0,0.0,0.0,1.0,Taxi
0.9,0.03472500290423297,-15.83549591623263,16.834141892283515,0.03336515889826759,-0.21623122779371173,328.5594030156474,21.77353079795597,0.0,1.0,0.0,0.0,1.0,Taxi
1.0,0.06755883080992957,-24.301719145482384,16.673405767852326,0.15069200438336472,0.5879146806205962,328.7116943991464,21.29965224285967,0.0,1.0,0.0,0.0,1.0,Taxi
1.1,-0.15848270170836098,34.72287649683141,17.997653406139964,0.29653619901461536,-0.26665750149401196,328.393567032605,21.649628947559336,0.0,1.0,0.0,0.0,1.0,Taxi
1.2000000000000002,0.20833938538839003,-1.8185946280271708,16.898471544297923,0.06941769610564319,-0.46933975404570905,328.4916312399158,21.502613978996134,0.0,1.0,0.0,0.0,1.0,Taxi
1.3,0.05846585766979369,35.32308137666862,17.400694235468904,-0.013810570179829076,0.3234648214299514,328.5548408089978,22.23478425008929,0.0,1.0,0.0,0.0,1.0,Taxi
1.4000000000000001,0.018132705174982087,-45.14284569063768,16.744936228661764,-0.0954368509632265,0.146493952445978,328.49208617760337,22.570405505453216,0.0,1.0,0.0,0.0,1.0,Taxi
1.5,-0.017374843064798386,-26.40911921521035,17.635200779638645,-0.2864729687567863,0.39355190209532726,328.69657382028277,22.226616906971124,0.0,1.0,0.0,0.0,1.0,Taxi
1.6,-0.07357973840625803,-45.83248601986779,16.707629619368213,-0.04983297069084048,-0.012391202567762468,328.64419281638425,21.32598291334527,0.0,1.0,0.0,0.0,1.0,Taxi
1.7000000000000002,-0.21102972492435682,-5.508838084944244,17.564712843793107,-0.3327090569378352,0.31148797842518083,328.5380410018248,21.206462999153192,0.0,1.0,0.0,0.0,1.0,Taxi
1.8,-0.04491903348951959,-28.16873957866024,16.77677729709978,-0.1678536071476149,0.27944934564831436,328.49869181410884,22.457380905722363,0.0,1.0,0.0,0.0,1.0,Taxi
1.9000000000000001,-0.21442343629955923,26.334912274840857,18.386891044867212,-0.41275599257973683,-0.19475533972293504,328.489581924252,22.26652087235536,0.0,1.0,0.0,0.0,1.0,Taxi
2.0,-0.07935516355015255,33.980739199609694,17.602478104972057,0.07372171723247303,-0.42991805976264974,328.5109556662127,21.79453476787035,0.0,1.0,0.0,0.0,1.0,Taxi
2.1,0.12498466250852887,21.542878990935645,17.306004181128397,-0.1527197500868383,-0.2825095993647954,328.61408941543755,22.254800328577907,0.0,1.0,0.0,0.0,1.0,Taxi
2.2,-0.10670904134488107,33.59922889036879,17.22579001920033,-0.00046303639603347685,-0.07364408448513146,328.5801722849326,21.898028910181072,0.0,1.0,0.0,0.0,1.0,Taxi
2.3000000000000003,0.08864098090169137,-25.50945329813848,16.97378192139823,0.09445979085552281,0.15839706091980899,328.4630920258933,21.600823852029627,0.0,1.0,0.0,0.0,1.0,Taxi
2.4000000000000004,-0.002562603982163575,5.879089902907697,17.617151328433074,-0.2138625262719271,0.8702027024720519,328.6553463610272,21.99915790033942,0.0,1.0,0.0,0.0,1.0,Taxi
2.5,-0.0773135918303426,-32.20001632542728,16.34635564621317,-0.136088313802537,-0.1548787551482985,328.7291025733284,21.794198009998905,0.0,1.0,0.0,0.0,1.0,Taxi
2.6,-0.07235910072544502,-36.35955003268806,16.919667663267347,0.18613008067575698,0.1051697627374406,328.47664437008757,22.791697166396702,0.0,1.0,0.0,0.0,1.0,Taxi
2.7,-0.1843603541456039,31.455798201943537,16.86087084935583,0.2186906053081768,-0.4613427536858565,328.46237699899416,21.63523320109677,0.0,1.0,0.0,0.0,1.0,Taxi
2.8000000000000003,0.07996539917937502,5.032621636776905,17.393698961086645,0.04048786532497306,0.6411021393237248,328.6639278101293,22.118429961083752,0.0,1.0,0.0,0.0,1.0,Taxi
2.9000000000000004,-0.047195992541560566,62.38906737628802,17.967198593439072,-0.05755525338747765,0.6726070027790632,328.60206872939887,22.336666988897683,0.0,1.0,0.0,0.0,1.0,Taxi
3.0,0.12758498273583616,-17.220331605944807,16.842833676752235,-0.17047740352588303,-0.5638167026579954,328.64348609559306,21.63605073113504,0.0,1.0,0.0,0.0,1.0,Taxi
3.1,-0.006136258850349048,-12.245658841959438,17.97045356341988,-0.0706336863008181,0.7668948563880602,328.5753980796701,20.98607120931403,0.0,1.0,0.0,0.0,1.0,Taxi
3.2,-0.10842428675135776,-59.1360424318841,17.186158809222036,-0.30499663594956256,-0.5652320338313696,328.5100605886371,21.602645749385935,0.0,1.0,0.0,0.0,1.0,Taxi
3.3000000000000003,-0.16809522942358435,-1.9868227432332286,18.077774673315744,0.42203966998388087,-0.4027383095806314,328.50583785587855,22.0667989157026,0.0,1.0,0.0,0.0,1.0,Taxi
3.4000000000000004,-0.01607037256651522,-2.2793133897741953,18.30037408782957,0.1674404423045484,-0.18101536035969407,328.5749861900007,21.969126446267374,0.0,1.0,0.0,0.0,1.0,Taxi
3.5,-0.1198208537002288,69.18118269640696,17.337061430796012,0.05914675146651323,-0.7383128325521081,328.29179446056696,22.630798815501205,0.0,1.0,0.0,0.0,1.0,Taxi
3.6,0.17781068405845044,5.998805461066567,17.197741439475024,0.04727721048665785,-0.5988861329521132,328.530332144373,21.567457878392513,0.0,1.0,0.0,0.0,1.0,Taxi
3.7,0.013923654738817522,-7.164988717006442,17.744715509015897,-0.139971580751353,0.23504440871021293,328.65521595049063,20.471351837310383,0.0,1.0,0.0,0.0,1.0,Taxi
3.8000000000000003,-0.1556457972852611,-34.95178535655238,17.340255912256662,0.05297477232576081,0.25138898220221223,328.50219623916985,21.96869518819996,0.0,1.0,0.0,0.0,1.0,Taxi
3.9000000000000004,0.003051757275688449,-4.514769292219328,16.96388947267734,0.18697267546349444,-1.1064005064969769,328.60143098536594,22.334205540516713,0.0,1.0,0.0,0.0,1.0,Taxi
4.0,-0.00865019172227922,8.176471591850605,16.897266434286472,-0.5413739841994398,0.7573401120817133,328.5669784398109,21.595380159022664,0.0,1.0,0.0,0.0,1.0,Taxi
4.1000000000000005,-0.11476343932600817,25.294133563213904,17.676776933560227,-0.012466772555433034,0.05156031597981378,328.53979920312304,21.552410985609477,0.0,1.0,0.0,0.0,1.0,Taxi
4.2,0.1295224250917579,15.194181611270553,16.426358493253424,0.013829779263656694,0.1579758474566494,328.4627829806702,21.735715841886762,0.0,1.0,0.0,0.0,1.0,Taxi
4.3,0.06732071633407348,20.888781887713566,16.9961302810716,-0.34804459600565507,-0.08102217693155231,328.62038257274753,21.949790982988688,0.0,1.0,0.0,0.0,1.0,Taxi
4.4,-0.010319529887440372,-32.04429855954928,16.539741370356044,-0.20578798892920214,-0.0525091682198258,328.7460544639596,21.94971529215818,0.0,1.0,0.0,0.0,1.0,Taxi
4.5,-0.03069906770598855,2.0502045223538254,16.461851687538804,0.24282888133702984,0.1863288397358216,328.4298273059569,22.09821629361256,0.0,1.0,0.0,0.0,1.0,Taxi
4.6000000000000005,0.07757173894584257,39.83618589453502,16.468684344376896,-0.15487387231852726,1.0324941998704094,328.5985912078693,21.826252531201913,0.0,1.0,0.0,0.0,1.0,Taxi
4.7,0.18886139958523468,31.23679984188713,16.75722059299741,0.33406620230975886,-0.4877884237709899,328.69151655861253,22.02603350907816,0.0,1.0,0.0,0.0,1.0,Taxi
4.800000000000001,0.12548493150344706,-33.793496481306356,17.19179593269001,0.07071606851008803,0.03882188974034495,328.5335626060996,21.959438242076526,0.0,1.0,0.0,0.0,1.0,Taxi
4.9,-0.09139574346068921,-32.32023237065233,16.175057117217353,0.06052308464330336,-0.16091279807837397,328.5840198666731,21.880517038105385,0.0,1.0,0.0,0.0,1.0,Taxi
5.0,0.027260237731973,-26.830313849807997,16.224199759891256,-0.28591011161825963,1.35845580568148,328.3380046742477,22.471736572662074,0.0,1.0,0.0,0.0,1.0,Taxi
5.1000000000000005,-0.00866663774559298,12.761955746286228,17.73243203231314,-0.007700493410377207,-0.47549455862067086,328.57547598288977,21.849841847707502,0.0,1.0,0.0,0.0,1.0,Taxi
5.2,-0.02758596472925813,-2.8027474401972996,16.953788976559682,-0.12409289407182697,-0.16540646160808462,328.48105205976935,21.486330988935595,0.0,1.0,0.0,0.0,1.0,Taxi
5.300000000000001,0.01324650053098645,17.591919137611804,17.207598534061027,-0.09693875536965701,0.7077743472147496,328.6010620250555,21.34820350529434,0.0,1.0,0.0,0.0,1.0,Taxi
5.4,0.079292957942466,-1.8417201974947612,17.90323104395066,0.031238876242304467,-0.12656763106317667,328.2724172734721,21.96198805558571,0.0,1.0,0.0,0.0,1.0,Taxi
5.5,-0.03679456571673196,-0.36450520316828755,17.700395213640256,0.0007164698664224867,-0.5944716746350827,328.5104885965411,21.835475078255932,0.0,1.0,0.0,0.0,1.0,Taxi
5.6000000000000005,0.011423974515144979,-16.134356524863076,17.75806184861985,-0.42462189572339826,-0.3090478251422485,328.6321118106007,21.604173816393953,0.0,1.0,0.0,0.0,1.0,Taxi
5.7,-0.0013788246818494184,-2.029241512064273,16.340998546982743,0.06645422517278184,-0.7321626692791986,328.6326153754336,21.325401403860646,0.0,1.0,0.0,0.0,1.0,Taxi
5.800000000000001,-0.04694077327705337,-18.87837817575927,17.941234576872397,-0.02905720510909533,0.20956174649084422,328.7599183372422,21.754819951824025,0.0,1.0,0.0,0.0,1.0,Taxi
5.9,-0.08296791636365142,-9.145561888284636,17.453526647474167,-0.12416093147792248,-0.012146475193302142,328.54130229538725,21.67670741405098,0.0,1.0,0.0,0.0,1.0,Taxi
6.0,-0.04710663412327265,11.74517621943697,16.246596382308184,0.38547595885711033,0.38945357367405653,328.43601275277547,21.587888085751764,0.0,1.0,0.0,0.0,1.0,Taxi
6.1000000000000005,0.011785107820131431,23.68667928417433,17.221749299697038,-0.050807528541502237,-0.05959953916223435,328.5165480357965,21.049853842937107,0.0,1.0,0.0,0.0,1.0,Taxi
6.2,0.03546548005722018,-5.037799754812923,16.740900738712675,0.24281548109872092,0.6357901172169096,328.6485919177011,22.15321786154796,0.0,1.0,0.0,0.0,1.0,Taxi
6.300000000000001,-0.07229563289733733,-29.758425198034473,18.231581523447918,-0.2017089299396756,0.18923170182589324,328.41641328872026,22.333304458125394,0.0,1.0,0.0,0.0,1.0,Taxi
6.4,-0.137007018170041,-36.03187963383764,16.958624877171303,-0.1630681502445746,0.23913996341107485,328.6273979386667,21.26601525488038,0.0,1.0,0.0,0.0,1.0,Taxi
6.5,-0.1446939181119681,15.213359536666104,17.639998309615248,0.09919174488663471,0.12981118721041326,328.661139076524,20.45857525080281,0.0,1.0,0.0,0.0,1.0,Taxi
6.6000000000000005,0.0037711647859931044,50.451828770170856,17.55028528218587,0.007645334255772733,-0.49758652810085535,328.441126058352,21.796493394931215,0.0,1.0,0.0,0.0,1.0,Taxi
6.7,0.11525212568081318,43.327847104904606,16.994399438397554,-0.06962346537115825,1.098127064145443,328.42846939641777,21.161751824048114,0.0,1.0,0.0,0.0,1.0,Taxi
6.800000000000001,0.07194531741255483,39.11864154822201,16.15259979162338,-0.21300488961580194,-0.3929602139994848,328.47900398177217,21.393250204128787,0.0,1.0,0.0,0.0,1.0,Taxi
6.9,0.19936437252710307,-67.47486080770975,17.399729423779156,0.2314619493050431,0.01871960415186586,328.7183169940596,21.795153583265552,0.0,1.0,0.0,0.0,1.0,Taxi
7.0,-0.22212217835773562,-6.989847197988335,17.216247586802858,-0.164853691052881,-0.2121824062203724,328.6152259042335,22.217177372451467,0.0,1.0,0.0,0.0,1.0,Taxi
7.1000000000000005,0.03699608142261309,-18.16538110499155,16.59288756702517,-0.2175893178065228,-0.23696290614452462,328.67949478514515,21.44230549776176,0.0,1.0,0.0,0.0,1.0,Taxi
7.2,0.10853746700214524,34.575155503293296,16.351294483739508,0.15413367586602306,-0.3418198385908295,328.6090209211443,21.797170204296684,0.0,1.0,0.0,0.0,1.0,Taxi
7.300000000000001,-0.04924640084126922,14.944734439451452,17.32301161402791,-0.03499270915334049,0.22291654025918128,328.57267487273157,21.54655033401224,0.0,1.0,0.0,0.0,1.0,Taxi
7.4,0.11171975361987024,-20.28208344060134,16.313104264710773,-0.28253471325974844,-0.5829277986166287,328.56892007107126,22.02749580819217,0.0,1.0,0.0,0.0,1.0,Taxi
7.5,0.007127049799138439,0.18191183696562754,17.281517429155155,-0.05833117855943569,-1.0222582369102393,328.4818509686206,21.770260269955454,0.0,1.0,0.0,0.0,1.0,Taxi
7.6000000000000005,-0.0483368416564412,-24.17660129436358,18.241549399653227,-0.00743295500699117,-0.24190686616719537,328.6103506300118,21.827726569554994,0.0,1.0,0.0,0.0,1.0,Taxi
7.7,-0.009163252851947756,11.672816232218253,16.68866145616694,-0.35107018939180423,-0.2942830857254967,328.72475898914195,21.66711840307592,0.0,1.0,0.0,0.0,1.0,Taxi
7.800000000000001,0.06549113096022957,59.891377064191,17.642705648053017,-0.27633825971657094,0.7300966853957076,328.6121556165682,21.684785333558846,0.0,1.0,0.0,0.0,1.0,Taxi
7.9,0.2511200436645137,-1.0707395951297844,16.25537446391807,0.05704604710223311,-0.02956760296112873,328.5806282394241,22.44968904560805,0.0,1.0,0.0,0.0,1.0,Taxi
8.0,-0.014516950827596782,-9.587488291009839,16.258248364157883,0.08603289478759141,0.16361297073899972,328.3621039516489,21.59417621816713,0.0,1.0,0.0,0.0,1.0,Taxi
8.1,0.01755368950518028,-32.9886057198953,18.078761464370878,0.039057875788257104,-0.33914477453403696,328.52079106839665,21.8475051127663,0.0,1.0,0.0,0.0,1.0,Taxi
8.200000000000001,0.08617701506503712,-14.47686328137713,18.419728225495145,0.007435080162181695,0.30218330950991384,328.54515537780776,21.50972267778561,0.0,1.0,0.0,0.0,1.0,Taxi
8.3,-0.08690126723448262,-12.58125980933552,16.674737540754112,0.16495222273896348,0.09359424536142218,328.3454890335954,21.32329480109824,0.0,1.0,0.0,0.0,1.0,Taxi
8.4,-0.04535260954149751,-31.29903417420373,16.714582998543616,0.017808480491839904,0.18912117657625618,328.5795185277934,22.317232389505108,0.0,1.0,0.0,0.0,1.0,Taxi
8.5,-0.0703181558059817,-5.738995983407466,16.891237647469744,-0.009243511959222656,-0.42623764119601554,328.56798407555766,21.066345602949717,0.0,1.0,0.0,0.0,1.0,Taxi
8.6,-0.11559624715152012,-39.270179717966414,17.020350870343204,-0.06795117179401017,-0.37690913903959555,328.7236571640433,21.877105083164853,0.0,1.0,0.0,0.0,1.0,Taxi
8.700000000000001,-0.24170350813132974,35.40312972931147,17.921138294775282,0.2106686415406594,0.46122940315842514,328.5127311975234,21.88276164540599,0.0,1.0,0.0,0.0,1.0,Taxi
8.8,0.10669749284057549,23.30282388027321,16.499476045359113,-0.03294052705813599,0.17730630985563048,328.82284935214693,21.771279648621256,0.0,1.0,0.0,0.0,1.0,Taxi
8.9,0.0009178722498457266,16.396874808320263,16.04362327019291,0.06690055731991207,-0.007344489416884646,328.70515163165487,21.70761322281572,0.0,1.0,0.0,0.0,1.0,Taxi
9.0,-0.15971913408972863,-46.31418368478092,17.645185311173073,-0.30233971558384853,0.10123301429709453,328.35967918634867,22.1229962868547,0.0,1.0,0.0,0.0,1.0,Taxi
9.1,-0.12487342558332931,23.918350668416664,16.85581899480235,-0.2524196446220728,0.40136667420290767,328.390828998879,22.02708261256261,0.0,1.0,0.0,0.0,1.0,Taxi
9.200000000000001,0.1205096255919289,50.58249282067476,16.696185620893072,-0.14281670551975406,0.057496141431965936,328.5833786531724,22.12750759322748,0.0,1.0,0.0,0.0,1.0,Taxi
9.3,0.09319333001364503,41.97033101335855,17.142722886464785,-0.002070670633724278,-0.33816133561734635,328.37918599587306,21.679033542438596,0.0,1.0,0.0,0.0,1.0,Taxi
9.4,0.08497822948346334,-32.83918299074599,16.3438432820387,-0.4128509201750227,-0.3966058171728962,328.57697413399046,22.75716337138562,0.0,1.0,0.0,0.0,1.0,Taxi
9.5,-0.043686289361801196,-14.287913841178904,17.304651242678474,-0.1410096566210765,0.48011539307297735,328.63824108117774,22.136863227993828,0.0,1.0,0.0,0.0,1.0,Taxi
9.600000000000001,0.021753760807750357,-19.458787914469763,17.533041030807933,-0.24782844760427403,-0.39409263977648873,328.5480273848524,21.54752047067048,0.0,1.0,0.0,0.0,1.0,Taxi
9.700000000000001,-0.012315710088885618,-10.611282725506385,17.862561960458564,-0.12264244282308717,0.15671901667856658,328.5650889694675,21.574774822509628,0.0,1.0,0.0,0.0,1.0,Taxi
9.8,-0.09674270298933327,17.798273796687198,18.1095026622811,-0.010528948591384465,-0.3826221981705047,328.6870097484731,21.569205198928078,0.0,1.0,0.0,0.0,1.0,Taxi
9.9,0.11074512979118618,36.65178470494849,16.256968143728212,-0.19725908804908876,0.7621431448993624,328.5529039923133,21.837964789223903,0.0,1.0,0.0,0.0,1.0,Taxi
10.0,0.1709432134358567,6.8515062769268225,17.01768318254062,0.058793112511337745,-0.7182444639861395,328.4490621521561,21.281225205673284,0.0,1.0,0.0,0.0,1.0,Taxi
10.100000000000001,-0.06248517160469935,-39.37301241869907,16.746887472984373,0.42399878646871514,0.6022609024562932,328.55649769186005,22.07174322613552,0.0,1.0,0.0,0.0,1.0,Taxi
10.200000000000001,-0.08611993230230934,-20.062321784265222,17.004838092589974,0.03048426957264108,0.9515099817379756,328.71067364175474,21.764686603802122,0.0,1.0,0.0,0.0,1.0,Taxi
10.3,0.0706316045145304,8.610050430911144,17.33473095270363,-0.23334154281467123,0.03612252311562948,328.4851468799907,21.403870371512863,0.0,1.0,0.0,0.0,1.0,Taxi
10.4,-0.01943491945014377,3.1840776551720587,16.751068192770592,-0.4925163432275034,0.05702818103022588,328.5653053642209,21.322120917474255,0.0,1.0,0.0,0.0,1.0,Taxi
10.5,-0.07019954402644919,-42.651678124127926,16.07217649950032,0.0667521214184581,-0.01288871997583897,328.5123465860222,21.92997082254168,0.0,1.0,0.0,0.0,1.0,Taxi
10.600000000000001,-0.1426267861061094,-43.301352993935815,16.072352949395047,0.031990049608521545,0.8252331294939691,328.502273163386,21.497139756320813,0.0,1.0,0.0,0.0,1.0,Taxi
10.700000000000001,-0.235941684419823,28.484378672328614,17.021435012880346,-0.11562069544120684,-0.5565402095612674,328.5099579470666,22.04342999787887,0.0,1.0,0.0,0.0,1.0,Taxi
10.8,0.07222234933519375,66.4828205347328,18.233855490864038,-0.016594352893793712,-0.2531720721991561,328.6058257585937,22.2348547249828,0.0,1.0,0.0,0.0,1.0,Taxi
10.9,0.1897873165675545,68.74997329329744,18.401605016187514,-0.20384834903068205,-0.5416973728786687,328.5919149655706,21.570882807955865,0.0,1.0,0.0,0.0,1.0,Taxi
11.0,0.10780818204666408,-1.463513034837187,17.92568387660349,-0.12621158687459377,0.27452094290790663,328.59438600717874,21.19061615499108,0.0,1.0,0.0,0.0,1.0,Taxi
11.100000000000001,0.06490478416100767,-44.77629734550959,17.26866488657504,-0.10555889858991847,-0.64094871326368,328.438101554221,22.44752145840279,0.0,1.0,0.0,0.0,1.0,Taxi
11.200000000000001,-0.03409417015999358,-30.39520844281573,16.958332796187044,-0.01640311862993308,-0.18031398044273916,328.41439861004164,22.69952581849509,0.0,1.0,0.0,0.0,1.0,Taxi
11.3,-0.04416786016741469,-28.774350292788068,17.60206992062458,-0.29808043430491116,-0.33916620510906953,328.36665988139544,21.304834984915868,0.0,1.0,0.0,0.0,1.0,Taxi
11.4,-0.07896696730293279,-5.603551747447042,16.71397197500957,0.09126918557413613,0.05591434781942151,328.65077225832306,22.320086223937306,0.0,1.0,0.0,0.0,1.0,Taxi
11.5,-0.062111928897228934,12.069821938853517,16.11918424996908,-0.5253158559458798,0.32247304319804526,328.45994722544015,22.478810040840845,0.0,1.0,0.0,0.0,1.0,Taxi
11.600000000000001,0.016181249526852758,41.93293303123106,17.24384648186353,-0.27257500601873097,0.4665293689140874,328.3223689444163,22.179512114420724,0.0,1.0,0.0,0.0,1.0,Taxi
11.700000000000001,0.13069769785322236,22.36588968768653,17.29632167484149,0.12662636697653296,-0.7570050784463662,328.644221751475,21.549097942765442,0.0,1.0,0.0,0.0,1.0,Taxi
11.8,0.049717519541203556,-11.222279418790157,17.061419914438304,-0.0602830667480443,-0.2618078372824307,328.47667595070243,21.29017811762967,0.0,1.0,0.0,0.0,1.0,Taxi
11.9,-0.03993014756709815,-14.587573444284212,17.269139303170952,-0.20184439429928805,-0.03798073522201168,328.6079163908835,21.942834649718044,0.0,1.0,0.0,0.0,1.0,Taxi
12.0,0.05775983063180118,-5.031539533433967,15.206100184988445,0.06043590783542932,0.3158921030211708,328.46091622256245,22.43841599450145,0.0,1.0,0.0,0.0,1.0,Taxi
12.100000000000001,0.0245598218740336,-23.224668933914774,16.579911843976216,-0.4008883051522751,0.26443897287112217,328.40535889860803,21.67335422451601,0.0,1.0,0.0,0.0,1.0,Taxi
12.200000000000001,-0.15605349223667217,-59.70873871907454,17.2042689034172,0.026453506274241242,-0.2969815679868278,328.6783021213296,22.67419596876887,0.0,1.0,0.0,0.0,1.0,Taxi
12.3,-0.24078386296357168,7.655729946725074,17.30203058884752,-0.26827669298557894,0.6344152194830562,328.6417738628695,23.22523644130843,0.0,1.0,0.0,0.0,1.0,Taxi
12.4,0.06283847160765885,-5.971210727897064,17.29930394068012,-0.4805375721448465,-0.06158123406100428,328.49339655545134,22.575630270920534,0.0,1.0,0.0,0.0,1.0,Taxi
12.5,-0.18590954587615766,27.644177763912467,17.471426827672193,-0.07786253441637023,0.03150992243998838,328.4375352739755,21.810948762699653,0.0,1.0,0.0,0.0,1.0,Taxi
12.600000000000001,-0.1025629741440095,19.354799912160633,17.074635239343504,-0.031745255298329625,0.8647774819632253,328.47189988966375,21.113389436009367,0.0,1.0,0.0,0.0,1.0,Taxi
12.700000000000001,0.15961247116846186,37.72535915674706,17.48488452650935,-0.32975279036241134,0.04524797974831857,328.4510946361297,21.219419018362753,0.0,1.0,0.0,0.0,1.0,Taxi
12.8,0.002717249907577516,34.01775416321389,16.666610631037937,-0.19386822833185247,0.09249825355737386,328.39139209301663,21.639929729244557,0.0,1.0,0.0,0.0,1.0,Taxi
12.9,0.06752579667205982,-7.3479933638554655,17.557434672972683,0.05712288600478482,0.36439365767518783,328.61333172257105,21.249457951878625,0.0,1.0,0.0,0.0,1.0,Taxi
13.0,0.12287250434918442,4.907837162049357,16.54616538408188,-0.5134520563373539,-0.48789253611323563,328.53217723884404,21.378628782085944,0.0,1.0,0.0,0.0,1.0,Taxi
13.100000000000001,0.027256435717824202,-34.27724659545673,17.888242120713514,-0.066784606658567,0.2543693571273333,328.46577371573653,21.80355773521184,0.0,1.0,0.0,0.0,1.0,Taxi
13.200000000000001,-0.1038604363052239,-44.79167916511725,18.407335518117115,-0.1902922162396141,-0.8251529197553756,328.7829304531365,22.185748490503247,0.0,1.0,0.0,0.0,1.0,Taxi
13.3,-0.10108589147640196,-24.192612806811326,17.146470302806037,-0.21849665667134036,-0.7555654692460161,328.4262485222455,20.281308077539887,0.0,1.0,0.0,0.0,1.0,Taxi
13.4,-0.0937066283162325,11.908128058693954,16.57292360781944,-0.23815595396741296,0.23192708244952756,328.6255330411768,21.3323628155385,0.0,1.0,0.0,0.0,1.0,Taxi
13.5,-0.044319796011754224,22.160413337928077,18.076943505218185,-0.4337366127244746,0.8325041867325144,328.57500833564814,21.222443665302034,0.0,1.0,0.0,0.0,1.0,Taxi
13.600000000000001,0.009716175213238322,56.33639949155016,17.77448276888987,-0.4697052600996242,0.6120935682619275,328.53236075250356,21.74070916497941,0.0,1.0,0.0,0.0,1.0,Taxi
13.700000000000001,0.18797536914151816,-4.401274873528195,15.75437776119345,-0.2134540597721134,-0.27361921254800214,328.5672863546929,21.947696482181712,0.0,1.0,0.0,0.0,1.0,Taxi
13.8,-0.06632617037939535,-1.7815162658602048,16.728434198549483,0.12429427906179683,-0.08955449630733428,328.8073279425772,21.101203696837416,0.0,1.0,0.0,0.0,1.0,Taxi
13.9,0.0008085938839371611,-49.77850550285472,17.94258374812077,0.022661615103779398,-0.3172620304631416,328.51269187926846,21.101668866925618,0.0,1.0,0.0,0.0,1.0,Taxi
14.0,-0.060917158372755575,-4.870362233660409,17.20762275807951,-0.09606399747806202,-0.1270436428297574,328.43490182285814,21.179807843269824,0.0,1.0,0.0,0.0,1.0,Taxi
14.100000000000001,-0.09067798154769752,1.7756383551672599,16.85704897854298,-0.24033757947530343,0.4947393360817886,328.7438598264429,20.946297322866386,0.0,1.0,0.0,0.0,1.0,Taxi
14.200000000000001,0.009686785659773368,11.166531472182252,16.23271347078194,-0.22935871747215725,0.8408128365716925,328.5223107360637,21.511167570636008,0.0,1.0,0.0,0.0,1.0,Taxi
14.3,-0.005084501011844402,-11.380303059863175,18.05289494898765,-0.30313044710104475,0.3583740928268141,328.5089527160401,21.301214382932166,0.0,1.0,0.0,0.0,1.0,Taxi
14.4,-0.14757949684701346,16.115369510188994,17.417079982459512,-0.2542362320385776,-0.9391576945763638,328.3298995292449,21.271988473807127,0.0,1.0,0.0,0.0,1.0,Taxi
14.5,0.09026363321071824,24.39667736240666,16.915801344753937,-0.1504041304331697,-0.1646603540191375,328.5124517698662,22.25978433264391,0.0,1.0,0.0,0.0,1.0,Taxi
14.600000000000001,0.1168988858001888,4.817927051797359,17.120783367047903,0.04094801553065602,0.300272393460079,328.46912176540286,20.804110736583446,0.0,1.0,0.0,0.0,1.0,Taxi
14.700000000000001,-0.12348986158802677,22.238667335606312,17.344893192369987,0.059801723529474604,-0.9441008083924372,328.5255604330598,21.8100291965657,0.0,1.0,0.0,0.0,1.0,Taxi
14.8,0.20145696988874975,-48.1330354771443,16.84209455474483,0.24772088784823026,-0.30401221257943534,328.57064958146157,22.24502564046058,0.0,1.0,0.0,0.0,1.0,Taxi
14.9,-0.12376629158553272,28.380564488249647,17.481345072802323,-0.4098059223350776,0.20368148846352097,328.47923245169113,22.33940795227599,0.0,1.0,0.0,0.0,1.0,Taxi
15.0,0.018412960853221427,-38.28391071661973,17.11232268618508,-0.038967632149664075,-0.23649006546346174,328.6141614519611,21.574725958401753,0.0,1.0,0.0,0.0,1.0,Taxi
15.100000000000001,0.010037416305651033,20.228132891714548,16.55898290828944,0.25927023456771414,0.7948036621092107,328.5233168106711,21.78793536849036,0.0,1.0,0.0,0.0,1.0,Taxi
15.200000000000001,-0.022625627126960094,-30.13045172540322,16.499542171317977,0.3364941414229257,0.39716298782286363,328.56944200134456,21.26792813674724,0.0,1.0,0.0,0.0,1.0,Taxi
15.3,-0.13223929777379476,-3.6921704313815837,17.966575519480212,0.3040273702839732,0.809753546188323,328.58508703772327,21.427474694533384,0.0,1.0,0.0,0.0,1.0,Taxi
15.4,-0.008423435851256995,-15.848191980990748,16.740448446511202,0.06785536717687171,0.7119546143734913,328.47899159549934,21.991643246711842,0.0,1.0,0.0,0.0,1.0,Taxi
15.5,-0.10186658703191394,21.681615807191367,17.57916321269698,0.10437788156821937,0.07722871724743476,328.5689183929178,21.438408474809684,0.0,1.0,0.0,0.0,1.0,Taxi
15.600000000000001,-0.02383121873783803,42.60544913946138,16.68670644326755,-0.22255557385103952,-0.6839767860285637,328.53956149216833,21.603067498438143,0.0,1.0,0.0,0.0,1.0,Taxi
15.700000000000001,0.20460380984604978,27.59498502478407,17.212623832850422,-0.010992026817491424,0.5312223183686207,328.6811556474013,21.327206967768145,0.0,1.0,0.0,0.0,1.0,Taxi
15.8,0.036108338092006295,32.76237437824852,17.235909799814195,-0.17450184046189438,-0.3689744851827228,328.59932124411785,21.80280593099708,0.0,1.0,0.0,0.0,1.0,Taxi
15.9,0.13998065315340447,20.901031086822968,18.755195010504284,-0.41449904201204046,-0.22997584416576475,328.4537743162016,21.758010420515372,0.0,1.0,0.0,0.0,1.0,Taxi
16.0,0.3091089652801645,-56.57148529754989,17.158133187430366,0.04697802834512249,1.2424386124483606,328.56642390459365,22.449198287034722,0.0,1.0,0.0,0.0,1.0,Taxi
16.1,-0.24674908839574325,-45.102926571942874,16.878157063954525,0.1850989003754028,0.4770421478591013,328.5058859462556,22.03643564756564,0.0,1.0,0.0,0.0,1.0,Taxi
16.2,-0.08553397970630999,-43.12150256142876,16.81523812497204,0.06845777237008777,-0.6448123988828582,328.5093226460169,22.345679920691666,0.0,1.0,0.0,0.0,1.0,Taxi
16.3,0.09350145247302066,28.85151112620741,16.754225464896365,0.013086185619486393,0.07768447499411925,328.5806876691464,22.211999893480893,0.0,1.0,0.0,0.0,1.0,Taxi
16.400000000000002,-0.1024915327647063,50.45475008362612,17.265618303314263,-0.18649217482374442,-1.2271734839842479,328.33860811597094,22.257313680841552,0.0,1.0,0.0,0.0,1.0,Taxi
16.5,0.16673977071182053,-6.992001629879378,16.223075135793064,-0.07424894670663507,-0.5497367789745606,328.50621580044685,21.116041027310967,0.0,1.0,0.0,0.0,1.0,Taxi
16.6,0.05854144432362374,-15.067049267952322,17.78685109694606,-0.43004150309119,0.6015266257902734,328.5226337797453,21.850454623130528,0.0,1.0,0.0,0.0,1.0,Taxi
16.7,-0.17782677910446795,-42.506039507942916,18.068135043226004,-0.008198761373916966,-0.08849868933438705,328.6729329066318,22.068973594985355,0.0,1.0,0.0,0.0,1.0,Taxi
16.8,-0.04579042682789414,-15.174686587464102,17.80087027087806,-0.2713929190181579,-0.024824689170146866,328.6518266157125,21.9062686427471,0.0,1.0,0.0,0.0,1.0,Taxi
16.900000000000002,-0.017331988613696874,33.56002462799308,16.856190823876936,-0.19412694558934523,0.14723470908192451,328.54797984645586,21.702792530592287,0.0,1.0,0.0,0.0,1.0,Taxi
17.0,-0.010026655964502612,46.55303451633649,16.755902779832805,-0.18367682842515792,0.5688728305606442,328.584809863931,21.01660351559447,0.0,1.0,0.0,0.0,1.0,Taxi
17.1,0.18697474575378825,33.204065140140884,17.458904206670795,-0.15479982113927698,-0.2345478638061056,328.6441720734575,21.848819900306957,0.0,1.0,0.0,0.0,1.0,Taxi
17.2,0.14868833708700746,-8.27643114208872,16.369139835954247,-0.06228492240740098,-0.3732622470626235,328.5180467408745,21.018733230730355,0.0,1.0,0.0,0.0,1.0,Taxi
17.3,-0.05140881167494629,-28.528121034214376,16.84757240810669,-0.0039263634851588874,-0.08270469823241165,328.7527255193188,21.749783588359083,0.0,1.0,0.0,0.0,1.0,Taxi
17.400000000000002,0.04433414058271628,-27.410426669909146,16.931784255611376,0.010352468977624055,-0.3695908157319108,328.66643992024933,21.09835145517043,0.0,1.0,0.0,0.0,1.0,Taxi
17.5,0.011636203737461626,11.181171213759805,17.01263625235715,0.07333037547130142,-0.054517944731830636,328.51561401212575,21.91465314701126,0.0,1.0,0.0,0.0,1.0,Taxi
17.6,0.004497044393852654,-26.558262605465114,16.4282096725922,0.019459671160392752,0.04517812793246586,328.5676339609504,22.005072586442143,0.0,1.0,0.0,0.0,1.0,Taxi
17.7,-0.08845717244460935,30.26695144109435,17.243327757867675,0.04938074005099574,-0.1991782943819338,328.6462268888471,21.814121237381862,0.0,1.0,0.0,0.0,1.0,Taxi
17.8,0.16297096094293334,-20.89628969544896,16.593168388600063,-0.04178156463607937,0.349058686176902,328.41854232721664,22.56859919151487,0.0,1.0,0.0,0.0,1.0,Taxi
17.900000000000002,-0.09998440408339221,-7.562646299498444,15.861523347362146,-0.0758352764790584,0.5794412204153986,328.8108279533228,22.237511209417324,0.0,1.0,0.0,0.0,1.0,Taxi
18.0,-0.12627040394210162,-15.258040963620374,16.921728487677537,0.13248426412364692,0.5301594450527836,328.6395253758816,21.362280048564376,0.0,1.0,0.0,0.0,1.0,Taxi
18.1,0.08668075612483143,43.41784922577722,17.487313738127792,-0.03315365684611357,0.4647988799795822,328.5495797549605,21.969355595693028,0.0,1.0,0.0,0.0,1.0,Taxi
18.2,0.11710484204549387,40.29565184054047,18.238941123893543,0.056060439938349915,0.8209792315967691,328.6116559058555,21.699883304651568,0.0,1.0,0.0,0.0,1.0,Taxi
18.3,0.07520785526060075,-36.69134576625131,16.972294712118572,-0.23961917530766438,0.7639338052456702,328.3697274239016,22.21702694389159,0.0,1.0,0.0,0.0,1.0,Taxi
18.400000000000002,-0.09677597270642518,-15.230205303628631,16.749569977048875,-0.3165754609195644,0.11918381995561311,328.5211640729078,21.281591619048413,0.0,1.0,0.0,0.0,1.0,Taxi
18.5,0.04095381552735066,6.750605418584432,16.928132178945706,-0.20352621799779227,0.35018012454461095,328.3881676036091,21.994040085357682,0.0,1.0,0.0,0.0,1.0,Taxi
18.6,0.10896088235352286,25.130403550562217,17.597027065448998,-0.038434172444666646,-0.8258356494768996,328.72944347894156,22.237042900540676,0.0,1.0,0.0,0.0,1.0,Taxi
18.7,0.028876045046385846,-30.526400066986536,17.12304811170448,-0.09533235260426819,-0.07493126335599953,328.8125300515112,21.15417362845625,0.0,1.0,0.0,0.0,1.0,Taxi
18.8,-0.11167818480758206,18.615924317346316,15.629891215944262,0.189202834830984,-0.7899704872642,328.4706018479076,20.951058059339356,0.0,1.0,0.0,0.0,1.0,Taxi
18.900000000000002,0.20204050394025438,3.1087533973075665,16.409425764491324,-0.1470097441198462,0.3757418086360475,328.55705799544535,22.142420284682704,0.0,1.0,0.0,0.0,1.0,Taxi
19.0,0.04441981203292361,31.406082367855447,17.120306420819254,-0.2843962349473287,-0.04976043910201871,328.4596792176036,22.36674424410312,0.0,1.0,0.0,0.0,1.0,Taxi
19.1,0.04535222703169512,-8.216374182388018,17.355537617711516,0.0096271825759328,0.08865009256784524,328.54089249145363,21.975615781085338,0.0,1.0,0.0,0.0,1.0,Taxi
19.200000000000003,0.16095863302831423,-20.94158165754266,17.4005988519315,-0.3889519681670239,-0.3068336989458257,328.57203134064616,21.312921784647532,0.0,1.0,0.0,0.0,1.0,Taxi
19.3,-0.06028809625478975,-7.616197280711506,17.175927142977276,0.1046301777935944,-0.08916109031682197,328.6400362621962,21.64240577389072,0.0,1.0,0.0,0.0,1.0,Taxi
19.400000000000002,0.00727124062813753,-28.192079860436042,16.50816669520466,0.04509448851955404,-1.0918157765368595,328.4246589255929,21.086334783482723,0.0,1.0,0.0,0.0,1.0,Taxi
19.5,0.01999823372613396,-2.9393058664470764,16.49907278507394,-0.264794416666553,0.05840837614190753,328.4198892543484,23.53830528017145,0.0,1.0,0.0,0.0,1.0,Taxi
19.6,-0.07498462558702519,-24.362061567189073,16.383184751556453,0.07135615084283463,-0.03415964059038844,328.49990361439427,20.92774018612762,0.0,1.0,0.0,0.0,1.0,Taxi
19.700000000000003,-0.11453906720780788,-11.966175713881604,17.007319109856365,-0.07952202078804364,0.37607682851611085,328.5103436027043,20.57167415682692,0.0,1.0,0.0,0.0,1.0,Taxi
19.8,-0.039832644843274104,7.676009036617504,16.701430324767717,-0.013785477046587835,1.2296993130342955,328.56542126113527,21.621238058299152,0.0,1.0,0.0,0.0,1.0,Taxi
19.900000000000002,-0.03660458040393771,13.252953578429272,17.66553537931404,0.03756893192375235,0.3574876749353924,328.49646068150093,21.221847235391795,0.0,1.0,0.0,0.0,1.0,Taxi
20.0,-0.04827429931566155,-36.92704893642664,16.73199735140883,-0.04977742179099258,-0.7486082975543714,328.514934686664,22.206729403347612,0.0,1.0,0.0,0.0,1.0,Taxi
20.1,-0.22446788952540728,-9.874926937167473,17.9201193421761,-0.33050968910567263,0.508913486798728,328.56653740205786,21.853452438573104,0.0,1.0,0.0,0.0,1.0,Taxi
20.200000000000003,-0.08597921508977507,34.42882594726928,16.399888867064806,0.04398482250278768,0.4617921431594712,328.462587029828,22.166546055762318,0.0,1.0,0.0,0.0,1.0,Taxi
20.3,0.12386983042068485,21.624700022855887,17.368640606925574,-0.19283304539421664,-0.41624087176266567,328.6227098719173,21.011624797904794,0.0,1.0,0.0,0.0,1.0,Taxi
20.400000000000002,-0.11634438941112782,2.6219697873319894,15.523600985011353,-0.22753203442718753,0.5433682970310248,328.4695578102444,22.832621421047,0.0,1.0,0.0,0.0,1.0,Taxi
20.5,-0.07286936615311511,-14.722346649152357,17.301602606286288,-0.10258446848330835,0.5634850683228979,328.6465536458952,22.219259286656918,0.0,1.0,0.0,0.0,1.0,Taxi
20.6,0.05025809717492309,29.308725851602343,17.635130924872403,-0.042258016728856394,-0.7370661312529745,328.5328610152876,21.96101603409143,0.0,1.0,0.0,0.0,1.0,Taxi
20.700000000000003,0.030199239846883927,4.922025299145325,16.669881538870342,0.009324412133757107,0.2106825485618791,328.5907038802395,22.133209389585076,0.0,1.0,0.0,0.0,1.0,Taxi
20.8,-0.04825923965738843,16.308424168366333,16.62286758316851,-0.20628911652234863,0.07810891348562789,328.6716802771165,21.79448564220169,0.0,1.0,0.0,0.0,1.0,Taxi
20.900000000000002,0.1318002180167548,-24.67624886296272,16.881378076753457,0.18265280511236864,0.20238819150348253,328.4525089919814,22.019846353091708,0.0,1.0,0.0,0.0,1.0,Taxi
21.0,-0.09318200446792962,-29.52015128819168,15.833733560300269,-0.3032658259681383,0.4104026136270902,328.6511060761019,21.36705513301321,0.0,1.0,0.0,0.0,1.0,Taxi
21.1,-0.19585999609834678,-32.80218954603376,17.87175646523956,0.011414908306238578,-0.15421008334706093,328.43685598499974,22.073924252013356,0.0,1.0,0.0,0.0,1.0,Taxi
21.200000000000003,-0.032210729713413946,33.750303939949866,17.338307988077172,0.04720335274564513,0.06083561123142117,328.7493955796597,22.010564236430064,0.0,1.0,0.0,0.0,1.0,Taxi
21.3,0.07556951523181976,92.24355897031899,16.2977419001162,-0.15763515577330944,0.7443337320190017,328.43908288467765,22.25452308567052,0.0,1.0,0.0,0.0,1.0,Taxi
21.400000000000002,0.2653577987532482,-22.067644139772153,17.27727877922405,-0.08738715415348691,-0.14587672928846343,328.64712623503954,21.595970764590067,0.0,1.0,0.0,0.0,1.0,Taxi
21.5,-0.14254895041227458,-2.5428251912514335,16.195078383272197,-0.007708016208027656,-0.056067154276969816,328.5273489303049,22.2943115693655,0.0,1.0,0.0,0.0,1.0,Taxi
21.6,0.06285538927556272,-69.55999953034257,16.835981263755038,-0.07008367002503545,0.02200054716285748,328.6256521864435,22.376172035690615,0.0,1.0,0.0,0.0,1.0,Taxi
21.700000000000003,-0.0824421988984645,12.95932078311656,16.417069339487448,0.37480767791886205,-1.2416936033623363,328.46774764084716,22.05132913170677,0.0,1.0,0.0,0.0,1.0,Taxi
21.8,-0.07775234649669172,-32.384542724434986,17.216875114459175,0.19010761674152948,0.6719736028487334,328.4500487832224,21.60594852762129,0.0,1.0,0.0,0.0,1.0,Taxi
21.900000000000002,-0.0990673243466122,-1.6790724124152596,16.131296268874603,0.11501642236508855,0.17534290575889752,328.75595454670247,21.61613201582155,0.0,1.0,0.0,0.0,1.0,Taxi
22.0,-0.09083756096054074,-3.344756896328747,17.4981267470982,-0.1047112408440475,0.5272253075870642,328.7329651029995,21.746757085948403,0.0,1.0,0.0,0.0,1.0,Taxi
22.1,-0.09447613097833539,14.892370359064666,17.66484815335542,0.3244593959579374,-1.0528150253139408,328.53366563864984,21.28773431462642,0.0,1.0,0.0,0.0,1.0,Taxi
22.200000000000003,-0.0246054725512888,20.18519514614893,16.656874165024405,-0.05668632706586858,0.6150885015027162,328.5509671422401,22.36897214100001,0.0,1.0,0.0,0.0,1.0,Taxi
22.3,0.01008841477020398,23.634917549198452,17.8921603084202,-0.06239547134068884,0.4960851089143531,328.5670001744752,21.043441015987792,0.0,1.0,0.0,0.0,1.0,Taxi
22.400000000000002,0.02369845676765693,12.961718461991252,16.89685937143575,0.017231230315937374,1.0327476719770243,328.514877457746,22.228158937057888,0.0,1.0,0.0,0.0,1.0,Taxi
22.5,0.04020311975866753,34.15691844717961,16.97767632424725,-0.06508768775075727,-0.1707559403658725,328.51042479887144,21.34991067488667,0.0,1.0,0.0,0.0,1.0,Taxi
22.6,0.1808730070061021,-14.463319461636525,18.182186194196866,-0.2468954305802635,0.24814977305207153,328.55562642572727,21.87516281572017,0.0,1.0,0.0,0.0,1.0,Taxi
22.700000000000003,-0.04861814054052564,5.800826901890578,16.56435421930362,0.006598416555393394,-0.5152543972754281,328.51798253343395,21.87067852855533,0.0,1.0,0.0,0.0,1.0,Taxi
22.8,0.06920725426812048,-27.186555098086586,16.93627208209835,-0.15731121163830913,0.6780647763996288,328.60110863887485,21.031828494546993,0.0,1.0,0.0,0.0,1.0,Taxi
22.900000000000002,0.04494023151566924,21.957375637058906,15.922675879866151,-0.35816121863986494,-0.6096211973746186,328.5805510217252,21.340120389828908,0.0,1.0,0.0,0.0,1.0,Taxi
23.0,0.06116873764476898,-49.33479511769041,17.026334920489482,-0.06041366673110812,-0.2847578769809059,328.40498762357583,22.39560799240719,0.0,1.0,0.0,0.0,1.0,Taxi
23.1,-0.17746672132033148,31.448781874736937,16.26910835880873,-0.037858078685827044,-0.3977806455115884,328.47294838741846,21.828463405244744,0.0,1.0,0.0,0.0,1.0,Taxi
23.200000000000003,0.202184140889354,-34.49937214796326,16.67272163973296,0.031571973327218866,-0.013618006572689873,328.4528276494666,22.17006201517722,0.0,1.0,0.0,0.0,1.0,Taxi
23.3,-0.11132812309504724,52.488395549447496,18.52766340153725,-0.08343195238753663,-0.3639575122684277,328.5396093679991,21.595306264561643,0.0,1.0,0.0,0.0,1.0,Taxi
23.400000000000002,0.08497525642690607,-49.15722955770831,17.621441078714028,-0.3259774313700332,0.38849822888247054,328.6836648958696,22.169211283913643,0.0,1.0,0.0,0.0,1.0,Taxi
23.5,-0.04360200689918751,-2.7350195049662247,16.56260521293547,-0.3287128177755716,-0.10016488004807683,328.6332940788436,21.286409342339798,0.0,1.0,0.0,0.0,1.0,Taxi
23.6,-0.1250032206198783,-44.03120025925012,16.733249728452556,0.10881002002321519,-0.4560015832034026,328.83617949483914,22.496229989973276,0.0,1.0,0.0,0.0,1.0,Taxi
23.700000000000003,-0.13518074486934448,0.53900880193207,16.707026826367102,0.09214606311404777,0.008489570345163618,328.48501862751095,21.57103681647151,0.0,1.0,0.0,0.0,1.0,Taxi
23.8,-0.04090696288952712,-4.603081003888953,16.773336428751673,0.19212948491787551,0.9791813388447759,328.38374791093725,21.60302523466635,0.0,1.0,0.0,0.0,1.0,Taxi
23.900000000000002,-0.14801862563932303,54.797165772716845,17.319030236367986,0.029191218505181027,0.25805814890845846,328.4456636961162,22.876422916085712,0.0,1.0,0.0,0.0,1.0,Taxi
24.0,0.13880508399423977,7.569135598467322,16.552244282284523,-0.11918365283423181,0.43500496458219096,328.6105433379712,21.59561665938515,0.0,1.0,0.0,0.0,1.0,Taxi
24.1,-0.0030612848971904322,33.118600379221995,17.34589784833668,-0.7456878673120975,-1.3212849766742298,328.6554696175342,21.140295715121912,0.0,1.0,0.0,0.0,1.0,Taxi
24.200000000000003,0.01757437625678701,-2.4657991699124957,16.4330524846381,-0.4971188318843873,0.018127403172368876,328.50727595172486,21.6203613751621,0.0,1.0,0.0,0.0,1.0,Taxi
24.3,0.12647608814467737,23.805560100244776,17.481875221781614,-0.01052691889493762,0.16886162608383348,328.6187297577038,21.557267650465313,0.0,1.0,0.0,0.0,1.0,Taxi
24.400000000000002,0.11596651560403351,12.586687424311004,16.853055878637377,0.24372897894414408,-0.7372360597020664,328.53135961326973,21.676696940651187,0.0,1.0,0.0,0.0,1.0,Taxi
24.5,0.0805078133783421,-41.52272876012737,17.587586540838664,-0.048640611787303015,0.07334250974749552,328.5519893101141,22.394589713054508,0.0,1.0,0.0,0.0,1.0,Taxi
24.6,-0.08113755565595941,-18.750923502530934,17.98627992689461,0.017823358433160935,0.5084688950600833,328.468660475865,21.27488008323062,0.0,1.0,0.0,0.0,1.0,Taxi
24.700000000000003,0.02221189809137893,9.614479638736611,16.759979230448433,0.17379164752457338,-0.5239668953596175,328.47492991143486,22.064018701572632,0.0,1.0,0.0,0.0,1.0,Taxi
24.8,0.12858021157202526,-3.2638696911808913,16.920446829045066,-0.08292338126496605,0.8540105107074639,328.5925004459016,20.41479367128874,0.0,1.0,0.0,0.0,1.0,Taxi
24.900000000000002,-0.09745690411186382,9.999127777668638,17.298776250970803,0.26860189243408256,-0.3779441381913371,328.4778938167701,22.1625232485808,0.0,1.0,0.0,0.0,1.0,Taxi
25.0,0.07220753697972214,-34.259487430220254,16.72105431391557,0.0156879858113617,0.40486361054516756,328.51959383775306,22.040567784700208,0.0,1.0,0.0,0.0,1.0,Taxi
25.1,-0.042717225579076014,8.173250655236004,18.556276807244295,-0.43161243870521215,0.21213699145860157,328.69610533100274,21.815423524950667,0.0,1.0,0.0,0.0,1.0,Taxi
25.200000000000003,-0.05659065083568374,14.69086487878404,17.00543185424968,0.16493153719953846,0.4842149241412678,328.67029263385734,21.605093422243502,0.0,1.0,0.0,0.0,1.0,Taxi
25.3,0.14566186137364243,-35.059599223960554,17.041341226138478,0.015469518408945268,0.3262686526947274,328.7664457330035,22.718323868200237,0.0,1.0,0.0,0.0,1.0,Taxi
25.400000000000002,-0.21801522169887871,3.4440709743814324,17.870590444048176,0.1305031244445538,0.6446361085034968,328.69164521911887,21.688266130485065,0.0,1.0,0.0,0.0,1.0,Taxi
25.5,-0.039370295963776496,-27.681219427034907,17.838018812577545,-0.04987725403823425,0.05853610399610017,328.4590617875424,21.935312500732593,0.0,1.0,0.0,0.0,1.0,Taxi
25.6,0.007255764238467948,76.76018065672015,16.98371535580028,-0.08687824340456005,0.3172800049349372,328.6005692507797,22.54934592126325,0.0,1.0,0.0,0.0,1.0,Taxi
25.700000000000003,0.16578568158472212,12.697095699593993,16.950438114958168,-0.38090896386730017,0.8456341307739498,328.5863293254554,21.495961107256218,0.0,1.0,0.0,0.0,1.0,Taxi
25.8,0.02411518253419355,-38.858949338105354,16.687430861161367,0.18773855448319648,0.48709986550259843,328.36256807622203,21.490590969819497,0.0,1.0,0.0,0.0,1.0,Taxi
25.900000000000002,-0.18703898245205872,-26.871462548448477,17.42056155524592,0.11626250975221614,0.9722398231680379,328.4627203491948,21.174268985945606,0.0,1.0,0.0,0.0,1.0,Taxi
26.0,0.031428368842479855,12.529968749036605,17.472501506142535,-0.09228664210215701,-0.2721465310297216,328.5901415560031,21.64816844606947,0.0,1.0,0.0,0.0,1.0,Taxi
26.1,0.08676502627937668,4.786383032454258,16.739378568003655,-0.07418803004535897,0.11382024533483696,328.5436163661666,21.611838958609987,0.0,1.0,0.0,0.0,1.0,Taxi
26.200000000000003,-0.1631070672897873,25.069195406501354,18.479299339177473,-0.20165552430740183,0.8960135522984104,328.5893234326968,21.80892709409172,0.0,1.0,0.0,0.0,1.0,Taxi
26.3,0.15677434587498673,-14.065954569883111,16.18366597501373,0.07387896044335027,0.11410709054937994,328.6150730870577,22.241010914681183,0.0,1.0,0.0,0.0,1.0,Taxi
26.400000000000002,0.016435253429961223,56.67633554843027,17.853250505042396,-0.22394066245124672,-0.21142741196486542,328.5338130837706,22.812513813111465,0.0,1.0,0.0,0.0,1.0,Taxi
26.5,0.12027461045236415,-72.41363598236968,17.033228391540717,-0.12853455974661926,0.5263357122627542,328.4548455735212,20.689575257631745,0.0,1.0,0.0,0.0,1.0,Taxi
26.6,-0.20529383403686158,3.3404388942287824,16.681924511895932,-0.1564654024531668,0.7156942848563906,328.5420983338123,21.410188800911897,0.0,1.0,0.0,0.0,1.0,Taxi
26.700000000000003,0.03313744790110523,-51.9208726054408,17.758581460166916,-0.06563230154630258,-0.37663557662662966,328.5557294057246,22.461803026194968,0.0,1.0,0.0,0.0,1.0,Taxi
26.8,-0.13932975257483976,-1.3748286065689683,17.20591121812751,-0.1775495727103626,-0.4933477478942505,328.6047610425469,21.440002374156876,0.0,1.0,0.0,0.0,1.0,Taxi
26.900000000000002,-0.2121679770697063,11.586974453401874,16.70991609120698,0.172420744323146,-0.5603823749493276,328.2876302190223,22.47687006337488,0.0,1.0,0.0,0.0,1.0,Taxi
27.0,0.09107232016811473,42.118005451413644,16.931867504471427,-0.1776951977866439,0.1586042989958657,328.61854197067146,22.382297732462703,0.0,1.0,0.0,0.0,1.0,Taxi
27.1,0.0712602746822286,58.06537876005745,17.77633754892982,-0.025682364994145626,1.0940043715291603,328.54684935530395,21.830658346913943,0.0,1.0,0.0,0.0,1.0,Taxi
27.200000000000003,0.07815891673058105,-47.93044992620478,16.19631768233242,-0.12622428638640643,0.3496585769449789,328.7153536272597,22.28597897641951,0.0,1.0,0.0,0.0,1.0,Taxi
27.3,-0.14857992946290907,-23.375689702833075,17.49788824368934,0.015612594780615066,-0.9192839648697174,328.6662719074732,22.310351047449632,0.0,1.0,0.0,0.0,1.0,Taxi
27.400000000000002,-0.04561817383193667,-40.54150469753585,17.102254379360527,-0.019053296663622994,0.2856567668433423,328.5573939822308,21.818750880757158,0.0,1.0,0.0,0.0,1.0,Taxi
27.5,-0.1245486067570981,43.57865970900014,16.668770735094142,-0.01007691446347675,-0.273181721221636,328.59028790782327,21.6026807819234,0.0,1.0,0.0,0.0,1.0,Taxi
27.6,0.06931336908209174,-16.79360234293569,17.33824308231266,0.3969955776170566,0.646058510749745,328.34877774990446,21.414709393345895,0.0,1.0,0.0,0.0,1.0,Taxi
27.700000000000003,-0.12958618554661502,16.680962959772756,16.42822833995592,0.10424779224395142,-0.10664126356597275,328.3754448419668,22.293304736897234,0.0,1.0,0.0,0.0,1.0,Taxi
27.8,-0.041143791958234234,9.682734748392704,16.40622264316127,-0.392071887919663,-0.9438461469056665,328.4208127342131,21.289129148427254,0.0,1.0,0.0,0.0,1.0,Taxi
27.900000000000002,0.11772704282405536,18.016934447968538,17.49416928040047,-0.3571257741392486,-1.006551050280085,328.64077324220534,22.728179950832036,0.0,1.0,0.0,0.0,1.0,Taxi
28.0,-0.03950151330677227,-1.9055322701345023,16.93581281171937,-0.11325530134697973,0.07719536650504592,328.41504624128993,21.499458967467554,0.0,1.0,0.0,0.0,1.0,Taxi
28.1,-0.05067145330890665,-14.210511240555306,18.678273778889444,0.5241147946214649,0.5182487179230909,328.64437691773855,22.17195584884645,0.0,1.0,0.0,0.0,1.0,Taxi
28.200000000000003,0.04667448662127892,-0.2069955298051127,17.628343516216354,0.08018615112262342,0.5224343536883761,328.7393651627085,21.33576766339812,0.0,1.0,0.0,0.0,1.0,Taxi
28.3,-0.04053649095579774,-3.6060588547995382,16.46756859213132,-0.43802715970866996,-0.37404545628072494,328.6404421512434,22.167054048142905,0.0,1.0,0.0,0.0,1.0,Taxi
28.400000000000002,-0.06870174758290425,-34.23788392064742,16.695194053198282,0.07974571305882933,0.11396725282523132,328.60651642384846,21.292155618902715,0.0,1.0,0.0,0.0,1.0,Taxi
28.5,-0.12451493298195809,43.905739032143536,16.891259849002697,0.2330036389953275,0.3134064049781132,328.5324987052577,21.94157530664115,0.0,1.0,0.0,0.0,1.0,Taxi
28.6,0.17899220420492,31.282605501527698,16.950591064686748,-0.08619212656801292,0.08141013494885947,328.40332604006323,21.79004273209092,0.0,1.0,0.0,0.0,1.0,Taxi
28.700000000000003,0.08771127992473438,19.376316627435724,16.7850291007071,-0.2994946228495188,0.01675762257383585,328.51173489472444,20.979704242255934,0.0,1.0,0.0,0.0,1.0,Taxi
28.8,-0.027633349844779345,-47.01473642082565,17.750436447047722,-0.21047341023265786,-0.341510847250132,328.64858662402014,22.42692641179656,0.0,1.0,0.0,0.0,1.0,Taxi
28.900000000000002,-0.05608147789920814,-43.20344609125264,18.519200100960497,-0.0511328851327473,-0.3484912607616394,328.43963848651197,21.45619664923756,0.0,1.0,0.0,0.0,1.0,Taxi
29.0,-0.1283059505315287,1.5999850568227647,16.146478777024434,0.022190264931763917,-0.981893790227211,328.45302714450577,21.515550444208706,0.0,1.0,0.0,0.0,1.0,Taxi
29.1,-0.019633424560665406,37.16807485007204,17.81057684701304,-0.32709980176835396,-0.4195712817228527,328.5414805578657,22.529452244149024,0.0,1.0,0.0,0.0,1.0,Taxi
29.200000000000003,0.12975889635115215,31.135783352807255,16.458649302592345,0.074773259536379,0.3491926305507478,328.58240177433413,21.803426118620795,0.0,1.0,0.0,0.0,1.0,Taxi
29.3,0.02737296623250768,9.747835568175264,17.630061056562788,-0.078610751810871,-0.8648478243512079,328.54479811039414,22.113298010490162,0.0,1.0,0.0,0.0,1.0,Taxi
29.400000000000002,0.02910575328021102,-17.42140399244976,16.894451418788755,-0.16649479919796478,-0.01814355757756937,328.6134054388506,20.943172017322578,0.0,1.0,0.0,0.0,1.0,Taxi
29.5,0.04265187638890344,-8.411114361488414,17.4100212992154,0.04541287529074545,1.037240658844412,328.69824579668375,21.416651021374193,0.0,1.0,0.0,0.0,1.0,Taxi
29.6,-0.01468260557493429,2.6021332972740816,17.364721495384302,-0.16485944712794914,-0.9298209809293396,328.73840866285957,21.514658765098805,0.0,1.0,0.0,0.0,1.0,Taxi
29.700000000000003,0.04211641976658152,10.36185602112234,17.307261971165687,0.024700397619267456,-0.1260346237509651,328.5806104931594,21.678686839355535,0.0,1.0,0.0,0.0,1.0,Taxi
29.8,0.09446115649451525,-6.198756241791926,18.08834746143748,-0.13391480063615901,0.5281042871907152,328.5420073993564,21.823433226861212,0.0,1.0,0.0,0.0,1.0,Taxi
29.900000000000002,-0.04567638678389378,-14.16741584257588,16.62429783392072,0.3216635035028943,-0.21854840849679105,328.53053975401474,22.657750269029044,0.0,1.0,0.0,0.0,1.0,Taxi
30.0,-0.028720659446297737,-6.414648362924069,18.16655008006449,0.10545882362429426,-0.24075489599375477,328.5085690763308,22.155560900813562,0.0,1.0,0.0,0.0,1.0,Taxi
30.1,0.06238791467989503,22.50989573170796,16.641049998008054,-0.024542870568564766,0.17785033680314483,328.5457579098179,21.610541090733356,0.0,1.0,0.0,0.0,1.0,Taxi
30.200000000000003,0.06687309187464612,10.92957162693727,17.172819487171644,0.291833832673364,0.5785975995687519,328.3884060485075,22.3863726475379,0.0,1.0,0.0,0.0,1.0,Taxi
30.3,0.02592719868838871,-38.70018898768252,15.96832520598309,-0.11856784030355298,0.41293438708597313,328.601900367383,22.10363220920711,0.0,1.0,0.0,0.0,1.0,Taxi
30.400000000000002,-0.13111303025851748,34.51827925716865,17.15315927291798,0.014803252797221403,0.01987979046245579,328.612604763538,21.98816068433856,0.0,1.0,0.0,0.0,1.0,Taxi
30.5,0.23946448816048946,-21.027423053639684,17.506122471998395,-0.00840176637448653,0.6176823759046107,328.4992650731151,21.89705579939657,0.0,1.0,0.0,0.0,1.0,Taxi
30.6,-0.07920991657980958,18.376477322392006,17.30413438752712,-0.0528469755778686,-0.05175165437973407,328.63976217320726,21.87894042021429,0.0,1.0,0.0,0.0,1.0,Taxi
30.700000000000003,-0.03923064364655731,-54.772989996240504,16.949754664527777,0.06602160869441209,0.1839212301809284,328.6452374045939,21.346934170464856,0.0,1.0,0.0,0.0,1.0,Taxi
30.8,-0.0344004618207129,-20.654514873249408,17.079780688587096,-0.044982208108742885,0.034787857438111296,328.6233632012022,21.812049380698905,0.0,1.0,0.0,0.0,1.0,Taxi
30.900000000000002,-0.1824824909460565,-5.366137429171128,16.378305270977656,0.10840611575624548,-0.39811311350966166,328.46863970621166,21.74331935433906,0.0,1.0,0.0,0.0,1.0,Taxi
31.0,-0.06606133079241286,-24.417889256228126,16.14502622378554,-0.013696127065095182,0.007741962606684537,328.56511677250296,21.658264269607,0.0,1.0,0.0,0.0,1.0,Taxi
31.1,-0.15648990810185345,21.052472923233896,17.996061515692393,-0.30823505582651034,-0.42374847195604876,328.3886811540607,21.837528336653495,0.0,1.0,0.0,0.0,1.0,Taxi
31.200000000000003,-0.07722012632988694,-0.6966585308027774,16.820175890547205,-0.18578833587007534,-0.36982514848581777,328.49187715160406,21.723518081375296,0.0,1.0,0.0,0.0,1.0,Taxi
31.3,-0.06954462344642665,-0.6712823193357167,17.284798595016323,-0.05198056272346947,-0.6836260811591967,328.57923622625503,21.395095348855317,0.0,1.0,0.0,0.0,1.0,Taxi
31.400000000000002,-0.15984631969853194,-19.551945718974142,17.659904722103132,-0.09442367687444528,-0.27281754413093606,328.59233035971124,21.473057167123184,0.0,1.0,0.0,0.0,1.0,Taxi
31.5,-0.17497985492475754,-6.466155853113473,16.82256585777721,0.023692181064120327,0.09390063636210177,328.4441247418979,21.54183422751423,0.0,1.0,0.0,0.0,1.0,Taxi
31.6,-0.1018754027119939,17.259677223596515,17.676143295288256,0.10132015845892628,-0.8596622599572954,328.59264445931217,21.93610319606088,0.0,1.0,0.0,0.0,1.0,Taxi
31.700000000000003,-0.07354793358054924,40.31720522830395,16.613155095602387,0.17766711054110618,0.1600443876915718,328.5186785105225,22.44075024845768,0.0,1.0,0.0,0.0,1.0,Taxi
31.8,0.026606171216762266,31.31422290139722,17.316579126491764,-0.01930849131170645,0.5396680954695067,328.47444993266504,21.260119555466343,0.0,1.0,0.0,0.0,1.0,Taxi
31.900000000000002,0.054695711794992274,16.30256270467103,16.704279435474383,0.06807577676485817,0.049072996788109204,328.4406421153707,22.10234748113111,0.0,1.0,0.0,0.0,1.0,Taxi
32.0,0.00796487994280597,12.26066127668298,18.18017640037302,0.3380392617317715,0.4381695681733456,328.43853773730984,21.884480931066584,0.0,1.0,0.0,0.0,1.0,Taxi
32.1,0.08790947760017727,-13.082130851868792,17.981007977483813,0.2318172539281626,-0.6850499243034309,328.6123111155208,21.753977447756967,0.0,1.0,0.0,0.0,1.0,Taxi
32.2,-0.010714942464351578,5.637361478039533,17.24825287106463,0.06254421520554071,0.0012152316274480206,328.47474893103595,22.021288245000648,0.0,1.0,0.0,0.0,1.0,Taxi
32.300000000000004,0.036151687333003744,-7.17564211570199,16.880244992436623,-0.1998378053160008,1.4104934161934095,328.4810601640402,21.806187393122546,0.0,1.0,0.0,0.0,1.0,Taxi
32.4,0.05203126702166743,12.047727859633321,17.506655980719547,0.08464794083182739,-0.4715401940571749,328.52354875195124,21.704605927822854,0.0,1.0,0.0,0.0,1.0,Taxi
32.5,0.049523696833815134,-27.497847626451826,16.994943508255286,0.20545638345918343,0.39638408770652406,328.5735438058439,21.886902342940676,0.0,1.0,0.0,0.0,1.0,Taxi
32.6,-0.10133755079925527,19.181013908228113,17.48623973936895,-0.2508899588696188,0.13588026121599944,328.6534404975122,21.165510317613744,0.0,1.0,0.0,0.0,1.0,Taxi
32.7,0.1479363365628081,-38.27266855389476,17.690663628599662,0.015787059853339377,0.6349244969565365,328.6795319172297,21.106516843871702,0.0,1.0,0.0,0.0,1.0,Taxi
32.800000000000004,-0.14183964593565862,17.112240310281447,16.272524989361326,-0.0507227577364575,-0.19800549502355483,328.60605160542286,21.70681508644463,0.0,1.0,0.0,0.0,1.0,Taxi
32.9,-0.015776349247847998,-17.493751505549138,16.609223809438724,-0.08870365125069468,-0.5753904788059127,328.5791175197678,22.264062667475258,0.0,1.0,0.0,0.0,1.0,Taxi
33.0,0.060467579035062474,22.985908702122504,16.132485338532184,0.08489312896224097,0.2788732220958872,328.7295740474992,21.137329673961684,0.0,1.0,0.0,0.0,1.0,Taxi
33.1,-0.026910102425046017,45.334148195881376,18.112105237267357,0.17667161610314408,0.0009810568903380512,328.47491708790267,21.382984366215844,0.0,1.0,0.0,0.0,1.0,Taxi
33.2,0.210894391731559,-54.05491325631865,16.6688345108568,0.0005366941952815313,-0.024015376295493347,328.5859613975788,21.961453650440706,0.0,1.0,0.0,0.0,1.0,Taxi
33.300000000000004,-0.20980698724653066,-11.59667221051455,16.59065137141918,-0.012808758914205992,0.25693086669066895,328.3377876396937,21.69663013594838,0.0,1.0,0.0,0.0,1.0,Taxi
33.4,-0.08489346347761864,-45.26214655454987,17.31170661369083,0.1381065707340279,-0.2016427088609618,328.57379370199465,21.82335236992488,0.0,1.0,0.0,0.0,1.0,Taxi
33.5,-0.01541634104119028,50.97803473891426,16.975806951800582,-0.13671395338955866,0.2561136203425377,328.4358123522709,21.674165272734232,0.0,1.0,0.0,0.0,1.0,Taxi
33.6,0.04508318644804074,42.20028288843074,17.66731816070322,-0.11741613918727956,0.438753124648805,328.40172336855676,21.753326240679723,0.0,1.0,0.0,0.0,1.0,Taxi
33.7,0.1261079509645352,10.495347511603015,17.540605083847286,-0.05288132430993073,0.17562789941561485,328.46524323556946,22.325892104704224,0.0,1.0,0.0,0.0,1.0,Taxi
33.800000000000004,0.03706039651682492,-33.74750606092496,15.80342533515703,-0.2272826150497683,0.9430353457969287,328.56480365061236,22.522530818400806,0.0,1.0,0.0,0.0,1.0,Taxi
33.9,-0.12365434385658394,-26.494387581839774,18.35124760572558,0.08156178354333368,0.3192400799559778,328.4804043949662,21.847291704592177,0.0,1.0,0.0,0.0,1.0,Taxi
34.0,-0.006363986944663557,-12.034489102479327,17.074046542042243,-0.268503534149627,-0.2977142814593336,328.6460919600195,20.792010789106385,0.0,1.0,0.0,0.0,1.0,Taxi
34.1,-0.023112048995571625,42.06552377801618,17.246762443117802,-0.046238225103260026,-0.6743178775925767,328.64430337698445,21.58328057230022,0.0,1.0,0.0,0.0,1.0,Taxi
34.2,0.08667327503349706,8.92037971072297,17.66782928700429,-0.24756390614199358,-0.18620685399020903,328.5355950311316,21.73756581886204,0.0,1.0,0.0,0.0,1.0,Taxi
34.300000000000004,0.038237911608951396,-11.707725265172888,16.310521006781876,-0.09154140966674418,0.2562215480095782,328.6074030436657,21.636183445038988,0.0,1.0,0.0,0.0,1.0,Taxi
34.4,-0.08165067532143595,-31.50768452750378,16.532074058807417,-0.23165791441283087,-0.2844224324848072,328.48578393775824,22.30404676121627,0.0,1.0,0.0,0.0,1.0,Taxi
34.5,-0.07086514760402172,-16.309696597012376,17.176967236376743,-0.12618488203944755,0.6022355840008505,328.49151737054865,22.08299877343877,0.0,1.0,0.0,0.0,1.0,Taxi
34.6,-0.043310571376110385,61.98633163492309,16.01402269105035,0.1252205218923307,0.4344895235327603,328.50187954838066,21.711067354704475,0.0,1.0,0.0,0.0,1.0,Taxi
34.7,0.22828098285317955,17.54810937690897,16.65701652313909,0.04760046812336219,0.06752975737758164,328.40071342613214,21.80890193357437,0.0,1.0,0.0,0.0,1.0,Taxi
34.800000000000004,0.01687539928052325,13.499776354137216,17.62003391212886,-0.16964123969434192,-0.14478516765458924,328.4127623983386,21.86835238001005,0.0,1.0,0.0,0.0,1.0,Taxi
34.9,0.024188310394575807,-67.9987907225671,17.240944046281975,0.20168865827872334,-0.32410081667626084,328.48036148524966,22.592561484022724,0.0,1.0,0.0,0.0,1.0,Taxi
35.0,-0.11171297075965579,-6.4144735944584825,17.448317435083553,0.20493221616482832,0.35697608213954596,328.65089415733837,20.831445098438085,0.0,1.0,0.0,0.0,1.0,Taxi
