time_s,altitude_ft,vertical_speed_fpm,ias_kt,pitch_deg,roll_deg,heading_deg,throttle_pct,afterburner_on,gear_down,flaps_deg,speedbrake_pct,weight_on_wheels,label
0.0,-0.12771524075607252,41.152389581614806,16.293664062672757,0.5769799654864491,0.1185402161648039,306.83639167384524,14.765351566778316,0.0,1.0,0.0,0.0,1.0,Taxi
0.1,0.009459391182643507,-6.076979839528202,15.850414866750558,1.2521373310615087,0.750100805336966,306.7112759721497,15.56494583130872,0.0,1.0,0.0,0.0,1.0,Taxi
0.2,-0.15810013995371353,45.39415789210968,16.11909073229691,1.0638046094570055,0.7715031383000551,306.710165580855,14.866081904257893,0.0,1.0,0.0,0.0,1.0,Taxi
0.30000000000000004,0.09925554870447591,-13.297030266540759,15.719530469509833,1.0444400887820242,-0.7966497312721506,306.6244972076813,14.643810044868205,0.0,1.0,0.0,0.0,1.0,Taxi
0.4,-0.05702576015006026,30.573850670341272,16.73840705997944,0.6678501047780565,-0.1750875182664429,306.95707709127214,15.620986542235118,0.0,1.0,0.0,0.0,1.0,Taxi
0.5,-0.005230886602007133,-9.48828717898003,16.977212229245996,0.8783384111394518,1.1988887284804122,306.9156602505693,13.869716242593382,0.0,1.0,0.0,0.0,1.0,Taxi
0.6000000000000001,0.051814112809575735,17.52403229652568,16.90592020864243,0.8834957213020322,-0.5482098706513,306.6761869046868,14.852720034978596,0.0,1.0,0.0,0.0,1.0,Taxi
0.7000000000000001,0.03059440133256812,-18.912925308270093,17.479370405898138,0.8608553584497378,0.12628698304650904,306.6228483472735,14.213412472593962,0.0,1.0,0.0,0.0,1.0,Taxi
0.8,-0.0997955131433576,2.640603075323521,16.23926102711323,1.0195610557913377,-0.44385863602267367,306.71930536250204,15.350005582111478,0.0,1.0,0.0,0.0,1.0,Taxi
0.9,0.06501712818619332,32.55991079835537,16.475457781643406,0.8776433461879448,0.33965812696035347,306.81935190138324,15.213675654022216,0.0,1.0,0.0,0.0,1.0,Taxi
1.0,0.19339395532434492,0.9204386692443336,15.781172169385066,0.7440878859270268,-0.5308587227702014,306.8489548125848,14.866219718302522,0.0,1.0,0.0,0.0,1.0,Taxi
1.1,-0.09519331979713591,-3.49269898023123,17.19176861164808,1.1934249318683772,-1.389400940814012,306.80585279460183,14.557225575686934,0.0,1.0,0.0,0.0,1.0,Taxi
1.2000000000000002,0.047553633285037186,-5.128682733942351,15.525342326355073,0.5210647531010477,0.4197574748742954,306.7922132696915,14.538646574582115,0.0,1.0,0.0,0.0,1.0,Taxi
1.3,0.16775054165463318,30.2300693793774,16.005175818984508,1.1425592134417357,0.16970279630316448,306.71960299434875,13.982705415907457,0.0,1.0,0.0,0.0,1.0,Taxi
1.4000000000000001,0.05595702709975109,-1.9947745101041428,15.527067271168548,0.9909124219618088,-0.0022319351160528665,306.900665493842,14.235650390718783,0.0,1.0,0.0,0.0,1.0,Taxi
1.5,0.03757976073451647,-16.194502849175546,16.413338069150846,1.1453075387252007,-0.19147728250419302,306.6124419998541,14.863027995563426,0.0,1.0,0.0,0.0,1.0,Taxi
1.6,0.08677802740875544,-9.013177506527946,16.385234609841387,0.9072870385043939,0.8682439769755579,306.72585409148314,15.17622320576179,0.0,1.0,0.0,0.0,1.0,Taxi
1.7000000000000002,0.01089113956711135,7.860468580047853,17.652393111850582,1.244627305629493,-0.04338181833314045,306.7652999388904,14.758182230542662,0.0,1.0,0.0,0.0,1.0,Taxi
1.8,0.07688210363475573,-7.214525390170991,16.334047995524593,1.1216995090201198,0.7197236887069176,306.8074696117575,14.650748995600052,0.0,1.0,0.0,0.0,1.0,Taxi
1.9000000000000001,0.05070540045790048,21.115821993126094,15.676686532296278,1.0871526413483243,-0.6708543084771404,306.8233714818257,14.256208822106927,0.0,1.0,0.0,0.0,1.0,Taxi
2.0,0.11647024953274182,-0.7526429058571793,17.077406303182602,1.3698370599585135,0.15625114391778683,306.79323784937174,15.488834285912686,0.0,1.0,0.0,0.0,1.0,Taxi
2.1,0.07311888910546982,3.493200222196279,16.17785414173355,0.8196925305604054,0.80130485857929,306.74096224851485,15.656021499736262,0.0,1.0,0.0,0.0,1.0,Taxi
2.2,0.06817140156888186,0.8019736217728356,17.234781157692375,0.938083153699529,0.7989833884110289,306.70700585637655,13.764519106585448,0.0,1.0,0.0,0.0,1.0,Taxi
2.3000000000000003,0.12048011764160599,-37.789350467620444,16.074308150409532,0.5852272814663765,0.36859040788921116,306.8919164813508,14.340216311389893,0.0,1.0,0.0,0.0,1.0,Taxi
2.4000000000000004,-0.11582786323263246,-2.6040800151373844,15.854513486527482,1.0338484105059351,-0.5228859143653596,306.8954961907525,15.052024144196388,0.0,1.0,0.0,0.0,1.0,Taxi
2.5,0.05515100149319492,-39.925012656832436,16.544089999482445,1.0137831187203552,-0.4407622285722705,306.7912722253832,14.712774140880779,0.0,1.0,0.0,0.0,1.0,Taxi
2.6,-0.07914494564255621,16.6849689574623,15.94910120615137,1.2759708822856366,-0.3339233456766298,306.62312579889044,14.842090444282162,0.0,1.0,0.0,0.0,1.0,Taxi
2.7,-0.03240301844532094,-20.751766557220503,16.31469622348563,0.8544651527121402,-0.3620794603289119,306.9408165343302,14.460305581429484,0.0,1.0,0.0,0.0,1.0,Taxi
2.8000000000000003,-0.04860783129290759,14.424693253452126,16.379292107118875,0.841052623087154,-0.5255243649338224,306.8736511458785,14.519412634721931,0.0,1.0,0.0,0.0,1.0,Taxi
2.9000000000000004,-0.007021479375295574,29.55182252999339,17.30340283635457,0.8630134542543657,-0.46470499325394304,306.68798556482534,14.908415259261051,0.0,1.0,0.0,0.0,1.0,Taxi
3.0,0.11535609420464604,-10.07193663434156,16.678768804861583,0.9470406154245654,-0.6803639212250575,307.01073438950857,15.893560742301304,0.0,1.0,0.0,0.0,1.0,Taxi
3.1,-0.09896751446461541,12.162074843654617,16.68012430750207,1.231262102245889,0.09100833233870166,306.8594321015462,15.409201932400363,0.0,1.0,0.0,0.0,1.0,Taxi
3.2,0.05378889484297749,1.3606578988388378,17.270741415014584,1.2591629636817845,-0.5601155151242827,306.9350272042203,14.66603067679209,0.0,1.0,0.0,0.0,1.0,Taxi
3.3000000000000003,0.12215938369884019,-35.35999855186348,15.97633332830806,0.8236595618162784,0.21725186266336233,306.7926368072716,14.827289448697627,0.0,1.0,0.0,0.0,1.0,Taxi
3.4000000000000004,-0.27576750722393284,0.4573658041469173,16.765551164129977,1.2730929631470254,0.9409961312538065,306.8446308725206,14.891102174889898,0.0,1.0,0.0,0.0,1.0,Taxi
3.5,0.056075723863712026,12.458339811457568,16.057193629596174,1.0056982370755763,-0.39932153791165864,306.74311410586665,14.660697405995124,0.0,1.0,0.0,0.0,1.0,Taxi
3.6,0.18445108275612798,41.926514759355086,15.913281830281713,0.9397065021589689,-0.7741423955513059,306.81681498819444,15.353456902274893,0.0,1.0,0.0,0.0,1.0,Taxi
3.7,-0.06613493342715741,-11.748012590937648,16.453257375429363,1.2839218301046007,-0.21686857294290382,306.75257485520024,14.68204170273242,0.0,1.0,0.0,0.0,1.0,Taxi
3.8000000000000003,-0.0026643390909762018,-35.88106746713257,15.702856356467414,0.984441951395779,-0.23081146940979871,306.826993795406,15.061579710079819,0.0,1.0,0.0,0.0,1.0,Taxi
3.9000000000000004,0.005045745420465156,-8.072704621622648,16.295108871427086,0.9672758235977547,-0.09513893808734591,306.84194556726084,15.02829045572546,0.0,1.0,0.0,0.0,1.0,Taxi
4.0,-0.10649845653527062,22.813077627289093,15.683156084446802,0.7872112542944433,-0.07776264267007235,306.80229310292145,14.654520769791365,0.0,1.0,0.0,0.0,1.0,Taxi
4.1000000000000005,0.11140104904546927,17.89095177431371,17.043684211014313,1.1407362744728526,-0.026506750678264444,306.6286018688352,14.351508670296715,0.0,1.0,0.0,0.0,1.0,Taxi
4.2,0.09450050429203372,10.238031086421216,16.233423990290188,1.2432988279684376,1.0141049263936912,306.8857330842368,14.403927712166952,0.0,1.0,0.0,0.0,1.0,Taxi
4.3,-0.05530830110316455,-40.296033298296685,16.646053556133875,1.0031389447862502,0.10764647127063846,306.56856598793,13.87276581713791,0.0,1.0,0.0,0.0,1.0,Taxi
4.4,-0.09007911744601413,-14.301775278869547,15.902050560397093,1.207150164190499,-1.1503212940861511,306.64542888083577,14.717808053489131,0.0,1.0,0.0,0.0,1.0,Taxi
4.5,0.022991627897685996,2.059801884046619,16.868974686160364,0.7667564973053653,-0.01756218718952784,306.6345717962578,15.46541697725625,0.0,1.0,0.0,0.0,1.0,Taxi
4.6000000000000005,-0.045009291682931434,10.383139508382115,16.343060550972016,1.0345538106177148,-0.10825839189521594,306.8480447213717,15.438259090625145,0.0,1.0,0.0,0.0,1.0,Taxi
4.7,-0.038163419904103525,-1.4896692635333082,15.997644196086627,1.1646205164848609,-0.04675484243249959,306.78550106395437,14.541535054160098,0.0,1.0,0.0,0.0,1.0,Taxi
4.800000000000001,0.015543281580019483,-2.462781895920031,15.874200162153045,1.493004014276957,-0.07984675220078623,306.7177095186106,14.886390680440394,0.0,1.0,0.0,0.0,1.0,Taxi
4.9,-0.05732320116253158,-1.4323754404440379,16.494209323884867,0.8302145125295184,-0.7794522241688796,306.6460751403955,14.460791437893961,0.0,1.0,0.0,0.0,1.0,Taxi
5.0,-0.04532529710632371,-24.79428936538403,15.71484021736825,1.0379002271867337,0.5766024512242699,306.86824702225306,15.953909335006117,0.0,1.0,0.0,0.0,1.0,Taxi
5.1000000000000005,-0.10842816524690067,10.63215668091136,17.060394917432046,0.6920333028688873,-0.2066676524927495,306.76479751552654,14.475775792250626,0.0,1.0,0.0,0.0,1.0,Taxi
5.2,-0.004162417757974754,5.01076416176826,16.612156923633616,0.9162062583471712,0.17143373430739903,306.7170155377747,14.711263351386451,0.0,1.0,0.0,0.0,1.0,Taxi
5.300000000000001,-0.02027147629748238,34.48347065719915,15.8510526180653,0.79067694730384,-0.7057985075834705,306.8784384559717,14.194820978340838,0.0,1.0,0.0,0.0,1.0,Taxi
5.4,0.06398918803909509,21.451501419169475,17.333325127474744,0.913711305505492,-0.48766548558818057,306.82818181736263,15.442782993618211,0.0,1.0,0.0,0.0,1.0,Taxi
5.5,0.10309508933787265,-0.1644619492134609,15.537441547632824,0.9118519757457549,-0.16579819082797212,306.91360368392634,15.041616343825414,0.0,1.0,0.0,0.0,1.0,Taxi
5.6000000000000005,-0.02109378604354965,-10.050083811628353,16.260462229183535,0.7193605153743652,-0.5003718539762081,306.69299644495845,14.883891243353792,0.0,1.0,0.0,0.0,1.0,Taxi
5.7,0.013738768980953357,13.195144678784336,16.9902044511657,1.1222029354672265,-0.3989683656020312,306.7560152330984,14.179564363029485,0.0,1.0,0.0,0.0,1.0,Taxi
5.800000000000001,0.16907081273179436,18.243944505869695,16.70313375350042,1.1459855358389097,0.5686911863667476,306.7283036563838,13.839288437563225,0.0,1.0,0.0,0.0,1.0,Taxi
5.9,0.07012593648579887,0.8295398230396529,16.41489736082774,1.0472335234851882,-0.039408663037862744,306.72606563168813,14.143962568893736,0.0,1.0,0.0,0.0,1.0,Taxi
6.0,0.01788646809615166,-28.168533635801953,16.452845135231183,1.2168980841037107,0.5027546611135505,306.76329690963644,14.322848722792521,0.0,1.0,0.0,0.0,1.0,Taxi
6.1000000000000005,0.028228144552784606,-28.934532456966096,16.59678072362043,1.0680190885330312,0.6374189485730505,306.779752416322,14.939694717630905,0.0,1.0,0.0,0.0,1.0,Taxi
6.2,-0.07454672579903159,-4.470054619828606,16.742005907944268,1.1884604243304064,-0.14831956007652755,306.8567140359644,13.926260345252821,0.0,1.0,0.0,0.0,1.0,Taxi
6.300000000000001,-0.0044638050029913575,7.4060560901303125,15.113818303628037,1.077157786412249,-0.3790958731467965,306.8682551808113,15.285697429388126,0.0,1.0,0.0,0.0,1.0,Taxi
6.4,0.06525842500343619,7.674068445704009,16.77865207936654,0.8785915523493211,0.548181040242541,306.8582109080927,15.013719536658773,0.0,1.0,0.0,0.0,1.0,Taxi
6.5,-0.03617638357051152,1.8654255451414794,16.657259955785314,1.166360920920101,-0.5906407447144817,306.7651858316276,14.109026683841527,0.0,1.0,0.0,0.0,1.0,Taxi
6.6000000000000005,0.004863322722716077,-26.17673021597965,16.874103693112332,1.1588786737585415,-0.4355317970067175,306.67350208933976,14.543130927759664,0.0,1.0,0.0,0.0,1.0,Taxi
6.7,-0.06562522607646203,17.52338743521096,16.23751000591908,1.1270203791907307,0.3336371468219515,306.7700937527911,14.162836030969283,0.0,1.0,0.0,0.0,1.0,Taxi
6.800000000000001,0.05144055360554331,22.86856360914423,16.27466217970653,1.1046346065837653,-0.9486558433305479,306.76151558145716,14.648343082946766,0.0,1.0,0.0,0.0,1.0,Taxi
6.9,0.11920614076843726,-5.896533103825765,15.993440342335653,0.5565395802376527,-0.3679063108624045,306.9259880353518,14.698323407045926,0.0,1.0,0.0,0.0,1.0,Taxi
7.0,-0.0951078915955908,-22.247443734142152,16.059313598094825,1.4447944018920897,-0.1889103474887323,306.8320159311729,15.324062134112026,0.0,1.0,0.0,0.0,1.0,Taxi
7.1000000000000005,-0.0597966650651674,-56.62547135461955,15.84928100772772,0.6834497899947993,-0.0949024511178977,306.69518508011697,14.336204312445625,0.0,1.0,0.0,0.0,1.0,Taxi
7.2,-0.16392121600466047,-0.12401596878385608,16.488518951157758,0.9902444153889305,0.12038634019007331,306.6699475748378,14.702890118443554,0.0,1.0,0.0,0.0,1.0,Taxi
7.300000000000001,-0.09572797143951003,17.166672028354384,16.906244046124772,0.9100517512954849,0.6085890610906073,306.8122355821781,14.482838858279129,0.0,1.0,0.0,0.0,1.0,Taxi
7.4,0.02603669507660459,27.467238148367414,16.560683636636575,0.7686137435080445,-0.858613227414463,306.8746071178225,14.713530927593162,0.0,1.0,0.0,0.0,1.0,Taxi
7.5,-0.026585025262823327,12.399752297515882,16.66482538135565,0.9144116952721045,0.6921246454425339,306.68045636228305,14.673324160252074,0.0,1.0,0.0,0.0,1.0,Taxi
7.6000000000000005,-0.033729209951930565,-14.862110053222239,16.936284430339153,0.9494604705997023,-0.3860816618376538,306.77403582422335,15.296050627917914,0.0,1.0,0.0,0.0,1.0,Taxi
7.7,-0.04827385518950656,-4.40650828094041,15.9629712030568,1.0764807444818085,0.21934456765006588,306.79685893294004,15.448018315726543,0.0,1.0,0.0,0.0,1.0,Taxi
7.800000000000001,-0.048617566667525335,25.508938955498266,16.158012983425415,0.704447069108989,0.23057450734784862,306.75550985967675,15.228014899240673,0.0,1.0,0.0,0.0,1.0,Taxi
7.9,0.09381548482556079,14.883463250013216,15.948880620018333,0.8674105922632862,0.44363990387284524,306.87416663339945,14.519447488819063,0.0,1.0,0.0,0.0,1.0,Taxi
8.0,0.026143461060559533,11.111271350982122,16.52291323747549,1.17868553424714,-0.3348290193965609,306.70890777758507,14.119768336277927,0.0,1.0,0.0,0.0,1.0,Taxi
8.1,0.006938790087385295,-54.51391324728297,16.237838420936214,1.0049505072221296,0.282175962649169,306.908859249289,14.704906933465109,0.0,1.0,0.0,0.0,1.0,Taxi
8.200000000000001,-0.17875408141085408,-18.436565813491356,15.230246481423734,1.055147267107252,-0.04651748233568021,306.7372224777589,14.885959930880603,0.0,1.0,0.0,0.0,1.0,Taxi
8.3,-0.06603936800689723,26.095964825195995,16.19769333324402,0.9567151456428552,0.23815198091930317,306.60900929213494,14.148526949619212,0.0,1.0,0.0,0.0,1.0,Taxi
8.4,0.1374186142133653,8.279109083419854,16.205072902175207,1.002975179316907,0.7637161229797819,306.69240815650346,15.653542346942519,0.0,1.0,0.0,0.0,1.0,Taxi
8.5,-0.13735853599375478,59.20708864732571,15.206930893674134,1.0892466144794735,-0.1567417149609014,306.71795588016994,15.2161147650627,0.0,1.0,0.0,0.0,1.0,Taxi
8.6,0.22999607522973134,-61.923052542940646,16.76397515742846,0.8053567211788455,0.9101159089019082,306.9500104383451,14.908272605551742,0.0,1.0,0.0,0.0,1.0,Taxi
8.700000000000001,-0.17219664850133792,29.726526341643815,16.343425486493803,0.8002424089074094,0.4672572463277516,306.86436780472513,13.831588116710561,0.0,1.0,0.0,0.0,1.0,Taxi
8.8,0.01127409571446432,-86.29548089266594,15.944603151424374,1.0446514338522632,0.12823749541444,306.90541161487715,14.131160316883259,0.0,1.0,0.0,0.0,1.0,Taxi
8.9,-0.20148132923359832,41.82690761428335,16.302329009635454,0.7642895797659712,-0.17978166680991897,306.6522610683685,14.836437936618585,0.0,1.0,0.0,0.0,1.0,Taxi
9.0,0.03693788957007881,-26.004672545190854,16.325585263738326,0.9565104626393705,0.16964988708780482,306.80146303980086,15.310533824983011,0.0,1.0,0.0,0.0,1.0,Taxi
9.1,-0.11874926701148994,69.11165798835704,16.888463448396458,1.097758005800571,-0.12355308723771234,306.7648738111386,15.184690656053263,0.0,1.0,0.0,0.0,1.0,Taxi
9.200000000000001,0.14407696070818687,-28.637437493421704,17.156207672565326,1.004120509148251,0.12967920960764712,306.8238485926172,15.31014530756546,0.0,1.0,0.0,0.0,1.0,Taxi
9.3,-0.1062492978970297,7.26135959470503,16.492488230258456,0.6961503813948334,0.34364641729916573,306.9340585150751,15.170312179639385,0.0,1.0,0.0,0.0,1.0,Taxi
9.4,-0.08244246903796477,-11.28492478963058,16.303823116802082,1.0716798297933117,0.6598670810708905,306.8001380316233,14.300811898597559,0.0,1.0,0.0,0.0,1.0,Taxi
9.5,0.08765233676003403,-11.167856462897754,15.987757443040099,1.1170404634098778,-0.7445036741941448,306.71490131386054,14.695108553308698,0.0,1.0,0.0,0.0,1.0,Taxi
9.600000000000001,-0.1620885802115184,20.82918449065557,16.40836110068102,0.627714614372461,-0.5878264696037836,306.7712632047187,14.525425448594829,0.0,1.0,0.0,0.0,1.0,Taxi
9.700000000000001,0.02170345341531317,24.319258259167725,16.5512304940059,0.820410091264936,1.1319157843940517,306.67788054169296,15.584211647359075,0.0,1.0,0.0,0.0,1.0,Taxi
9.8,0.20924862805587272,11.59833761943681,17.635682621070284,0.8657063219814393,0.7490772692791039,306.76757432499255,15.013780792130955,0.0,1.0,0.0,0.0,1.0,Taxi
9.9,-0.10409689211433432,-2.1344545615056014,17.14339650008453,0.9435897073618434,0.47144269949667855,306.92717326955824,14.563097409933002,0.0,1.0,0.0,0.0,1.0,Taxi
10.0,0.011031180607785173,-85.66918344658268,15.8253479589753,0.9261699130407751,0.22176348029342483,306.7872166133757,15.57147030863958,0.0,1.0,0.0,0.0,1.0,Taxi
10.100000000000001,-0.21909728917704063,-17.038680568919123,16.44374755189596,0.7943648200855176,0.7379326379619123,306.78418180800304,14.385985046622872,0.0,1.0,0.0,0.0,1.0,Taxi
10.200000000000001,-0.18929029495892988,21.955022556663163,17.403931233508537,0.9418773995884162,-0.2935414320044075,306.6693892232678,14.817942541064884,0.0,1.0,0.0,0.0,1.0,Taxi
10.3,0.12080629339110104,21.46005168953842,17.521055820571657,0.9565547935529611,-0.047754430310327285,306.7042016854755,13.834943103924918,0.0,1.0,0.0,0.0,1.0,Taxi
10.4,-0.1117970307293485,44.49177239508321,15.413202790069757,1.063456153133322,-0.4046865502157918,306.85723674211135,15.326743630823318,0.0,1.0,0.0,0.0,1.0,Taxi
10.5,0.033168567016486177,-2.193391456818541,16.84175081729144,0.8268983180742836,-0.5770598501654192,306.778502023152,15.911635844395159,0.0,1.0,0.0,0.0,1.0,Taxi
10.600000000000001,0.10983933610700834,-4.377095645636861,16.522260971504227,0.8458711854908323,0.03782094637534061,306.64244916198163,15.350595225940642,0.0,1.0,0.0,0.0,1.0,Taxi
10.700000000000001,-0.13368250895753278,-29.273661075554212,15.866017662702495,0.9370698732614772,0.4597532527903138,306.78395492777383,14.459402731470856,0.0,1.0,0.0,0.0,1.0,Taxi
10.8,-0.11319973836128486,5.805277293639089,16.14699513876437,0.8820592508959194,0.10366156112029797,306.8216023049979,14.610783852842538,0.0,1.0,0.0,0.0,1.0,Taxi
10.9,0.13886572257520383,8.395507304178361,16.218646200584054,0.9291366197305498,-0.5213409253786739,306.78820427739765,14.226923594277416,0.0,1.0,0.0,0.0,1.0,Taxi
11.0,-0.09170497243664094,15.300748019384663,16.157360937210512,0.7183546154664204,-0.06496838262231434,306.8232898622881,14.948929573324312,0.0,1.0,0.0,0.0,1.0,Taxi
11.100000000000001,-0.036695998264361505,-16.420275795582093,16.405134251055152,1.3021205685955022,0.5652093963762235,306.90398935009273,15.043960022287692,0.0,1.0,0.0,0.0,1.0,Taxi
11.200000000000001,0.05676434359729339,18.311112966128693,16.132835351076757,0.660676407808111,-0.37515666737816006,306.59104537012536,15.057471436989479,0.0,1.0,0.0,0.0,1.0,Taxi
11.3,-0.00014940760599743946,8.943355098881979,16.64489456363798,1.0838753304747426,-0.19179082378824702,306.86598906577115,15.632014658629165,0.0,1.0,0.0,0.0,1.0,Taxi
11.4,0.008020777230048428,-25.68515788869787,17.01069718449774,0.8570714634004736,-0.07895289032947905,306.8104613133245,14.857594700457327,0.0,1.0,0.0,0.0,1.0,Taxi
11.5,-0.07166144584619591,16.08732575446364,15.324523394929317,1.18348043588795,0.051202310070525156,306.89823439070096,14.892871111040758,0.0,1.0,0.0,0.0,1.0,Taxi
11.600000000000001,0.08028722116632081,19.146725069248145,16.157177392841625,0.6407855619989145,1.0148598858710713,306.8515958175708,14.51152234518673,0.0,1.0,0.0,0.0,1.0,Taxi
11.700000000000001,0.1037544025762892,1.6912613987985072,16.296357222041237,0.8031876851059113,0.32265625567598405,306.72939788596364,14.773541418923799,0.0,1.0,0.0,0.0,1.0,Taxi
11.8,-0.06320513885220329,-44.68202168347633,15.693869810929217,1.033502430004787,-0.08269388902450893,306.8572295667625,14.33230542187528,0.0,1.0,0.0,0.0,1.0,Taxi
11.9,-0.1431228872510608,1.329635798822854,16.738169386785728,0.671507014325643,0.6001031557902878,306.7951954037171,14.686824365385826,0.0,1.0,0.0,0.0,1.0,Taxi
12.0,0.11040258157040356,26.470512994757485,16.29393957909984,0.700260536058054,0.11510739417853322,306.63347394943276,15.433366075002676,0.0,1.0,0.0,0.0,1.0,Taxi
12.100000000000001,0.06914742612158417,15.428378839998345,16.97388201744702,0.7206778716109796,-0.6760373099685529,306.47869760331935,13.755733743372446,0.0,1.0,0.0,0.0,1.0,Taxi
12.200000000000001,-0.06598099305106903,-29.01217875922481,15.974682914042447,0.8710455096785461,0.4089130597804628,306.75409716670026,14.416571680096332,0.0,1.0,0.0,0.0,1.0,Taxi
12.3,-0.034658312225720474,-35.2486332599864,15.929368962114788,1.118207834866865,0.27819733158157445,306.78207113245264,13.728294324515023,0.0,1.0,0.0,0.0,1.0,Taxi
12.4,-0.10709574017834778,-9.020210948025172,16.841652071840063,0.9977488295467183,0.02315103655346517,306.8867799306272,14.873457565440667,0.0,1.0,0.0,0.0,1.0,Taxi
12.5,-0.11108204779119486,11.44973064544544,16.79111820367494,0.7260031233819582,-0.3520806416262165,306.64210444701666,15.309241791088727,0.0,1.0,0.0,0.0,1.0,Taxi
12.600000000000001,0.022590341001506746,44.444738995536774,16.14106556764733,0.9504069454108292,0.23994906559170578,306.81514856759406,15.009755085658995,0.0,1.0,0.0,0.0,1.0,Taxi
12.700000000000001,0.11512795479933613,12.988536681998673,16.94402413976387,1.1022821725200151,0.18463321280087439,306.69514498287344,15.648977102851665,0.0,1.0,0.0,0.0,1.0,Taxi
12.8,-0.0461393643812015,11.144057830724558,16.829058707497598,1.3205968008488902,-0.19774129642896304,306.80480922114816,14.707578605110998,0.0,1.0,0.0,0.0,1.0,Taxi
12.9,0.07831063015512954,-32.536117354293424,16.67143689655963,1.1882842502205324,0.02760379542727679,306.72358391502075,14.98686231200568,0.0,1.0,0.0,0.0,1.0,Taxi
13.0,-0.047552631972131006,9.895022731632121,16.466259871212777,1.0289228806096675,0.14315644718264633,306.5672038762533,14.444386953800072,0.0,1.0,0.0,0.0,1.0,Taxi
13.100000000000001,0.0033357492769591104,19.145462921937934,16.359700371788975,0.8926083834227702,-0.6766290934894714,306.80830996681607,15.05059064731053,0.0,1.0,0.0,0.0,1.0,Taxi
13.200000000000001,0.17403794476481926,35.598606137434075,16.61404673680468,1.244054424115341,-0.44420746874675743,306.6772951866503,15.61340310839417,0.0,1.0,0.0,0.0,1.0,Taxi
13.3,0.13044039871503943,-17.473420946868888,16.829113124419997,0.705212347322407,-0.5807946036293448,306.82937640669707,14.751092821532735,0.0,1.0,0.0,0.0,1.0,Taxi
13.4,-0.0840313554573853,-31.022787628816616,17.74341750407313,1.0012212423644187,0.3065444932030791,306.80190800582227,15.18769430310177,0.0,1.0,0.0,0.0,1.0,Taxi
13.5,0.018924006620736174,-2.47265143394835,16.934753461738467,1.078694518367837,-0.33668014041065536,306.6513863433039,14.282660457737377,0.0,1.0,0.0,0.0,1.0,Taxi
13.600000000000001,0.11807714154529769,31.344364061980993,16.27474820362011,0.7678894161927057,-0.13804278318447152,306.6970750480343,15.172113170438775,0.0,1.0,0.0,0.0,1.0,Taxi
13.700000000000001,0.07269046485251966,-13.733969214368082,15.520342542926398,0.694856956677159,0.7914818034109107,306.8739788343944,13.951003932936395,0.0,1.0,0.0,0.0,1.0,Taxi
13.8,-0.049745839451104244,-13.228898380196,15.913663191299204,1.339594318329847,-0.4578054363460242,306.57297459748224,14.70901469044721,0.0,1.0,0.0,0.0,1.0,Taxi
13.9,0.05193264964431769,-38.659923391274795,16.683565112464535,0.843169974701456,0.1289696125744998,306.9761693622272,15.83699170445525,0.0,1.0,0.0,0.0,1.0,Taxi
14.0,-0.12060915210385431,20.145165361172655,15.22308539154102,0.8114525597520769,0.1991127136527473,306.7863963427159,14.686829027108137,0.0,1.0,0.0,0.0,1.0,Taxi
14.100000000000001,0.05097998735475906,-6.561833521747666,14.891718541485575,0.8918741611345664,0.4974203339076632,306.6739924838165,14.63932845316144,0.0,1.0,0.0,0.0,1.0,Taxi
14.200000000000001,0.01912348203557937,32.591184740242014,16.91109374553449,0.8624944396734143,0.8393972876902986,306.85852909559367,14.116125202017415,0.0,1.0,0.0,0.0,1.0,Taxi
14.3,0.04234677159735578,-27.234890020011168,16.628235035656385,1.1573279769612743,0.9752450521163842,306.8538606436648,14.509046442584525,0.0,1.0,0.0,0.0,1.0,Taxi
14.4,-0.08519446274529677,-13.867200085553762,16.851023722095963,1.212968132160911,-0.23049657383110592,306.8080897222841,14.965737287681616,0.0,1.0,0.0,0.0,1.0,Taxi
14.5,-0.05021251839218943,-18.70396744632148,15.964199620713314,0.8975927799645436,0.3125245908657783,306.97439154831955,14.331440181021321,0.0,1.0,0.0,0.0,1.0,Taxi
14.600000000000001,-0.051173065634251606,21.309211198432692,17.747585012392996,1.1114323522926846,-0.07315669920931915,306.8031880607447,15.077098604924934,0.0,1.0,0.0,0.0,1.0,Taxi
14.700000000000001,0.021351593246866696,19.20609812718784,16.474915597606323,0.8332732538205283,0.1789790081393359,306.7582264219275,14.611303265086363,0.0,1.0,0.0,0.0,1.0,Taxi
14.8,0.04581797224374977,55.106210989745,15.66966024351631,1.130505013094277,0.12341979069673815,306.90208970281356,14.624565109452899,0.0,1.0,0.0,0.0,1.0,Taxi
14.9,0.22435798931447343,19.01996811082137,16.58693707387167,1.1797615126584644,-0.13337134134854634,306.7297082225706,13.85191320606608,0.0,1.0,0.0,0.0,1.0,Taxi
15.0,0.11645143380097359,-22.4667877420322,16.267055285298532,0.8611914942110841,0.6563318921238884,306.7544385735049,14.683690739479296,0.0,1.0,0.0,0.0,1.0,Taxi
15.100000000000001,-0.06651596646641121,-60.78857016740119,15.709921286830621,1.2068632288266379,0.7791776190794477,306.90773443838225,15.207797151440115,0.0,1.0,0.0,0.0,1.0,Taxi
15.200000000000001,-0.07958486152253255,-29.043350077833797,16.210199329954307,0.9487341172560269,0.11093688956499904,306.7596057728624,14.333993482412314,0.0,1.0,0.0,0.0,1.0,Taxi
15.3,-0.02876531658819539,34.26102202112711,15.70915683915257,1.4631888511239803,-0.4943164586659099,306.78193626822076,14.896539041600748,0.0,1.0,0.0,0.0,1.0,Taxi
15.4,0.10478914363922438,49.325054112925805,17.363727290229278,0.9303668858270705,-0.29179544151591486,306.56672774082676,14.156030079448382,0.0,1.0,0.0,0.0,1.0,Taxi
15.5,0.1670404090420965,-62.54080895333036,16.15939141202891,1.003049399022085,-0.7458774188941084,306.6701253004185,14.497662117613409,0.0,1.0,0.0,0.0,1.0,Taxi
15.600000000000001,-0.34146936135484723,-22.307748352036374,17.690018425764375,0.8780464079936299,-0.391908494938027,306.7647856051094,14.292402971160167,0.0,1.0,0.0,0.0,1.0,Taxi
15.700000000000001,-0.006749598120957533,-28.035870990950077,17.09760370169645,1.1625328298493862,-0.5611971840958151,306.7403752704082,14.81537657186447,0.0,1.0,0.0,0.0,1.0,Taxi
15.8,0.026861054087346105,57.47835300481953,17.668264399699805,1.0313500407205811,-0.8671927772678035,306.8881660732525,14.635039374290923,0.0,1.0,0.0,0.0,1.0,Taxi
15.9,-0.054077596330749524,7.797698721143097,16.25832113946162,1.1239505077865866,-0.24178569146664702,306.89998583685167,14.747761035287146,0.0,1.0,0.0,0.0,1.0,Taxi
16.0,0.032238895484758,-6.944984935570019,15.998486652276211,0.9222434083387628,-0.23725896460355544,306.8023375445713,15.469206541171015,0.0,1.0,0.0,0.0,1.0,Taxi
16.1,-0.00786387059050394,-11.425644826175917,15.226314590691024,0.7799894061368176,-0.1419381834864445,306.91451513675634,14.145145771484335,0.0,1.0,0.0,0.0,1.0,Taxi
16.2,-0.11120582046162904,13.494692287802385,16.01481151612996,1.1449121384213794,0.3099538781089318,306.7407223689577,14.097650967970965,0.0,1.0,0.0,0.0,1.0,Taxi
16.3,0.09971235692377,-10.01205514277998,15.256815631163885,0.7186265904864457,0.4049627124740214,306.9611010741719,15.797023010018828,0.0,1.0,0.0,0.0,1.0,Taxi
16.400000000000002,-0.05792414630440377,40.13036807780252,15.796406884075388,0.5285648462875767,-0.13975520375049527,306.8159714562971,15.058330276742728,0.0,1.0,0.0,0.0,1.0,Taxi
16.5,0.08944601992738363,-14.822020301007813,15.71502632373475,0.8945154530303955,-0.928617862503457,306.6755633774451,15.284496841099878,0.0,1.0,0.0,0.0,1.0,Taxi
16.6,0.02560225541873099,1.3284975919260944,16.976881790574826,1.0506454107549588,-0.0992331195529163,306.63478725410107,15.30166070297845,0.0,1.0,0.0,0.0,1.0,Taxi
16.7,-0.05128165834477323,-45.7331775972855,15.916840235421416,0.6773263971037744,-0.22985990555554664,306.6831336633593,13.766533335879753,0.0,1.0,0.0,0.0,1.0,Taxi
16.8,-0.13921986805904377,5.573698906924922,17.589108195861424,0.9428251258659588,-0.3769290056167281,306.77814011825353,14.40467397265881,0.0,1.0,0.0,0.0,1.0,Taxi
16.900000000000002,0.053470749953355615,46.17174093027873,16.258308950735398,0.9723493817162348,0.594030156356085,306.8730578893868,14.394725290008026,0.0,1.0,0.0,0.0,1.0,Taxi
17.0,0.1795770463066204,20.576134537005277,15.701329685619745,0.8552474462397022,0.3652271875728135,306.6366175864698,14.579010943357673,0.0,1.0,0.0,0.0,1.0,Taxi
17.1,-0.03633919537401737,-23.216356119284175,16.123379371699414,0.711722559708268,0.3287976323962479,306.6223686485582,15.028325037155328,0.0,1.0,0.0,0.0,1.0,Taxi
17.2,-0.06261103064306524,-57.99023043132174,16.625256397736738,1.0700696450511964,-0.21909488632224672,306.76501357245115,14.77347995720344,0.0,1.0,0.0,0.0,1.0,Taxi
17.3,-0.11037410584998825,2.6795472033114387,16.281315914546795,1.2074209342808402,0.01868335440204003,306.8179478187244,15.491023492337563,0.0,1.0,0.0,0.0,1.0,Taxi
17.400000000000002,-0.022941459357460135,47.27863257411362,16.028082636962232,0.981292492632478,-0.6569284275259457,306.7450324238712,15.46754312493223,0.0,1.0,0.0,0.0,1.0,Taxi
17.5,0.17378213222750288,71.18324905207938,16.80945758703573,0.8341133362232205,0.5250839157574273,306.688310553811,14.462037115228256,0.0,1.0,0.0,0.0,1.0,Taxi
17.6,0.24554213941040867,12.752120844807516,17.474817766392004,1.0272920709777733,0.19318279907151378,306.75927567843974,14.344463659909671,0.0,1.0,0.0,0.0,1.0,Taxi
17.7,0.040819144866577534,-37.09373809104904,16.887358882142685,0.8320733831839923,-0.7604469481614091,306.7874331399296,15.144813360372432,0.0,1.0,0.0,0.0,1.0,Taxi
17.8,-0.011686558227742283,-49.20559723416603,16.935262746138115,0.6387421981440797,-0.5379068122499093,306.62588034292185,14.642261289635217,0.0,1.0,0.0,0.0,1.0,Taxi
17.900000000000002,-0.00048584676042140473,17.982099403806956,16.241380320516765,1.0505758683621427,0.5692411304422383,306.6683408116221,14.444562598109993,0.0,1.0,0.0,0.0,1.0,Taxi
18.0,0.13072964188561237,16.99604068961015,17.10045442189846,0.9798218631205496,0.43001808485680476,306.7461420480546,14.650150197693309,0.0,1.0,0.0,0.0,1.0,Taxi
18.1,0.07329364522030854,-3.797479095606652,16.293612795417953,1.1571759305313845,-1.054040242951938,306.72018933797153,15.042559360887743,0.0,1.0,0.0,0.0,1.0,Taxi
18.2,-0.01947324223845459,-45.62393116699968,16.593487236912708,0.8098515114640883,0.1255916354570362,306.79717523161,14.714794959276551,0.0,1.0,0.0,0.0,1.0,Taxi
18.3,-0.097390013949386,23.77407131613522,15.206373336746742,1.5226497151511844,0.5415518164885957,306.7839815567445,15.213384846699963,0.0,1.0,0.0,0.0,1.0,Taxi
18.400000000000002,0.19216400180098467,15.891182970927858,16.91294718018023,0.9693202771395887,-0.25018329755114826,306.80180852695,14.14786321146286,0.0,1.0,0.0,0.0,1.0,Taxi
18.5,0.05998267261618472,31.98164707690763,15.762462207342907,0.9561649458789385,-0.8551748089023311,306.9245018967604,14.267656062962502,0.0,1.0,0.0,0.0,1.0,Taxi
18.6,0.06251822143515218,-24.740633062727714,15.371603956343087,0.5860818469731586,0.43941224682326213,306.74980364767293,15.016242614945272,0.0,1.0,0.0,0.0,1.0,Taxi
18.7,0.06846083648734612,-15.363876523020693,17.311334827251947,1.0394756811214494,-0.002378301304397626,306.85973821874325,14.900882934089305,0.0,1.0,0.0,0.0,1.0,Taxi
18.8,-0.01683670999891871,-36.27882304444427,16.227916075672795,0.8640815265269055,-0.1983491694132076,306.7489169247317,13.928223559090673,0.0,1.0,0.0,0.0,1.0,Taxi
18.900000000000002,-0.11887589378706918,-9.492145035038988,16.45991260918976,1.1664180545009966,0.42045977989991085,306.7573387558375,14.696751600613656,0.0,1.0,0.0,0.0,1.0,Taxi
19.0,0.021000111312151234,-29.083790536358453,16.70378003869916,0.8478914253961718,-0.40507149808730286,306.7225904953175,14.040211734817106,0.0,1.0,0.0,0.0,1.0,Taxi
19.1,-0.16225566268071093,34.91333163811874,14.667848998801611,0.8046267171660086,-0.5204237447395731,306.8198878224068,14.042413681808537,0.0,1.0,0.0,0.0,1.0,Taxi
19.200000000000003,0.055690764403524586,-50.861299403338,15.286373304540826,1.0749406106279362,-0.8496584257355201,306.71061142737074,14.555912145951162,0.0,1.0,0.0,0.0,1.0,Taxi
19.3,-0.23330638570453874,64.97186932412576,17.421569594155205,0.49450138251219417,-0.5299296641684662,306.7412759047247,14.757521067084378,0.0,1.0,0.0,0.0,1.0,Taxi
19.400000000000002,0.16260368393991786,-1.8053364100947107,15.116019169200664,0.5877559007304878,0.5930158314565344,306.85800949552186,14.970572864810674,0.0,1.0,0.0,0.0,1.0,Taxi
19.5,0.046664082353051,-9.49942434390789,15.347875812157627,0.7623913472697242,0.16763154579553385,306.72158466566157,14.745595939255209,0.0,1.0,0.0,0.0,1.0,Taxi
19.6,-0.28080350742407817,-18.187631173746997,15.349352799714389,1.0004964740722906,-0.490223976672555,306.64867334958694,14.410045574227665,0.0,1.0,0.0,0.0,1.0,Taxi
19.700000000000003,0.07166552807118291,5.972869379919154,16.368065420303623,1.0927508862210804,0.7574554151723877,306.72270812390093,15.228921950160588,0.0,1.0,0.0,0.0,1.0,Taxi
19.8,0.07652842925264686,53.513035169815254,16.13494828316548,1.1783494259551417,0.7530147101490575,306.8569314303603,15.057851664876004,0.0,1.0,0.0,0.0,1.0,Taxi
19.900000000000002,-0.013238331575001852,-12.638384704733774,17.116029306904014,0.9157452950555518,0.336714427319979,306.80043083904366,14.092870059104426,0.0,1.0,0.0,0.0,1.0,Taxi
20.0,0.008473604547514094,-11.82365759151409,16.496687736884297,1.285411640487784,0.4238305721440091,306.8861748732752,13.701327082785205,0.0,1.0,0.0,0.0,1.0,Taxi
20.1,0.017410141295076464,-17.155058590220563,17.350229880118135,1.2451905934109997,-0.1350982674615611,306.7632364054541,14.428230545683727,0.0,1.0,0.0,0.0,1.0,Taxi
20.200000000000003,-0.09901362452610461,11.774355833207798,15.59535653553933,1.2069292133402176,0.6853374467040474,306.8307992626029,14.791576049803455,0.0,1.0,0.0,0.0,1.0,Taxi
20.3,0.06734538371355313,1.2871802955632414,15.220293986357241,1.123660283215958,-0.6548228818161272,306.7339382367536,14.242833630745368,0.0,1.0,0.0,0.0,1.0,Taxi
20.400000000000002,0.023846042772892716,-17.824030384696886,15.704676572179041,0.8537596818542851,0.10364779188782701,306.6980632541856,14.573145570541794,0.0,1.0,0.0,0.0,1.0,Taxi
20.5,-0.18813377644958904,-10.177586413503041,16.275550375043565,1.0287040293190102,-0.01617057076845608,306.79649723051944,14.70284460666371,0.0,1.0,0.0,0.0,1.0,Taxi
20.6,0.016457451646037922,-10.344113128753042,16.961033012421566,0.9238306596627557,0.09078264836947471,306.7677274626436,15.94652634922301,0.0,1.0,0.0,0.0,1.0,Taxi
20.700000000000003,-0.027874522870872488,38.03675581035973,17.073569234508707,0.7911304036333892,0.048037523065569354,306.66960648498457,15.507847549643799,0.0,1.0,0.0,0.0,1.0,Taxi
20.8,0.0020500026022096224,-8.692758338446213,16.430081905418692,0.8320527423891502,0.1941210499335715,306.69896080057515,14.534971512556595,0.0,1.0,0.0,0.0,1.0,Taxi
20.900000000000002,-0.027006340046193095,-1.0906748813166383,16.414227159336384,1.2985621996503443,0.11247172607412297,306.7956098717766,14.809207164159673,0.0,1.0,0.0,0.0,1.0,Taxi
21.0,-0.03332789727745563,25.32959962183803,17.771981569122854,0.6108700452652283,-0.22925136367529553,306.83654151743815,14.54612668069181,0.0,1.0,0.0,0.0,1.0,Taxi
21.1,0.1286980007113998,0.47400846764783466,16.790207374073372,1.2757267765950786,-0.1854591436948214,306.7449722361106,14.77096079574658,0.0,1.0,0.0,0.0,1.0,Taxi
21.200000000000003,-0.02463629770795388,9.77441388389605,15.161369640123917,0.6096473790859053,-0.21309142105721116,306.8536893197968,14.388100060220234,0.0,1.0,0.0,0.0,1.0,Taxi
21.3,0.015544172142024654,-15.856465159130268,17.38683969242891,1.0483357715271402,0.12550249668367972,306.8121622189436,14.90445970988589,0.0,1.0,0.0,0.0,1.0,Taxi
21.400000000000002,0.04941567491574851,9.879349418057197,16.052162649185917,0.9411138924444965,0.2759680681509442,306.86757119887363,14.075511981564151,0.0,1.0,0.0,0.0,1.0,Taxi
21.5,0.024760449382332142,-9.449984842424998,16.532583628751023,1.065448003159459,-0.8388683675121602,306.8282700505338,14.099293590236046,0.0,1.0,0.0,0.0,1.0,Taxi
21.6,-0.03170575207010031,-9.125656156651102,16.737452490615826,1.0483652514770188,0.4581563113287929,306.8988801396122,14.995947269789866,0.0,1.0,0.0,0.0,1.0,Taxi
21.700000000000003,0.003787394132493032,-18.786656885826286,17.62793603577429,1.2353447884457331,0.25528658837360835,306.7546277844068,15.815361474035875,0.0,1.0,0.0,0.0,1.0,Taxi
21.8,-0.06917283504679925,32.73501205324172,15.871062821313938,1.2582443001041554,-0.2711164392746726,306.7882483032919,13.907903144539336,0.0,1.0,0.0,0.0,1.0,Taxi
21.900000000000002,0.1319693081961083,-9.607053527686977,16.480854677485624,1.0881491956619236,0.7179466642728738,306.64870658181223,14.193829232033828,0.0,1.0,0.0,0.0,1.0,Taxi
22.0,-0.04424787350594184,-1.8294268834424052,15.16300226828096,1.0842477302436742,0.8201425801965113,306.68891973286554,14.63713043446201,0.0,1.0,0.0,0.0,1.0,Taxi
22.1,-0.07831996946401126,-39.44488880115612,16.969865025488374,0.7854037052782621,-0.21441600613046402,306.7403404750712,14.75352588373035,0.0,1.0,0.0,0.0,1.0,Taxi
22.200000000000003,-0.06525513580967225,-23.873452387713005,16.69764358799058,0.9528071368622542,-0.44152805151710484,306.7928151715407,14.95869937319919,0.0,1.0,0.0,0.0,1.0,Taxi
22.3,-0.16361513544450684,22.74934241699215,17.315367826123534,0.9254668194667701,-0.18977374204673572,306.9370583872344,14.946621371519994,0.0,1.0,0.0,0.0,1.0,Taxi
22.400000000000002,0.03542674262094951,21.744698305572527,14.195680791131014,1.0292436882252372,0.5388953485801703,306.88545297193923,15.269133134945942,0.0,1.0,0.0,0.0,1.0,Taxi
22.5,0.04346835571819041,21.106145977081507,16.73088344550214,1.50312982778428,-0.6060725464586815,306.79621134463935,14.628326577198031,0.0,1.0,0.0,0.0,1.0,Taxi
22.6,-0.0580844055590993,-26.679012648201127,15.201557719274536,1.049198486596726,0.0470115098978314,306.74938758449616,14.927666378776427,0.0,1.0,0.0,0.0,1.0,Taxi
22.700000000000003,-0.09796832062005612,9.089359515504924,15.621915246901072,0.6656154103601759,0.061305058651112736,306.8724028556959,14.649937047402846,0.0,1.0,0.0,0.0,1.0,Taxi
22.8,0.08891515329571503,12.83807214297071,16.556296225205163,1.2957535125760435,0.4594864379009254,306.7708126235311,14.232474370446417,0.0,1.0,0.0,0.0,1.0,Taxi
22.900000000000002,0.00610595515575427,27.729807155304226,15.859630113736916,0.6472279577971318,0.3109440033999592,306.78513617728504,14.954200653127444,0.0,1.0,0.0,0.0,1.0,Taxi
23.0,0.04068071515646502,-38.031298943785494,18.273791490084943,0.9880345907895857,-0.16962478558113164,306.6756420517095,15.321758185878437,0.0,1.0,0.0,0.0,1.0,Taxi
23.1,-0.10124134142321242,-12.495161684936905,16.90741144402542,1.05190448477286,-1.1993127856976902,306.73996996155347,14.709419062744908,0.0,1.0,0.0,0.0,1.0,Taxi
23.200000000000003,-0.05636985326893025,-31.110533368259922,15.987988442859779,0.9239650514237399,0.1214916510111653,306.83692347193914,15.980068018616052,0.0,1.0,0.0,0.0,1.0,Taxi
23.3,-0.11487195168483455,-8.769314311221025,15.526207464612474,0.6388066744869345,0.4266821784127464,306.81172522355655,14.282416089959892,0.0,1.0,0.0,0.0,1.0,Taxi
23.400000000000002,-0.14508791297931753,28.936367783242645,16.64985407945607,0.7072279781470032,-0.3608635716719883,306.85239642219256,13.635777493243916,0.0,1.0,0.0,0.0,1.0,Taxi
23.5,0.08831198564728295,-7.404813999826804,15.786689758529628,0.8686306730121967,-0.16703335749069387,306.5616818043734,15.666212369193792,0.0,1.0,0.0,0.0,1.0,Taxi
23.6,-0.15189602168396865,12.184679343050817,15.917182800124435,0.9814156581508877,-0.2951181862664189,306.72581782039947,14.941287433904822,0.0,1.0,0.0,0.0,1.0,Taxi
23.700000000000003,-0.08416451626406352,-16.802515677610618,15.58856669552926,1.286004912189867,-0.13035744157916937,306.7750018910716,14.020697098850317,0.0,1.0,0.0,0.0,1.0,Taxi
23.8,0.0042994072592298345,26.438060798172618,16.92526050559801,1.1507888810400846,-0.14213331895608433,306.93050590756843,16.041999786915618,0.0,1.0,0.0,0.0,1.0,Taxi
23.900000000000002,-0.019705717693105564,6.832679182646209,16.68310622091107,1.0482317246137989,-0.6286407697090067,306.75324110288375,14.79340100576821,0.0,1.0,0.0,0.0,1.0,Taxi
24.0,-0.05000112035083248,0.6217034468485826,16.21328136007959,1.146244683298265,0.786347442393594,306.7225033981233,15.14635969311753,0.0,1.0,0.0,0.0,1.0,Taxi
24.1,0.007407924493472742,-26.97462852518626,16.07883137029537,1.0992685353671865,-0.6216383428406209,306.8636079627913,14.28276478316504,0.0,1.0,0.0,0.0,1.0,Taxi
24.200000000000003,-0.15457886031903686,0.9608009214752968,15.911259088354155,1.1615271817934618,0.5238008560488928,306.7439884595285,14.992883441911344,0.0,1.0,0.0,0.0,1.0,Taxi
24.3,-0.045197115743455966,-37.86974794168723,15.063951960225452,0.6782581104629545,0.19612272520754329,306.83485194298896,14.797733443686504,0.0,1.0,0.0,0.0,1.0,Taxi
24.400000000000002,-0.1819408152149634,56.20571492061273,15.510644873542642,0.8863073881309782,0.2419207980238301,306.8442154104723,14.892363947388615,0.0,1.0,0.0,0.0,1.0,Taxi
24.5,0.1264497142840268,-13.180905915922159,16.051990873781246,0.9129801201907867,-0.12426610656973336,306.8920489881958,14.980241825871593,0.0,1.0,0.0,0.0,1.0,Taxi
24.6,-0.11110164532306675,50.16299376747204,16.275483150153395,0.9208849756255753,0.00975077923441553,306.6399047673866,14.745492985848658,0.0,1.0,0.0,0.0,1.0,Taxi
24.700000000000003,0.06887415362239677,-26.72143271978406,16.11504951338375,0.8128288153707898,0.5909675182274503,306.88793490049545,14.93019673013306,0.0,1.0,0.0,0.0,1.0,Taxi
24.8,-0.007157449314893566,46.38781326928697,15.523009681940312,0.8256879575267668,0.698327950214641,306.7041247988898,14.742180614978615,0.0,1.0,0.0,0.0,1.0,Taxi
24.900000000000002,0.1208374210233681,5.304892598040761,15.06227910843687,0.9975146094415931,-0.4835176653055228,306.9206557679586,15.358175090044622,0.0,1.0,0.0,0.0,1.0,Taxi
25.0,0.09539861661260053,3.170165002193812,16.49420835498384,1.1642728336606398,-0.06699907504062018,306.82557118533157,14.544177261161087,0.0,1.0,0.0,0.0,1.0,Taxi
25.1,0.008693375696075463,-51.82230564157563,16.744187097492194,0.7228233677020022,-0.628978571238387,306.729849558163,14.96017109575372,0.0,1.0,0.0,0.0,1.0,Taxi
25.200000000000003,-0.1382741071845101,-13.01031505985552,15.873190184605342,0.981426389413147,-0.9507058148220876,306.8158048154637,14.66739405427255,0.0,1.0,0.0,0.0,1.0,Taxi
25.3,0.0303470413133229,-7.693794084728208,17.003846743520093,0.6404905053793826,-0.32799272742838087,306.7769794617525,14.802049068908065,0.0,1.0,0.0,0.0,1.0,Taxi
25.400000000000002,-0.02977559472756562,-1.4334350278285843,15.547261164409,0.6306850814651153,-0.6512096172572549,306.84914277391545,14.51523807002145,0.0,1.0,0.0,0.0,1.0,Taxi
25.5,-0.14544128232365305,-29.438174915712107,16.460904765619144,1.136864308655986,0.33334478609633855,306.6578015411675,14.155002098336295,0.0,1.0,0.0,0.0,1.0,Taxi
25.6,-0.11684383326523762,-6.641893958578166,15.809923003906027,0.9673488633216214,0.16172419546388528,306.73925924721925,15.22080352995439,0.0,1.0,0.0,0.0,1.0,Taxi
25.700000000000003,-0.06298506452045645,25.667548298390784,15.409695662700948,0.9910111786167468,0.4025361585232576,306.52372864643553,14.401400834848127,0.0,1.0,0.0,0.0,1.0,Taxi
25.8,-0.017103540831699158,17.54496513386893,16.25007503197593,0.8624136887335442,0.7761716871222488,306.78924596828506,14.085699103622932,0.0,1.0,0.0,0.0,1.0,Taxi
25.900000000000002,-0.029119007595892966,-3.994215417966084,15.738909858917994,1.1408995155537558,-0.0016849654272200869,306.7761896946622,14.943199690337892,0.0,1.0,0.0,0.0,1.0,Taxi
26.0,-0.08295614161028689,-41.88675367768834,15.94316645130339,1.4519315350842894,-0.5792934841729942,306.8049136159427,14.783733958947705,0.0,1.0,0.0,0.0,1.0,Taxi
26.1,-0.22653730922014087,25.831704413481116,17.772354304959727,1.1057063921144072,0.6607535841435764,306.90376162897235,14.287722308977912,0.0,1.0,0.0,0.0,1.0,Taxi
26.200000000000003,0.10003951447151259,23.144997438327646,15.968943665857811,1.0464341075462005,0.1848513060654408,306.8723305077717,14.9257834886783,0.0,1.0,0.0,0.0,1.0,Taxi
26.3,0.0327688455813513,21.53748024542759,16.25653944159989,0.7410902001165138,-0.1437386294417051,306.7355529222086,14.359507960818055,0.0,1.0,0.0,0.0,1.0,Taxi
26.400000000000002,-0.11884990799300299,-27.737606841734657,16.692261534474664,0.7093504126983665,0.12085493572086696,306.8172297420458,14.709157460613055,0.0,1.0,0.0,0.0,1.0,Taxi
26.5,-0.03864851973716073,-19.365145884007212,16.804681604726625,1.4221021763269637,0.18686725619641845,306.85445267557066,14.668035640493326,0.0,1.0,0.0,0.0,1.0,Taxi
26.6,-0.0640568838386848,-2.301594846611207,17.048032190451707,1.3440434220054862,-0.42228406409930996,306.6538107591979,14.94317585132088,0.0,1.0,0.0,0.0,1.0,Taxi
26.700000000000003,-0.13035788222605904,39.936740165219106,16.810928194932554,0.5411039655435381,-0.6009462490537841,306.8849515096789,14.911656417735172,0.0,1.0,0.0,0.0,1.0,Taxi
26.8,0.16103518108893478,1.825324036569678,16.428658210860963,1.0446743806425078,-0.34320647695949613,306.72261097362775,14.507749589875074,0.0,1.0,0.0,0.0,1.0,Taxi
26.900000000000002,-0.05493026365583649,28.242362838440325,15.854660768415439,0.9958518316223615,-0.2879853371429074,306.86622339305086,14.714004240230102,0.0,1.0,0.0,0.0,1.0,Taxi
27.0,0.010853931966142514,-21.817424620234632,16.08415895193775,0.8463951192930763,0.3624159879201487,306.69166343749407,15.260570409347997,0.0,1.0,0.0,0.0,1.0,Taxi
27.1,0.051948057987761566,53.4998632841232,16.051032396594035,0.9745664733025163,0.34903098518753267,306.8438814415729,14.95170486561649,0.0,1.0,0.0,0.0,1.0,Taxi
27.200000000000003,0.2125690527647795,32.69210270359474,16.4094250468256,1.208068539183146,-0.5095089633983808,306.82092840691166,15.255763630255695,0.0,1.0,0.0,0.0,1.0,Taxi
27.3,0.17431444548411618,-19.627212254141302,17.24223031891985,0.9224054963681225,-0.11923758403861522,306.51736165985176,14.573926346741814,0.0,1.0,0.0,0.0,1.0,Taxi
27.400000000000002,-0.046188003282945006,-19.893490404098785,16.52189843121074,1.1088662514436267,0.10650788773989261,306.8156128689318,15.094026755530647,0.0,1.0,0.0,0.0,1.0,Taxi
27.5,0.1131016007442855,-39.440911990949495,16.032277086584525,1.088250805622109,-0.41964305057546464,306.756097394217,14.408549768223875,0.0,1.0,0.0,0.0,1.0,Taxi
27.6,-0.022890114470631343,18.10636738453743,16.51525839062427,1.1665983024601705,0.6947547795502083,306.84245664145624,14.367543391478184,0.0,1.0,0.0,0.0,1.0,Taxi
27.700000000000003,0.04434383363974211,2.8844912731223027,16.382911624020398,0.7622655202346202,-0.7978979426586991,306.8820705321493,15.262971418508815,0.0,1.0,0.0,0.0,1.0,Taxi
27.8,0.127524057109897,-10.585065370856512,17.842499971805687,0.7724031703348416,-0.5217841062102441,306.8084135837971,16.310168295688136,0.0,1.0,0.0,0.0,1.0,Taxi
27.900000000000002,-0.07581544132491391,14.299441359066586,16.625814808745005,1.0336672199316201,0.8518841747685406,306.9600715472775,15.680064589172556,0.0,1.0,0.0,0.0,1.0,Taxi
28.0,0.11584104043507504,-48.318691913668125,17.365562861127756,0.684639464137188,-0.6859819088419802,306.82186247718005,14.639484482993707,0.0,1.0,0.0,0.0,1.0,Taxi
28.1,-0.11406940245844369,10.301442186948975,15.987673871023794,1.1492367197723994,1.2340165628234017,306.5949989510884,15.39825433717845,0.0,1.0,0.0,0.0,1.0,Taxi
28.200000000000003,-0.024308230390169078,-56.9741554457376,16.970521763310437,0.9360593445403718,0.5581572830426227,306.7208027328754,14.35346836925687,0.0,1.0,0.0,0.0,1.0,Taxi
28.3,-0.169029736793613,24.04119367494245,15.573340809816548,1.2436530084172217,0.2644031492678766,306.7511270579347,13.5227046522305,0.0,1.0,0.0,0.0,1.0,Taxi
28.400000000000002,0.0061365659162685195,-52.152308553069766,17.20203952206915,0.9443331731746519,0.06385144602406524,306.71886230256314,14.674373069456657,0.0,1.0,0.0,0.0,1.0,Taxi
28.5,-0.2850697731555179,20.052487248035103,16.00379691138589,1.2219123174969653,0.5375593178417905,306.88630563021707,15.409400695927676,0.0,1.0,0.0,0.0,1.0,Taxi
28.6,-0.06876730055343748,-10.125465930201166,17.11427288662417,0.6165829744633284,0.14209692229401716,306.7126671975393,13.721667653738185,0.0,1.0,0.0,0.0,1.0,Taxi
28.700000000000003,-0.0444907637347373,71.66984713368801,15.946105450655478,0.7197872011987765,0.23543748778733053,306.8188498034683,14.318943845958918,0.0,1.0,0.0,0.0,1.0,Taxi
28.8,0.07327946251292214,5.5347193742939185,15.733156990372319,1.1777814761483243,-1.0281579258144589,306.84853149347634,14.558097533871258,0.0,1.0,0.0,0.0,1.0,Taxi
28.900000000000002,-0.04109370368196793,39.58506213422115,16.39941699222403,1.206763923592859,0.1905097279964102,306.9192879238651,14.62963165282228,0.0,1.0,0.0,0.0,1.0,Taxi
29.0,0.15343454693636838,-20.05010383508406,15.66672550953818,0.9359844295800384,0.13328729445126447,306.80283254162464,15.258125799262814,0.0,1.0,0.0,0.0,1.0,Taxi
29.1,-0.026971056662498185,15.607437712222838,16.208360236232387,1.0785576980972051,-0.4107446207535284,306.6337024111533,15.613050304196156,0.0,1.0,0.0,0.0,1.0,Taxi
29.200000000000003,0.03694348487914622,-49.45277246587406,16.211251465829427,1.0334582820231644,-1.1064376265557485,306.6708429130206,15.015000451633124,0.0,1.0,0.0,0.0,1.0,Taxi
29.3,-0.09382931539300196,-9.669920631851314,16.785941788064108,0.9418510442927076,-0.20305485612689902,306.79056132235155,14.543080029107168,0.0,1.0,0.0,0.0,1.0,Taxi
29.400000000000002,-0.07532065982175479,-22.446986105736546,17.20782928189928,1.0640441451449787,-0.030105718654864073,306.70580685049447,15.422260216623856,0.0,1.0,0.0,0.0,1.0,Taxi
29.5,-0.07529144564953656,-12.973617529700142,16.274282398445898,1.5413118901849407,0.5918177880836244,306.80426249580773,15.144752738235729,0.0,1.0,0.0,0.0,1.0,Taxi
29.6,-0.15869740304150273,21.388794969627995,16.195731940810877,1.4560333192579162,0.10402365349105244,306.9176858242894,14.911156659460868,0.0,1.0,0.0,0.0,1.0,Taxi
29.700000000000003,0.03162331502638512,13.773176912535874,16.985303336642122,1.1698648938561818,0.8292014228615692,306.6440631026601,14.44842513817085,0.0,1.0,0.0,0.0,1.0,Taxi
29.8,-0.0064255610868572555,59.59829620699923,16.349379712236797,1.0956057753343011,-0.2762491384708926,306.75759637636315,15.720308662356683,0.0,1.0,0.0,0.0,1.0,Taxi
29.900000000000002,0.13929407799349333,-5.479515676184154,16.015528402281998,0.8556841333217838,0.22421499551161359,306.74398366341757,14.799957857464067,0.0,1.0,0.0,0.0,1.0,Taxi
30.0,0.004225736645464288,4.751823298428206,15.934536264629154,1.0090851337124682,0.10993999534136929,306.6982554002283,14.196863785727091,0.0,1.0,0.0,0.0,1.0,Taxi
30.1,0.017333555405283706,-6.509358406390182,16.531419903307192,0.8237614953532922,-0.2538111850072066,306.70607733871384,14.550186005307884,0.0,1.0,0.0,0.0,1.0,Taxi
30.200000000000003,0.10674728596154236,4.862609465468419,15.921640403885334,0.8885208447779481,0.38717562185681725,306.78146164739815,14.249867114477835,0.0,1.0,0.0,0.0,1.0,Taxi
30.3,0.028538783972806334,-1.0326771829760117,17.13597015940239,1.0327255002917781,0.26697087808646863,306.86696681977423,14.63997068188238,0.0,1.0,0.0,0.0,1.0,Taxi
30.400000000000002,0.0121701694904036,-25.555414106664514,15.26238873570309,0.7704200291017448,0.5226376162238703,306.6755565694714,16.080825166300645,0.0,1.0,0.0,0.0,1.0,Taxi
30.5,-0.021029784571780275,-16.002281297124394,15.792264235766892,0.9302432203404427,-0.1516966256989194,306.80360691369515,15.000417325132876,0.0,1.0,0.0,0.0,1.0,Taxi
30.6,-0.051472622512815695,-4.816490116193062,16.10167970338115,1.0987953168629503,0.5817314926566487,307.0046946956859,14.76635585489369,0.0,1.0,0.0,0.0,1.0,Taxi
30.700000000000003,-0.01191228109056177,32.0416525488215,16.082424551562376,1.1627562447277542,0.07014424775261292,306.6718710937605,15.414778893987972,0.0,1.0,0.0,0.0,1.0,Taxi
30.8,0.13917847817232717,-0.1798289693051108,16.898696942764087,1.1561368953728586,-0.43143109877908625,306.7315297762095,14.656210811066977,0.0,1.0,0.0,0.0,1.0,Taxi
30.900000000000002,-0.05237176735934133,29.09507746199597,16.930710520611722,0.9159871837723328,-0.21052957568614386,306.8158567842786,14.44132678752466,0.0,1.0,0.0,0.0,1.0,Taxi
31.0,0.13356310621941803,-46.63585358861351,17.585737951242415,0.5046269092707287,-0.2709409565870682,306.8443403902204,15.430872804362062,0.0,1.0,0.0,0.0,1.0,Taxi
31.1,-0.09400078977074039,36.28173340445756,16.3336402950474,0.7466486703769992,0.7329600669320636,306.8300109606665,15.376080451494495,0.0,1.0,0.0,0.0,1.0,Taxi
31.200000000000003,0.12903689966294649,-5.058960291900121,16.90217725327381,0.592313138100661,0.20386350133146894,306.7231611190771,14.707898564544907,0.0,1.0,0.0,0.0,1.0,Taxi
31.3,0.1082683047599174,28.61685932344047,16.551677536580343,0.3449147724856263,-0.8354378501550838,306.7469035345297,14.624486233340503,0.0,1.0,0.0,0.0,1.0,Taxi
31.400000000000002,0.04908350684646194,-14.730212808561689,16.348057950003028,1.7440014765985812,0.2553832415078917,306.7582976917496,14.918681373316646,0.0,1.0,0.0,0.0,1.0,Taxi
31.5,0.05538583562013799,-21.15555986737508,15.69351643379276,0.8608231147859607,-0.07407173716547993,306.581630723535,14.20302083916486,0.0,1.0,0.0,0.0,1.0,Taxi
31.6,0.00249050542304194,-12.387226846641035,16.52529147783222,1.2636023767554707,-0.7470909657284228,306.73577427657756,14.840653907360219,0.0,1.0,0.0,0.0,1.0,Taxi
31.700000000000003,-0.012852627386743285,-15.294560981977583,15.389028331426948,0.9427778376775455,0.36175914892495464,306.78022600181384,14.95628018277806,0.0,1.0,0.0,0.0,1.0,Taxi
31.8,-0.02108696928974997,10.10337192245686,15.43083718235586,1.0110808147067316,-0.3832354382653591,306.92140891497684,14.141282369466914,0.0,1.0,0.0,0.0,1.0,Taxi
31.900000000000002,0.05300736503532619,6.800087218758963,17.3828231581983,1.0519998622695839,0.21165120739242602,306.68842614198593,14.928436204859457,0.0,1.0,0.0,0.0,1.0,Taxi
32.0,0.021147808707051477,-4.535980542024056,16.30974390850649,0.910303209068508,-0.236593797431331,306.6613773837473,15.096224504551172,0.0,1.0,0.0,0.0,1.0,Taxi
32.1,-0.04376687199987031,1.621929790739043,14.873434627915847,0.9841433609702384,-0.5031514027435344,306.8990353206732,14.505490049662548,0.0,1.0,0.0,0.0,1.0,Taxi
32.2,0.061117013989021356,27.64722891606637,16.769157081984567,0.7751976850536043,0.33240551190715845,306.6751593979252,14.807081101894207,0.0,1.0,0.0,0.0,1.0,Taxi
32.300000000000004,0.1593839532873833,4.731473110233513,15.77123462168953,0.7289469896617076,0.30411004064223435,306.89097466870544,15.19885402006609,0.0,1.0,0.0,0.0,1.0,Taxi
32.4,-0.02010950644870276,-29.206345017550547,16.5064767153141,1.0395250781490648,-0.6241352969146131,306.75928763894717,15.335403245087068,0.0,1.0,0.0,0.0,1.0,Taxi
32.5,-0.0849147110987314,-58.99391409393442,16.008431185439864,0.6369556099979544,-0.6340216352975601,306.8448469115626,14.85174857483518,0.0,1.0,0.0,0.0,1.0,Taxi
32.6,-0.1355856171822888,8.705917606959625,17.028983681722778,1.339643652498269,-0.17788161654114776,306.7546103460056,14.511500416799176,0.0,1.0,0.0,0.0,1.0,Taxi
32.7,0.023420081586095334,39.90737546465498,16.62421988168202,1.2515120529195467,-0.2303540580418773,306.84874610552674,14.953457900730584,0.0,1.0,0.0,0.0,1.0,Taxi
32.800000000000004,0.11462216622454346,22.06081152214824,16.29303449972198,1.2113211781065552,0.4516599384991622,306.6784607918546,15.094366286841373,0.0,1.0,0.0,0.0,1.0,Taxi
32.9,-0.02528155957154767,-16.46528292907678,15.794074981291047,1.2558998255582914,0.5244191051154249,306.7677390877582,14.886426060629057,0.0,1.0,0.0,0.0,1.0,Taxi
33.0,-0.05890633305928861,-18.709356952286825,16.25235676098667,0.8654814818044569,0.2599137077769512,306.9316691298483,14.938148249903655,0.0,1.0,0.0,0.0,1.0,Taxi
33.1,0.02107538146310929,45.39023359305668,17.3304618935298,1.1420832880429044,-0.07919419928968181,306.84661451760485,15.009560261671487,0.0,1.0,0.0,0.0,1.0,Taxi
33.2,0.20166960839373568,-13.743060901277005,15.106887094833258,1.068235680695219,-0.8710743173386073,306.70904636569117,14.67026765528859,0.0,1.0,0.0,0.0,1.0,Taxi
33.300000000000004,-0.12762163756567366,29.669340498157908,15.425287680945027,0.6545993653832394,-0.23113683636554153,306.7268063581421,14.289773893743734,0.0,1.0,0.0,0.0,1.0,Taxi
33.4,0.16942208395389877,-35.5031309775772,17.032305881579152,0.9882862334203402,0.08461488273187288,306.6689446448149,14.646552090193905,0.0,1.0,0.0,0.0,1.0,Taxi
33.5,0.024153953505849604,65.06848260609875,16.014255828480596,0.8545124747571466,0.14678807322881074,306.78924973737526,14.9529016987216,0.0,1.0,0.0,0.0,1.0,Taxi
33.6,0.19772077546482003,-16.016584955241427,15.55903988988756,0.9603699254793702,0.013623304611927406,306.64811862305623,15.382061045633359,0.0,1.0,0.0,0.0,1.0,Taxi
33.7,0.08933915917769158,2.9546876431232127,16.618791183021607,1.0735687900449193,-0.3350056741076904,306.7376606069299,15.040196033044019,0.0,1.0,0.0,0.0,1.0,Taxi
33.800000000000004,0.03892739172146563,-12.862423716315595,16.097042718909975,0.9046449044860363,-0.08669928201557912,306.8564470313079,15.434034410935768,0.0,1.0,0.0,0.0,1.0,Taxi
33.9,0.13340865688324202,-12.436808135938657,15.802396783504076,0.7530551574061775,-0.46339921188511646,306.7550153304437,14.446392722411952,0.0,1.0,0.0,0.0,1.0,Taxi
34.0,0.02715511849799823,12.047451724896748,16.388528523003913,0.6179878788864556,-0.2053695028723281,306.89850129856677,14.314918332684625,0.0,1.0,0.0,0.0,1.0,Taxi
34.1,0.0991646503459493,-54.27199306906227,16.04494800384855,1.3625122027049108,-0.6059113780407918,306.7684376294485,14.650015003168411,0.0,1.0,0.0,0.0,1.0,Taxi
34.2,-0.1379513084620694,-12.429864685956503,15.770936842830114,1.058981938018374,0.06590657662281336,306.8469997279467,14.629450152746683,0.0,1.0,0.0,0.0,1.0,Taxi
34.300000000000004,-0.03499420493178434,-25.135935890494167,16.912656658536232,1.097713473662869,0.24233444118262595,306.81597279411903,15.421918232990866,0.0,1.0,0.0,0.0,1.0,Taxi
34.4,-0.026515029106521572,39.86053729933993,16.843133898546164,0.5607380434841511,-0.061222186612760715,306.78105898325066,14.711732138739276,0.0,1.0,0.0,0.0,1.0,Taxi
34.5,0.06135137803463019,-22.987392878742096,15.781933164168722,0.981819298067419,-0.7137589023691807,306.81935112777217,14.996856641912858,0.0,1.0,0.0,0.0,1.0,Taxi
34.6,-0.14993116932549486,33.34357707219967,16.58536055536121,0.9621783640080946,0.29042489128915777,306.7682761936046,14.56283611770255,0.0,1.0,0.0,0.0,1.0,Taxi
34.7,0.1402028562544767,4.394829396932432,16.43277563438034,0.8595230078109536,0.688276451381164,306.62920162845126,14.054442667003224,0.0,1.0,0.0,0.0,1.0,Taxi
34.800000000000004,0.08332552501929229,48.22979058821756,16.934993713239265,1.396952735638306,-0.23755763630877916,306.7377143409858,14.257975735305905,0.0,1.0,0.0,0.0,1.0,Taxi
34.9,0.0912177836155929,-23.163288879762238,15.178609213821261,1.2376430968907703,-0.792163077670077,306.8317993047049,14.385362492889541,0.0,1.0,0.0,0.0,1.0,Taxi
35.0,0.02438641185566547,-17.273092327226504,16.595705656021764,1.0941635624265582,-0.11855512339302553,306.9578509634705,15.316956101666637,0.0,1.0,0.0,0.0,1.0,Taxi
35.1,-0.003039936616840261,-38.47960365882266,16.99720572189528,1.3465943449415807,-0.7196734623807598,306.69353451378197,15.247474465502213,0.0,1.0,0.0,0.0,1.0,Taxi
35.2,-0.10118023467852043,-16.866246820516604,15.5263766240798,0.9843500779364877,0.19374978120231337,306.8754596615014,14.695054988444962,0.0,1.0,0.0,0.0,1.0,Taxi
35.300000000000004,-0.059944822246917606,-20.0565284568378,16.036408888708287,1.0579506331993254,0.6048721440419197,306.7641372307347,13.971470402205071,0.0,1.0,0.0,0.0,1.0,Taxi
