time_s,altitude_ft,vertical_speed_fpm,ias_kt,pitch_deg,roll_deg,heading_deg,throttle_pct,afterburner_on,gear_down,flaps_deg,speedbrake_pct,weight_on_wheels,label
0.0,-1.673367959266217,-531.6923687050814,175.32122446986318,-0.07728963284009593,-2.1385859193338868,357.2219344384164,40.99042372973531,0.0,1.0,10.517495080399769,11.296400771245146,0.0,Landing
0.1,-3.4456758549498216,-718.6920181465207,176.12361205818283,0.5348269727134158,-2.1715376518013776,357.2543154097939,41.09673414593703,0.0,1.0,10.517495080399769,11.296400771245146,0.0,Landing
0.2,-5.2668280499988205,-1095.224828221092,173.88980112528967,0.06531515561485535,-2.5364993440442416,357.08967078705723,40.90393508839629,0.0,1.0,10.517495080399769,11.296400771245146,0.0,Landing
0.30000000000000004,-7.149492100371676,-1096.404147669348,175.21256604750462,0.05166859157679003,-2.272136550021638,357.21710981761566,41.30347068035389,0.0,1.0,10.517495080399769,11.296400771245146,0.0,Landing
0.4,-8.927696593296561,-1082.2413835286632,177.37498582050415,0.16170269428649142,-1.9797525688513546,357.0070580196309,41.592754302967755,0.0,1.0,10.517495080399769,11.296400771245146,0.0,Landing
0.5,-10.678034967642136,-1068.0521864139403,175.30487619377962,0.1983697982545003,-2.6938156165552516,357.1113570478549,41.561371648183545,0.0,1.0,10.517495080399769,11.296400771245146,0.0,Landing
0.6000000000000001,-12.489753032441378,-1067.4927110642766,174.34294579865724,-0.17402502659173436,-2.1755276471033733,357.18359592103434,41.84813871531245,0.0,1.0,10.517495080399769,11.296400771245146,0.0,Landing
0.7000000000000001,-14.265160148617944,-1073.7186880116203,177.09313550993897,0.028834705272794012,-2.8150551539813864,357.291960347731,41.29170865983797,0.0,1.0,10.517495080399769,11.296400771245146,0.0,Landing
0.8,-16.046628407700236,-1062.3626408940124,176.8151174867798,-0.1528840010186579,-2.2546207585282554,357.4736295578757,41.611354393125524,0.0,1.0,10.517495080399769,11.296400771245146,0.0,Landing
0.9,-17.80156623691144,-1054.8179687184409,175.44565203024482,0.01668308114183009,-2.6998817100722436,357.335934281371,41.03356471069979,0.0,1.0,10.517495080399769,11.296400771245146,0.0,Landing
1.0,-19.53924999221015,-1046.5546296035648,177.08663314849656,-0.09058195875941097,-2.3728865408535276,357.2343045222942,41.11121099321098,0.0,1.0,10.517495080399769,11.296400771245146,0.0,Landing
1.1,-21.27940155571806,-1035.6747072392934,175.67432854508124,0.05460303715556983,-2.9190644058773625,357.0932806357449,41.19911278316177,0.0,1.0,10.517495080399769,11.296400771245146,0.0,Landing
1.2000000000000002,-22.97993977310791,-1037.5790473677746,176.06925780354658,0.33031843912952885,-2.449817534175111,357.42488753778423,40.96442971692801,0.0,1.0,10.517495080399769,11.296400771245146,0.0,Landing
1.3,-24.72714522904902,-1051.899567672217,175.3463573946269,0.05351935800331708,-2.344592636965648,357.38559986984455,41.005440631454036,0.0,1.0,10.517495080399769,11.296400771245146,0.0,Landing
1.4000000000000001,-26.538899394079145,-1076.9988398404428,174.82285549395297,-0.2591361883632568,-2.4776637636979753,357.12318878246765,40.623959569581515,0.0,1.0,10.517495080399769,11.296400771245146,0.0,Landing
1.5,-28.364933972310123,-1066.4974829946138,176.29678971628854,0.41658664591269723,-2.6240631975127364,357.24564098899486,40.96986744777542,0.0,1.0,10.517495080399769,11.296400771245146,0.0,Landing
1.6,-30.05963264402209,-1052.1238863278668,173.03674230908305,0.17340761211117334,-2.4141065926698566,357.2305804964632,41.26046585896669,0.0,1.0,10.517495080399769,11.296400771245146,0.0,Landing
1.7000000000000002,-31.79951882571848,-1028.3517743459179,174.54114422710978,0.13608818990892477,-2.4979121324322855,357.0594076551258,41.24950030630937,0.0,1.0,10.517495080399769,11.296400771245146,0.0,Landing
1.8,-33.50669284403971,-1034.6087161458634,175.99250428236235,-0.18804427847915445,-2.48212739546099,356.8589757111081,40.82825155054862,0.0,1.0,10.517495080399769,11.296400771245146,0.0,Landing
1.9000000000000001,-35.23267622475141,-1041.4980977531243,175.49050206465688,-0.13685618073135425,-2.4562474552612468,356.8576722529999,40.7568976279708,0.0,1.0,10.517495080399769,11.296400771245146,0.0,Landing
2.0,-37.0070093144841,-1066.6012872792933,176.31507074401767,0.5100212890188824,-2.603956290666589,357.3100120107388,41.15714977574549,0.0,1.0,10.517495080399769,11.296400771245146,0.0,Landing
2.1,-38.83969928043618,-1080.1185108383436,176.50866767342728,0.16963880614994692,-2.485424152172446,357.25631025302437,40.60717470700899,0.0,1.0,10.517495080399769,11.296400771245146,0.0,Landing
2.2,-40.633268778943126,-1084.4711570817153,175.75422211171448,-0.2517874689733368,-2.4676385740389666,357.32215899801736,41.26193956066663,0.0,1.0,10.517495080399769,11.296400771245146,0.0,Landing
2.3000000000000003,-42.42936509989268,-1057.7637474120409,175.98792661143125,0.0578639986753513,-2.209940417174165,357.2471960294106,41.597750811364385,0.0,1.0,10.517495080399769,11.296400771245146,0.0,Landing
2.4000000000000004,-44.12851801749638,-1050.6295616520304,175.17624366464358,0.057265420615226784,-2.3127198094991694,357.34307378625056,41.52078759693221,0.0,1.0,10.517495080399769,11.296400771245146,0.0,Landing
2.5,-45.88641658720328,-1041.7583935407974,174.92070243084265,0.10767533647578492,-2.72463726382152,357.3058299573963,41.29346150430325,0.0,1.0,10.517495080399769,11.296400771245146,0.0,Landing
2.6,-47.638157067596666,-1056.3554198278625,175.8528589485691,-0.14352925806312072,-2.036464937124435,357.30924865490056,41.274171115832544,0.0,1.0,10.517495080399769,11.296400771245146,0.0,Landing
2.7,-49.410295116635695,-1056.1758466990584,175.27292931173136,-0.3536401659347629,-2.6829516202736152,357.0953335464062,41.42008416346145,0.0,1.0,10.517495080399769,11.296400771245146,0.0,Landing
2.8000000000000003,-51.16729582069857,-1052.2877722092446,175.88424954074992,-0.1431951943809133,-2.6403869885452877,357.26134515398394,41.52409218147393,0.0,1.0,10.517495080399769,11.296400771245146,0.0,Landing
2.9000000000000004,-52.89959592864289,-1051.0241639725193,173.64583977549518,0.1516382929089629,-2.4072552388843094,357.0429957950694,41.43524163114588,0.0,1.0,10.517495080399769,11.296400771245146,0.0,Landing
3.0,-54.66541593649829,-1039.784691198474,177.20464867320365,0.01525992236939712,-2.2757098115657275,357.1738617531636,41.290605478936385,0.0,1.0,10.517495080399769,11.296400771245146,0.0,Landing
3.1,-56.36621927669094,-1041.0727037752608,175.03804294600613,0.37307651516754364,-2.36204410240836,357.1137647357971,41.12743566910245,0.0,1.0,10.517495080399769,11.296400771245146,0.0,Landing
3.2,-58.10495944751919,-1023.7102501990803,175.26133558438403,0.2123992687789499,-2.5016155571173373,357.11476556816854,41.37018743924153,0.0,1.0,10.517495080399769,11.296400771245146,0.0,Landing
3.3000000000000003,-59.783967187493694,-1025.569562059124,174.21966602642925,0.29168096638341723,-2.455982498133264,357.12786914298886,40.98645193426723,0.0,1.0,10.517495080399769,11.296400771245146,0.0,Landing
3.4000000000000004,-61.49406708698656,-1036.3019010395305,175.7122116902206,0.5294842170121186,-2.6952049716318043,357.1717456549759,41.54692066889905,0.0,1.0,10.517495080399769,11.296400771245146,0.0,Landing
3.5,-63.286468952716845,-1039.6534053810158,177.4462424870286,0.48879808421248294,-2.549197326284541,357.1987347978885,41.3056203284524,0.0,1.0,10.517495080399769,11.296400771245146,0.0,Landing
3.6,-64.98223421439877,-1050.858591162137,174.94675085972824,0.07595359440177411,-2.4333384457389085,357.20310776201427,41.41987332718653,0.0,1.0,10.517495080399769,11.296400771245146,0.0,Landing
3.7,-66.74836004279724,-1044.9539203238573,175.3210979812241,0.2398059564184467,-2.3601308919222874,356.83531531834194,41.41295958079138,0.0,1.0,10.517495080399769,11.296400771245146,0.0,Landing
3.8000000000000003,-68.51123855433613,-1046.3850667286408,176.08025253818485,0.07269252327322376,-2.3917565654612916,356.9707274749626,41.46286752580536,0.0,1.0,10.517495080399769,11.296400771245146,0.0,Landing
3.9000000000000004,-70.21415954804198,-1025.1115410533914,174.44848779701596,0.4724402343023861,-2.2990581055719836,357.08616484815343,41.13786860031351,0.0,1.0,10.517495080399769,11.296400771245146,0.0,Landing
4.0,-71.8739177480642,-1007.1800588425873,173.34519810927378,-0.40397759317500076,-2.2405487221283558,357.1337051325379,41.64377388174793,0.0,1.0,10.517495080399769,11.296400771245146,0.0,Landing
4.1000000000000005,-73.54713884854907,-1014.1662480708022,175.7033063070794,-0.033151461220379735,-2.8021442476181986,357.0772227495081,41.26042460480556,0.0,1.0,10.517495080399769,11.296400771245146,0.0,Landing
4.2,-75.28499078839599,-1018.4214398744957,175.6277292825908,-0.19288693651861438,-2.286095723124056,356.9438736492882,41.197815424365295,0.0,1.0,10.517495080399769,11.296400771245146,0.0,Landing
4.3,-76.96602494743668,-1033.6104191186678,176.87081741675394,0.05809000040692172,-2.47026108064396,357.2318527150526,40.93729625257097,0.0,1.0,10.517495080399769,11.296400771245146,0.0,Landing
4.4,-78.7151909441424,-1023.9732178385111,176.2620312408981,0.04048453907581978,-2.480604282539065,357.10926972574885,41.1189444553995,0.0,1.0,10.517495080399769,11.296400771245146,0.0,Landing
4.5,-80.40485687758854,-1021.3615350946014,176.90509156366159,0.20038349603065503,-2.322316734017809,357.2357945606507,41.074762780701086,0.0,1.0,10.517495080399769,11.296400771245146,0.0,Landing
4.6000000000000005,-82.07283262290969,-993.1242388007519,174.71882027971398,-0.267851354976078,-2.419517595491743,357.25013373005174,41.949412066878494,0.0,1.0,10.517495080399769,11.296400771245146,0.0,Landing
4.7,-83.68081213814617,-997.4872753400801,175.6362524814546,0.20874450207866244,-2.3003611726049793,357.06076161724957,41.556496968215136,0.0,1.0,10.517495080399769,11.296400771245146,0.0,Landing
4.800000000000001,-85.39229325428894,-1004.0215123143354,175.95699401778472,0.43950720993952275,-2.32427175269606,357.11143682196735,40.775840118651814,0.0,1.0,10.517495080399769,11.296400771245146,0.0,Landing
4.9,-87.09294018448136,-1029.0992651756085,176.36971201720243,0.3314135167046213,-2.5410300171605726,356.8900041582233,41.27346885412908,0.0,1.0,10.517495080399769,11.296400771245146,0.0,Landing
5.0,-88.82630846402421,-1050.696262941088,175.71489134190864,-0.18558749748368347,-2.494742514753243,357.3744160124696,40.661040480056876,0.0,1.0,10.517495080399769,11.296400771245146,0.0,Landing
5.1000000000000005,-90.64577456899438,-1052.4839932098985,176.91972961694717,0.022230706371937775,-2.3061689320931826,357.26785141075925,41.81638632024107,0.0,1.0,10.517495080399769,11.296400771245146,0.0,Landing
5.2,-92.35536015053086,-1048.1331932007463,176.06947520522385,0.19797118083823453,-2.475492484222294,357.0888756050556,40.96660038097346,0.0,1.0,10.517495080399769,11.296400771245146,0.0,Landing
5.300000000000001,-94.06697443002794,-1010.5852482862388,173.33743759156997,0.1470132474164532,-2.1389804669215033,357.3690914181177,41.5011810881986,0.0,1.0,10.517495080399769,11.296400771245146,0.0,Landing
5.4,-95.69870081042558,-990.2569196407312,176.01759351546661,-0.1085522556565772,-2.7287840474137828,357.2261504917117,40.88387529864928,0.0,1.0,10.517495080399769,11.296400771245146,0.0,Landing
5.5,-97.30664474873451,-1005.9967740754786,174.85508777996213,0.33450432150191084,-2.7750044041853426,356.94987457183584,41.151027449614844,0.0,1.0,10.517495080399769,11.296400771245146,0.0,Landing
5.6000000000000005,-99.09695830040533,-1025.0779506589226,174.4183417855508,0.7699254978142882,-2.7817496079051742,357.1336584505117,41.28619180202927,0.0,1.0,10.517495080399769,11.296400771245146,0.0,Landing
5.7,-100.82409056372019,-1044.1253093577786,175.12245001395257,0.11185597180389564,-2.54168783669866,357.2223547625632,41.0228649660454,0.0,1.0,10.517495080399769,11.296400771245146,0.0,Landing
5.800000000000001,-102.5272712955234,-1033.3730591033345,176.20271342426383,-0.06098105549336466,-2.6875855498877406,357.19042966961774,41.013421296834515,0.0,1.0,10.517495080399769,11.296400771245146,0.0,Landing
5.9,-104.263823595922,-1020.8483496428811,176.12839274811304,-0.2427242354873721,-2.6672123858198287,357.1741505733544,41.4455135495669,0.0,1.0,10.517495080399769,11.296400771245146,0.0,Landing
6.0,-105.9283323119346,-1034.6298344439363,175.15319021038258,-0.2870158500374365,-2.9289741959283733,357.5764194161063,40.643222068340435,0.0,1.0,10.517495080399769,11.296400771245146,0.0,Landing
6.1000000000000005,-107.70042046774309,-1031.4243998463182,176.4174585257603,0.18875942106190324,-2.5853246959676164,357.086800672718,41.271664207481145,0.0,1.0,10.517495080399769,11.296400771245146,0.0,Landing
6.2,-109.4209455951536,-1040.8796160846239,175.67366135046757,-0.16498515492329427,-2.9252208762028253,357.18014739491105,40.90568284771409,0.0,1.0,10.517495080399769,11.296400771245146,0.0,Landing
6.300000000000001,-111.13273039235771,-1025.4331876822673,175.09437653216784,0.24068259310603957,-2.6511598939215038,356.9253687210469,41.203451563503535,0.0,1.0,10.517495080399769,11.296400771245146,0.0,Landing
6.4,-112.82758640615442,-1031.8772255473361,175.04758951542675,0.33024290787958044,-2.288172308052689,356.86393725635116,41.50936361398785,0.0,1.0,10.517495080399769,11.296400771245146,0.0,Landing
6.5,-114.58033172289028,-1026.1266307494595,175.07894636251822,-0.20460296130257577,-2.094422155695459,357.00129630554443,40.84171148151597,0.0,1.0,10.517495080399769,11.296400771245146,0.0,Landing
6.6000000000000005,-116.26336354610501,-1022.1184032944108,176.1172892455954,0.3140553913392368,-2.5133551517411927,357.1255540198042,41.27371371721113,0.0,1.0,10.517495080399769,11.296400771245146,0.0,Landing
6.7,-117.93817842262648,-1015.6765414629093,176.65464229627307,-0.3451757049842928,-2.7659611909705846,357.1254185774668,41.95053119411378,0.0,1.0,10.517495080399769,11.296400771245146,0.0,Landing
6.800000000000001,-119.65871443020482,-1038.299071131715,175.39504343970404,0.15723951030120958,-2.597701933537989,357.3987974788986,41.667660862287796,0.0,1.0,10.517495080399769,11.296400771245146,0.0,Landing
6.9,-121.45485890176359,-1043.968879886205,176.72175947413868,0.08364888196989372,-2.4867244279273235,357.2774998142892,41.371091033664825,0.0,1.0,10.517495080399769,11.296400771245146,0.0,Landing
7.0,-123.1580228220575,-1026.6094513927158,176.23241398395297,-0.00547846441981481,-2.3863313552614565,357.27942193963645,41.52237663617386,0.0,1.0,10.517495080399769,11.296400771245146,0.0,Landing
7.1000000000000005,-124.7917616871684,-1004.0360878109482,177.28706767002407,0.16780753618188732,-2.7408566572673028,356.9943674756073,40.970614699468456,0.0,1.0,10.517495080399769,11.296400771245146,0.0,Landing
7.2,-126.47503934081833,-1003.0443731760585,174.65020087855655,0.08453209208781125,-2.283058524674108,356.9807402117834,41.48384560883179,0.0,1.0,10.517495080399769,11.296400771245146,0.0,Landing
7.300000000000001,-128.1732446879378,-1019.8094883651862,176.92784777385683,0.10643088982520005,-2.2448121522803848,357.46148091768237,41.20751374875313,0.0,1.0,10.517495080399769,11.296400771245146,0.0,Landing
7.4,-129.89080912899433,-1024.1866272798206,174.57175711567507,0.00928218535529897,-2.355822089550778,357.1345260816705,41.03724720146706,0.0,1.0,10.517495080399769,11.296400771245146,0.0,Landing
7.5,-131.59597247721743,-1009.3968590285216,175.29239662075867,-0.12632497343743465,-2.3995517392471313,356.8646300740485,40.70656878845929,0.0,1.0,10.517495080399769,11.296400771245146,0.0,Landing
7.6000000000000005,-133.2202289830804,-998.3851686307786,174.86904360497306,0.5240075754620896,-2.575215173678939,357.0513146081994,40.978033148436374,0.0,1.0,10.517495080399769,11.296400771245146,0.0,Landing
7.7,-134.88273497214823,-1000.238196273773,174.84421928968956,0.0069870617402914975,-2.603684991062032,357.31213262955396,41.548715989061584,0.0,1.0,10.517495080399769,11.296400771245146,0.0,Landing
7.800000000000001,-136.5971634585863,-1020.068992177346,174.6501230598697,0.4121303815192779,-2.354583261701552,357.14384761554766,41.377402166807826,0.0,1.0,10.517495080399769,11.296400771245146,0.0,Landing
7.9,-138.32057394396713,-1008.5730222037796,175.8964618695532,0.3673135731696164,-2.610907882358502,357.01297867046105,40.98363779572852,0.0,1.0,10.517495080399769,11.296400771245146,0.0,Landing
8.0,-139.92560008316713,-1007.0702229124721,174.76329052022868,0.5643033352964202,-2.200838155814848,357.082008506241,41.18954307930485,0.0,1.0,10.517495080399769,11.296400771245146,0.0,Landing
8.1,-141.63251457314865,-1013.3801460620361,176.4465877002973,0.1607476932454131,-2.489543357023212,357.24495262300957,40.92639819702127,0.0,1.0,10.517495080399769,11.296400771245146,0.0,Landing
8.200000000000001,-143.3874746742773,-1021.9204219099879,175.14852764050093,0.19355359330847116,-2.5953598481966247,357.05577332821326,41.63151759981325,0.0,1.0,10.517495080399769,11.296400771245146,0.0,Landing
8.3,-145.03520219271707,-1030.3756045799048,175.51838794036553,-0.13926055595750217,-2.6234204406696193,357.2213175309312,40.81114587809325,0.0,1.0,10.517495080399769,11.296400771245146,0.0,Landing
8.4,-146.78439259604818,-1022.88710775656,175.65309860464006,0.2413613741048583,-2.3080709377573085,357.2004811479243,41.62364034514613,0.0,1.0,10.517495080399769,11.296400771245146,0.0,Landing
8.5,-148.5019102130601,-1050.6880063877645,176.81434658091206,-0.027993819924096996,-2.938230791868033,356.95972122598073,41.22993007886382,0.0,1.0,10.517495080399769,11.296400771245146,0.0,Landing
8.6,-150.2886422246559,-1032.9588524801352,176.27952710353287,0.5553570887049601,-2.4860318544558653,357.1668811894749,41.400106753239584,0.0,1.0,10.517495080399769,11.296400771245146,0.0,Landing
8.700000000000001,-151.94918685844885,-1014.0612178282196,177.15840025676414,0.18261414807508408,-2.5132667147944954,357.08236957844383,41.466040237591145,0.0,1.0,10.517495080399769,11.296400771245146,0.0,Landing
8.8,-153.5722163022012,-1014.5452731047158,175.4258749001015,0.20082162074895255,-2.186971053417739,357.4103182231745,40.844210454888255,0.0,1.0,10.517495080399769,11.296400771245146,0.0,Landing
8.9,-155.36136859017947,-1040.3632697457226,175.96785091529478,0.07780613989527116,-2.1767606394396495,357.42390458169916,41.340418029364216,0.0,1.0,10.517495080399769,11.296400771245146,0.0,Landing
9.0,-157.15100320717747,-1039.6516815256803,174.37424012945925,-0.34431930516251735,-2.844955788344314,357.2527818259355,41.29938974821193,0.0,1.0,10.517495080399769,11.296400771245146,0.0,Landing
9.1,-158.7704747098296,-1011.9192923365404,174.12287991519952,0.07917489746529305,-2.3702248816789617,357.20193468495154,41.50621419676387,0.0,1.0,10.517495080399769,11.296400771245146,0.0,Landing
9.200000000000001,-160.42096505186217,-1000.1693705313869,176.01883906090677,-0.13581571144780874,-2.5193301303564897,357.1515618112933,41.33693069704882,0.0,1.0,10.517495080399769,11.296400771245146,0.0,Landing
9.3,-162.1518500598344,-1015.8929316014168,175.04772525064038,0.3490519968528653,-2.1780119701660343,357.2545999863203,41.32884301878599,0.0,1.0,10.517495080399769,11.296400771245146,0.0,Landing
9.4,-163.8499393678367,-1030.8821638306654,173.4148658741034,-0.010747401582911972,-2.4269550526597787,356.77552773978937,40.81314929350467,0.0,1.0,10.517495080399769,11.296400771245146,0.0,Landing
9.5,-165.5753758710155,-1028.5224528102447,174.56748836849698,0.19579197835900297,-2.6005048021248562,357.24066630056177,41.13728842915145,0.0,1.0,10.517495080399769,11.296400771245146,0.0,Landing
9.600000000000001,-167.29446232388563,-1034.3168913387046,174.80013577298453,0.2664471635473211,-2.406034288018849,357.17483346483186,41.31463044062536,0.0,1.0,10.517495080399769,11.296400771245146,0.0,Landing
9.700000000000001,-169.02152382453022,-1028.652520275682,175.5496217110015,0.2035480998551238,-2.191496100730152,357.2834658996526,41.28838520478019,0.0,1.0,10.517495080399769,11.296400771245146,0.0,Landing
9.8,-170.7186384723939,-1006.2654181792368,176.04319551380172,-0.18647751776296906,-2.613140283193396,357.00428987761313,41.196481023727365,0.0,1.0,10.517495080399769,11.296400771245146,0.0,Landing
9.9,-172.3257894147818,-995.7227447449895,176.4666553758453,-0.16337138848620714,-2.678371765046967,357.4017017891566,41.25513139059398,0.0,1.0,10.517495080399769,11.296400771245146,0.0,Landing
10.0,-174.00013754825517,-995.5044954385643,175.01620652562775,-0.17170318698339737,-2.3765645143549206,357.09052686159225,41.293186073408755,0.0,1.0,10.517495080399769,11.296400771245146,0.0,Landing
10.100000000000001,-175.69616094958673,-1012.7534115050935,173.71144965513426,-0.2525126527993259,-2.4448856575702367,357.3329753384661,41.40506684946572,0.0,1.0,10.517495080399769,11.296400771245146,0.0,Landing
10.200000000000001,-177.38955647230728,-1028.318216653497,175.91855713866985,0.18235639390520292,-2.035881670701636,357.1922034461347,41.23077675213999,0.0,1.0,10.517495080399769,11.296400771245146,0.0,Landing
10.3,-179.14172863152265,-1030.3421351322527,175.576178915299,0.12732638943235644,-2.533357990111154,356.86588842037486,41.08891610673128,0.0,1.0,10.517495080399769,11.296400771245146,0.0,Landing
10.4,-180.847871625248,-1050.349431874929,175.65681708395286,0.18375004114737228,-2.3443259359392323,357.37310598456565,40.87459325470472,0.0,1.0,10.517495080399769,11.296400771245146,0.0,Landing
10.5,-182.64130363168192,-1040.1260477953258,177.0070236319148,0.23810391431591077,-2.1704213680228395,357.45348504250046,41.467554160718706,0.0,1.0,10.517495080399769,11.296400771245146,0.0,Landing
10.600000000000001,-184.34235887049928,-1047.2613350360348,175.64588353050902,0.09260960421276304,-2.5932880888413936,357.3203295703354,41.20424106208151,0.0,1.0,10.517495080399769,11.296400771245146,0.0,Landing
10.700000000000001,-186.08417830042816,-1015.3279498670541,175.5006671955571,-0.17518204176291918,-2.4127358865018937,357.30743640425374,40.97930296175901,0.0,1.0,10.517495080399769,11.296400771245146,0.0,Landing
10.8,-187.7179433810172,-1008.607279684719,176.17486580367157,0.08469471382961383,-2.5286252302789203,357.457445317698,40.873330457637216,0.0,1.0,10.517495080399769,11.296400771245146,0.0,Landing
10.9,-189.38539526892288,-990.6580385007543,175.11746585480432,0.12451438701650723,-2.384353985669543,356.964476520719,41.180770985801814,0.0,1.0,10.517495080399769,11.296400771245146,0.0,Landing
11.0,-191.03746849293194,-1010.3278542765507,177.03311443437786,0.07815935755618185,-2.4247419645240984,357.1451540527006,41.09878249199618,0.0,1.0,10.517495080399769,11.296400771245146,0.0,Landing
11.100000000000001,-192.76958265239995,-1014.1324759801819,175.0309974073026,0.04533056598154631,-2.4764740456439163,356.88657795407266,41.661974830666345,0.0,1.0,10.517495080399769,11.296400771245146,0.0,Landing
11.200000000000001,-194.4560576488238,-1022.5387699117222,175.85741574299362,-0.16824009186685374,-2.3567476114317074,357.1118101920149,41.462557017686514,0.0,1.0,10.517495080399769,11.296400771245146,0.0,Landing
11.3,-196.15016234249055,-1029.9050303609988,175.74124237774686,-0.01962962889451246,-2.37739352349693,357.1233215050215,41.24508583666985,0.0,1.0,10.517495080399769,11.296400771245146,0.0,Landing
11.4,-197.91910780420494,-1033.95986001496,176.454647877965,0.06901823964068142,-2.215606444168448,357.04635066846004,40.65944972691963,0.0,1.0,10.517495080399769,11.296400771245146,0.0,Landing
11.5,-199.6258569488986,-1042.6055033762964,176.47992671614483,0.11281666906097636,-2.551673262093639,357.10217383161057,41.45610301784353,0.0,1.0,10.517495080399769,11.296400771245146,0.0,Landing
11.600000000000001,-201.36318985937203,-1026.0258918389127,175.798286006136,-0.0794604655133806,-2.5199791125354136,357.2767078242673,41.13639953319665,0.0,1.0,10.517495080399769,11.296400771245146,0.0,Landing
11.700000000000001,-203.0492372633995,-1020.4816439813782,176.03546871797468,0.17935052019299974,-2.2910413513170473,357.36742607708743,41.36364516135722,0.0,1.0,10.517495080399769,11.296400771245146,0.0,Landing
11.8,-204.72826516880548,-993.3834036603854,176.81853025754273,-0.1447759739848261,-2.3036791511079664,357.12321348449234,41.87002680390767,0.0,1.0,10.517495080399769,11.296400771245146,0.0,Landing
11.9,-206.33010687767396,-985.2402605276042,177.98864674997483,-0.027493260175819198,-2.6485932903011156,357.1575379307659,41.4430919508068,0.0,1.0,10.517495080399769,11.296400771245146,0.0,Landing
12.0,-207.97543856603752,-1009.403141918051,175.32190537676314,0.2278804732195206,-2.624798763109022,357.0902364236663,40.86764511865908,0.0,1.0,10.517495080399769,11.296400771245146,0.0,Landing
12.100000000000001,-209.77528087839573,-1034.9609299829924,175.83635911652385,0.20043076630066248,-2.820433344387645,357.11349999865797,41.16539493569739,0.0,1.0,10.517495080399769,11.296400771245146,0.0,Landing
12.200000000000001,-211.50491152758892,-1043.668021631271,176.0454394763738,0.23501425375459273,-2.413911055090736,357.302589582888,41.028874032141694,0.0,1.0,10.517495080399769,11.296400771245146,0.0,Landing
12.3,-213.19377867419388,-1020.3187924899852,174.87564861203109,-0.24783493558703257,-2.2959413921219682,357.1169273224607,41.862003300204705,0.0,1.0,10.517495080399769,11.296400771245146,0.0,Landing
12.4,-214.87687484084566,-1006.2371288904218,175.26729606849983,0.13569224391686407,-2.4923574896343017,357.2617367801091,41.6618453636914,0.0,1.0,10.517495080399769,11.296400771245146,0.0,Landing
12.5,-216.53609717204102,-1028.0921368160364,177.18161058533417,0.018894895074512884,-2.3352946938307197,357.0866103071269,41.61883930205752,0.0,1.0,10.517495080399769,11.296400771245146,0.0,Landing
12.600000000000001,-218.33423935827406,-1023.55800297521,175.56517526946914,-0.3381960192217232,-2.323420961189901,357.0507622933444,41.1812074870928,0.0,1.0,10.517495080399769,11.296400771245146,0.0,Landing
12.700000000000001,-219.9946648557217,-1007.7398617284757,177.35642024409262,0.14562233090771737,-2.367059376702883,357.23077616480566,41.83293862708873,0.0,1.0,10.517495080399769,11.296400771245146,0.0,Landing
12.8,-221.5747964806834,-977.7445449653783,175.54537530069194,0.38368278845140913,-2.3003984623361973,357.0711318989886,40.97013522015595,0.0,1.0,10.517495080399769,11.296400771245146,0.0,Landing
12.9,-223.22296208310095,-975.7709727447321,176.57087368074502,-0.2209925413630947,-2.5538823747364248,357.11076667232305,41.13181700422075,0.0,1.0,10.517495080399769,11.296400771245146,0.0,Landing
13.0,-224.87351971944537,-992.7446764612056,176.48623789173314,0.33129039343500444,-2.53953664793792,357.02997739981834,41.39733169471537,0.0,1.0,10.517495080399769,11.296400771245146,0.0,Landing
13.100000000000001,-226.53851986298943,-983.6992297260167,175.77773992332044,0.49317642365186787,-2.708379179517328,357.12301589200956,41.54822353052652,0.0,1.0,10.517495080399769,11.296400771245146,0.0,Landing
13.200000000000001,-228.14145823173104,-994.8236357461155,177.9036158519389,0.11630237482094286,-2.32259751158546,357.178271914712,41.1313539974116,0.0,1.0,10.517495080399769,11.296400771245146,0.0,Landing
13.3,-229.84763789817595,-1008.1277650818889,176.24276636302145,-0.08084832076148846,-2.564422249219936,357.2986829892851,40.9344750283816,0.0,1.0,10.517495080399769,11.296400771245146,0.0,Landing
13.4,-231.57915868839888,-1013.5846840449916,176.1056631902853,0.042818238142068,-2.0620082956739756,357.36434076457476,41.41681997917982,0.0,1.0,10.517495080399769,11.296400771245146,0.0,Landing
13.5,-233.209381651956,-1019.5171012623746,177.4893123580265,0.21122097217914382,-2.452684814257185,357.2498506174459,41.053679544417506,0.0,1.0,10.517495080399769,11.296400771245146,0.0,Landing
13.600000000000001,-234.94522340448782,-994.062889993114,176.44747845998677,0.2604074246917171,-2.5726169188678365,357.1536639909882,41.12115323763718,0.0,1.0,10.517495080399769,11.296400771245146,0.0,Landing
13.700000000000001,-236.54947313836445,-991.4318660044728,174.69701201081767,0.7015391978830996,-2.4319636000242175,356.9149900070116,41.11889478752975,0.0,1.0,10.517495080399769,11.296400771245146,0.0,Landing
13.8,-238.16654098197836,-984.1583970252486,174.5299638063624,0.12041894848699491,-2.748746595921685,357.4713847562166,41.09129480376937,0.0,1.0,10.517495080399769,11.296400771245146,0.0,Landing
13.9,-239.86601538961406,-1009.2369659723204,175.95699755050148,0.09422345077773006,-2.6283141384842166,357.0605027881156,41.17599066432473,0.0,1.0,10.517495080399769,11.296400771245146,0.0,Landing
14.0,-241.59565796822605,-1029.5510638836504,173.98097832998283,-0.3741230000985377,-2.648975191970976,357.3106989636849,41.13588265236355,0.0,1.0,10.517495080399769,11.296400771245146,0.0,Landing
14.100000000000001,-243.3142963013966,-1025.4755906089656,175.40970771480568,-0.08525799586075741,-2.821898302250352,357.1054037431659,41.15662584799722,0.0,1.0,10.517495080399769,11.296400771245146,0.0,Landing
14.200000000000001,-244.9933933426589,-1014.1505710496118,176.58579353508986,0.3279366903731117,-2.69110044711864,357.2048392054769,41.27370297746071,0.0,1.0,10.517495080399769,11.296400771245146,0.0,Landing
14.3,-246.6664108234741,-986.9663521421159,175.60275197085238,0.1144152869301849,-2.9405391729122363,356.8677360481547,41.11964999842555,0.0,1.0,10.517495080399769,11.296400771245146,0.0,Landing
14.4,-248.2491280621072,-976.9293351233558,176.14978902417693,-0.23844822293973145,-2.6087078637616443,357.1008770609567,41.101611146359865,0.0,1.0,10.517495080399769,11.296400771245146,0.0,Landing
14.5,-249.87804001827567,-993.1887033336466,175.81905134462167,0.25595572627515784,-2.3988260390713054,357.07693765949466,41.11947233556535,0.0,1.0,10.517495080399769,11.296400771245146,0.0,Landing
14.600000000000001,-251.63235434014234,-1024.862231534405,175.06219622468666,-0.11973142481229535,-2.400946900930191,357.0466852299263,41.34987634493874,0.0,1.0,10.517495080399769,11.296400771245146,0.0,Landing
14.700000000000001,-253.37343921977921,-1014.1081014690144,174.42750218490926,0.1661637123717805,-2.5223038400945224,356.97853719446664,41.03866903957045,0.0,1.0,10.517495080399769,11.296400771245146,0.0,Landing
14.8,-254.94858052562074,-982.1448872697829,175.6272124810535,-0.36490081775535405,-2.476756265153845,357.10495961363995,41.657552147930176,0.0,1.0,10.517495080399769,11.296400771245146,0.0,Landing
14.9,-256.54307877649126,-953.0308509004557,174.44984372944373,0.07120364087038078,-2.348499626947335,357.3968281635482,41.46476957494705,0.0,1.0,10.517495080399769,11.296400771245146,0.0,Landing
15.0,-258.1385934742815,-979.8319343712137,175.9086674019088,-0.040385453744597746,-2.145121907538182,356.9666563051419,41.1337560761751,0.0,1.0,10.517495080399769,11.296400771245146,0.0,Landing
15.100000000000001,-259.8477401974768,-979.9167699320719,174.8464508473291,-0.07358477607537445,-2.4390663666301267,357.2492923913828,41.28573153363358,0.0,1.0,10.517495080399769,11.296400771245146,0.0,Landing
15.200000000000001,-261.4426626261516,-990.597639723353,176.35622531439026,0.20763124397899263,-2.404837406900278,356.9762997467162,41.22443035311187,0.0,1.0,10.517495080399769,11.296400771245146,0.0,Landing
15.3,-263.09158167289826,-967.9606963469155,177.00269305373988,-0.0725645251797313,-2.2824412433717494,357.1501615053496,41.2272275905817,0.0,1.0,10.517495080399769,11.296400771245146,0.0,Landing
15.4,-264.6875436792114,-983.8282256823163,176.50987120819983,-0.3764748247097792,-2.1420489655815658,356.98327391045143,41.629327664258064,0.0,1.0,10.517495080399769,11.296400771245146,0.0,Landing
15.5,-266.3618037545632,-987.4126543914258,176.33431670415987,0.012108580200855201,-2.2939091219095924,357.38492257489645,40.89255215185489,0.0,1.0,10.517495080399769,11.296400771245146,0.0,Landing
15.600000000000001,-268.0286449448554,-1009.6299459547595,178.39665729327515,-0.10584682231968001,-2.1668820481791955,356.95698079251326,41.314925011339774,0.0,1.0,10.517495080399769,11.296400771245146,0.0,Landing
15.700000000000001,-269.7356934089852,-1003.45987431092,175.56413160149285,-0.04171991806018792,-2.4530018503900797,357.30250140742623,40.89747099972889,0.0,1.0,10.517495080399769,11.296400771245146,0.0,Landing
15.8,-271.3791031261178,-993.5606238643913,176.57149234934764,0.6048495427327737,-2.2799115550935816,357.435664651367,40.83983789444212,0.0,1.0,10.517495080399769,11.296400771245146,0.0,Landing
15.9,-272.99644806417734,-970.7629422249511,176.75577008176566,0.5173854826211084,-2.513728811013667,357.2057741392839,41.18994210390806,0.0,1.0,10.517495080399769,11.296400771245146,0.0,Landing
16.0,-274.58950812010994,-972.392635575261,176.56401718329582,0.2509692268050818,-2.7504188654468966,357.2561114460882,41.27759149255405,0.0,1.0,10.517495080399769,11.296400771245146,0.0,Landing
16.1,-276.2410663039941,-986.8781661837829,175.4194110152552,0.49912512899064,-2.8794077400068208,357.16893225644753,41.2398919387892,0.0,1.0,10.517495080399769,11.296400771245146,0.0,Landing
16.2,-277.93083889509626,-997.0221272881304,176.53666205892108,0.20039889013330975,-2.5916078184978515,357.2940280890573,41.25560473624361,0.0,1.0,10.517495080399769,11.296400771245146,0.0,Landing
16.3,-279.5746187565506,-1000.5123544526214,175.7424851872024,-0.19380064437279693,-2.7729742738829213,357.1882692315967,41.32523129273931,0.0,1.0,10.517495080399769,11.296400771245146,0.0,Landing
16.400000000000002,-281.2436280762572,-985.5801699935228,176.54008182140623,0.006842454020082517,-2.143392830257744,357.4040716676275,41.34979379677272,0.0,1.0,10.517495080399769,11.296400771245146,0.0,Landing
16.5,-282.8587397450639,-1000.8759410103949,176.15456936527244,0.3984688337494469,-2.830000767554383,357.1739586347535,41.542014360062126,0.0,1.0,10.517495080399769,11.296400771245146,0.0,Landing
16.6,-284.57899846160257,-989.204793660042,175.22342069222282,-0.13738865806989514,-2.3916113767583496,357.0329719966653,41.389808322204566,0.0,1.0,10.517495080399769,11.296400771245146,0.0,Landing
16.7,-286.1896520445574,-996.4966626669252,176.31115059054713,-0.1246538250931426,-2.5250110742742775,356.9221883743785,41.11346169827365,0.0,1.0,10.517495080399769,11.296400771245146,0.0,Landing
16.8,-287.8412230583985,-966.4115518502513,175.1353043628705,-0.044700491491425715,-2.724577069922527,357.3155199305886,41.444600328866976,0.0,1.0,10.517495080399769,11.296400771245146,0.0,Landing
16.900000000000002,-289.4110562208538,-971.0995636062421,174.9794992079153,0.04528358108351205,-2.6749218471739784,356.9551468781043,41.72959834322367,0.0,1.0,10.517495080399769,11.296400771245146,0.0,Landing
17.0,-291.04514986258863,-975.2362445007293,175.22645167240813,0.1701786116589702,-2.375365485976738,357.22877557512106,41.21175043781002,0.0,1.0,10.517495080399769,11.296400771245146,0.0,Landing
17.1,-292.71740428090214,-996.6096064056273,176.84627908880682,-0.19602717356597005,-2.482906171370246,357.1866479699472,41.55151301497529,0.0,1.0,10.517495080399769,11.296400771245146,0.0,Landing
17.2,-294.39410425288196,-1005.6742591329225,175.92715418939315,0.31181062605822873,-2.0861854877530375,357.1110628411567,41.405080339534365,0.0,1.0,10.517495080399769,11.296400771245146,0.0,Landing
17.3,-296.07352115825324,-979.4782270017095,174.92347060302347,0.13154872203733545,-2.316545088251732,357.1561568083731,41.9145829066544,0.0,1.0,10.517495080399769,11.296400771245146,0.0,Landing
17.400000000000002,-297.6147954159107,-979.1948427289867,174.56863474174824,0.3211900742987306,-2.4414556162117624,357.13298158573366,41.5472551714403,0.0,1.0,10.517495080399769,11.296400771245146,0.0,Landing
17.5,-299.2900784665269,-977.6895707797848,175.72515919354967,-0.014350626948083561,-2.142942927857243,357.4539324384642,40.91511179480377,0.0,1.0,10.517495080399769,11.296400771245146,0.0,Landing
17.6,-300.96196901215217,-1016.4754291292638,175.89590460362174,0.291755624626507,-2.554876914105548,357.1616056071441,41.29290942965072,0.0,1.0,10.517495080399769,11.296400771245146,0.0,Landing
17.7,-302.697172561557,-1005.6694674167602,174.958979725026,0.09985886327566156,-2.2738015780056537,357.12365757402154,41.62134276118486,0.0,1.0,10.517495080399769,11.296400771245146,0.0,Landing
17.8,-304.3184258036107,-984.6689820108395,175.71142761442903,-0.0009055149904556026,-2.4320554665017475,357.0559495879148,41.05779806441399,0.0,1.0,10.517495080399769,11.296400771245146,0.0,Landing
17.900000000000002,-305.88531392220636,-944.5866831476337,176.34945842074129,0.11666839502132048,-2.6528436572647145,357.0883546925138,41.55998899833904,0.0,1.0,10.517495080399769,11.296400771245146,0.0,Landing
18.0,-307.4201059772952,-931.0257315595436,175.77301359914446,-0.21724003990778024,-2.6940044807052357,357.0968185865911,41.56964975852491,0.0,1.0,10.517495080399769,11.296400771245146,0.0,Landing
18.1,-308.9735544614084,-962.1096987344686,175.95892428641955,-0.13379186868691822,-2.2865047788097628,357.04669321476604,41.02769861791378,0.0,1.0,10.517495080399769,11.296400771245146,0.0,Landing
18.2,-310.6958624158787,-969.2631867069395,176.25636658539662,0.1651125488717452,-2.642445339610253,357.057147355284,41.08468748163668,0.0,1.0,10.517495080399769,11.296400771245146,0.0,Landing
18.3,-312.2664219108299,-994.5202666720434,175.08587943813131,0.14043541272173082,-2.323109910332762,357.11139509092163,41.29191829295921,0.0,1.0,10.517495080399769,11.296400771245146,0.0,Landing
18.400000000000002,-313.94615579476863,-968.3549663025588,175.79411197741308,-0.26016291341024744,-2.81139914520227,357.0483206408629,41.24227755930741,0.0,1.0,10.517495080399769,11.296400771245146,0.0,Landing
18.5,-315.5376372473915,-982.75574431932,176.1892474049722,0.06559083996846111,-2.465314434424862,357.08582914325484,41.38975828869479,0.0,1.0,10.517495080399769,11.296400771245146,0.0,Landing
18.6,-317.1802006324265,-962.5414993587242,175.37298441427077,-0.007538091677806405,-2.3606078173054463,357.0063116284962,41.40051918021416,0.0,1.0,10.517495080399769,11.296400771245146,0.0,Landing
18.7,-318.75886329156225,-961.9458547155659,176.28791325322555,0.38335788474439836,-2.4399214139969048,357.2704898139191,41.05218210872084,0.0,1.0,10.517495080399769,11.296400771245146,0.0,Landing
18.8,-320.34736652096933,-972.1142298915197,175.56020122114288,0.16456175742274048,-2.529043943889934,357.02276088518545,41.0304143613066,0.0,1.0,10.517495080399769,11.296400771245146,0.0,Landing
18.900000000000002,-322.0407717818841,-967.5775012654526,174.2888331170602,0.2621897918709216,-2.740205321872111,357.16137761432446,41.490481161882876,0.0,1.0,10.517495080399769,11.296400771245146,0.0,Landing
19.0,-323.5967507978895,-973.1604876314464,177.4793318969505,-0.019437559821662675,-2.402262277563031,357.1474589013584,41.26615865420201,0.0,1.0,10.517495080399769,11.296400771245146,0.0,Landing
19.1,-325.21316895912656,-957.4758234137903,173.15476056760335,0.11315762072320723,-2.4195470259351657,357.22040207688406,41.224808412976905,0.0,1.0,10.517495080399769,11.296400771245146,0.0,Landing
19.200000000000003,-326.828150898953,-971.4878700008398,176.30797136737922,0.027879790221956254,-2.4235831376280634,357.11036071021795,41.18872485185448,0.0,1.0,10.517495080399769,11.296400771245146,0.0,Landing
19.3,-328.4541901478937,-967.5213373316637,176.2573767343332,0.535079910568313,-2.6040110483689864,357.097493515304,41.38647876621498,0.0,1.0,10.517495080399769,11.296400771245146,0.0,Landing
19.400000000000002,-330.0507756457849,-962.5792434138134,176.12805492439372,-0.05480297781383156,-2.5357287066809016,357.25550402096474,41.01950671904926,0.0,1.0,10.517495080399769,11.296400771245146,0.0,Landing
19.5,-331.6410471160221,-958.4968430901881,175.58067827391392,0.17716777940529888,-2.350032232864867,357.2536782962027,41.31796387932815,0.0,1.0,10.517495080399769,11.296400771245146,0.0,Landing
19.6,-333.24667436334465,-966.1735118590968,175.38556836508488,-0.06484023008986897,-2.200717713855367,357.13075576170945,41.23963002850393,0.0,1.0,10.517495080399769,11.296400771245146,0.0,Landing
19.700000000000003,-334.88164320508037,-970.0862493495265,174.48829548968524,-0.14828580226755778,-2.3148735437052133,357.3917669203365,41.10579116012873,0.0,1.0,10.517495080399769,11.296400771245146,0.0,Landing
19.8,-336.4914783627697,-968.2852616404148,175.8613365407043,0.01597748500962172,-2.5647142346857037,357.3249547931456,41.07499515600993,0.0,1.0,10.517495080399769,11.296400771245146,0.0,Landing
19.900000000000002,-338.0881006715467,-966.1834250453239,175.3052580811322,0.07066609398153827,-2.8013904343042153,357.1947071818736,41.64842797818215,0.0,1.0,10.517495080399769,11.296400771245146,0.0,Landing
20.0,-339.712560330307,-958.8966171689094,174.75469164796434,0.19441714062121712,-2.3949079133905276,357.15777599523176,41.11146614614016,0.0,1.0,10.517495080399769,11.296400771245146,0.0,Landing
20.1,-341.2859614486143,-943.4085906188557,174.58378237555385,-0.08687757071623603,-2.713292529873339,357.1532268390788,41.369922382603036,0.0,1.0,10.517495080399769,11.296400771245146,0.0,Landing
20.200000000000003,-342.805143624641,-930.6772875633442,176.7521168348124,0.24052254343756907,-2.654428293798366,357.41521090345236,41.35409577992675,0.0,1.0,10.517495080399769,11.296400771245146,0.0,Landing
20.3,-344.3659467681237,-935.9062074041162,174.06282430927186,0.21756736762424145,-2.4568597507058185,357.13314150473775,41.66544318972826,0.0,1.0,10.517495080399769,11.296400771245146,0.0,Landing
20.400000000000002,-345.96549248563485,-966.230194838829,175.5113444786109,-0.13329949892944995,-2.5318532018558435,356.9989595686261,41.21721985716081,0.0,1.0,10.517495080399769,11.296400771245146,0.0,Landing
20.5,-347.63629459883515,-984.6484792373758,176.37615905737533,0.12296953530276217,-2.1462317087859484,357.01899781688985,41.00971080426973,0.0,1.0,10.517495080399769,11.296400771245146,0.0,Landing
20.6,-349.2891891643106,-992.9269003401942,174.50873384882215,-0.14660647430976095,-2.6786914603644476,357.1932098198172,41.52561878180401,0.0,1.0,10.517495080399769,11.296400771245146,0.0,Landing
20.700000000000003,-350.9301269873358,-967.3703645228102,176.32174974298752,0.2550284155052061,-2.598109532028884,357.10104130578327,40.812518925635864,0.0,1.0,10.517495080399769,11.296400771245146,0.0,Landing
20.8,-352.4731464214492,-971.1518182094437,177.0356538397289,-0.07876549839906999,-2.2584277783861393,357.39739588008274,40.89028689435371,0.0,1.0,10.517495080399769,11.296400771245146,0.0,Landing
20.900000000000002,-354.1449482553578,-967.8061651090729,175.4660760594029,-0.11791409562703253,-2.7040771574378573,357.0722495877103,41.27468335564251,0.0,1.0,10.517495080399769,11.296400771245146,0.0,Landing
21.0,-355.7691578128812,-1003.807151614501,175.62971432248074,-0.0507812242912484,-2.7011760920038594,357.13807477788316,41.34222261097707,0.0,1.0,10.517495080399769,11.296400771245146,0.0,Landing
21.1,-357.4921821795217,-1001.6731195544367,176.5722521997008,-0.04990588455665099,-2.4890787268948706,357.2295061588443,41.58277498702201,0.0,1.0,10.517495080399769,11.296400771245146,0.0,Landing
21.200000000000003,-359.15331385313,-995.3901026612812,177.38999004068438,0.33840050939785704,-2.6072445792207546,357.217669325373,41.203450523092066,0.0,1.0,10.517495080399769,11.296400771245146,0.0,Landing
21.3,-360.7461083261876,-983.8328737211327,174.61468250350572,-0.05832897783032018,-2.3697597795190863,357.0791073896587,41.208181220848175,0.0,1.0,10.517495080399769,11.296400771245146,0.0,Landing
21.400000000000002,-362.41134654812737,-970.0886554042654,173.05312308213166,-0.05256253341978884,-2.2142438622009535,357.2088016096783,41.3820242765845,0.0,1.0,10.517495080399769,11.296400771245146,0.0,Landing
21.5,-364.0037571301513,-971.510823053768,176.47588335829002,0.10949804193199676,-2.7315265664433945,357.3279719765716,41.418125805763964,0.0,1.0,10.517495080399769,11.296400771245146,0.0,Landing
21.6,-365.60366244145644,-962.8127318766929,176.12342450341515,0.002850703116033082,-2.8352591956408144,357.1212211273753,41.05996170494214,0.0,1.0,10.517495080399769,11.296400771245146,0.0,Landing
21.700000000000003,-367.22541020751083,-974.702734320681,175.19077452331342,0.39934312882107825,-2.669409316358188,357.11517687445416,41.71876562404058,0.0,1.0,10.517495080399769,11.296400771245146,0.0,Landing
21.8,-368.8772708017547,-957.7023715998962,175.86856401478113,0.1741205557576776,-2.08269645677588,357.3008079514716,41.37012379507061,0.0,1.0,10.517495080399769,11.296400771245146,0.0,Landing
21.900000000000002,-370.3921742994559,-963.3883898678732,173.91989634504128,0.020200548612463953,-2.2554724356868094,357.2012010306562,41.142754771951786,0.0,1.0,10.517495080399769,11.296400771245146,0.0,Landing
22.0,-372.0423521568502,-958.0776041340414,177.66821140993852,0.14676978165247842,-2.270114077374957,356.8803184882288,41.03254061404086,0.0,1.0,10.517495080399769,11.296400771245146,0.0,Landing
22.1,-373.6676588224249,-990.8738858295123,176.29815298589784,-0.03022179573417688,-2.162531926520073,357.17524275328765,41.46306550838429,0.0,1.0,10.517495080399769,11.296400771245146,0.0,Landing
22.200000000000003,-375.3465437286035,-977.8248712388972,176.6751684951775,-0.04527819025515753,-2.048027676442491,356.9852512069508,40.43749456589456,0.0,1.0,10.517495080399769,11.296400771245146,0.0,Landing
22.3,-376.9314765130447,-975.9083889611361,178.94522055186846,0.03626189772699062,-2.6520483399292134,357.0011048542891,40.9368914192289,0.0,1.0,10.517495080399769,11.296400771245146,0.0,Landing
22.400000000000002,-378.5472007672306,-949.5986709883141,175.7452712550152,-0.27022321837352825,-2.155842761697283,357.05690511874946,41.25742740705836,0.0,1.0,10.517495080399769,11.296400771245146,0.0,Landing
22.5,-380.09453708354505,-963.7874593532729,175.43362723340763,0.00561517885204782,-2.320672602606311,357.1390815393937,40.89112173998162,0.0,1.0,10.517495080399769,11.296400771245146,0.0,Landing
22.6,-381.75041380981105,-969.5578225573172,175.63998279435657,0.044551366666981736,-2.4645100247438463,357.3444088493886,41.454705757591526,0.0,1.0,10.517495080399769,11.296400771245146,0.0,Landing
22.700000000000003,-383.3949898800172,-969.5134526422976,175.60525654978542,0.046488743149189944,-2.385386915874548,357.2175929963105,41.19335789477591,0.0,1.0,10.517495080399769,11.296400771245146,0.0,Landing
22.8,-384.94210434675654,-948.3283947390987,176.47739033575405,0.3529722084208451,-2.5538126384670785,357.10613080228006,41.1721268698883,0.0,1.0,10.517495080399769,11.296400771245146,0.0,Landing
22.900000000000002,-386.49205578350654,-941.8798431367918,176.042732807868,0.5062884849237533,-2.74536349315295,357.0319121512291,41.03358968811098,0.0,1.0,10.517495080399769,11.296400771245146,0.0,Landing
23.0,-388.10438909570115,-939.9815697280133,177.2699948158572,-0.10607687793833528,-2.5041120719666154,357.27035453226904,41.149584497668606,0.0,1.0,10.517495080399769,11.296400771245146,0.0,Landing
23.1,-389.6420121953966,-970.4027105232512,175.42673853735548,0.14840139875793623,-2.407135023881251,357.1366521155106,41.13353859226818,0.0,1.0,10.517495080399769,11.296400771245146,0.0,Landing
23.200000000000003,-391.3440693361228,-955.4294340570891,177.26667592022568,-0.25086321632197794,-2.5885995829194646,357.0452905894474,41.014914213914956,0.0,1.0,10.517495080399769,11.296400771245146,0.0,Landing
23.3,-392.8815362659866,-973.776674880753,175.10896019895867,-0.006709534160619229,-2.523971821876442,357.19683176859996,40.99624090107857,0.0,1.0,10.517495080399769,11.296400771245146,0.0,Landing
23.400000000000002,-394.51089556980037,-930.23494805052,175.7452727246952,0.2173648211511063,-2.334673078388688,357.06686655682245,41.70954405956393,0.0,1.0,10.517495080399769,11.296400771245146,0.0,Landing
23.5,-395.9952440763754,-929.9985392170584,177.16263882608862,0.565722419890109,-2.0201956008068978,357.25233610283567,41.136632726271905,0.0,1.0,10.517495080399769,11.296400771245146,0.0,Landing
23.6,-397.5315289620719,-931.6406668170771,173.5098752560004,-0.089215397583364,-2.0109376401004457,357.09605407222784,40.86645706202657,0.0,1.0,10.517495080399769,11.296400771245146,0.0,Landing
23.700000000000003,-399.16909890388575,-962.3169269404912,174.44180036695678,0.04406475371527387,-2.1038365415320577,357.3497968187412,41.36513021055952,0.0,1.0,10.517495080399769,11.296400771245146,0.0,Landing
23.8,-400.80682871107786,-969.4153795579155,176.66562505000232,-0.1012329637467034,-2.331475528421025,357.08491271799676,41.21994629470425,0.0,1.0,10.517495080399769,11.296400771245146,0.0,Landing
23.900000000000002,-402.37860585986147,-969.370368478485,176.87702907361583,-0.2551999846339027,-2.4511450324493813,357.21102567127105,41.16425926205214,0.0,1.0,10.517495080399769,11.296400771245146,0.0,Landing
24.0,-404.0159507462782,-956.2084249734994,175.46981276137598,0.23426564235043734,-2.599440818033255,357.35651946149665,41.04006962519762,0.0,1.0,10.517495080399769,11.296400771245146,0.0,Landing
24.1,-405.58787083594535,-961.9421562588968,175.86193177136786,0.1941826049662267,-2.280464030847547,356.83980524235994,41.5736736792154,0.0,1.0,10.517495080399769,11.296400771245146,0.0,Landing
24.200000000000003,-407.18831664115595,-945.4591298587957,175.37168445434335,0.12074345587487367,-2.5964044506904633,357.31702945177585,40.95453321755951,0.0,1.0,10.517495080399769,11.296400771245146,0.0,Landing
24.3,-408.74324639557216,-948.4825817783758,175.96346200369285,0.23227943451394417,-2.714195622108117,357.12557621877386,41.7296435460908,0.0,1.0,10.517495080399769,11.296400771245146,0.0,Landing
24.400000000000002,-410.33028374483723,-934.0794862477878,176.35114778506338,0.011576713137857408,-2.6583266766077633,357.017505965842,40.86944317714952,0.0,1.0,10.517495080399769,11.296400771245146,0.0,Landing
24.5,-411.8587140723949,-936.0907062949877,174.85365069990982,-0.2739952803395591,-2.3260740174886316,357.32574051187476,41.02792084389429,0.0,1.0,10.517495080399769,11.296400771245146,0.0,Landing
24.6,-413.4236999270471,-935.6392894131773,175.35745267870885,0.17615603749519093,-2.6378181975248345,357.13637099709376,40.92662632029462,0.0,1.0,10.517495080399769,11.296400771245146,0.0,Landing
24.700000000000003,-415.0084801919031,-947.5514930932832,175.48946699047656,0.1343705727086864,-2.583427864903973,357.22623727349196,41.76408400844747,0.0,1.0,10.517495080399769,11.296400771245146,0.0,Landing
24.8,-416.5964715378613,-943.8957319019778,174.9552853618084,0.40388692865335596,-2.51739334061908,357.40218691492396,41.246444730572904,0.0,1.0,10.517495080399769,11.296400771245146,0.0,Landing
24.900000000000002,-418.143178586557,-950.9338955031922,174.39338260522905,-0.13208680603726908,-2.4526051628711896,356.99698113273485,41.35703756972615,0.0,1.0,10.517495080399769,11.296400771245146,0.0,Landing
25.0,-419.7631496694191,-934.1415655172,177.01393116684991,0.629569924762995,-2.6264195174532277,357.09637524411573,40.985716042123116,0.0,1.0,10.517495080399769,11.296400771245146,0.0,Landing
25.1,-421.2671793654473,-958.0551789700394,175.7530241129203,0.4436713928536593,-2.575391012278028,357.1082042604712,41.33969245991668,0.0,1.0,10.517495080399769,11.296400771245146,0.0,Landing
25.200000000000003,-422.9334544814072,-947.9026819149908,175.5918193733222,0.24786359103597697,-2.59924717350616,357.11702527844193,41.369425688491766,0.0,1.0,10.517495080399769,11.296400771245146,0.0,Landing
25.3,-424.50266307899403,-966.6764812067413,175.32689963867273,0.1679947084249261,-2.3255866957454074,357.33304493200944,40.564896775054,0.0,1.0,10.517495080399769,11.296400771245146,0.0,Landing
25.400000000000002,-426.100561771481,-950.316745282521,176.336090714899,0.04863474572054158,-2.6011375620379344,357.38994686469675,41.76511027723202,0.0,1.0,10.517495080399769,11.296400771245146,0.0,Landing
25.5,-427.6850382078198,-945.201633986278,175.35179209340615,-0.04284552692207498,-2.4596251860980978,357.13854005255575,41.32636133270668,0.0,1.0,10.517495080399769,11.296400771245146,0.0,Landing
25.6,-429.2286712489254,-938.1313889679859,175.04493145985919,-0.261473664693548,-2.4142565414512864,357.2235617089857,41.66994022699965,0.0,1.0,10.517495080399769,11.296400771245146,0.0,Landing
25.700000000000003,-430.79121871632094,-943.8671931519707,174.6681656783464,0.4578483961796406,-2.587145097766242,357.2321310344298,41.35643064965273,0.0,1.0,10.517495080399769,11.296400771245146,0.0,Landing
25.8,-432.40437417357964,-939.8904291532972,175.0092440261473,-0.12558358072871534,-2.5366121616714006,357.11133823459454,41.05141833837614,0.0,1.0,10.517495080399769,11.296400771245146,0.0,Landing
25.900000000000002,-433.9281233946919,-943.7800283151091,174.7092555953802,0.10527224583437217,-2.5303057888174507,356.8518639464844,41.383227250062305,0.0,1.0,10.517495080399769,11.296400771245146,0.0,Landing
26.0,-435.5101188578965,-953.1421703669821,176.41880424298222,0.040700818554904775,-2.256153196059634,356.969470258702,41.19357768455794,0.0,1.0,10.517495080399769,11.296400771245146,0.0,Landing
26.1,-437.17008502541455,-971.069800866087,175.99828130781447,-0.09983411195649802,-2.301769454328964,357.2721156362776,41.0362005364986,0.0,1.0,10.517495080399769,11.296400771245146,0.0,Landing
26.200000000000003,-438.78347239902234,-956.9681689131585,174.30040722430923,-0.04861540840572165,-2.5674444899324684,357.0032896269363,41.077075464348596,0.0,1.0,10.517495080399769,11.296400771245146,0.0,Landing
26.3,-440.2949597024623,-945.6176004050917,177.85868763578225,0.4884498683373645,-2.2917894818173163,357.2513662772726,41.22665370627809,0.0,1.0,10.517495080399769,11.296400771245146,0.0,Landing
26.400000000000002,-441.89817302744,-932.7033073608504,175.77877612546237,0.29368491171830846,-2.211227959764041,356.96383951008215,41.94654973680648,0.0,1.0,10.517495080399769,11.296400771245146,0.0,Landing
26.5,-443.4469889358266,-949.2469002098687,174.66600362595773,0.4980352269178127,-2.1796877679571005,357.0160431329617,41.27914700376437,0.0,1.0,10.517495080399769,11.296400771245146,0.0,Landing
26.6,-445.0411942035116,-939.589308817142,176.0785425282108,0.08108077422566683,-2.484364850248545,356.90643370321345,40.60389250009065,0.0,1.0,10.517495080399769,11.296400771245146,0.0,Landing
26.700000000000003,-446.5961195715257,-938.5825101783894,174.3663023539553,0.1989056339231487,-2.640312100411224,357.085347496195,41.063565917331985,0.0,1.0,10.517495080399769,11.296400771245146,0.0,Landing
26.8,-448.13990148671854,-931.3339614543224,175.94954676002354,0.39742358192411587,-2.1952486636438877,357.1214487135878,40.9499714453523,0.0,1.0,10.517495080399769,11.296400771245146,0.0,Landing
26.900000000000002,-449.69786401078323,-945.5200643712033,175.21517989426303,0.25057381207805596,-2.598759315487867,357.42287150053085,41.562308979912,0.0,1.0,10.517495080399769,11.296400771245146,0.0,Landing
27.0,-451.32371989338174,-949.1626702783947,175.028968429147,-0.1869942929617025,-2.493037095541833,357.4004063668431,41.0018773466207,0.0,1.0,10.517495080399769,11.296400771245146,0.0,Landing
27.1,-452.8857148381105,-955.6801218474789,176.31014105614628,0.2058385938913334,-2.4763555431302042,357.1597616461315,41.4331169485315,0.0,1.0,10.517495080399769,11.296400771245146,0.0,Landing
27.200000000000003,-454.47626462002063,-930.0630842785722,175.5556025011467,0.12092831935091866,-2.6381358583849854,357.36774681141674,41.421078173004794,0.0,1.0,10.517495080399769,11.296400771245146,0.0,Landing
27.3,-455.9740353147746,-923.8822043464666,176.89777514979968,0.2379733490765179,-1.9940619976479736,357.06518311282616,41.520075468101204,0.0,1.0,10.517495080399769,11.296400771245146,0.0,Landing
27.400000000000002,-457.50512585984285,-913.5577166385588,175.61601705025708,0.2950854374412087,-2.560214251652896,357.16628298084606,41.209207894087164,0.0,1.0,10.517495080399769,11.296400771245146,0.0,Landing
27.5,-459.0440532032134,-918.7153232871538,174.82430174314834,0.02545689710567106,-2.444334057220777,357.1023843420314,40.6375217007154,0.0,1.0,10.517495080399769,11.296400771245146,0.0,Landing
27.6,-460.56761193121037,-919.5896283738989,173.7233857605821,-0.21469681210783365,-2.502849653075056,357.1250065895863,41.38767929361917,0.0,1.0,10.517495080399769,11.296400771245146,0.0,Landing
27.700000000000003,-462.10307400171234,-928.2891878727924,175.69307205728902,0.19652219673635285,-1.8260297943151076,357.451804766986,41.47136141344767,0.0,1.0,10.517495080399769,11.296400771245146,0.0,Landing
27.8,-463.6854991425774,-944.8709409776484,176.35320287758654,-0.15452997226299017,-2.7054387903928294,357.4527756019547,41.21404365069623,0.0,1.0,10.517495080399769,11.296400771245146,0.0,Landing
27.900000000000002,-465.2919666360986,-941.4755741347676,174.9977126385898,-0.005214019435872741,-3.0336743785399323,357.2279915359943,41.26398956420277,0.0,1.0,10.517495080399769,11.296400771245146,0.0,Landing
28.0,-466.8104518723862,-931.8020091135395,174.53413496434828,0.00769112587139191,-2.385152413358992,357.1199411335517,41.01768699918221,0.0,1.0,10.517495080399769,11.296400771245146,0.0,Landing
28.1,-468.3445091881451,-922.724845843743,174.16239536037446,-0.19183917521217214,-2.5431471621579917,357.17266503610983,41.04993268901085,0.0,1.0,10.517495080399769,11.296400771245146,0.0,Landing
28.200000000000003,-469.9055908653173,-934.3828206494436,174.9526092940186,0.06076001448236584,-2.1031967792206276,357.2150188409528,40.651612705170194,0.0,1.0,10.517495080399769,11.296400771245146,0.0,Landing
28.3,-471.4823659756334,-936.0715312527304,175.50172266305697,-0.0426233152376308,-2.3682884447097052,357.0167495322214,41.60972091718438,0.0,1.0,10.517495080399769,11.296400771245146,0.0,Landing
28.400000000000002,-473.02486684440873,-944.7457995183754,176.4988727463011,0.25651485711949584,-2.297779786593193,357.1992311020408,41.71308296462424,0.0,1.0,10.517495080399769,11.296400771245146,0.0,Landing
28.5,-474.6293198629092,-960.0428932516934,176.41643303164932,0.08116639668643777,-2.5114060094721156,357.2884081091713,41.38449639128977,0.0,1.0,10.517495080399769,11.296400771245146,0.0,Landing
28.6,-476.28258044189187,-966.1437334876268,174.74385239535914,-0.05764445781815128,-2.3727852084755034,356.89636810545176,41.83315999645457,0.0,1.0,10.517495080399769,11.296400771245146,0.0,Landing
28.700000000000003,-477.85558551184687,-968.0919566206512,176.90656291582889,0.04677635484469323,-2.706598573256948,357.0987382007645,40.983910112685045,0.0,1.0,10.517495080399769,11.296400771245146,0.0,Landing
28.8,-479.46977964601246,-939.2362324061764,175.40147356427732,0.42671124763422735,-2.2771222513852614,357.23040988264165,41.00274132070424,0.0,1.0,10.517495080399769,11.296400771245146,0.0,Landing
28.900000000000002,-480.97876160392275,-932.9407563203745,175.06935572477752,-0.008501952467113938,-2.526217910707011,357.0841267314945,40.986163125364705,0.0,1.0,10.517495080399769,11.296400771245146,0.0,Landing
29.0,-482.52028929344874,-931.8370001219591,176.28589256927827,0.005783586946262645,-2.52486118564982,357.09526993904694,40.87063875798804,0.0,1.0,10.517495080399769,11.296400771245146,0.0,Landing
29.1,-484.12896464662225,-945.1335545477946,175.54982494908634,-0.15660442687185538,-2.4194971148906337,356.9080930368423,41.07490519369498,0.0,1.0,10.517495080399769,11.296400771245146,0.0,Landing
29.200000000000003,-485.7044293766617,-965.8381733507099,174.8589965016187,-0.011966097296503997,-2.1400076957398593,357.04331424584007,41.0852315327218,0.0,1.0,10.517495080399769,11.296400771245146,0.0,Landing
29.3,-487.3494801602023,-938.0063003389864,177.65240531595634,0.27787901541592064,-2.764632415883489,357.145205123521,40.66792580498641,0.0,1.0,10.517495080399769,11.296400771245146,0.0,Landing
29.400000000000002,-488.8189961483172,-928.4562891259498,176.29295114859272,0.2047346760636753,-2.198169748673374,357.06744801328944,41.27415032745212,0.0,1.0,10.517495080399769,11.296400771245146,0.0,Landing
29.5,-490.34671082229147,-937.5482302123828,174.43799082610713,0.28603943726382586,-2.360834781964152,357.1182533851777,40.99926857796663,0.0,1.0,10.517495080399769,11.296400771245146,0.0,Landing
29.6,-492.0372213112642,-968.8879364766535,177.59162866009453,0.23201574141639497,-2.2808348797320592,357.2444834415975,40.82907529012098,0.0,1.0,10.517495080399769,11.296400771245146,0.0,Landing
