time_s,altitude_ft,vertical_speed_fpm,ias_kt,pitch_deg,roll_deg,heading_deg,throttle_pct,afterburner_on,gear_down,flaps_deg,speedbrake_pct,weight_on_wheels,label
0.0,-1.5798917628890434,-458.4836613240995,167.61411582372003,3.4494460041128763,-0.4296520100205336,72.60046544147497,43.36209655441536,0.0,1.0,13.749827581741851,15.8349893390542,0.0,Landing
0.1,-3.108170633969375,-629.6464836911335,167.9534522510016,3.5607649664217,-0.6908571896465472,72.6250308145228,42.86850159938944,0.0,1.0,13.749827581741851,15.8349893390542,0.0,Landing
0.2,-4.728124181344711,-932.3538369838728,168.4012996628333,3.5017203960936656,0.11081001992014355,72.50492167602249,43.37873898329848,0.0,1.0,13.749827581741851,15.8349893390542,0.0,Landing
0.30000000000000004,-6.241660947808407,-943.8810058397381,168.48086781934919,3.483379037647118,-0.3922254121448282,72.3643045995455,43.73113895533822,0.0,1.0,13.749827581741851,15.8349893390542,0.0,Landing
0.4,-7.827575663168067,-931.3085278723324,168.56964124487018,3.8236932769070333,-0.08498438429957716,72.51617147862379,43.72987930459838,0.0,1.0,13.749827581741851,15.8349893390542,0.0,Landing
0.5,-9.384666820706373,-919.8412372503899,167.17720215213072,3.843179028802676,-0.5107179092973846,72.49403061669301,43.15071452268038,0.0,1.0,13.749827581741851,15.8349893390542,0.0,Landing
0.6000000000000001,-10.840867134060357,-899.4952955465378,167.67058376897234,3.5553179098348595,-0.4780225957631757,72.54741706648764,43.26554171128523,0.0,1.0,13.749827581741851,15.8349893390542,0.0,Landing
0.7000000000000001,-12.325052140900755,-867.3774387878866,168.54392826087076,3.950669891382981,-0.4337752275710882,72.06854462919546,43.50085405874298,0.0,1.0,13.749827581741851,15.8349893390542,0.0,Landing
0.8,-13.721554014645806,-876.9268868742016,168.43799551667135,3.7505624893561853,-0.29345335295137087,72.12855039470094,43.73799580436764,0.0,1.0,13.749827581741851,15.8349893390542,0.0,Landing
0.9,-15.225501568431365,-885.0646589419775,167.63166365380752,3.729776855514053,-0.5325118749267584,72.76575653136916,43.76400814541538,0.0,1.0,13.749827581741851,15.8349893390542,0.0,Landing
1.0,-16.750375435610643,-914.6827508753855,169.54926014470038,3.281603281359541,-0.38000213891534573,72.34215809774338,43.707265288384214,0.0,1.0,13.749827581741851,15.8349893390542,0.0,Landing
1.1,-18.294967769022733,-921.769472293554,168.47957082837183,3.7056586715563737,-0.3816157279516619,72.51540951238883,43.81177814523916,0.0,1.0,13.749827581741851,15.8349893390542,0.0,Landing
1.2000000000000002,-19.834348929899136,-903.300525172297,168.8012674793566,3.413631615051684,-0.15713386860430456,72.55099492077551,43.84368604674133,0.0,1.0,13.749827581741851,15.8349893390542,0.0,Landing
1.3,-21.266878061472127,-900.2444904851869,168.65196618380372,4.137765300856419,-0.14719921155773794,72.35374157109538,43.448882307803814,0.0,1.0,13.749827581741851,15.8349893390542,0.0,Landing
1.4000000000000001,-22.79619022144867,-894.528697046119,168.24612831310674,3.648892805139631,-0.6481612101561605,72.70141333799995,43.3560389267371,0.0,1.0,13.749827581741851,15.8349893390542,0.0,Landing
1.5,-24.30699241512973,-895.434813638606,168.023134575083,3.8323139878028316,-0.33358041297724567,72.43550794448333,43.72432072131432,0.0,1.0,13.749827581741851,15.8349893390542,0.0,Landing
1.6,-25.744052129665157,-885.4902323591632,167.40026823443037,3.6701644829109608,-0.22440051448681153,72.43663425809808,43.729247308987006,0.0,1.0,13.749827581741851,15.8349893390542,0.0,Landing
1.7000000000000002,-27.223641383244484,-863.8970958407839,166.64364375394993,3.2400363819242815,-0.1593846265407264,72.19195849175168,44.08467492171001,0.0,1.0,13.749827581741851,15.8349893390542,0.0,Landing
1.8,-28.62647789433365,-876.9509112842202,170.34749089968486,3.7938324280624696,-0.24971315901063001,72.45577903837744,43.39039369351542,0.0,1.0,13.749827581741851,15.8349893390542,0.0,Landing
1.9000000000000001,-30.128806686086257,-882.6820273068187,168.21533477536022,3.3826762292541566,-0.07885782842611344,72.3804921056452,43.377212384796735,0.0,1.0,13.749827581741851,15.8349893390542,0.0,Landing
2.0,-31.637051519778577,-898.8333413337408,169.09242445863072,4.0062695992290625,-0.2276316329606845,72.64066836400025,42.58415619700047,0.0,1.0,13.749827581741851,15.8349893390542,0.0,Landing
2.1,-33.120644601002354,-896.3690288848442,167.50212102320017,3.78763414016863,-0.38772630317133816,72.30124956350039,43.10956185623802,0.0,1.0,13.749827581741851,15.8349893390542,0.0,Landing
2.2,-34.61065183051048,-906.956022228666,168.5219904142663,3.24167705244361,-0.4638907718417936,72.47350319774398,42.8239559545082,0.0,1.0,13.749827581741851,15.8349893390542,0.0,Landing
2.3000000000000003,-36.17183163092191,-909.2221267806281,168.60188291421187,3.2048227899617605,-0.09116818327080067,72.17174169234488,43.513577873678756,0.0,1.0,13.749827581741851,15.8349893390542,0.0,Landing
2.4000000000000004,-37.666755234905494,-917.5646886811904,169.30367802175732,3.917504885548424,-0.19936262100926788,72.50150702945967,43.297039159091035,0.0,1.0,13.749827581741851,15.8349893390542,0.0,Landing
2.5,-39.19847527391643,-904.8785410677724,168.25948009899972,3.5583085592387227,-0.3192287688571057,72.54009235088427,42.86707087503143,0.0,1.0,13.749827581741851,15.8349893390542,0.0,Landing
2.6,-40.69622433626077,-898.7142707682964,169.54296974441618,3.6556618918754675,0.07542955113296373,72.3406121978199,43.638194143513,0.0,1.0,13.749827581741851,15.8349893390542,0.0,Landing
2.7,-42.160326588746976,-901.651006212478,169.49226401757315,3.6347348270675313,-0.2848672898433769,72.5478648807221,43.54820714295575,0.0,1.0,13.749827581741851,15.8349893390542,0.0,Landing
2.8000000000000003,-43.70673030497882,-909.7426279051816,167.95217156387028,3.6559414845262985,0.2455960485182016,72.60963392259004,43.46757921934723,0.0,1.0,13.749827581741851,15.8349893390542,0.0,Landing
2.9000000000000004,-45.24493747578668,-903.782978532459,167.46632151072532,3.7978567247950585,-0.49072940411635846,72.35978465616085,43.31607261309767,0.0,1.0,13.749827581741851,15.8349893390542,0.0,Landing
3.0,-46.67924148140927,-906.4859414358167,165.7822628170012,3.631308801600848,-0.09496712844356664,72.65274320178548,43.39623281635021,0.0,1.0,13.749827581741851,15.8349893390542,0.0,Landing
3.1,-48.2391600121579,-896.5929421627535,167.50888922339973,3.450129486161879,-0.39770999008737873,72.45187421653122,43.12100305214301,0.0,1.0,13.749827581741851,15.8349893390542,0.0,Landing
3.2,-49.727902186600446,-910.932155617354,166.76004177321062,3.612546510616592,-0.4465355537584996,72.57780278770099,43.17845999660786,0.0,1.0,13.749827581741851,15.8349893390542,0.0,Landing
3.3000000000000003,-51.23390225949604,-903.1660136888091,168.9484114110678,3.408903350001158,-0.2782362364307461,72.60874148666329,43.26080472692999,0.0,1.0,13.749827581741851,15.8349893390542,0.0,Landing
3.4000000000000004,-52.75499008060195,-888.1923857975394,167.75503158256356,3.5237754273085464,-0.5939384442968234,72.56660966840695,43.25933735234225,0.0,1.0,13.749827581741851,15.8349893390542,0.0,Landing
3.5,-54.16886411558814,-897.802807715921,169.84616347965292,3.7087325203548214,-0.364133411240091,72.51705267447056,43.22401961619586,0.0,1.0,13.749827581741851,15.8349893390542,0.0,Landing
3.6,-55.722916298075646,-891.0185716129077,168.58753270192452,3.7803904317336854,-0.41213095436873004,72.43574227681057,43.203710873891076,0.0,1.0,13.749827581741851,15.8349893390542,0.0,Landing
3.7,-57.21008293866649,-906.1939777234996,167.611032980743,3.5890463561556794,-0.03251026722513456,72.60100874058924,43.42996026936324,0.0,1.0,13.749827581741851,15.8349893390542,0.0,Landing
3.8000000000000003,-58.69983400420564,-906.3517143220921,170.4342838303281,3.785721667815733,-0.21889893006547817,72.59617660428694,43.04635743342105,0.0,1.0,13.749827581741851,15.8349893390542,0.0,Landing
3.9000000000000004,-60.254674869686106,-897.2446979692919,167.9387448652482,3.6390452910200857,-0.43851204721735515,72.46669594657521,43.391150116946655,0.0,1.0,13.749827581741851,15.8349893390542,0.0,Landing
4.0,-61.69630642851295,-910.8003431774678,168.65794170919386,3.5591738587516684,-0.6304764245893246,72.55461551396053,43.38637694625178,0.0,1.0,13.749827581741851,15.8349893390542,0.0,Landing
4.1000000000000005,-63.25383572009298,-909.6664305095643,167.73632095016615,3.4492641609781893,0.0583854919981463,72.5418493600913,43.334160149755206,0.0,1.0,13.749827581741851,15.8349893390542,0.0,Landing
4.2,-64.80300702223393,-906.29115804294,168.92834138065263,3.8139024154995993,-0.1683529115814666,72.5433472774697,43.49846579928554,0.0,1.0,13.749827581741851,15.8349893390542,0.0,Landing
4.3,-66.22776221872765,-894.707610521553,169.11795601618002,3.337102401315892,-0.3459475167712321,72.38318532622782,43.649018945968656,0.0,1.0,13.749827581741851,15.8349893390542,0.0,Landing
4.4,-67.72737377270074,-897.7857030155122,167.9196000647982,3.8313163179436787,-0.5146702436859067,72.58171167437393,43.541984060379114,0.0,1.0,13.749827581741851,15.8349893390542,0.0,Landing
4.5,-69.29193553731149,-909.2393065483776,168.0692762221469,3.5944297114463635,-0.25900001121237926,72.07982987174591,43.76841463315819,0.0,1.0,13.749827581741851,15.8349893390542,0.0,Landing
4.6000000000000005,-70.77395875146954,-918.8165936078603,168.67775868943718,3.5979576133204723,-0.5028869107202999,72.34015391166542,43.6976599374842,0.0,1.0,13.749827581741851,15.8349893390542,0.0,Landing
4.7,-72.32145674074005,-899.4963650726504,168.69719153874374,3.6377045438724123,-0.08681028528912113,72.86323640753642,43.641618523635344,0.0,1.0,13.749827581741851,15.8349893390542,0.0,Landing
4.800000000000001,-73.78941736267474,-913.5341810477199,168.7391782180925,3.479223335002812,-0.4392673101339195,72.45692762945248,43.244894797793776,0.0,1.0,13.749827581741851,15.8349893390542,0.0,Landing
4.9,-75.34162965670814,-919.8090390538651,169.51136261178956,3.5171695539083294,-0.3751477017227318,72.58408308765257,42.8675003363641,0.0,1.0,13.749827581741851,15.8349893390542,0.0,Landing
5.0,-76.92050193600937,-917.0701576353225,165.87412319180984,3.207290835312384,-0.1389379654482264,72.25491295417822,43.79555150592159,0.0,1.0,13.749827581741851,15.8349893390542,0.0,Landing
5.1000000000000005,-78.37476815085135,-898.9622446900199,168.15840557495912,3.8534102769550334,-0.7894113572664773,72.40323264408579,42.991497898676485,0.0,1.0,13.749827581741851,15.8349893390542,0.0,Landing
5.2,-79.83644088015824,-891.5031572952615,166.899292875961,3.6136304456732637,0.02180785317371353,72.25503887832593,43.270985495103936,0.0,1.0,13.749827581741851,15.8349893390542,0.0,Landing
5.300000000000001,-81.37801772248568,-897.251256686755,169.27269548397518,4.048986316848487,-0.2286614627291717,72.5677130763952,43.43170487133513,0.0,1.0,13.749827581741851,15.8349893390542,0.0,Landing
5.4,-82.86102443428513,-889.5398243638653,165.09542890996852,3.6760887309874075,-0.596969029930094,72.43388018322855,43.46665794370671,0.0,1.0,13.749827581741851,15.8349893390542,0.0,Landing
5.5,-84.28414000197756,-873.3497320793759,168.79000849821261,3.7855214325710067,-0.3670923060087741,72.57333429695467,43.86572100949357,0.0,1.0,13.749827581741851,15.8349893390542,0.0,Landing
5.6000000000000005,-85.74476638288256,-876.6323007674401,167.60170823310477,3.50047927119775,-0.4287076918090295,72.39012438443865,43.35773301167128,0.0,1.0,13.749827581741851,15.8349893390542,0.0,Landing
5.7,-87.24418593812233,-901.2232915271085,169.64779093691044,3.88896409247329,-0.2526369846166604,72.46468842669958,43.464818951464046,0.0,1.0,13.749827581741851,15.8349893390542,0.0,Landing
5.800000000000001,-88.7902564596131,-899.0668516755733,168.12320718124062,3.753097697181711,-0.624843855669883,72.57005618421357,43.78262959545852,0.0,1.0,13.749827581741851,15.8349893390542,0.0,Landing
5.9,-90.24010064126043,-890.1881634629689,167.89483512190498,3.8123958589241727,-0.4760470394797979,72.41365417092669,43.184387367807304,0.0,1.0,13.749827581741851,15.8349893390542,0.0,Landing
6.0,-91.69512675543717,-885.9349612994862,168.0189219957096,3.6971679750114834,-0.058298299761984806,72.51709377523616,43.656692767325346,0.0,1.0,13.749827581741851,15.8349893390542,0.0,Landing
6.1000000000000005,-93.21993126611054,-875.0877391533436,168.0103677550046,3.925574700987179,-0.06212736288647716,72.53502053787236,44.14244799420528,0.0,1.0,13.749827581741851,15.8349893390542,0.0,Landing
6.2,-94.61553933702714,-886.9827119465498,166.79110585740105,3.9287707333215325,0.15003471771706645,72.6637189189558,43.7887100792562,0.0,1.0,13.749827581741851,15.8349893390542,0.0,Landing
6.300000000000001,-96.13004031516992,-886.4070919741721,167.44613642504967,3.5121420321628225,-0.5921726185374214,72.5019979996938,43.11375028886096,0.0,1.0,13.749827581741851,15.8349893390542,0.0,Landing
6.4,-97.6519667259814,-896.1047988141104,168.85791283518427,3.7612319347964753,-0.723986742027632,72.58300870918464,43.54191470978962,0.0,1.0,13.749827581741851,15.8349893390542,0.0,Landing
6.5,-99.0960633310977,-900.85923219807,168.7632125309713,3.8934847391155527,-0.5700595433051715,72.53931193675118,43.53725193824676,0.0,1.0,13.749827581741851,15.8349893390542,0.0,Landing
6.6000000000000005,-100.63433647616027,-896.4517648311299,168.38111842579207,3.523505517669568,-0.25436261123628207,72.68801950955145,43.6410312812449,0.0,1.0,13.749827581741851,15.8349893390542,0.0,Landing
6.7,-102.13422555013705,-916.8811553993067,168.36726611691674,3.6152468828603936,0.11493638252065896,72.36252307626052,43.17541817508284,0.0,1.0,13.749827581741851,15.8349893390542,0.0,Landing
6.800000000000001,-103.68046910809423,-910.3197023198248,168.01504445025992,3.8316098208365634,-0.3053015145281436,72.2990663733874,43.684454138014964,0.0,1.0,13.749827581741851,15.8349893390542,0.0,Landing
6.9,-105.1859349877594,-921.3272912398055,169.20483017405172,3.7246787443422757,-0.6087787549034973,72.32123634814366,42.92211464057155,0.0,1.0,13.749827581741851,15.8349893390542,0.0,Landing
7.0,-106.74086200633607,-928.4916974317525,167.32744753103094,3.736910117299471,-0.5736919484952335,72.73637786777607,43.752274532453995,0.0,1.0,13.749827581741851,15.8349893390542,0.0,Landing
7.1000000000000005,-108.32292759525299,-930.9963449820799,169.0733467045334,3.654187897753376,-0.15966045911438634,72.62700331639644,43.52675327358715,0.0,1.0,13.749827581741851,15.8349893390542,0.0,Landing
7.2,-109.8409167126698,-926.0049790173383,168.01059172369122,3.5669498197960245,-0.3711289127040334,72.6703024179721,43.74147698585067,0.0,1.0,13.749827581741851,15.8349893390542,0.0,Landing
7.300000000000001,-111.37088690142276,-923.0654637387147,167.32151431970547,3.422374410091172,-0.5258146571838878,72.6974907417574,43.60065377115076,0.0,1.0,13.749827581741851,15.8349893390542,0.0,Landing
7.4,-112.93825491394657,-927.3269102827413,167.19801806991228,3.868751859287548,-0.3275452158818086,72.43235185388716,43.63553111814598,0.0,1.0,13.749827581741851,15.8349893390542,0.0,Landing
7.5,-114.4775512640835,-915.1201494582609,168.54039837143097,3.4290198905027274,-0.6413744956805623,72.28371619500012,43.87020826995137,0.0,1.0,13.749827581741851,15.8349893390542,0.0,Landing
7.6000000000000005,-115.94648764871407,-895.9649821247439,168.35004009131643,3.4367631925253805,-0.3584633168183131,72.33528769274437,43.38993629489538,0.0,1.0,13.749827581741851,15.8349893390542,0.0,Landing
7.7,-117.41807982457028,-865.5580394325995,167.97495323304855,3.166642359676972,-0.07641212869506964,72.37897745259642,43.28686459272647,0.0,1.0,13.749827581741851,15.8349893390542,0.0,Landing
7.800000000000001,-118.8053414612465,-872.8681376892297,167.60606618290362,3.45909753388388,-0.3208312415492683,72.35228582632413,43.39032209278768,0.0,1.0,13.749827581741851,15.8349893390542,0.0,Landing
7.9,-120.31082833716022,-890.0814538258487,170.114806862842,3.3733861815166177,-0.07501919191726117,72.6215050495968,43.65768630732738,0.0,1.0,13.749827581741851,15.8349893390542,0.0,Landing
8.0,-121.86848709369953,-919.534463537937,169.15976521466027,3.3313353868313365,-0.07911854405196495,72.43768420883242,43.655117989647685,0.0,1.0,13.749827581741851,15.8349893390542,0.0,Landing
8.1,-123.40301377893618,-924.2910384413848,168.5943013006304,3.53152335065925,0.16567373336336771,72.51784616687763,43.689385207786046,0.0,1.0,13.749827581741851,15.8349893390542,0.0,Landing
8.200000000000001,-124.93228352936714,-924.8861486613549,168.34905660757641,3.993018710290299,-0.746969962789557,72.37525464412539,43.66252610785906,0.0,1.0,13.749827581741851,15.8349893390542,0.0,Landing
8.3,-126.4929178370063,-912.9900280511237,168.356540757539,3.6797057921357474,-0.3128740912636422,72.41760711355863,43.4899163265313,0.0,1.0,13.749827581741851,15.8349893390542,0.0,Landing
8.4,-127.9679639191918,-919.159884920265,169.97965403579755,3.433805278119101,-0.19861535083772086,72.38144509414013,43.54930030650693,0.0,1.0,13.749827581741851,15.8349893390542,0.0,Landing
8.5,-129.52808295396846,-898.2938161061497,169.41159406133525,3.5962441512127192,-0.7075447460130017,72.49610903968335,43.67735162136899,0.0,1.0,13.749827581741851,15.8349893390542,0.0,Landing
8.6,-130.98438691753705,-919.5698718718886,169.91445464360532,3.4205569247716876,-0.4885774685747877,72.53797104358495,42.8166674530582,0.0,1.0,13.749827581741851,15.8349893390542,0.0,Landing
8.700000000000001,-132.56581327855125,-893.7472795862901,168.19396587764797,3.5614330696524568,-0.24250946400816847,72.56478255114172,43.97366961042464,0.0,1.0,13.749827581741851,15.8349893390542,0.0,Landing
8.8,-133.99681935189992,-894.1738634911814,169.00923472463413,3.5716215720373254,-0.04446770936467287,72.6078256050472,42.899569384625195,0.0,1.0,13.749827581741851,15.8349893390542,0.0,Landing
8.9,-135.45525623499296,-892.7697386842397,170.93872385260283,3.889608247483554,-0.4597117721354792,72.57215848648309,43.82534226670916,0.0,1.0,13.749827581741851,15.8349893390542,0.0,Landing
9.0,-137.02966197197244,-905.5443127482931,168.48306460578425,3.370962963304621,0.006229671005958115,72.63280378135937,43.43920675709505,0.0,1.0,13.749827581741851,15.8349893390542,0.0,Landing
9.1,-138.52454091564138,-913.1832248140712,166.9470395343247,3.5180101240027124,-0.1700284675524308,72.42656431742142,43.773407357333745,0.0,1.0,13.749827581741851,15.8349893390542,0.0,Landing
9.200000000000001,-140.0211723590633,-904.2188125105099,169.30664034930538,3.3898215591847265,-0.4862235617937737,72.54606553474378,43.547497662307215,0.0,1.0,13.749827581741851,15.8349893390542,0.0,Landing
9.3,-141.550756034525,-892.0437387128289,169.46331347488456,3.3542414209531692,-0.05508053451899464,72.61289898940265,43.370435240634265,0.0,1.0,13.749827581741851,15.8349893390542,0.0,Landing
9.4,-142.98475960920553,-904.6722091813477,170.26314426053577,3.574885276509171,-0.075858178706354,72.53636806008831,43.385431184728326,0.0,1.0,13.749827581741851,15.8349893390542,0.0,Landing
9.5,-144.54453340497005,-895.2393318398094,169.0149300352933,3.728486032548845,-0.2670084079431546,72.21792235529216,43.36453740669139,0.0,1.0,13.749827581741851,15.8349893390542,0.0,Landing
9.600000000000001,-146.02695269372404,-901.0175755644981,168.6227383982724,3.549176836207777,-0.3501581642043809,72.36964799271885,43.46362084217833,0.0,1.0,13.749827581741851,15.8349893390542,0.0,Landing
9.700000000000001,-147.48984748702802,-905.3477954988751,169.4066313427952,3.7892546668521456,-0.17434204789247548,72.70590232342465,43.3407281569685,0.0,1.0,13.749827581741851,15.8349893390542,0.0,Landing
9.8,-149.07127238246443,-924.0122893641001,168.77929988464362,3.395051150953378,-0.36962527983819343,72.59071162072303,43.48143575507706,0.0,1.0,13.749827581741851,15.8349893390542,0.0,Landing
9.9,-150.64701414054454,-941.1932042942623,168.79066304717406,3.479067640496273,-0.31857054089753506,72.32528339190316,43.93229097044496,0.0,1.0,13.749827581741851,15.8349893390542,0.0,Landing
10.0,-152.19581350849933,-909.7848552694417,167.93581376601534,3.5579718007922776,-0.15373267515551334,72.37826882810975,43.313894252347154,0.0,1.0,13.749827581741851,15.8349893390542,0.0,Landing
10.100000000000001,-153.62019665881164,-900.1333792495585,166.12062928289473,3.50760100912686,-0.21265332858597297,72.42584187535027,43.070318430650836,0.0,1.0,13.749827581741851,15.8349893390542,0.0,Landing
10.200000000000001,-155.14768103679233,-874.6126695898569,167.32965766215383,3.726658245684236,-0.23311238188119215,72.12072915303986,43.038362569547225,0.0,1.0,13.749827581741851,15.8349893390542,0.0,Landing
10.3,-156.5688768564486,-910.6175626349965,167.7772405854802,3.803893337897319,0.0856294665150984,72.60780577936703,43.61137382716915,0.0,1.0,13.749827581741851,15.8349893390542,0.0,Landing
10.4,-158.17328447198662,-899.4735734741938,169.6581982423652,3.5527002563178662,-0.07322258393423009,72.47111241050982,43.32290963945574,0.0,1.0,13.749827581741851,15.8349893390542,0.0,Landing
10.5,-159.6450489041633,-921.8243067803711,167.86638412178993,3.5163498327963696,-0.07990269430082741,72.44298837330041,43.60336491458147,0.0,1.0,13.749827581741851,15.8349893390542,0.0,Landing
10.600000000000001,-161.17799839035047,-915.847957012437,167.5625431025729,3.880001260306459,-0.07730064923036947,72.39654984106954,43.5940850160296,0.0,1.0,13.749827581741851,15.8349893390542,0.0,Landing
10.700000000000001,-162.7525242570488,-951.3308943577555,167.8757832214924,3.318119407636424,-0.47720098319613014,72.51532108504733,43.56668031396327,0.0,1.0,13.749827581741851,15.8349893390542,0.0,Landing
10.8,-164.40170337595208,-947.9074605314622,166.45665083502607,3.4966650035859996,-0.38359786133508533,72.39295204017964,43.57424940655834,0.0,1.0,13.749827581741851,15.8349893390542,0.0,Landing
10.9,-165.91753569300778,-927.4710832808751,167.982653881608,3.5873476530543273,-0.45363517057845615,72.80038511025117,43.32307339683704,0.0,1.0,13.749827581741851,15.8349893390542,0.0,Landing
11.0,-167.38987967345318,-906.6197274368164,167.9848181212691,3.8253975630151813,-0.40737049117591334,72.15314004765219,43.500411800564756,0.0,1.0,13.749827581741851,15.8349893390542,0.0,Landing
11.100000000000001,-168.93480201313616,-900.1161551746521,168.53781991205057,3.909466028040996,-0.4849178132979872,72.16614678334088,43.506821832046356,0.0,1.0,13.749827581741851,15.8349893390542,0.0,Landing
11.200000000000001,-170.41811646888104,-911.9581808091367,168.7912323124595,3.7009212347929203,-0.4103032930301974,72.45931442403275,43.418186324969575,0.0,1.0,13.749827581741851,15.8349893390542,0.0,Landing
11.3,-171.94967057749886,-897.1169596684434,167.91913678620105,3.9113225443567314,-0.09459874757094247,72.34867066605295,43.26818427431947,0.0,1.0,13.749827581741851,15.8349893390542,0.0,Landing
11.4,-173.42038681147838,-899.0962118080688,169.82379794985087,3.6871352507613984,-0.5392772631094629,72.49735295740783,42.89749217866056,0.0,1.0,13.749827581741851,15.8349893390542,0.0,Landing
11.5,-174.91359752792138,-888.6384070836357,168.91828794705583,3.751706967438522,-0.13296426196129305,72.47918128407213,43.56390762177753,0.0,1.0,13.749827581741851,15.8349893390542,0.0,Landing
11.600000000000001,-176.39286261291704,-914.9498490178361,168.94898632433475,3.5246532083425826,-0.6386182210506541,72.67444020306391,43.346086431122785,0.0,1.0,13.749827581741851,15.8349893390542,0.0,Landing
11.700000000000001,-177.99513605656756,-922.5414528457974,167.4115408525718,3.710568098212952,-0.08726411399353448,72.13754546728865,43.10420380504243,0.0,1.0,13.749827581741851,15.8349893390542,0.0,Landing
11.8,-179.52630479215037,-917.4605984514756,167.71973293377332,3.483916593468641,-0.2643184886876037,72.41652667103966,43.4132893303502,0.0,1.0,13.749827581741851,15.8349893390542,0.0,Landing
11.9,-180.98016560517442,-899.0854698287421,168.3368363273411,3.536220237690577,-0.15210777428041639,72.56803287452271,43.91899033902191,0.0,1.0,13.749827581741851,15.8349893390542,0.0,Landing
12.0,-182.49056340571127,-898.5849027625649,171.49262773151355,4.059080189096395,-0.7056011936930995,72.4006947913652,43.49263232993881,0.0,1.0,13.749827581741851,15.8349893390542,0.0,Landing
12.100000000000001,-184.0192293059632,-914.0061562026744,168.90576317319992,3.8375058329240583,-0.30266462757552215,72.51399871023591,42.77868736101065,0.0,1.0,13.749827581741851,15.8349893390542,0.0,Landing
12.200000000000001,-185.5501963861878,-915.6082328238085,168.2118573404265,3.903355902723028,-0.28135904504464415,72.60811365738277,43.10867143506582,0.0,1.0,13.749827581741851,15.8349893390542,0.0,Landing
12.3,-187.0686045698303,-915.0979143493545,169.2590902744115,3.8850224107128066,-0.2737948929530073,72.36837555851645,43.84926640954572,0.0,1.0,13.749827581741851,15.8349893390542,0.0,Landing
12.4,-188.59471887770997,-910.536432638554,169.04473954953463,3.466598506788297,-0.11432789314675351,72.60191059536362,43.41995327904172,0.0,1.0,13.749827581741851,15.8349893390542,0.0,Landing
12.5,-190.10287854938056,-906.827786152195,167.88193363021728,3.611665365646579,-0.5720248284952407,72.29646843766261,43.55137421830446,0.0,1.0,13.749827581741851,15.8349893390542,0.0,Landing
12.600000000000001,-191.6027435005913,-900.8023418090885,168.94560082494704,3.699582052000701,-0.8249516860758943,72.59272598412457,43.52584328964397,0.0,1.0,13.749827581741851,15.8349893390542,0.0,Landing
12.700000000000001,-193.0987305867554,-883.8856155746213,168.37036726057622,3.731051249463036,0.1059219887661918,72.51217075826276,43.18730290360479,0.0,1.0,13.749827581741851,15.8349893390542,0.0,Landing
12.8,-194.52230662725367,-901.2383952267783,168.82716777619174,3.55939001081139,-0.29364978297973526,72.46001053865018,43.73847252672782,0.0,1.0,13.749827581741851,15.8349893390542,0.0,Landing
12.9,-196.10893547672518,-895.0467619998335,168.94324337096592,3.5479734485537118,-0.8871002466416512,72.3699168823411,43.69358482203708,0.0,1.0,13.749827581741851,15.8349893390542,0.0,Landing
13.0,-197.57396439675458,-902.8163246276732,167.75424504762358,3.462165235445616,-0.3905253115590216,72.47447835804553,43.21650003327847,0.0,1.0,13.749827581741851,15.8349893390542,0.0,Landing
13.100000000000001,-199.03638825039204,-893.6360873922808,167.78076976808492,3.8947907613017043,-0.21387951707102765,72.56473484587696,43.60357925551324,0.0,1.0,13.749827581741851,15.8349893390542,0.0,Landing
13.200000000000001,-200.57711591368658,-889.4217129309878,166.67786381978308,3.6643187550339866,-0.2527745034700852,72.31199067149532,43.58655582031723,0.0,1.0,13.749827581741851,15.8349893390542,0.0,Landing
13.3,-202.02107296140952,-896.6188731043245,168.7628238010229,3.5967001738217173,-0.058887622836222286,72.18861301222904,43.77323678072832,0.0,1.0,13.749827581741851,15.8349893390542,0.0,Landing
13.4,-203.51948261591366,-893.8121166109909,169.06340972607256,3.752152729114112,-0.4124943002280015,72.59894865811196,43.04688516092682,0.0,1.0,13.749827581741851,15.8349893390542,0.0,Landing
13.5,-205.04617649674154,-904.183070647548,168.50997488005856,3.30344691733949,-0.24698212635009148,72.57218322471113,43.60842175727834,0.0,1.0,13.749827581741851,15.8349893390542,0.0,Landing
13.600000000000001,-206.54198831464726,-904.7908437715364,171.73496038577247,3.6738610615827962,-0.002328934782978409,72.53488063397594,43.745147842803064,0.0,1.0,13.749827581741851,15.8349893390542,0.0,Landing
13.700000000000001,-208.04343683477134,-888.5611001741439,171.0301528562959,3.843823346909601,-0.06912644958930614,72.54793567420762,43.26353127805235,0.0,1.0,13.749827581741851,15.8349893390542,0.0,Landing
13.8,-209.48898199761226,-886.5097881872485,169.62230046547833,3.4761148472655785,-0.5745454593855099,72.65802068622327,43.4799196531921,0.0,1.0,13.749827581741851,15.8349893390542,0.0,Landing
13.9,-210.9745372555835,-917.4430215280267,169.21500802060834,3.6838120555063805,-0.4193681117531649,72.78093149637562,43.864124368023205,0.0,1.0,13.749827581741851,15.8349893390542,0.0,Landing
14.0,-212.63065194241148,-921.2869126014425,167.52708375340205,3.607727956675567,0.020787488187577974,72.43241689832178,43.52510200357572,0.0,1.0,13.749827581741851,15.8349893390542,0.0,Landing
14.100000000000001,-214.09541656061947,-930.7362937266304,168.41628304624695,3.652987436550311,-0.19260495771888916,72.41890699701281,44.144113777409196,0.0,1.0,13.749827581741851,15.8349893390542,0.0,Landing
14.200000000000001,-215.62821872421665,-907.3939272753308,166.67740137296406,3.4158500671820016,-0.4733987650147552,72.40921117740362,44.074641869280185,0.0,1.0,13.749827581741851,15.8349893390542,0.0,Landing
14.3,-217.16762157878813,-905.495516806252,167.80025448000535,3.980414937653484,-0.3700779594808351,72.46312823869539,43.02813367870339,0.0,1.0,13.749827581741851,15.8349893390542,0.0,Landing
14.4,-218.62289414465073,-915.6531220753492,168.0211040768884,3.519238106444487,0.07479254479285435,72.7486752219881,43.54900027451397,0.0,1.0,13.749827581741851,15.8349893390542,0.0,Landing
14.5,-220.2064843345934,-930.0856523320421,168.52143467280567,3.6547273847102293,-0.16726270137150195,72.64756866403565,43.20173920040376,0.0,1.0,13.749827581741851,15.8349893390542,0.0,Landing
14.600000000000001,-221.81804984044834,-937.0036017043276,167.4506995401157,3.402972999894133,-0.19043887358229714,72.13944808442375,43.47222113350675,0.0,1.0,13.749827581741851,15.8349893390542,0.0,Landing
14.700000000000001,-223.30791215317237,-916.7698809377384,167.10492157159834,3.2334407744626343,-0.3569394496139311,72.50521731963732,43.634112828660626,0.0,1.0,13.749827581741851,15.8349893390542,0.0,Landing
14.8,-224.7903337392821,-907.5611526796762,166.59216886471742,3.616337428963043,-0.5404412269249087,72.34483639526309,43.403754583555774,0.0,1.0,13.749827581741851,15.8349893390542,0.0,Landing
14.9,-226.35585560384672,-918.8244230626879,168.66867796242445,3.5073176836153106,-0.3271798080668097,72.32561395636122,43.639440800737795,0.0,1.0,13.749827581741851,15.8349893390542,0.0,Landing
15.0,-227.9020342684858,-929.1236572520405,168.5667182451236,3.865800844568534,-0.32934916889664284,72.63088979048496,43.30536020949414,0.0,1.0,13.749827581741851,15.8349893390542,0.0,Landing
15.100000000000001,-229.4359520255423,-909.4903861334842,167.38147890653102,3.523715950284405,-0.45287718858577,72.46050758300282,43.199009944146646,0.0,1.0,13.749827581741851,15.8349893390542,0.0,Landing
15.200000000000001,-230.90330753451414,-906.9660111628478,168.87622977074523,3.9270550577050267,-0.4387861250146329,72.37460581099162,43.28890727348436,0.0,1.0,13.749827581741851,15.8349893390542,0.0,Landing
15.3,-232.43686432430005,-904.301162169179,167.91394972422202,3.8695445071961863,-0.4044419802008873,72.43476631604341,42.87392209922046,0.0,1.0,13.749827581741851,15.8349893390542,0.0,Landing
15.4,-233.9574578363882,-912.1090978283064,167.51117575500558,3.949373192379018,-0.20468664530049002,72.24572202188688,43.38543566851491,0.0,1.0,13.749827581741851,15.8349893390542,0.0,Landing
15.5,-235.46385302365567,-895.2677386424908,169.5224751114577,3.6490065283811672,-0.0888118514981433,72.7807233243247,42.94243501865093,0.0,1.0,13.749827581741851,15.8349893390542,0.0,Landing
15.600000000000001,-236.9132030175125,-877.705046856869,168.04110794816563,3.684547195718976,0.03433047293458136,72.5073481207852,43.07567981682462,0.0,1.0,13.749827581741851,15.8349893390542,0.0,Landing
15.700000000000001,-238.34598307067253,-864.7921738165564,167.13371561152354,3.4630382978370715,-0.22910788872575427,72.65909718145349,43.244318760475515,0.0,1.0,13.749827581741851,15.8349893390542,0.0,Landing
15.8,-239.78781389273846,-877.4767207729951,166.34698169084479,3.6848585417589517,-0.1344919038999448,72.44999590017892,43.42360201018575,0.0,1.0,13.749827581741851,15.8349893390542,0.0,Landing
15.9,-241.30058662137748,-894.4027894127145,167.85238279707698,3.9346865811115093,-0.0719362381807499,72.33390551864125,43.75630396169709,0.0,1.0,13.749827581741851,15.8349893390542,0.0,Landing
16.0,-242.8179970177361,-907.8900506384457,167.2840320004042,3.732439143416818,-0.16645017313476657,72.74111403791244,43.88874179211879,0.0,1.0,13.749827581741851,15.8349893390542,0.0,Landing
16.1,-244.32726414593068,-914.5693983254263,167.28824161224466,3.7078855013863663,-0.23684262126601086,72.1691934708507,43.7657963060472,0.0,1.0,13.749827581741851,15.8349893390542,0.0,Landing
16.2,-245.8734336130046,-895.0662372113298,168.284653650497,3.441028878143623,-0.2994623568488633,72.41975920386324,44.04148909285758,0.0,1.0,13.749827581741851,15.8349893390542,0.0,Landing
16.3,-247.29332820379275,-896.1057118188195,168.79878642844716,3.5984235219114002,-0.2191781810147414,72.42570891121136,43.64750423373355,0.0,1.0,13.749827581741851,15.8349893390542,0.0,Landing
16.400000000000002,-248.80779270502478,-890.1249562893496,167.6841006490937,3.6343656498648507,-0.2661584594578302,72.54850873338808,43.69212395998769,0.0,1.0,13.749827581741851,15.8349893390542,0.0,Landing
16.5,-250.32405839445136,-908.9102393139342,169.65028493762188,3.611730841438945,-0.13964740095690809,72.462935727819,43.2294006012649,0.0,1.0,13.749827581741851,15.8349893390542,0.0,Landing
16.6,-251.83787940036243,-903.7292345194543,167.96397115543596,3.7390501983631936,-0.432818954614044,72.44702358323804,43.228553141861504,0.0,1.0,13.749827581741851,15.8349893390542,0.0,Landing
16.7,-253.32643887762205,-918.7501883688641,167.76347996989253,3.942489321435399,0.027498508840852975,72.41980365443993,44.42908770067166,0.0,1.0,13.749827581741851,15.8349893390542,0.0,Landing
16.8,-254.91780933629568,-922.6729024743632,169.67311282334722,3.841188798880353,-0.1996313158093513,72.31730817323523,43.55964288214711,0.0,1.0,13.749827581741851,15.8349893390542,0.0,Landing
16.900000000000002,-256.45124391273424,-931.7740384979912,170.23736177681408,3.5659498349037837,-0.26217213801486594,72.55596363038967,43.71152715670945,0.0,1.0,13.749827581741851,15.8349893390542,0.0,Landing
17.0,-257.985309070112,-922.9100993810731,167.12325503485872,3.929099004400423,-0.39259507058540416,72.46756078393662,44.02262291261211,0.0,1.0,13.749827581741851,15.8349893390542,0.0,Landing
17.1,-259.53235983320104,-932.5704180405751,166.6292514740471,3.8527933696984147,-0.5268052103734665,72.50574031388385,43.494931313870886,0.0,1.0,13.749827581741851,15.8349893390542,0.0,Landing
17.2,-261.1140960029371,-924.8212443702641,170.8567065965225,3.7235808142294267,-0.3178259925582716,72.3717630643024,43.160699822506864,0.0,1.0,13.749827581741851,15.8349893390542,0.0,Landing
17.3,-262.60941529196333,-917.5901637600759,168.70194300416884,3.646004164805768,-0.27369970718443176,72.23797718547473,43.23231678834154,0.0,1.0,13.749827581741851,15.8349893390542,0.0,Landing
17.400000000000002,-264.1203106520014,-890.5043797398889,165.76306023170486,3.60659226850077,-0.191374801716461,72.32391511687456,43.43747729478706,0.0,1.0,13.749827581741851,15.8349893390542,0.0,Landing
17.5,-265.56661790163656,-873.3583213663564,167.14842141236767,3.5890822408975196,0.016308011680833734,72.65381131826405,43.984633242884605,0.0,1.0,13.749827581741851,15.8349893390542,0.0,Landing
17.6,-266.9762068987951,-885.9281940377969,167.76524889817725,3.5198167007774805,-0.35547009706531835,72.43276652409003,43.110583868562145,0.0,1.0,13.749827581741851,15.8349893390542,0.0,Landing
17.7,-268.5499516221904,-895.3991264987053,166.65996747529877,3.879748308855508,-0.217213879523274,72.44483325071525,43.26697235233975,0.0,1.0,13.749827581741851,15.8349893390542,0.0,Landing
17.8,-270.0436135341301,-925.3565591819779,168.77495590834337,3.7402391627190985,-0.3695460474754706,72.43761275701962,43.361070679550174,0.0,1.0,13.749827581741851,15.8349893390542,0.0,Landing
17.900000000000002,-271.602989694705,-909.3624856702149,168.95951987936868,3.669958933306392,-0.5805580353218516,72.40415350045271,43.39554655940624,0.0,1.0,13.749827581741851,15.8349893390542,0.0,Landing
18.0,-273.0967640505415,-901.0388538126563,168.37950445120507,3.5885275344309453,0.025065938433805224,72.46061781709011,43.63369141602958,0.0,1.0,13.749827581741851,15.8349893390542,0.0,Landing
18.1,-274.54880780319337,-882.5489712213198,165.95254205220684,3.435932520956258,-0.3287231845915799,72.37851129467424,43.604169779677584,0.0,1.0,13.749827581741851,15.8349893390542,0.0,Landing
18.2,-276.0157345508116,-879.1029882428916,168.9479641890754,3.4213577631851733,-0.13613232095611028,72.70419864783025,43.907869453405894,0.0,1.0,13.749827581741851,15.8349893390542,0.0,Landing
18.3,-277.49227899175594,-885.9107125695118,166.73041177664572,3.7430641007480614,-0.3917446895045664,72.71305890366142,43.71681353449791,0.0,1.0,13.749827581741851,15.8349893390542,0.0,Landing
18.400000000000002,-278.97836136604093,-911.7790603168373,170.11605933064564,3.431478919752845,-0.45861271982514806,72.40409113931639,43.362209133996956,0.0,1.0,13.749827581741851,15.8349893390542,0.0,Landing
18.5,-280.5746298523958,-907.8414656443897,170.02907280366108,3.862932530774609,-0.13878386784860391,72.37685184630953,43.94063423006373,0.0,1.0,13.749827581741851,15.8349893390542,0.0,Landing
18.6,-282.0314863199779,-906.1364232022697,166.9048696679806,3.56517722457625,-0.3831645333116571,72.71924532249056,43.87134589439235,0.0,1.0,13.749827581741851,15.8349893390542,0.0,Landing
18.7,-283.5090434820523,-883.5842842121679,168.56602616938696,3.8087963545519488,-0.7268748089777539,72.41641886506932,43.32760247445082,0.0,1.0,13.749827581741851,15.8349893390542,0.0,Landing
18.8,-284.9925512734566,-891.1510532561692,168.7876777019044,3.458135698174392,-0.4462970670582186,72.33286248775198,43.25424611847505,0.0,1.0,13.749827581741851,15.8349893390542,0.0,Landing
18.900000000000002,-286.48724158625873,-892.2701524501122,168.06469307029693,3.4957511097416405,-0.02857782902921885,72.3203700990486,43.560873862435145,0.0,1.0,13.749827581741851,15.8349893390542,0.0,Landing
19.0,-287.97039424430284,-875.4417197404905,169.7013812763193,3.898569012030684,-0.021047044940097903,72.56932471774553,43.78571226883069,0.0,1.0,13.749827581741851,15.8349893390542,0.0,Landing
19.1,-289.3697598721591,-871.8302395829596,167.07989014817625,3.2177745563894993,-0.49607690627517775,72.53328879469518,43.61245979640485,0.0,1.0,13.749827581741851,15.8349893390542,0.0,Landing
19.200000000000003,-290.84639278417353,-878.1531114356198,168.0757596627121,3.5011877964915574,-0.446065429360628,72.41664358114025,43.78764884790721,0.0,1.0,13.749827581741851,15.8349893390542,0.0,Landing
19.3,-292.36115980148094,-899.8041316112449,165.8394674316233,3.9068204837540725,-0.46229121449534594,72.5960671683759,43.594596189028735,0.0,1.0,13.749827581741851,15.8349893390542,0.0,Landing
19.400000000000002,-293.8687805302153,-888.2701947232135,167.96314096472932,3.6770902492085558,-0.47567337265813114,72.54448244914738,43.5645948896342,0.0,1.0,13.749827581741851,15.8349893390542,0.0,Landing
19.5,-295.2877437577896,-896.2564607563991,169.1421241537517,3.8488397322160552,-0.06696411761606672,72.24012718079621,43.467063541660025,0.0,1.0,13.749827581741851,15.8349893390542,0.0,Landing
19.6,-296.84244210526293,-904.4577590674862,167.26918999232444,3.734754531459229,-0.4584926523244188,72.62065848070466,43.12932476335376,0.0,1.0,13.749827581741851,15.8349893390542,0.0,Landing
19.700000000000003,-298.39106932555273,-928.3759923240268,169.86817335536236,3.403040570389136,-0.30223153660795266,72.51514165496656,42.97710116974093,0.0,1.0,13.749827581741851,15.8349893390542,0.0,Landing
19.8,-299.92962371940973,-905.4110674194021,169.62804560365223,3.8850621691744074,-0.49789717199423444,72.66261418275565,43.12175616303877,0.0,1.0,13.749827581741851,15.8349893390542,0.0,Landing
19.900000000000002,-301.36949744235994,-896.0415788144928,167.02903921808235,3.582989697073795,-0.22085171826158095,72.73967949214472,43.95089287836715,0.0,1.0,13.749827581741851,15.8349893390542,0.0,Landing
20.0,-302.8712772196252,-902.1901301864432,168.7460825491683,3.169727982862384,-0.4535850826384134,72.49909393086403,43.56540101479562,0.0,1.0,13.749827581741851,15.8349893390542,0.0,Landing
20.1,-304.44057437034195,-914.1911341726882,167.62305296212006,3.5794304247246402,-0.3054553780345034,72.60399709153648,43.83032432061418,0.0,1.0,13.749827581741851,15.8349893390542,0.0,Landing
20.200000000000003,-305.9404531132234,-911.1935151910984,168.14485510021868,3.3403496210787296,-0.11989772088025985,72.53156472952168,43.877581068290326,0.0,1.0,13.749827581741851,15.8349893390542,0.0,Landing
20.3,-307.4272447955807,-888.6647253129127,167.37191756207724,3.390425342293065,-0.3120303861264149,72.49287263962549,43.67315709733022,0.0,1.0,13.749827581741851,15.8349893390542,0.0,Landing
20.400000000000002,-308.8838979969065,-885.3622966429953,168.3677353295817,3.81677958037217,-0.3108922021424504,72.45302897730306,43.27850224434656,0.0,1.0,13.749827581741851,15.8349893390542,0.0,Landing
20.5,-310.36726459643836,-875.6425353688428,168.7668854447658,3.6327414910958558,-0.29993203399601354,72.47111611294389,43.294793252186835,0.0,1.0,13.749827581741851,15.8349893390542,0.0,Landing
20.6,-311.8054574724249,-880.5384762701465,168.32737856126968,3.3476169729406062,-0.34509126489262104,72.40454496423229,43.363131169796986,0.0,1.0,13.749827581741851,15.8349893390542,0.0,Landing
20.700000000000003,-313.28659037825724,-893.6999424487226,167.48074999807773,3.5622805938353674,-0.43518824790985267,72.440698591103,43.648820182233216,0.0,1.0,13.749827581741851,15.8349893390542,0.0,Landing
20.8,-314.835764308682,-913.3590152550596,168.67309322753633,3.7481239181052266,-0.4234136637128918,72.61359730679976,43.603101982722436,0.0,1.0,13.749827581741851,15.8349893390542,0.0,Landing
20.900000000000002,-316.3722525487002,-926.2970784570825,167.1023610844738,3.7824278996214202,-0.3629318942498926,72.4486494850085,43.09256018526033,0.0,1.0,13.749827581741851,15.8349893390542,0.0,Landing
21.0,-317.91807577054266,-914.6699206644257,169.94709026740344,3.6431277089204905,-0.25804934463216284,72.1892987887814,44.06774774318232,0.0,1.0,13.749827581741851,15.8349893390542,0.0,Landing
21.1,-319.4091139120041,-902.8411008314379,166.73385074265087,3.944928729836855,-0.28271010624184734,72.29360718288655,43.18970488950468,0.0,1.0,13.749827581741851,15.8349893390542,0.0,Landing
21.200000000000003,-320.8864580528574,-902.1360763861821,168.9815515601503,3.8731570565115083,-0.059574012392839076,72.27205702401278,43.30390700359875,0.0,1.0,13.749827581741851,15.8349893390542,0.0,Landing
21.3,-322.42875615247357,-910.4842947715497,168.76870742244944,3.798590051659828,-0.47960305254524727,72.61482931870432,43.05754693241995,0.0,1.0,13.749827581741851,15.8349893390542,0.0,Landing
21.400000000000002,-323.96153538586185,-916.0660493220121,167.80618551783394,3.516559438111178,-0.2557953564036486,72.69988053672148,43.662851871253544,0.0,1.0,13.749827581741851,15.8349893390542,0.0,Landing
21.5,-325.46678829946745,-908.1085916914844,166.76038915262927,3.7411681711271223,-0.3471417192571691,72.27357581680172,43.64725320995119,0.0,1.0,13.749827581741851,15.8349893390542,0.0,Landing
21.6,-326.969299110931,-905.8228633997373,168.33748455883688,3.655262189755028,-0.21131747706185772,72.40051294892953,43.522332835783814,0.0,1.0,13.749827581741851,15.8349893390542,0.0,Landing
21.700000000000003,-328.49064970286054,-882.0415056189063,169.8997585631397,3.6872744926978878,-0.4323096348257165,72.37316655313617,43.72836332597881,0.0,1.0,13.749827581741851,15.8349893390542,0.0,Landing
21.8,-329.876995827562,-873.5098282425724,168.37448140036238,3.5170163680984756,-0.5770415837743734,72.40036244889268,43.7055814398555,0.0,1.0,13.749827581741851,15.8349893390542,0.0,Landing
21.900000000000002,-331.33684825214385,-869.0839179595969,168.10042418278752,3.868007205049386,-0.08148817339612163,72.39826125568584,43.33373163072602,0.0,1.0,13.749827581741851,15.8349893390542,0.0,Landing
22.0,-332.8360692926585,-893.6081407628876,167.26733211483665,3.48648782142887,-0.3337209537227634,72.23737023978731,43.657788886053005,0.0,1.0,13.749827581741851,15.8349893390542,0.0,Landing
22.1,-334.3450365313764,-913.0672041947832,168.6366338674812,3.8883928801443974,0.15420699034322194,72.70472464633025,43.85227292990576,0.0,1.0,13.749827581741851,15.8349893390542,0.0,Landing
22.200000000000003,-335.90218427311777,-932.9613581254193,167.7931517759465,3.739900049699041,-0.4965357206759343,72.13639907602521,43.54718586502248,0.0,1.0,13.749827581741851,15.8349893390542,0.0,Landing
22.3,-337.5008760832856,-936.4805485155102,167.39458896285117,3.5060270252784944,-0.21618619183792304,72.69634674531085,43.34313488658828,0.0,1.0,13.749827581741851,15.8349893390542,0.0,Landing
22.400000000000002,-339.027439273954,-939.366807391923,169.30429745434668,3.60479784040035,-0.5056125813189954,72.33912068070981,43.77459152429552,0.0,1.0,13.749827581741851,15.8349893390542,0.0,Landing
22.5,-340.5990183100774,-934.4758520217056,168.75851839093434,3.6755953719714447,-0.5958703265904934,72.2835350469611,43.85577812058224,0.0,1.0,13.749827581741851,15.8349893390542,0.0,Landing
22.6,-342.17325534339415,-930.2014185084886,168.08446695675136,3.741377218465055,0.13994491942823545,72.44113122569581,43.73160421537288,0.0,1.0,13.749827581741851,15.8349893390542,0.0,Landing
22.700000000000003,-343.6784463664964,-917.8323448801848,168.65011787864773,3.7549084613927817,-0.22958191191437635,72.66729711489967,43.397275846241556,0.0,1.0,13.749827581741851,15.8349893390542,0.0,Landing
22.8,-345.1881800344783,-895.3469638918023,168.88950726857914,3.728801206585028,-0.16083761660755952,72.50275083978175,43.3403046458612,0.0,1.0,13.749827581741851,15.8349893390542,0.0,Landing
22.900000000000002,-346.64999016285316,-908.2989634670867,166.01884120154008,3.3845331419497726,-0.46637710528972603,72.69286158780994,43.314093461543145,0.0,1.0,13.749827581741851,15.8349893390542,0.0,Landing
23.0,-348.21994118383185,-920.9730892782204,169.6517840016793,3.4493454916567576,-0.09546684422393914,72.54964323208338,43.49790368623495,0.0,1.0,13.749827581741851,15.8349893390542,0.0,Landing
23.1,-349.7930454808694,-927.7913198706415,169.12292804566158,3.8247444758466584,-0.1371845964944457,72.3124847756867,43.22802876335524,0.0,1.0,13.749827581741851,15.8349893390542,0.0,Landing
23.200000000000003,-351.28894676220636,-914.214685896809,166.8262987710502,3.5673116212476486,-0.00018166442872241673,72.56334323322903,43.60649808835687,0.0,1.0,13.749827581741851,15.8349893390542,0.0,Landing
23.3,-352.7910146133159,-885.9630422297641,168.09516888018922,3.461839730152248,-0.423400136285081,72.28818998569972,43.54622085807039,0.0,1.0,13.749827581741851,15.8349893390542,0.0,Landing
23.400000000000002,-354.22286069201823,-892.7156845388481,169.047283100358,3.844863632984929,-0.532452058337016,72.28075694152454,43.46797657998373,0.0,1.0,13.749827581741851,15.8349893390542,0.0,Landing
23.5,-355.7525251849006,-897.3415628250677,168.22275148105155,3.402262338449706,-0.3103879125649255,72.28254588235228,44.07648936797115,0.0,1.0,13.749827581741851,15.8349893390542,0.0,Landing
23.6,-357.27772242744123,-907.7076477659602,168.90412630716767,3.707729902682487,-0.3340489503335858,72.83574722828564,43.47165473988216,0.0,1.0,13.749827581741851,15.8349893390542,0.0,Landing
23.700000000000003,-358.76139893084803,-893.4255129576286,168.78890971027303,3.3745586416468996,-0.37715197802174455,72.2854921502502,43.097042553015754,0.0,1.0,13.749827581741851,15.8349893390542,0.0,Landing
23.8,-360.21965274968875,-903.3652683169635,168.54744922724595,3.713086575593595,-0.7000122352807119,72.3042264583645,43.54574734951068,0.0,1.0,13.749827581741851,15.8349893390542,0.0,Landing
23.900000000000002,-361.79454876902605,-906.8570400040471,167.15273938359445,3.3985463751311267,-0.022046772836226858,72.36525498471963,43.22914842788827,0.0,1.0,13.749827581741851,15.8349893390542,0.0,Landing
24.0,-363.29568413086827,-884.1655962745108,167.92419781263888,3.6178803370293515,-0.4646544189934354,72.33111644056936,43.361851796440085,0.0,1.0,13.749827581741851,15.8349893390542,0.0,Landing
24.1,-364.6404807310613,-872.5195442645031,168.76997808319197,3.7001792577143227,-0.7386648923544121,72.45395181635746,43.46690868291025,0.0,1.0,13.749827581741851,15.8349893390542,0.0,Landing
24.200000000000003,-366.15714649034857,-878.9333335296988,168.87040740534013,3.788939395946707,-0.08796876701385761,72.28705162986046,43.53081111379354,0.0,1.0,13.749827581741851,15.8349893390542,0.0,Landing
24.3,-367.69035079851676,-913.4126054742637,169.14288934741845,3.3664032260404624,-0.17188313523838963,72.38952058625478,43.759388253781204,0.0,1.0,13.749827581741851,15.8349893390542,0.0,Landing
24.400000000000002,-369.2075437584326,-913.9982444417114,168.72623999634857,3.4015963085214533,-0.37519614662718626,72.36560481084416,43.30443734504076,0.0,1.0,13.749827581741851,15.8349893390542,0.0,Landing
24.5,-370.7271377125571,-911.8763511018415,168.45601545845824,3.7349805705569836,-0.398627057641618,72.45637736712143,43.612130335124746,0.0,1.0,13.749827581741851,15.8349893390542,0.0,Landing
24.6,-372.24973255402597,-908.0299668761768,168.03823067281144,3.6018491593861537,-0.05287454464788777,72.20375473075143,43.46986119408366,0.0,1.0,13.749827581741851,15.8349893390542,0.0,Landing
24.700000000000003,-373.7476935928135,-915.1561453753629,168.5063495919586,3.561361033330825,-0.5435146599593512,72.37051395193782,43.41609954138621,0.0,1.0,13.749827581741851,15.8349893390542,0.0,Landing
24.8,-375.30291843943394,-930.8338894789131,168.501275985489,3.763281168374815,-0.4233153641182697,72.48691994210412,43.29550782788786,0.0,1.0,13.749827581741851,15.8349893390542,0.0,Landing
24.900000000000002,-376.90390200142053,-925.9878061181553,168.1828735021184,3.6771384944012024,-0.14644956136340273,72.372574106186,43.84989892950676,0.0,1.0,13.749827581741851,15.8349893390542,0.0,Landing
25.0,-378.3776326234043,-931.4053183729698,166.19232444245932,3.555755503893617,-0.4324898423252004,73.04159452530746,43.62500914147603,0.0,1.0,13.749827581741851,15.8349893390542,0.0,Landing
25.1,-379.9599450312988,-916.0726290534853,168.67945386268056,3.5379108071710377,-0.4798488402407832,72.36397181935024,44.051742448942136,0.0,1.0,13.749827581741851,15.8349893390542,0.0,Landing
25.200000000000003,-381.48426514668796,-925.1315484627867,167.89653545593936,3.533633953273873,-0.05144017070237511,72.53714084024779,43.64026064997966,0.0,1.0,13.749827581741851,15.8349893390542,0.0,Landing
25.3,-383.0032903657182,-905.3094270432666,167.189193867686,3.5128640039676604,-0.48477430447996467,72.2669701389691,43.90020942221357,0.0,1.0,13.749827581741851,15.8349893390542,0.0,Landing
25.400000000000002,-384.4864921665151,-894.1928961645772,167.38721177504965,3.2731080661997822,-0.5347721784216218,72.52990894915428,43.574126332248554,0.0,1.0,13.749827581741851,15.8349893390542,0.0,Landing
25.5,-385.95522962751085,-883.7258140103813,166.69560933723065,3.7574850279393397,-0.1550349997405016,72.30282321921504,43.32112314093782,0.0,1.0,13.749827581741851,15.8349893390542,0.0,Landing
25.6,-387.4219194357701,-892.7641124806655,168.43021631953619,3.8285220509574414,-0.24496509110238468,72.3485384085833,43.69584850267778,0.0,1.0,13.749827581741851,15.8349893390542,0.0,Landing
25.700000000000003,-388.95031272891845,-895.4223548730965,167.20101307918517,3.664600329607591,-0.1832590644352945,72.39204246254525,43.49101648621609,0.0,1.0,13.749827581741851,15.8349893390542,0.0,Landing
25.8,-390.43234140187633,-896.2904053550687,168.1862608026789,3.755946550717313,-0.37185068877992333,72.1883565221961,43.24281710104441,0.0,1.0,13.749827581741851,15.8349893390542,0.0,Landing
25.900000000000002,-391.90337146254546,-892.2380353418134,168.99158163572358,3.8749066605654607,-0.12326257508105787,72.53702214445838,43.68960743898906,0.0,1.0,13.749827581741851,15.8349893390542,0.0,Landing
26.0,-393.4115029056275,-889.0736103910513,168.35853578198748,3.623322299354956,-0.31524471691342276,72.32247909565149,43.52584151727922,0.0,1.0,13.749827581741851,15.8349893390542,0.0,Landing
26.1,-394.8777094538316,-899.7438021238509,169.49691546799377,3.9063508617328595,-0.4005099251308284,72.59661908970361,43.69887716003545,0.0,1.0,13.749827581741851,15.8349893390542,0.0,Landing
26.200000000000003,-396.4020904731647,-903.6995677242317,168.1778529107391,3.667674527716038,-0.0408964592529526,72.4327996317515,43.6100963953506,0.0,1.0,13.749827581741851,15.8349893390542,0.0,Landing
26.3,-397.9300007442487,-904.2308659647915,168.7937485351652,3.9714237279372355,-0.5646306158447889,72.50184648947953,43.22355141123614,0.0,1.0,13.749827581741851,15.8349893390542,0.0,Landing
26.400000000000002,-399.39886378365554,-909.7438218086154,167.32194786234615,3.465420672978619,-0.5749476436398175,72.42285749872133,43.403724747776046,0.0,1.0,13.749827581741851,15.8349893390542,0.0,Landing
26.5,-400.9508095822078,-892.0611756775543,169.36479525929886,3.5194884795618355,-0.507555946608296,72.32898587883653,43.68867306514511,0.0,1.0,13.749827581741851,15.8349893390542,0.0,Landing
26.6,-402.39030662263644,-909.979959475686,166.0579260288368,3.6558556245910814,-0.35928802689038264,72.5141979174656,43.22322990298405,0.0,1.0,13.749827581741851,15.8349893390542,0.0,Landing
26.700000000000003,-403.948763581034,-897.2455664790232,169.81109092161924,3.5508942880509404,-0.3843047811302974,72.46560854028621,43.328032182946274,0.0,1.0,13.749827581741851,15.8349893390542,0.0,Landing
26.8,-405.4370374146029,-915.1928808478374,166.46594251293666,3.5411317328814342,-0.4663115318626522,72.46485681496904,43.07784553932016,0.0,1.0,13.749827581741851,15.8349893390542,0.0,Landing
26.900000000000002,-406.96627102687563,-910.99384444816,168.46856066489832,3.495577070030251,-0.47559927869061835,72.30725236840567,43.84269212857305,0.0,1.0,13.749827581741851,15.8349893390542,0.0,Landing
27.0,-408.5037328032748,-921.3279770092981,169.8673756615277,3.847213892815599,0.07711533789744235,72.51631176593742,43.42403046877392,0.0,1.0,13.749827581741851,15.8349893390542,0.0,Landing
27.1,-410.0436772996494,-921.2854185619335,167.65684957020213,3.676789135469805,-0.30843440028835006,72.38996068723759,43.618507396021656,0.0,1.0,13.749827581741851,15.8349893390542,0.0,Landing
27.200000000000003,-411.5726981196853,-912.2091861480385,166.90650893119357,3.4414064623453138,-0.584149758254525,72.31906916582886,43.50100837077688,0.0,1.0,13.749827581741851,15.8349893390542,0.0,Landing
27.3,-413.06477873401496,-927.7391099642273,167.13916123166513,3.4455210668210734,-0.010313810426987369,72.59278479394021,44.03344058852666,0.0,1.0,13.749827581741851,15.8349893390542,0.0,Landing
27.400000000000002,-414.68237284947054,-932.827669599908,168.37162084429016,3.7642619118113845,-0.28108640196280693,72.62790618101178,44.010421647135374,0.0,1.0,13.749827581741851,15.8349893390542,0.0,Landing
27.5,-416.23683646768484,-906.115280094366,167.9380026493953,3.4707638641172855,-0.5985967395820381,72.58047156660382,43.09117604901099,0.0,1.0,13.749827581741851,15.8349893390542,0.0,Landing
27.6,-417.5953551344868,-893.7665160429333,168.2166244851045,3.1071936152265147,-0.22748195760156847,72.36567821587778,44.021919064606635,0.0,1.0,13.749827581741851,15.8349893390542,0.0,Landing
27.700000000000003,-419.1512054296852,-893.3522793279394,169.33333199088918,3.8617041618476198,-0.5118305939932266,72.6681544001026,43.26256477976237,0.0,1.0,13.749827581741851,15.8349893390542,0.0,Landing
27.8,-420.70359786432454,-926.951863580075,168.44572689111016,3.5431377814319096,-0.18609077961961648,72.45076857473998,43.14016252342423,0.0,1.0,13.749827581741851,15.8349893390542,0.0,Landing
27.900000000000002,-422.23011445238717,-930.4088833453648,168.57162824457637,3.639176432793262,-0.25991845974735645,72.83466967676105,43.67490895908548,0.0,1.0,13.749827581741851,15.8349893390542,0.0,Landing
28.0,-423.80324984641203,-929.1602939955851,168.6289969835754,3.930495939541723,-0.5145082037383679,72.33454475729025,44.03985475152964,0.0,1.0,13.749827581741851,15.8349893390542,0.0,Landing
28.1,-425.34939933430246,-927.6853097734033,167.3802247273914,3.514247185729928,-0.36523967814998815,72.8155972658671,43.75190772946706,0.0,1.0,13.749827581741851,15.8349893390542,0.0,Landing
28.200000000000003,-426.8685410012542,-921.0775730947375,168.8253710905708,4.052931278574987,-0.5855491785448858,72.50314410219539,43.89229443624126,0.0,1.0,13.749827581741851,15.8349893390542,0.0,Landing
28.3,-428.4086377118857,-924.3397130297467,168.04479711548424,3.5412825795516807,0.29954418152001416,72.88767937506634,43.61351509454817,0.0,1.0,13.749827581741851,15.8349893390542,0.0,Landing
28.400000000000002,-429.9710978994512,-923.8056224974571,167.70250345804067,3.693151405445036,-0.21381830228399062,72.5956795554174,43.714534851900986,0.0,1.0,13.749827581741851,15.8349893390542,0.0,Landing
28.5,-431.4875691137415,-907.5986522386529,168.9742465548158,3.8871357360307837,-0.2974665848316332,72.59050482404558,43.312562684825224,0.0,1.0,13.749827581741851,15.8349893390542,0.0,Landing
28.6,-432.946630973079,-900.2239271576514,167.85435087456045,3.527408562983111,-0.632598302192725,72.5729124133968,43.548143289152506,0.0,1.0,13.749827581741851,15.8349893390542,0.0,Landing
28.700000000000003,-434.47221753523945,-896.740455554152,169.63036329644348,3.65711374481035,-0.004339482755105206,72.54195698297906,43.54156667862878,0.0,1.0,13.749827581741851,15.8349893390542,0.0,Landing
28.8,-435.97127139151223,-887.0288889525341,168.60699421874355,3.3694716607913104,-0.30905384822806303,72.37254363100237,43.931144818704404,0.0,1.0,13.749827581741851,15.8349893390542,0.0,Landing
28.900000000000002,-437.38177541784165,-889.150612881258,167.78314849310132,3.3547877685778533,-0.37199717749944794,72.5632981147516,43.67611655129426,0.0,1.0,13.749827581741851,15.8349893390542,0.0,Landing
29.0,-438.91797059964574,-888.0152260175123,169.06551411830415,3.280556224572186,-0.25368301394898696,72.39075282213724,43.29140968478357,0.0,1.0,13.749827581741851,15.8349893390542,0.0,Landing
29.1,-440.4113475215998,-926.0819065704027,167.31377877262656,3.4201337493547848,-0.09326760714457202,72.26614875722578,43.086731567810645,0.0,1.0,13.749827581741851,15.8349893390542,0.0,Landing
29.200000000000003,-442.01218495069367,-917.3122224120334,168.49571729089044,3.527284057884132,-0.5213048174540608,72.21206669344076,43.383155145328054,0.0,1.0,13.749827581741851,15.8349893390542,0.0,Landing
29.3,-443.5045317117059,-926.7082872185142,166.4181205320288,3.78792467667027,-0.35359374267908317,72.44811570727552,43.52575511727431,0.0,1.0,13.749827581741851,15.8349893390542,0.0,Landing
29.400000000000002,-445.04488895769236,-916.6915775207144,167.46406970790957,3.7096753936338813,-0.29254652102548356,72.33470857033558,43.91558214396672,0.0,1.0,13.749827581741851,15.8349893390542,0.0,Landing
29.5,-446.59564283829724,-924.4037225291436,166.0437857421024,3.475675155347146,-0.30522928539513056,72.47570284655995,43.30148588752647,0.0,1.0,13.749827581741851,15.8349893390542,0.0,Landing
29.6,-448.1265503243516,-916.8054716522988,166.2069459564622,3.9078401520093267,-0.268839990202945,72.20808384028726,43.32546524825286,0.0,1.0,13.749827581741851,15.8349893390542,0.0,Landing
29.700000000000003,-449.62891631595386,-899.079260546705,167.33704526532586,3.3887246376974653,-0.2685551124321702,72.2182369934884,43.4068525795682,0.0,1.0,13.749827581741851,15.8349893390542,0.0,Landing
29.8,-451.09103914103076,-900.0577384054964,166.29373181673668,3.561246651029165,-0.3164864925495172,72.538362935208,42.591147813227145,0.0,1.0,13.749827581741851,15.8349893390542,0.0,Landing
29.900000000000002,-452.6268390163791,-889.931457767284,167.78993207197027,4.085123972234722,-0.09482324691645488,72.5070579887365,43.49342167422141,0.0,1.0,13.749827581741851,15.8349893390542,0.0,Landing
30.0,-454.0785736047903,-902.5616620977303,168.01877708424223,3.357026489087519,-0.29270701000276783,72.50714059596385,43.12817554997059,0.0,1.0,13.749827581741851,15.8349893390542,0.0,Landing
30.1,-455.6038474515194,-888.8077191817274,169.35658710484913,3.772759096380691,-0.34805043631272375,72.70042201429692,43.23427086179569,0.0,1.0,13.749827581741851,15.8349893390542,0.0,Landing
