time_s,altitude_ft,vertical_speed_fpm,ias_kt,pitch_deg,roll_deg,heading_deg,throttle_pct,afterburner_on,gear_down,flaps_deg,speedbrake_pct,weight_on_wheels,label
0.0,-1.742300332953233,-545.5538242399747,159.2752625293318,3.6766362596675606,0.8926363387397039,62.98370149474374,36.83668963907001,0.0,1.0,18.6561409043271,18.434353404968164,0.0,Landing
0.1,-3.5608130804198153,-689.6644537014873,161.6945943507305,3.7243557873829936,1.3534441196734106,62.719372943148585,36.72641865608026,0.0,1.0,18.6561409043271,18.434353404968164,0.0,Landing
0.2,-5.19062260146067,-1052.8264217133997,160.73899756542392,3.2447815061323535,1.1972658698827232,62.78086919240707,36.88161580885511,0.0,1.0,18.6561409043271,18.434353404968164,0.0,Landing
0.30000000000000004,-7.006432441520231,-1047.5687323289676,159.08662889951998,3.5624161859844037,0.9224034235197771,62.82885303622271,36.61180307907304,0.0,1.0,18.6561409043271,18.434353404968164,0.0,Landing
0.4,-8.798656742064653,-1067.7282486550328,161.16044184740608,3.4668376070448343,0.7387241050805381,62.94859919367673,36.966587321849325,0.0,1.0,18.6561409043271,18.434353404968164,0.0,Landing
0.5,-10.529263844735834,-1048.3949931140005,160.76742165935923,3.614763258052634,1.0650665490987266,62.832902879861194,36.8187028921505,0.0,1.0,18.6561409043271,18.434353404968164,0.0,Landing
0.6000000000000001,-12.248407407090234,-1036.9619728153177,160.10923768498725,4.063915981958623,1.0798977081977255,63.112219656878096,37.2817772545844,0.0,1.0,18.6561409043271,18.434353404968164,0.0,Landing
0.7000000000000001,-13.983466606141242,-1045.4348549580966,160.17085781330422,3.5099361367485202,0.4153473144754667,63.01821175363739,36.574629469668636,0.0,1.0,18.6561409043271,18.434353404968164,0.0,Landing
0.8,-15.756438119526317,-1050.396089601806,161.21650419049297,3.82331247242205,0.8036853319871995,62.94401898092656,37.30071250221544,0.0,1.0,18.6561409043271,18.434353404968164,0.0,Landing
0.9,-17.500387855099262,-1062.675340403265,159.65900418810466,3.411033480969265,0.786003649073665,62.96382754459307,37.067730244988226,0.0,1.0,18.6561409043271,18.434353404968164,0.0,Landing
1.0,-19.296843308157566,-1054.5809654470215,159.82863840371738,3.4564216482849357,0.29571571463152246,62.80951704293466,36.70076474958026,0.0,1.0,18.6561409043271,18.434353404968164,0.0,Landing
1.1,-21.029342946761425,-1052.9843363113641,160.4514433980928,3.3623772245452863,0.9215969455691861,62.75762305175061,36.94404092222202,0.0,1.0,18.6561409043271,18.434353404968164,0.0,Landing
1.2000000000000002,-22.765309536656083,-1048.3536090566822,159.2148480094787,3.716119635989328,0.9301151089876014,62.89013130995022,37.26508849609218,0.0,1.0,18.6561409043271,18.434353404968164,0.0,Landing
1.3,-24.538611353440977,-1046.754167871044,160.5644726150384,3.364894115065672,0.7246065080631516,63.00605893621628,37.10343688568548,0.0,1.0,18.6561409043271,18.434353404968164,0.0,Landing
1.4000000000000001,-26.263113786116644,-1056.6848620621138,159.1884446407648,3.091058829392425,1.0071257522019763,62.77740656878933,36.88665539121032,0.0,1.0,18.6561409043271,18.434353404968164,0.0,Landing
1.5,-28.048733846966652,-1053.790352403135,160.93024452424598,3.6048239237500668,0.5308383925081056,62.85361143768171,36.73670084956206,0.0,1.0,18.6561409043271,18.434353404968164,0.0,Landing
1.6,-29.807563115456652,-1062.9748814092138,159.60105206063164,3.6909694094201844,1.0920600528863778,62.755615069479575,36.431073539891116,0.0,1.0,18.6561409043271,18.434353404968164,0.0,Landing
1.7000000000000002,-31.577988193162714,-1055.3263232107747,160.05194199018467,3.6533916132687034,1.1088448516890035,62.750834124345374,36.79814490016069,0.0,1.0,18.6561409043271,18.434353404968164,0.0,Landing
1.8,-33.325365463020525,-1071.6590899245077,161.64951832793972,3.2796158717102566,0.5252017566703517,62.78831314459899,36.95878718680549,0.0,1.0,18.6561409043271,18.434353404968164,0.0,Landing
1.9000000000000001,-35.16585856507919,-1059.232071279684,160.1947410596825,3.202473173617543,0.9851351075592124,62.95526678830623,36.710629332778026,0.0,1.0,18.6561409043271,18.434353404968164,0.0,Landing
2.0,-36.874148549561134,-1061.8703627053137,159.05244260627205,3.4597185023137924,0.7617862674227722,62.629508587499004,36.244451220500565,0.0,1.0,18.6561409043271,18.434353404968164,0.0,Landing
2.1,-38.63471727654709,-1055.740314853162,160.82762184605582,3.4234803348638128,1.019023104933625,62.95973408664264,37.38344828631959,0.0,1.0,18.6561409043271,18.434353404968164,0.0,Landing
2.2,-40.444560139345,-1057.9976528450004,159.72660221411545,3.2135503646248864,0.9744484908744856,62.860445201838786,37.07289469902345,0.0,1.0,18.6561409043271,18.434353404968164,0.0,Landing
2.3000000000000003,-42.164136813786136,-1068.9319194777129,160.80784481233852,3.3999509363672082,1.1877190322372246,62.82833101712532,37.58007102028259,0.0,1.0,18.6561409043271,18.434353404968164,0.0,Landing
2.4000000000000004,-43.97937687393566,-1069.5949750380466,160.5433765366433,3.6397161522482167,0.783009139732542,62.97158765620691,36.85056225957815,0.0,1.0,18.6561409043271,18.434353404968164,0.0,Landing
2.5,-45.79253501453523,-1071.8153921030735,160.9275767854534,3.3700895755019875,0.5813395808461066,62.9287534432832,37.04472826949679,0.0,1.0,18.6561409043271,18.434353404968164,0.0,Landing
2.6,-47.5232137743015,-1070.6226946030085,161.16282730086837,3.570620533236714,0.8862886014155619,62.94455550497162,36.90279053713911,0.0,1.0,18.6561409043271,18.434353404968164,0.0,Landing
2.7,-49.3324903469507,-1051.5285916717858,159.4526554807228,3.6720360738985613,1.2594323905396723,62.9089089658184,37.01411286008069,0.0,1.0,18.6561409043271,18.434353404968164,0.0,Landing
2.8000000000000003,-51.05017797289416,-1048.2716700838553,160.3884442093229,3.210625103839731,1.1143834075995414,62.789802311990286,36.96370271647392,0.0,1.0,18.6561409043271,18.434353404968164,0.0,Landing
2.9000000000000004,-52.76457212472078,-1040.2591722387099,162.00892505859866,3.456740994369874,0.7421299450398608,62.96458159646767,37.01740997031427,0.0,1.0,18.6561409043271,18.434353404968164,0.0,Landing
3.0,-54.53378620814425,-1020.8567086119034,159.7626305302068,3.4693023057574277,0.6892437465748742,62.79884584833235,37.04219121556311,0.0,1.0,18.6561409043271,18.434353404968164,0.0,Landing
3.1,-56.15446151595368,-1019.6417219267177,159.90059832516783,2.9589333996569933,1.160088986461236,62.74959959182621,37.08947928578219,0.0,1.0,18.6561409043271,18.434353404968164,0.0,Landing
3.2,-57.86278073435437,-1001.5705526930718,159.6001168974157,3.7042672608648264,1.1145594474633227,62.75160783839033,36.832784203535624,0.0,1.0,18.6561409043271,18.434353404968164,0.0,Landing
3.3000000000000003,-59.54163897160961,-1026.719521213144,160.76092256307032,3.670702437817072,1.0846708483760348,62.48397064358687,37.000709820931384,0.0,1.0,18.6561409043271,18.434353404968164,0.0,Landing
3.4000000000000004,-61.2880591220194,-1046.0903546007728,160.08230899478485,3.477126433511801,0.8945730704761778,62.818844178799054,37.18156503708279,0.0,1.0,18.6561409043271,18.434353404968164,0.0,Landing
3.5,-63.09323250735823,-1042.7710627111353,159.2476006596611,3.5010923981746154,0.8545014105155211,62.7713513122992,36.946781144295755,0.0,1.0,18.6561409043271,18.434353404968164,0.0,Landing
3.6,-64.75549428516528,-1039.401111001321,160.7362095508029,3.369316356801897,0.8867213178093676,62.75017975840319,37.32084624130705,0.0,1.0,18.6561409043271,18.434353404968164,0.0,Landing
3.7,-66.485064677026,-1034.037646170127,160.0962389828,3.5056918052725443,0.767866287310374,62.91283245700072,37.218678846687915,0.0,1.0,18.6561409043271,18.434353404968164,0.0,Landing
3.8000000000000003,-68.26342073820886,-1043.1431513807381,160.1955315309716,3.5049250429674683,1.0501570792743846,62.93028031868943,36.592273939355,0.0,1.0,18.6561409043271,18.434353404968164,0.0,Landing
3.9000000000000004,-69.97121004206898,-1035.2629643336286,160.63848668211816,3.473113581655875,1.2090807823089822,62.49386671104418,37.28162762619668,0.0,1.0,18.6561409043271,18.434353404968164,0.0,Landing
4.0,-71.66137949869415,-1004.0153191989901,161.0958489962418,3.617164084159546,0.9704789615764138,62.51591099593753,36.44869722519778,0.0,1.0,18.6561409043271,18.434353404968164,0.0,Landing
4.1000000000000005,-73.28349733420382,-1020.460881611058,161.1555972710641,3.818821136879324,1.04586381186513,62.82543282380186,37.16281173032739,0.0,1.0,18.6561409043271,18.434353404968164,0.0,Landing
4.2,-75.07351445012426,-1029.7053923487026,159.5624377333351,3.8101479935925258,1.0643905411380574,62.53733482286714,36.774415491998646,0.0,1.0,18.6561409043271,18.434353404968164,0.0,Landing
4.3,-76.80990646043766,-1033.7325127181286,161.13722601861198,3.461200912942576,1.114719026829778,62.802772543161495,36.75035974459853,0.0,1.0,18.6561409043271,18.434353404968164,0.0,Landing
4.4,-78.45215989779446,-1024.223551338173,161.87110891639955,3.5732127715476163,0.8882718201756854,62.8139765648902,36.36425784874029,0.0,1.0,18.6561409043271,18.434353404968164,0.0,Landing
4.5,-80.19463220681513,-991.7246624109538,159.44773690911046,3.545734166668456,1.006562019065741,62.78876554423272,36.73648505113565,0.0,1.0,18.6561409043271,18.434353404968164,0.0,Landing
4.6000000000000005,-81.76852977249243,-1012.0632332064588,160.44825901805098,3.515404753175106,1.3112688460648716,62.692236603347965,37.12619508688018,0.0,1.0,18.6561409043271,18.434353404968164,0.0,Landing
4.7,-83.51247606382675,-1026.6481110625962,158.99062408010565,3.3666254259760806,0.6474203643956928,63.02714742680229,36.67282239606355,0.0,1.0,18.6561409043271,18.434353404968164,0.0,Landing
4.800000000000001,-85.32787276212811,-1071.0737782672993,159.69037665839406,3.609470218502394,0.958741259653464,62.40838914558566,36.77002161572794,0.0,1.0,18.6561409043271,18.434353404968164,0.0,Landing
4.9,-87.12389866382892,-1045.972136584524,161.29178956549515,3.598737903214963,1.1382582827632017,63.01714432512938,36.89036152189382,0.0,1.0,18.6561409043271,18.434353404968164,0.0,Landing
5.0,-88.74233674674937,-1021.0001812747522,159.77576810658294,3.451206622171753,0.7096179792156343,62.8193867571116,36.62167668364925,0.0,1.0,18.6561409043271,18.434353404968164,0.0,Landing
5.1000000000000005,-90.43287366850187,-992.4259132430819,161.63788715511603,3.950710448843712,0.8373441672363457,62.50695105895932,37.29991296853811,0.0,1.0,18.6561409043271,18.434353404968164,0.0,Landing
5.2,-92.08602823004433,-1014.4939008723186,159.4125248062417,3.676553693083178,1.3227915629962417,62.57767704984843,36.75457575627681,0.0,1.0,18.6561409043271,18.434353404968164,0.0,Landing
5.300000000000001,-93.81480625111097,-1028.3237937688766,159.5516304780775,3.814251639274933,1.048164259788263,62.80647154134965,36.85459557924536,0.0,1.0,18.6561409043271,18.434353404968164,0.0,Landing
5.4,-95.57449263734625,-1044.520280621248,158.8818057926089,3.3961840744628105,0.9495529213854286,63.01725053381506,37.16116674380663,0.0,1.0,18.6561409043271,18.434353404968164,0.0,Landing
5.5,-97.30862963315057,-1063.168326100126,160.68075463703514,3.5376047670901554,1.0503204444520267,62.83733057571817,36.395638147525155,0.0,1.0,18.6561409043271,18.434353404968164,0.0,Landing
5.6000000000000005,-99.1306478816116,-1075.9969298324793,161.24993362679703,3.1834808424351895,0.7776025984218068,62.79392472928788,36.736978206623085,0.0,1.0,18.6561409043271,18.434353404968164,0.0,Landing
5.7,-100.95447728650865,-1058.527704285112,162.62190274149455,3.3485831905506496,1.169948383146157,62.8386133067242,37.44056162556627,0.0,1.0,18.6561409043271,18.434353404968164,0.0,Landing
5.800000000000001,-102.60126815457613,-1041.2694612453436,160.7207408379267,3.7719665124334285,1.085535733244395,62.610772796642664,37.13947132936215,0.0,1.0,18.6561409043271,18.434353404968164,0.0,Landing
5.9,-104.33699518783831,-1024.4833082945604,160.26789192924042,3.7136551397308324,0.9300935733223407,62.72839308024436,37.32172856560532,0.0,1.0,18.6561409043271,18.434353404968164,0.0,Landing
6.0,-106.07689382798145,-1045.3207015451028,160.32037254865872,3.192436675857583,0.8977414673850667,62.73619353733926,37.17029790555575,0.0,1.0,18.6561409043271,18.434353404968164,0.0,Landing
6.1000000000000005,-107.82787166230165,-1024.5997769568248,160.39388953201754,3.39492421740645,1.1343832190798016,62.81820185076799,37.098358951085096,0.0,1.0,18.6561409043271,18.434353404968164,0.0,Landing
6.2,-109.45999407262244,-1026.9843933764494,161.03909744657994,3.45678874508479,1.0223270268480666,62.916098646800435,36.98540785338792,0.0,1.0,18.6561409043271,18.434353404968164,0.0,Landing
6.300000000000001,-111.2118157948637,-1008.5036499793717,160.8352377434189,3.4635821729005034,1.2931336774576303,62.716025826798614,37.03667970933161,0.0,1.0,18.6561409043271,18.434353404968164,0.0,Landing
6.4,-112.8703899121985,-1029.4549520360363,160.52390218909952,3.401607195003458,0.8899242132336584,62.79064496407176,37.31438359735473,0.0,1.0,18.6561409043271,18.434353404968164,0.0,Landing
6.5,-114.60726883280262,-1005.4808532927582,161.60217374521176,3.392461896623015,1.1362573599567096,62.8377960770311,37.21498762119308,0.0,1.0,18.6561409043271,18.434353404968164,0.0,Landing
6.6000000000000005,-116.23922006132749,-1006.0436809472152,162.13375067962363,3.613526619074387,0.8207386975481529,62.54460356210262,36.99643887788134,0.0,1.0,18.6561409043271,18.434353404968164,0.0,Landing
6.7,-117.90060831693458,-1011.0475219679529,160.48087774964117,3.5035505300953482,0.8384792834266537,62.9748048490444,36.80993735860851,0.0,1.0,18.6561409043271,18.434353404968164,0.0,Landing
6.800000000000001,-119.66250644264238,-1028.1988994293215,160.67180040700688,3.1596249241029586,0.9204498712723453,62.908024087990725,37.07615147882705,0.0,1.0,18.6561409043271,18.434353404968164,0.0,Landing
6.9,-121.3802145584741,-1045.3822697215116,161.39731176197418,3.6836109285642986,1.3878938173523871,62.71250009295011,36.53304637592029,0.0,1.0,18.6561409043271,18.434353404968164,0.0,Landing
7.0,-123.12751966554214,-1032.0890712503171,161.73273138791566,3.4844402517247675,0.7102435381024064,62.928103292928085,36.634619465015405,0.0,1.0,18.6561409043271,18.434353404968164,0.0,Landing
7.1000000000000005,-124.82295179889397,-1025.7158149189565,161.01760540038578,3.7006556330373326,0.7509118518558774,62.83496884742567,36.664058538272236,0.0,1.0,18.6561409043271,18.434353404968164,0.0,Landing
7.2,-126.50879363306888,-1011.2480095815044,160.6706532301615,3.5803438519147885,1.0107849050840896,62.794134826749996,36.83065144704534,0.0,1.0,18.6561409043271,18.434353404968164,0.0,Landing
7.300000000000001,-128.18375971344966,-1005.1319115907235,160.31633564677696,3.791894898885767,1.376584300638003,62.83420456054705,37.089823341439235,0.0,1.0,18.6561409043271,18.434353404968164,0.0,Landing
7.4,-129.84861135684758,-1011.5515427271475,160.2072823570288,3.248866527729296,1.0222199044128168,63.0524992269477,36.852368684108384,0.0,1.0,18.6561409043271,18.434353404968164,0.0,Landing
7.5,-131.5665513467046,-1022.3808243124267,158.58991340619727,3.484651971008496,0.8740152398566343,62.821259940857374,36.9696425211866,0.0,1.0,18.6561409043271,18.434353404968164,0.0,Landing
7.6000000000000005,-133.2956638350118,-1026.5322969702027,160.36658277772247,3.658138042077923,0.8929451841209743,63.07773955437119,37.139509226854685,0.0,1.0,18.6561409043271,18.434353404968164,0.0,Landing
7.7,-134.9812728416986,-1026.699640669807,159.7801698886023,3.5448924727820352,1.0970047055521008,62.80971451136179,37.334529196465894,0.0,1.0,18.6561409043271,18.434353404968164,0.0,Landing
7.800000000000001,-136.70004955005365,-1026.8528963224128,159.7431613977453,3.4014653185455392,0.7426252979582614,62.66465267843347,37.2237437920777,0.0,1.0,18.6561409043271,18.434353404968164,0.0,Landing
7.9,-138.42992831662386,-1014.96287046391,159.22935902010894,3.43695307970143,1.3991641274496702,62.72882230847989,36.77517339818308,0.0,1.0,18.6561409043271,18.434353404968164,0.0,Landing
8.0,-140.05608719401815,-998.8814422190331,161.16159253110192,3.2591521658778477,0.5768628886951663,62.89394847556423,37.36352445743838,0.0,1.0,18.6561409043271,18.434353404968164,0.0,Landing
8.1,-141.6944567611488,-986.6485088100775,161.4987316701582,3.7888779320455623,0.8170409250040964,62.92135944678034,36.88274041745869,0.0,1.0,18.6561409043271,18.434353404968164,0.0,Landing
8.200000000000001,-143.36317086067424,-993.741573195888,158.28952057107537,3.409985918990926,1.1968149809615356,62.956608058630366,36.87948155463754,0.0,1.0,18.6561409043271,18.434353404968164,0.0,Landing
8.3,-145.0247950599976,-1007.4681684046597,160.30835508807235,3.598069515086957,1.005013743944155,62.64185570615945,37.077599026522975,0.0,1.0,18.6561409043271,18.434353404968164,0.0,Landing
8.4,-146.7317976031721,-1013.6177264740185,160.63836459242341,3.6078910474626205,0.9559498346620086,62.94096692371011,36.721220058810765,0.0,1.0,18.6561409043271,18.434353404968164,0.0,Landing
8.5,-148.43125949304434,-1020.9221780376823,161.5643859760222,3.7215563860982837,0.9732949897637264,63.21161440746471,36.22962315457581,0.0,1.0,18.6561409043271,18.434353404968164,0.0,Landing
8.6,-150.129405950186,-1030.2863958605542,160.05405854096693,3.895164921944213,1.1615183986440303,62.661386034295106,36.826566139123706,0.0,1.0,18.6561409043271,18.434353404968164,0.0,Landing
8.700000000000001,-151.88322958247488,-1028.3162159660321,159.4339557528327,3.3935137216750837,1.0017034284331938,62.980294292501526,36.80066472447548,0.0,1.0,18.6561409043271,18.434353404968164,0.0,Landing
8.8,-153.5728405728745,-1020.4748585990616,159.54533921152634,3.806817184836986,0.9796301544414172,62.72894743693939,36.589426934316,0.0,1.0,18.6561409043271,18.434353404968164,0.0,Landing
8.9,-155.2317802431813,-1000.6985819940382,162.20869497927325,3.748159735880109,0.7232108863298851,62.711626922338894,37.145976640316796,0.0,1.0,18.6561409043271,18.434353404968164,0.0,Landing
9.0,-156.88672249244507,-1018.8974265152298,162.26959581162396,3.219141432651348,0.7835111879084955,63.02976712424453,36.5862433854611,0.0,1.0,18.6561409043271,18.434353404968164,0.0,Landing
9.1,-158.66732770545065,-1014.1893663836927,160.6069513840292,3.40103403691197,1.1357992503608836,63.02972529819664,37.170276454389324,0.0,1.0,18.6561409043271,18.434353404968164,0.0,Landing
9.200000000000001,-160.30272707509977,-1016.4311445905014,161.56891610483342,3.7753749853282033,1.1462366941064412,62.96347544210971,36.80902601231239,0.0,1.0,18.6561409043271,18.434353404968164,0.0,Landing
9.3,-161.96887821539758,-1011.3044583566024,160.85508364563552,3.4799730699079987,0.8829223341058228,62.931364306702164,37.052589250394384,0.0,1.0,18.6561409043271,18.434353404968164,0.0,Landing
9.4,-163.72384999723366,-1022.1121200895199,159.51809028523428,3.494444417742027,0.9598959794592775,62.67211582430156,36.77135553999847,0.0,1.0,18.6561409043271,18.434353404968164,0.0,Landing
9.5,-165.41328767554737,-1032.1598365829175,159.98022442129295,3.820998206220411,1.1473851709040042,62.91383988092639,36.68129805660189,0.0,1.0,18.6561409043271,18.434353404968164,0.0,Landing
9.600000000000001,-167.12967739831217,-1014.4159450084771,159.73548385082657,3.5863477103339716,0.755290704171625,62.66082719080117,35.92419107288892,0.0,1.0,18.6561409043271,18.434353404968164,0.0,Landing
9.700000000000001,-168.79592972227604,-1031.8511455885698,160.29900351925403,3.8430222189104803,1.25858193895773,62.71921971048431,37.19296954542923,0.0,1.0,18.6561409043271,18.434353404968164,0.0,Landing
9.8,-170.57254340349022,-1012.2248870504621,161.21903271912254,3.7315914357017443,1.4098698628118425,62.82072320170039,36.950153869925664,0.0,1.0,18.6561409043271,18.434353404968164,0.0,Landing
9.9,-172.19080183356448,-1019.1867562327388,160.45345513739093,3.7598715676021293,0.8760040835487533,62.81916913779912,37.016255808875634,0.0,1.0,18.6561409043271,18.434353404968164,0.0,Landing
10.0,-173.89186350343974,-995.9923510954468,160.66203643697736,3.643875233985204,1.3643815994758803,62.71895493750475,36.734073977646176,0.0,1.0,18.6561409043271,18.434353404968164,0.0,Landing
10.100000000000001,-175.55250515896745,-1015.6488982680061,159.42995382780876,3.712430971292847,1.1257357251917215,62.70531117049552,36.66124231852503,0.0,1.0,18.6561409043271,18.434353404968164,0.0,Landing
10.200000000000001,-177.2690463249045,-1015.8556071575049,160.77138016196164,3.520541214111057,0.9621867740341162,62.72789924644559,37.21827416985127,0.0,1.0,18.6561409043271,18.434353404968164,0.0,Landing
10.3,-178.97114153922726,-1024.2765776740157,161.5088022334338,3.7937557218459728,1.2312798234160018,62.74720857946937,36.991363021500014,0.0,1.0,18.6561409043271,18.434353404968164,0.0,Landing
10.4,-180.67388804733753,-1012.4020860631903,160.07246324040221,3.3804173943944047,0.5054244931091416,62.74896790570875,36.69950990339086,0.0,1.0,18.6561409043271,18.434353404968164,0.0,Landing
10.5,-182.33105675522046,-995.2920679441548,158.63284560734317,3.472907171793436,0.7074225629342141,63.15436586452074,36.69132665106575,0.0,1.0,18.6561409043271,18.434353404968164,0.0,Landing
10.600000000000001,-183.94760187894803,-979.5397812147202,159.04412091298818,3.381200797890138,0.7581602602103953,62.56960984785616,37.041162299675236,0.0,1.0,18.6561409043271,18.434353404968164,0.0,Landing
10.700000000000001,-185.57158695341113,-973.3233983935578,159.19093754042365,3.6801868899653734,0.970145443059027,62.653312123681474,36.715377499662026,0.0,1.0,18.6561409043271,18.434353404968164,0.0,Landing
10.8,-187.19767374718825,-976.8528511534896,161.0023475250535,3.4227797456581914,1.0752708334835148,62.682804560711475,36.87742777115951,0.0,1.0,18.6561409043271,18.434353404968164,0.0,Landing
10.9,-188.83186613471548,-986.4408263855865,159.88544100562746,3.432402563629723,0.9223125842712787,62.86055757991062,37.095592628062214,0.0,1.0,18.6561409043271,18.434353404968164,0.0,Landing
11.0,-190.50379108533906,-979.2491207407523,160.60995828719035,3.249271181581019,0.870558521534389,63.119405301866095,36.51581246216853,0.0,1.0,18.6561409043271,18.434353404968164,0.0,Landing
11.100000000000001,-192.093919350892,-990.7764591122486,160.0727921134067,3.552805062682663,1.0103063363973808,62.8037646237982,37.15205503931877,0.0,1.0,18.6561409043271,18.434353404968164,0.0,Landing
11.200000000000001,-193.78574843027673,-995.6545132850351,161.75932178883923,3.7099367261366494,0.9449738429175439,62.810559872148815,37.253159328597036,0.0,1.0,18.6561409043271,18.434353404968164,0.0,Landing
11.3,-195.48206365176424,-1002.8218660458948,161.44902545505573,3.1307825570602503,0.8713511871015058,62.77022166952122,36.75117701734043,0.0,1.0,18.6561409043271,18.434353404968164,0.0,Landing
11.4,-197.10802868112148,-1003.4473316780294,160.80655643990013,3.595894535019949,0.9566508419634978,62.8570201880143,36.926185639759616,0.0,1.0,18.6561409043271,18.434353404968164,0.0,Landing
11.5,-198.80298508866687,-1006.2003241604431,160.60965672389204,3.3458327593956625,1.1782310165651488,62.65279866132016,36.520254384404346,0.0,1.0,18.6561409043271,18.434353404968164,0.0,Landing
11.600000000000001,-200.51306527256645,-1004.7838235311987,161.1624255656372,3.4531039191454567,1.251491966177852,62.73064988023452,36.941784270495546,0.0,1.0,18.6561409043271,18.434353404968164,0.0,Landing
11.700000000000001,-202.13194779877747,-985.9077422522774,159.15931345978092,3.601615485348911,1.1398870189862151,62.73709318637424,37.27563408052053,0.0,1.0,18.6561409043271,18.434353404968164,0.0,Landing
11.8,-203.73252379992826,-982.0006055545151,160.47910341776597,3.7010244860572343,0.6565988755381736,62.91905376674845,36.812824124786864,0.0,1.0,18.6561409043271,18.434353404968164,0.0,Landing
11.9,-205.42306830033903,-993.6742048804548,159.55991979822738,3.585580401683259,1.3109100417662711,62.720357262978666,36.741512213305796,0.0,1.0,18.6561409043271,18.434353404968164,0.0,Landing
12.0,-207.10031882317975,-1000.6086272184406,162.6243288903868,3.5496037121467037,0.5917961473518134,62.83125718880308,37.10641493736064,0.0,1.0,18.6561409043271,18.434353404968164,0.0,Landing
12.100000000000001,-208.73556693602046,-996.6799510562056,159.34426986978943,3.4581903529833107,0.9344893367235214,62.79564846590972,36.87667709248564,0.0,1.0,18.6561409043271,18.434353404968164,0.0,Landing
12.200000000000001,-210.40646805562005,-985.3331687601725,160.6387337686596,3.69809492123107,0.8385755376711522,62.69745261809561,36.5078860832886,0.0,1.0,18.6561409043271,18.434353404968164,0.0,Landing
12.3,-212.0269846669806,-991.4441318229934,161.20534129927233,3.7809824159862613,1.2594556921997166,62.91746814072934,36.73592885335231,0.0,1.0,18.6561409043271,18.434353404968164,0.0,Landing
12.4,-213.69278759513543,-978.8321432213024,160.46510864124673,3.7288715517797977,0.9820114772119167,62.633904003226974,37.04061295632056,0.0,1.0,18.6561409043271,18.434353404968164,0.0,Landing
12.5,-215.30062877172656,-963.5312885246948,160.54522751961537,3.5794145850039114,0.9868313111170761,62.977318984200224,36.7981879483004,0.0,1.0,18.6561409043271,18.434353404968164,0.0,Landing
12.600000000000001,-216.84464110960408,-954.9632780788443,160.12964650495962,3.387091576048431,0.9084428291685959,62.95666229858392,36.67754526641559,0.0,1.0,18.6561409043271,18.434353404968164,0.0,Landing
12.700000000000001,-218.46760398552965,-974.534973886199,159.59575419909746,3.5795881683480797,0.7863926374553231,63.06767430050502,37.19105644514453,0.0,1.0,18.6561409043271,18.434353404968164,0.0,Landing
12.8,-220.17330364115756,-986.5328741149597,160.2209114593136,3.723364616525984,0.639083921007039,62.734403175252055,36.763365258838874,0.0,1.0,18.6561409043271,18.434353404968164,0.0,Landing
12.9,-221.77730548017888,-998.8399208896625,161.76411052140722,3.511425554593118,0.9691008772229208,62.88252202327993,36.6159546965409,0.0,1.0,18.6561409043271,18.434353404968164,0.0,Landing
13.0,-223.46180358997796,-991.2204003548653,161.29694947692693,3.426545208423824,0.9570505376103576,62.67942470644499,37.151932028800815,0.0,1.0,18.6561409043271,18.434353404968164,0.0,Landing
13.100000000000001,-225.12940564293189,-1013.7218448044736,160.71132879333888,3.745038685032795,0.9182082971714216,62.8567792382201,37.05663781066519,0.0,1.0,18.6561409043271,18.434353404968164,0.0,Landing
13.200000000000001,-226.84591470420125,-998.9600497593643,162.1979902890785,3.402773624504504,0.9389516646628655,62.78724200638425,37.05107662248192,0.0,1.0,18.6561409043271,18.434353404968164,0.0,Landing
13.3,-228.45660383877478,-997.9852809370641,162.74209209105288,4.020047730819332,1.0665678798513551,62.73758394023088,37.14068996546701,0.0,1.0,18.6561409043271,18.434353404968164,0.0,Landing
13.4,-230.1193320476172,-983.1885320632524,160.9766665094036,3.4452493870269154,0.8349525142935659,62.688598519373386,37.32536505043912,0.0,1.0,18.6561409043271,18.434353404968164,0.0,Landing
13.5,-231.7618573645175,-985.6349657522004,159.92911424760217,3.5297019917438974,0.8785905825591058,63.01618536553741,37.036504107716766,0.0,1.0,18.6561409043271,18.434353404968164,0.0,Landing
13.600000000000001,-233.38477866753578,-994.26938757548,160.3544500878138,3.5186342405259032,1.3561482763190031,62.782569170009424,36.767234969378755,0.0,1.0,18.6561409043271,18.434353404968164,0.0,Landing
13.700000000000001,-235.0906789854946,-1001.5538379447834,160.47836513696336,3.1286576623735676,1.1484891009987286,62.93004488010189,36.94059356805182,0.0,1.0,18.6561409043271,18.434353404968164,0.0,Landing
13.8,-236.76962655424143,-999.2343361083557,158.79660621472118,3.6269812741677185,0.9700456701315551,62.893460328636934,36.594283760216385,0.0,1.0,18.6561409043271,18.434353404968164,0.0,Landing
13.9,-238.38095034807756,-979.9768946759856,160.44362898906027,3.5324948439010964,0.7640737049081372,62.588281362498435,36.97267448399462,0.0,1.0,18.6561409043271,18.434353404968164,0.0,Landing
14.0,-239.99056345887453,-972.575965616045,159.43546305244058,3.3297496890414005,1.0624709926270641,62.73190384243077,36.660212736862384,0.0,1.0,18.6561409043271,18.434353404968164,0.0,Landing
14.100000000000001,-241.63250638232165,-976.6062833287948,159.75247163651403,3.4928063487689713,0.7754593834475212,62.73718593495465,36.77572919711362,0.0,1.0,18.6561409043271,18.434353404968164,0.0,Landing
14.200000000000001,-243.26398176472154,-997.2189742685147,160.52355294996815,3.577614637532661,0.6904305771086896,62.96926101618385,37.07370425848272,0.0,1.0,18.6561409043271,18.434353404968164,0.0,Landing
14.3,-244.9766583302171,-1000.8425939229825,160.71043269830537,3.3900350590401143,1.210001509686597,62.75674225711066,36.17771511974859,0.0,1.0,18.6561409043271,18.434353404968164,0.0,Landing
14.4,-246.63671935193656,-993.1467552607331,159.47752482070086,3.654619406786888,1.348511665405983,63.05362391754869,36.587998727403345,0.0,1.0,18.6561409043271,18.434353404968164,0.0,Landing
14.5,-248.2297155410252,-975.0932879688493,158.35319320873236,3.5505718070100762,0.6817355074115266,62.88084705371858,37.16980969570686,0.0,1.0,18.6561409043271,18.434353404968164,0.0,Landing
14.600000000000001,-249.85212477006135,-955.5114314085131,160.43675362548072,3.80415251361422,0.9082783163980425,62.77879264004571,36.546215222357894,0.0,1.0,18.6561409043271,18.434353404968164,0.0,Landing
14.700000000000001,-251.41427650897913,-958.3719074436943,160.4657166426807,3.624554753397826,1.0135214106695107,62.67787354778119,37.25967710998792,0.0,1.0,18.6561409043271,18.434353404968164,0.0,Landing
14.8,-253.02157507824367,-958.0337590747946,162.91769358445214,3.483510475787727,0.8817502541066328,63.04217008819052,36.676695732677196,0.0,1.0,18.6561409043271,18.434353404968164,0.0,Landing
14.9,-254.64229356543532,-951.6952520521614,160.3915442281023,3.1147739709763242,1.044552942190505,62.82067908931617,36.905009076286376,0.0,1.0,18.6561409043271,18.434353404968164,0.0,Landing
15.0,-256.17275276923993,-960.0839464761351,160.82621257257412,3.4814845550620053,1.0946712797369382,62.767197871507165,36.77891262759148,0.0,1.0,18.6561409043271,18.434353404968164,0.0,Landing
15.100000000000001,-257.82199481062435,-954.0144938602624,159.9628617287416,3.4736299880859667,1.050173708259351,63.084913086707616,36.697104447189815,0.0,1.0,18.6561409043271,18.434353404968164,0.0,Landing
15.200000000000001,-259.41236603473664,-987.4644294873406,159.68140920506812,3.9705123844054837,0.7888712052788742,63.01723057196165,36.0996769935327,0.0,1.0,18.6561409043271,18.434353404968164,0.0,Landing
15.3,-261.11007491667664,-982.2204169698352,161.66862725188852,3.3194350807955404,0.9174750289231715,62.76594494142728,36.965069377330856,0.0,1.0,18.6561409043271,18.434353404968164,0.0,Landing
15.4,-262.7330968954735,-1001.8630191917624,159.04148597067524,3.734554030478978,0.8857832490447597,62.64329848026165,37.109874110385526,0.0,1.0,18.6561409043271,18.434353404968164,0.0,Landing
15.5,-264.42168113069545,-997.3178115338669,160.21134483735352,3.5929830984553583,0.8238071517564194,62.67838316562222,37.00835514439527,0.0,1.0,18.6561409043271,18.434353404968164,0.0,Landing
15.600000000000001,-266.096663974346,-1000.9885237915229,162.41269321465336,3.343111999882202,0.7909797494235339,62.801062349742324,37.3163907983098,0.0,1.0,18.6561409043271,18.434353404968164,0.0,Landing
15.700000000000001,-267.73803951443114,-984.3955235712428,161.17316270396736,3.5650862879228225,0.9410659502028533,62.75782027772755,36.95199118989722,0.0,1.0,18.6561409043271,18.434353404968164,0.0,Landing
15.8,-269.34365874855166,-974.0622658596409,161.17212625395803,3.5579250680573873,0.5826383708554252,62.82345569067343,36.99065976295568,0.0,1.0,18.6561409043271,18.434353404968164,0.0,Landing
15.9,-270.9669753036442,-959.447666696974,160.06359749160399,3.5608596349595913,0.7497429279875563,62.46867017160639,36.75448186281886,0.0,1.0,18.6561409043271,18.434353404968164,0.0,Landing
16.0,-272.535277847916,-983.8642015901314,159.60313236594197,3.7278184595268455,1.4444229805476554,62.66335009689368,36.902393636381255,0.0,1.0,18.6561409043271,18.434353404968164,0.0,Landing
16.1,-274.2629797565023,-972.7213294759509,160.45552478466482,3.63504489646531,0.9110153793526824,62.67595342773063,36.83096750842275,0.0,1.0,18.6561409043271,18.434353404968164,0.0,Landing
16.2,-275.83058195102393,-992.9071212867711,159.5052335824971,3.716631415145047,0.6105792465469533,62.86898827060628,36.90927744031191,0.0,1.0,18.6561409043271,18.434353404968164,0.0,Landing
16.3,-277.49981345434986,-982.4830423528056,161.38053351434212,3.965866801924916,1.42189582612049,62.85896505395891,36.48886185655888,0.0,1.0,18.6561409043271,18.434353404968164,0.0,Landing
16.400000000000002,-279.17539496826635,-983.7228131356824,159.94744359231322,3.763764876111537,0.9947549416524325,62.903797728140376,36.92667549675363,0.0,1.0,18.6561409043271,18.434353404968164,0.0,Landing
16.5,-280.74919601670234,-971.8798752760449,159.8140590120518,3.1756927667530324,0.6937879136395319,62.60674815376075,36.56619092153717,0.0,1.0,18.6561409043271,18.434353404968164,0.0,Landing
16.6,-282.3592128307301,-962.5814475466768,162.49175292118812,3.351227231536902,1.0793456325322452,62.839731890449286,36.56378427577834,0.0,1.0,18.6561409043271,18.434353404968164,0.0,Landing
16.7,-283.98830220599973,-956.8331585395869,160.9958831779354,3.6606397648200835,1.0356924902476001,62.93821857670997,36.8860873237975,0.0,1.0,18.6561409043271,18.434353404968164,0.0,Landing
16.8,-285.5333618094003,-950.4601906656377,159.24706812673722,3.650908013499403,0.8723436587012326,62.767014023110846,37.02835834091772,0.0,1.0,18.6561409043271,18.434353404968164,0.0,Landing
16.900000000000002,-287.1115137840583,-940.4807929973686,160.65921126501104,3.507224832568478,0.7662977685341544,62.8027591771982,37.00104686015487,0.0,1.0,18.6561409043271,18.434353404968164,0.0,Landing
17.0,-288.6907061709866,-967.831711423878,160.12667901437484,3.406175423760322,0.7729608694466272,62.74484026954093,36.56069486147026,0.0,1.0,18.6561409043271,18.434353404968164,0.0,Landing
17.1,-290.37252036651967,-976.8321326588193,159.50327984250174,3.743117993918681,1.0923681124648785,62.866992867360295,37.308622746984035,0.0,1.0,18.6561409043271,18.434353404968164,0.0,Landing
17.2,-291.99567444735237,-977.8164417212565,159.72959943063532,3.7735703037483423,0.977928520446638,62.789820150884225,36.77047260160397,0.0,1.0,18.6561409043271,18.434353404968164,0.0,Landing
17.3,-293.57978837959286,-975.5085325714163,161.26463431886032,3.523911571489451,1.0673290027180813,62.90707259261785,36.8566389941291,0.0,1.0,18.6561409043271,18.434353404968164,0.0,Landing
17.400000000000002,-295.25006302937675,-971.2597531213875,160.61111967533768,3.7484597707400633,1.2531566253490016,62.78731132771799,36.810283702160184,0.0,1.0,18.6561409043271,18.434353404968164,0.0,Landing
17.5,-296.8519732129593,-984.5315220854445,160.35222005297248,4.232715844311803,0.8796878904831724,62.79219122319029,36.7313524634119,0.0,1.0,18.6561409043271,18.434353404968164,0.0,Landing
17.6,-298.5024459900201,-968.2052956134157,159.0668736892293,3.376168681100509,1.3223499554883533,62.71565760524521,36.75587616870876,0.0,1.0,18.6561409043271,18.434353404968164,0.0,Landing
17.7,-300.0910895074438,-963.6106965107956,161.80263085046056,3.459647529472264,0.92789011655185,63.12394685214514,37.42138127818549,0.0,1.0,18.6561409043271,18.434353404968164,0.0,Landing
17.8,-301.6700266955133,-950.2289509288745,158.94041089865905,3.1637636893057905,1.1065491772628344,62.62165253035403,37.4099214403155,0.0,1.0,18.6561409043271,18.434353404968164,0.0,Landing
17.900000000000002,-303.25359074466445,-954.4978969832188,159.83837046689985,3.1119313271509235,0.9140797559695915,62.862466159814005,36.95436825183114,0.0,1.0,18.6561409043271,18.434353404968164,0.0,Landing
18.0,-304.8635789923599,-965.3696611488955,158.53957332808582,3.587972754108566,1.1247642487396192,62.488377063918506,36.92480921085723,0.0,1.0,18.6561409043271,18.434353404968164,0.0,Landing
18.1,-306.49687500125776,-961.8793052998968,160.8466749046178,3.8607798151328474,1.418881642747982,62.77115637589674,37.03538597945212,0.0,1.0,18.6561409043271,18.434353404968164,0.0,Landing
18.2,-308.06298727116393,-964.7647609681599,159.71737778420447,3.5699041614704443,1.3556057610237973,62.73258877765056,37.326303672509404,0.0,1.0,18.6561409043271,18.434353404968164,0.0,Landing
18.3,-309.6874027972007,-945.5346094123115,160.87008712490953,3.7960236690378624,1.1932430492041526,62.72244105619677,36.07806499849584,0.0,1.0,18.6561409043271,18.434353404968164,0.0,Landing
18.400000000000002,-311.2245480483193,-937.7776576113774,160.09434550554005,4.192463645512214,1.1041252031609008,62.672986127632214,36.73889785897718,0.0,1.0,18.6561409043271,18.434353404968164,0.0,Landing
18.5,-312.7518755592208,-939.8416781931928,160.6310257285141,3.5459124916071825,0.7487398343007858,62.61115677876751,36.599129513000605,0.0,1.0,18.6561409043271,18.434353404968164,0.0,Landing
18.6,-314.3866111881667,-941.4945684151122,160.40066595807056,3.3273965715644875,0.8406321978293664,62.7110155979297,36.389894084863464,0.0,1.0,18.6561409043271,18.434353404968164,0.0,Landing
18.7,-315.9320208903949,-947.1605905135448,159.3804449522099,3.8127929392767883,0.732239543344422,62.73195695050208,36.92306745677707,0.0,1.0,18.6561409043271,18.434353404968164,0.0,Landing
18.8,-317.48767851178854,-949.0099004280864,161.17033633726942,3.6767010169567604,0.7124142928608717,63.28383445200228,37.14737990613482,0.0,1.0,18.6561409043271,18.434353404968164,0.0,Landing
18.900000000000002,-319.1316606903071,-967.5444190450777,160.65780591757525,3.8622492040765115,0.997366058456074,62.802330100098004,36.94366340970109,0.0,1.0,18.6561409043271,18.434353404968164,0.0,Landing
19.0,-320.76974298562027,-983.4082599013187,163.40357393398406,3.5074854832670224,0.8580283153749853,63.036730870994575,36.65742447574964,0.0,1.0,18.6561409043271,18.434353404968164,0.0,Landing
19.1,-322.40471981129514,-981.0296325552032,158.6481546514246,3.5821264220238764,1.1882567385277432,62.67328184136238,37.19013225911542,0.0,1.0,18.6561409043271,18.434353404968164,0.0,Landing
19.200000000000003,-324.03680885308313,-962.2399539115577,161.4139190045524,3.1424919468199723,1.0000914321728425,62.89312412038532,36.36247373340799,0.0,1.0,18.6561409043271,18.434353404968164,0.0,Landing
19.3,-325.58094275517806,-936.6331526338514,161.724182549979,3.38371943597699,0.9715127811551904,63.02479763468267,36.7983156039584,0.0,1.0,18.6561409043271,18.434353404968164,0.0,Landing
19.400000000000002,-327.0878855744644,-952.0434086309593,159.7513104094922,3.606720418856816,1.156503893817081,62.79891731205885,36.58388827994913,0.0,1.0,18.6561409043271,18.434353404968164,0.0,Landing
19.5,-328.7970258962379,-954.7709594115304,160.90203075101974,3.5098399886415974,0.882142916818576,63.02115671917272,36.59363301741102,0.0,1.0,18.6561409043271,18.434353404968164,0.0,Landing
19.6,-330.3547975522357,-962.1874947994571,161.6072492120304,3.4580435311566697,0.7823886821463997,62.59355394615369,37.35289610224764,0.0,1.0,18.6561409043271,18.434353404968164,0.0,Landing
19.700000000000003,-331.8988230484617,-928.2695108237249,161.70601772181556,3.3274496524549266,1.1289373256676594,63.0387013460811,36.95025035165755,0.0,1.0,18.6561409043271,18.434353404968164,0.0,Landing
19.8,-333.43837345035655,-919.8880138631239,158.80339198993494,3.381665284073653,1.3404010551326526,62.87419150634469,36.85027156817502,0.0,1.0,18.6561409043271,18.434353404968164,0.0,Landing
19.900000000000002,-334.95423762155133,-937.4407585925043,160.65173664544417,3.2935325983823835,0.65589726968259,62.78089940011557,37.57219495987344,0.0,1.0,18.6561409043271,18.434353404968164,0.0,Landing
20.0,-336.5860268414242,-946.0844559736757,162.2001812589778,3.617840355738498,0.8518695653425578,63.02636448243169,37.084645568804426,0.0,1.0,18.6561409043271,18.434353404968164,0.0,Landing
20.1,-338.16879573022493,-951.7472955154632,161.47410376113112,3.4422208544617403,1.1267346813363046,62.71406801121424,36.99413997093594,0.0,1.0,18.6561409043271,18.434353404968164,0.0,Landing
20.200000000000003,-339.71297409912864,-936.5212481528033,160.48996071525653,3.51541961027083,1.0390061561974622,62.895335220404775,36.592173855474925,0.0,1.0,18.6561409043271,18.434353404968164,0.0,Landing
20.3,-341.2686330821882,-933.3156277221178,160.6775762101852,3.3855663972946908,0.6752453600219801,62.827818774375885,36.83933746756388,0.0,1.0,18.6561409043271,18.434353404968164,0.0,Landing
20.400000000000002,-342.8353738688355,-941.0688460112851,160.6535858333069,3.5466749903385,0.849820732245602,62.86610061301218,37.18351522102325,0.0,1.0,18.6561409043271,18.434353404968164,0.0,Landing
20.5,-344.41831832918507,-947.6115009727664,160.79528830043,3.7754174867624264,1.1242569515094367,62.91073841185971,37.32143271460053,0.0,1.0,18.6561409043271,18.434353404968164,0.0,Landing
20.6,-346.00669058705205,-953.9855706608705,159.96299082916426,3.548965732061281,1.102714684855342,62.55985841040297,37.19153770642276,0.0,1.0,18.6561409043271,18.434353404968164,0.0,Landing
20.700000000000003,-347.60530172213987,-951.7374623672822,159.29875494010182,3.2809810118417273,0.9108073602540424,62.874916650813816,37.23350288046897,0.0,1.0,18.6561409043271,18.434353404968164,0.0,Landing
20.8,-349.1770056410215,-932.6814778280892,159.87401814933375,3.381101107553189,1.0626148297936189,63.09149718230253,36.80152828788619,0.0,1.0,18.6561409043271,18.434353404968164,0.0,Landing
20.900000000000002,-350.6700979761925,-921.657793153986,160.34753718261692,3.7995601645350656,0.40998045329559185,62.730289649577685,36.714481343902825,0.0,1.0,18.6561409043271,18.434353404968164,0.0,Landing
21.0,-352.2135906879098,-924.0452694614078,159.8800540489451,3.440738538188082,0.9766287942672528,63.000976503706624,36.909161192382015,0.0,1.0,18.6561409043271,18.434353404968164,0.0,Landing
21.1,-353.7972319883285,-934.3695727920364,160.04018477975723,3.619605436381956,1.036854193308023,63.00151382372172,36.857306225719,0.0,1.0,18.6561409043271,18.434353404968164,0.0,Landing
21.200000000000003,-355.3419458401527,-950.5420474086692,161.458206580383,3.432388133355886,0.7145854489812897,62.724156534507074,36.65413415445558,0.0,1.0,18.6561409043271,18.434353404968164,0.0,Landing
21.3,-356.96630092495315,-960.4558134894775,160.69596863465875,3.0536372492888573,1.1273827736742446,62.5492739467025,37.13779642523483,0.0,1.0,18.6561409043271,18.434353404968164,0.0,Landing
21.400000000000002,-358.5995110557759,-964.3451052398859,160.25109521822915,3.349686871850995,0.9504560351177659,62.870722664606376,36.66142317266414,0.0,1.0,18.6561409043271,18.434353404968164,0.0,Landing
21.5,-360.1636713663521,-936.4465569845039,160.7744274629657,3.318380146672463,0.8594320785678291,62.79205565122743,37.33612513617568,0.0,1.0,18.6561409043271,18.434353404968164,0.0,Landing
21.6,-361.64853370987566,-892.247003357943,159.6012273541049,4.02169873331197,0.9425437814700603,62.89357558847769,37.1838854433727,0.0,1.0,18.6561409043271,18.434353404968164,0.0,Landing
21.700000000000003,-363.0607460725656,-889.6139048316627,160.30275582420958,3.393968601388541,0.3904431531818974,62.693788560735015,36.8296159796648,0.0,1.0,18.6561409043271,18.434353404968164,0.0,Landing
21.8,-364.6117408905104,-912.9054374323347,160.60458341654282,3.8709854418684007,1.115496076250433,62.82262228429181,36.41130218017313,0.0,1.0,18.6561409043271,18.434353404968164,0.0,Landing
21.900000000000002,-366.21306089703734,-947.9757820413852,159.77420151556512,3.7663116591207717,1.2147322213978227,62.696905665807776,37.662791179726305,0.0,1.0,18.6561409043271,18.434353404968164,0.0,Landing
22.0,-367.80062498277255,-949.4935949176352,161.38010183685626,3.5559369858549545,1.170535523731373,62.87374132895877,36.86170222339947,0.0,1.0,18.6561409043271,18.434353404968164,0.0,Landing
22.1,-369.3592088650986,-943.9563991006253,160.24977979215365,3.4727873923365085,0.8328085629787731,62.76838577582339,36.89905361777745,0.0,1.0,18.6561409043271,18.434353404968164,0.0,Landing
22.200000000000003,-370.93284289254046,-947.9127169383333,159.84716157512588,3.5892855925583156,1.0276745089913302,62.660013011330705,36.44664493526096,0.0,1.0,18.6561409043271,18.434353404968164,0.0,Landing
22.3,-372.5401885674642,-964.4213307637983,159.59240460703097,3.19216088443397,1.237736129321151,62.92893491101597,36.78289440637755,0.0,1.0,18.6561409043271,18.434353404968164,0.0,Landing
22.400000000000002,-374.1813155189176,-943.8357045072507,159.65343269992104,3.632705176682148,0.8275135770247821,62.67305451643688,36.80039121410132,0.0,1.0,18.6561409043271,18.434353404968164,0.0,Landing
22.5,-375.6520214150767,-913.5410014671039,159.3702375843588,3.676572722780908,1.0344166249065636,62.89259194759711,37.114996947425176,0.0,1.0,18.6561409043271,18.434353404968164,0.0,Landing
22.6,-377.10789357479973,-891.8968442364985,161.4157699792246,3.97734638342753,0.9322288702216713,62.85494852503615,36.23733865672813,0.0,1.0,18.6561409043271,18.434353404968164,0.0,Landing
22.700000000000003,-378.6407997401001,-902.281393231533,160.73903774670953,3.6606735634912027,0.9285329198741249,62.8050008012911,36.64471521754657,0.0,1.0,18.6561409043271,18.434353404968164,0.0,Landing
22.8,-380.1634283812344,-921.6499452474636,160.4115288066248,3.3552269059970112,1.3799049664046317,62.91293312329856,37.003474937652314,0.0,1.0,18.6561409043271,18.434353404968164,0.0,Landing
22.900000000000002,-381.71614330103705,-917.3774044903894,160.1194520871614,3.4519005806279606,0.9262763169282209,62.61161008021293,36.4627940443668,0.0,1.0,18.6561409043271,18.434353404968164,0.0,Landing
23.0,-383.227686762552,-936.5059658808037,158.92836637607172,3.6088847016419914,1.014359483452227,62.83983167543954,37.12049990200585,0.0,1.0,18.6561409043271,18.434353404968164,0.0,Landing
23.1,-384.8459582106384,-930.1157244742626,160.99994701883227,3.3639207267801052,1.0787578691033606,62.74157714166586,36.872320270441904,0.0,1.0,18.6561409043271,18.434353404968164,0.0,Landing
23.200000000000003,-386.36672192340836,-936.8850317481589,159.53736562546806,3.3024791714790793,1.6210382180178113,62.63198778776831,36.758183541268906,0.0,1.0,18.6561409043271,18.434353404968164,0.0,Landing
23.3,-387.9121119212928,-927.7045324520941,159.05932990668825,3.2050686176314827,0.8114750604057294,63.03485954743746,36.71921118378737,0.0,1.0,18.6561409043271,18.434353404968164,0.0,Landing
23.400000000000002,-389.48448087289887,-943.8892753751021,161.39588461524764,3.7030865320280935,0.7926459983162846,62.687420078530636,36.821256698565755,0.0,1.0,18.6561409043271,18.434353404968164,0.0,Landing
23.5,-391.0861683002839,-951.5905707722937,160.48436518899422,3.469081218859401,0.933632942254673,63.0099434577852,36.87621903503107,0.0,1.0,18.6561409043271,18.434353404968164,0.0,Landing
23.6,-392.6700647751543,-946.7689483556002,157.93151615476557,3.3996165339032123,0.8362265245563445,63.180032245295706,37.55563954513995,0.0,1.0,18.6561409043271,18.434353404968164,0.0,Landing
23.700000000000003,-394.21832561467687,-937.2847821943878,159.25152317210998,3.415564242311559,1.120238660546267,63.537720236268626,37.184745509882724,0.0,1.0,18.6561409043271,18.434353404968164,0.0,Landing
23.8,-395.7725922112558,-949.7957085451277,161.41941722767757,3.906093306863702,1.0367363326686956,62.54102706354473,37.16200650337469,0.0,1.0,18.6561409043271,18.434353404968164,0.0,Landing
23.900000000000002,-397.4190433178799,-953.2275365049487,160.43051776559602,3.5604518161852385,0.7317977533634977,62.86216462213014,36.43752960403386,0.0,1.0,18.6561409043271,18.434353404968164,0.0,Landing
24.0,-398.9844632972016,-950.7532854102125,159.64379232292794,3.5659280003291607,0.9426520151252379,62.690281218622545,37.2202747333851,0.0,1.0,18.6561409043271,18.434353404968164,0.0,Landing
24.1,-400.5263586383069,-927.2654042236014,160.8456385182574,4.04685273048581,1.039853805608158,63.01286795429428,36.885251821146646,0.0,1.0,18.6561409043271,18.434353404968164,0.0,Landing
24.200000000000003,-402.05537033899793,-928.9975269247976,159.28740309230938,3.487954674142235,1.3551283478651732,62.83090738203168,36.78551770910782,0.0,1.0,18.6561409043271,18.434353404968164,0.0,Landing
24.3,-403.6294509318256,-913.5470839192976,160.1587971254391,3.7491683032540273,0.9873861001830208,63.087014569119106,37.000319697594875,0.0,1.0,18.6561409043271,18.434353404968164,0.0,Landing
24.400000000000002,-405.09409405790336,-911.4482118159345,162.7317782661878,3.6592284717922507,0.8915411341765764,62.893242368749725,37.531701103381465,0.0,1.0,18.6561409043271,18.434353404968164,0.0,Landing
24.5,-406.6126113980776,-887.2661828728496,162.42925682394613,3.4750450530623214,1.0395111958985443,62.85614294618898,36.88399802343031,0.0,1.0,18.6561409043271,18.434353404968164,0.0,Landing
24.6,-408.06578184618985,-890.8173711115184,159.87484978219663,3.5293572580495596,0.8973117530709102,62.874661216523975,36.36983813178505,0.0,1.0,18.6561409043271,18.434353404968164,0.0,Landing
24.700000000000003,-409.54818091346095,-887.6923991942931,160.39379063284974,3.58900630809448,1.127313346258744,62.58331115927598,37.263188934513316,0.0,1.0,18.6561409043271,18.434353404968164,0.0,Landing
24.8,-411.05107339404907,-907.3778384862068,161.01313061692807,3.259027962224062,1.0362444633393164,62.70039329157515,36.79727241178966,0.0,1.0,18.6561409043271,18.434353404968164,0.0,Landing
24.900000000000002,-412.6026710386209,-910.6831313298131,161.43024961539442,3.57253056362236,0.7324417014478769,62.9225725831256,36.59339757643073,0.0,1.0,18.6561409043271,18.434353404968164,0.0,Landing
25.0,-414.10159657011,-910.6834860873165,159.97409245968024,3.773676816538843,1.3519713412921215,62.891680574607165,36.38284260311754,0.0,1.0,18.6561409043271,18.434353404968164,0.0,Landing
25.1,-415.60449082448565,-899.0843007399577,159.98899053710474,3.4134961301650413,1.0399578928136188,62.69106598263636,36.71176381211574,0.0,1.0,18.6561409043271,18.434353404968164,0.0,Landing
25.200000000000003,-417.09809254232067,-919.972991708221,160.04478213795468,3.567858527734534,0.8398474492248185,62.8679416507789,36.934253200974396,0.0,1.0,18.6561409043271,18.434353404968164,0.0,Landing
25.3,-418.7014615286511,-906.1211070134277,159.11135368228824,3.6549686156270993,0.8569222385056198,62.5636147085267,36.56551200036835,0.0,1.0,18.6561409043271,18.434353404968164,0.0,Landing
25.400000000000002,-420.1350963595528,-905.7890448109334,159.2949591144782,3.541121074157273,1.206288704927528,62.929326520858865,36.53008222519154,0.0,1.0,18.6561409043271,18.434353404968164,0.0,Landing
25.5,-421.62703776637534,-878.4998607654758,160.30628071297826,3.2936591485882305,0.7237338888235475,62.99614162641251,36.7635340481583,0.0,1.0,18.6561409043271,18.434353404968164,0.0,Landing
25.6,-423.0939608324785,-892.6592089488167,159.7143192604853,3.293336042058004,1.0018522098276192,62.96571986744118,36.895090662244016,0.0,1.0,18.6561409043271,18.434353404968164,0.0,Landing
25.700000000000003,-424.5983924042969,-893.9497244660515,160.00539129322803,3.790218012780518,0.9506271054310033,63.0047339157984,36.87576438253935,0.0,1.0,18.6561409043271,18.434353404968164,0.0,Landing
25.8,-426.0967863887056,-898.0618617889604,160.9930645457361,3.679311694009078,1.1704554114024897,62.68813777211017,36.99492079820867,0.0,1.0,18.6561409043271,18.434353404968164,0.0,Landing
25.900000000000002,-427.5842701414233,-889.7086068799468,160.462087597764,3.6436013244627685,1.0030981049223382,63.10720244528608,37.104259206306146,0.0,1.0,18.6561409043271,18.434353404968164,0.0,Landing
26.0,-429.0469354386966,-883.6756559354741,159.9999162130319,3.6751024296990686,0.9831874132261008,62.803933771656716,36.97677525180123,0.0,1.0,18.6561409043271,18.434353404968164,0.0,Landing
26.1,-430.51516466838297,-878.1921706895673,161.88055108963175,3.400716155113211,0.9201592242912189,62.99340941085654,36.95687036032906,0.0,1.0,18.6561409043271,18.434353404968164,0.0,Landing
26.200000000000003,-431.97523099487114,-889.6536154261867,161.32307724850298,3.8290331793331527,0.9402763628802974,62.52911503155758,36.74534663680724,0.0,1.0,18.6561409043271,18.434353404968164,0.0,Landing
26.3,-433.49520351582754,-911.7913128413535,160.25769977781326,3.157840866896469,1.1318712835915363,62.91968659302319,37.094057269626305,0.0,1.0,18.6561409043271,18.434353404968164,0.0,Landing
26.400000000000002,-435.07412123258973,-935.037463408139,159.56724650826425,3.626465006178989,0.8618883967295119,62.94596681800181,36.98935083204118,0.0,1.0,18.6561409043271,18.434353404968164,0.0,Landing
26.5,-436.65041831191184,-943.285159055722,160.62805951603409,3.3494930510306844,1.0377519029961852,62.846345324729725,36.86377443010692,0.0,1.0,18.6561409043271,18.434353404968164,0.0,Landing
26.6,-438.21162931110615,-922.7812023032584,160.12464901728652,3.62766395808599,1.2115107174266824,62.58934039497757,36.607601186858446,0.0,1.0,18.6561409043271,18.434353404968164,0.0,Landing
26.700000000000003,-439.688027244106,-924.3412400768875,159.81640295632167,3.2419308685759156,0.7472574840160351,62.898769877051166,36.23504610068087,0.0,1.0,18.6561409043271,18.434353404968164,0.0,Landing
26.8,-441.2721245122963,-896.5652649809044,159.84733165361828,3.7828627764322267,1.0803313221323385,62.54292678466061,36.66017857640457,0.0,1.0,18.6561409043271,18.434353404968164,0.0,Landing
26.900000000000002,-442.6944556360107,-885.788587596835,160.50610478404232,3.4102946334851434,1.0600871655678676,62.48693239728266,36.7751598478005,0.0,1.0,18.6561409043271,18.434353404968164,0.0,Landing
27.0,-444.1169701820902,-888.0065839330655,159.90494916548303,3.4611404657693945,1.1047146851002292,62.81422822291972,37.130118529836565,0.0,1.0,18.6561409043271,18.434353404968164,0.0,Landing
27.1,-445.7121574319616,-905.1062500825537,159.76151538046872,3.6473886364239045,0.8863072689004067,62.842942165645354,36.95858020684098,0.0,1.0,18.6561409043271,18.434353404968164,0.0,Landing
27.200000000000003,-447.21998688642344,-931.5753327223207,160.52976925472586,3.964938473805221,1.3893469251896082,63.16535786987902,36.794514707762275,0.0,1.0,18.6561409043271,18.434353404968164,0.0,Landing
27.3,-448.7748468457018,-922.1833499561513,161.13520321307786,3.3653272541698986,0.9182535058946995,62.89064157137642,36.87222723777018,0.0,1.0,18.6561409043271,18.434353404968164,0.0,Landing
27.400000000000002,-450.32307418174236,-930.4009793697675,164.29429948150135,3.279520697817451,1.3607546961056025,62.88707102453134,36.31537012706693,0.0,1.0,18.6561409043271,18.434353404968164,0.0,Landing
27.5,-451.8719917832723,-937.62985993327,160.0172986998867,3.4208816614051933,1.0899270369472827,62.70575441338235,36.762971396145396,0.0,1.0,18.6561409043271,18.434353404968164,0.0,Landing
27.6,-453.46299614536815,-924.0229559792169,161.7065650595954,3.84316318556166,1.336603177077325,62.84728793377576,36.684451690205194,0.0,1.0,18.6561409043271,18.434353404968164,0.0,Landing
27.700000000000003,-454.94318896163844,-916.4460805338194,161.3737295703511,3.4030074803725228,1.4080695228019162,62.643240851619794,36.58866348084636,0.0,1.0,18.6561409043271,18.434353404968164,0.0,Landing
27.8,-456.4542221859414,-894.6013409208035,160.1135600563559,3.3220034712676867,1.0436956094168897,62.923012272144604,36.64631753003847,0.0,1.0,18.6561409043271,18.434353404968164,0.0,Landing
27.900000000000002,-457.93600284997217,-893.25271452459,158.58437433299397,3.0251871241904573,1.245201863094284,62.98044215895095,36.64693842049682,0.0,1.0,18.6561409043271,18.434353404968164,0.0,Landing
28.0,-459.4094525342614,-891.203170778988,160.28197363012916,3.43111711774168,1.3408704776731446,62.85091403944807,36.91155325605687,0.0,1.0,18.6561409043271,18.434353404968164,0.0,Landing
28.1,-460.9102380398363,-915.6324068057417,159.14426596586216,3.4195441921636753,1.286286756901554,62.67268897581994,37.41752424744793,0.0,1.0,18.6561409043271,18.434353404968164,0.0,Landing
28.200000000000003,-462.5141648840009,-910.7417527440363,160.03615871674253,3.619556571036584,0.7410618774418456,62.78809812114429,36.56905132883644,0.0,1.0,18.6561409043271,18.434353404968164,0.0,Landing
28.3,-463.96316129798157,-904.5332625516039,159.97595259986616,3.521083277848368,0.8793568720534475,62.95857171100465,36.72768820189323,0.0,1.0,18.6561409043271,18.434353404968164,0.0,Landing
28.400000000000002,-465.43290435259433,-883.656465577758,160.74708805884387,3.3663210325656876,0.966531896844974,62.758799527130805,37.24520796194247,0.0,1.0,18.6561409043271,18.434353404968164,0.0,Landing
28.5,-466.93244721188967,-888.8201420584779,159.31700405728324,3.2638841673217813,1.1644122876822127,62.72993566234612,36.77055870377802,0.0,1.0,18.6561409043271,18.434353404968164,0.0,Landing
28.6,-468.40726200827396,-895.9682503245973,160.63541795311983,3.539578301849761,0.824506607359301,62.65127096473094,36.87338423014918,0.0,1.0,18.6561409043271,18.434353404968164,0.0,Landing
28.700000000000003,-469.9127456042173,-879.3524751460154,160.6382751828519,3.434395136997547,0.794459609848946,62.93833030515742,37.401556647526796,0.0,1.0,18.6561409043271,18.434353404968164,0.0,Landing
28.8,-471.32920958761974,-886.8720390471595,160.26934770228505,3.5958234293074076,1.035335749056187,62.89529392119243,37.205511952736884,0.0,1.0,18.6561409043271,18.434353404968164,0.0,Landing
28.900000000000002,-472.84162220350976,-890.3543044769549,160.7693890452943,3.422594240109392,0.913939631812488,62.849490948010725,36.80256241894503,0.0,1.0,18.6561409043271,18.434353404968164,0.0,Landing
29.0,-474.3645171266021,-906.9617295440366,159.98204830316394,3.526919830920408,0.7522863880022219,62.8744876721932,36.25532408863936,0.0,1.0,18.6561409043271,18.434353404968164,0.0,Landing
29.1,-475.8640182353399,-906.6156689005653,159.15540670365056,3.5299742509354806,0.9647969458413931,62.60441748596986,36.6898089510822,0.0,1.0,18.6561409043271,18.434353404968164,0.0,Landing
29.200000000000003,-477.3747005480126,-894.2283813305494,160.11441007418907,3.361786331606432,0.9924938851313685,62.77664994176081,36.951343985654745,0.0,1.0,18.6561409043271,18.434353404968164,0.0,Landing
29.3,-478.83565903325484,-886.4432902285558,159.88851643499552,3.498493014361135,1.171518128701154,62.65940210527731,37.223677668433034,0.0,1.0,18.6561409043271,18.434353404968164,0.0,Landing
29.400000000000002,-480.2962346864827,-868.3085564416502,161.2692328256763,3.6964003887524144,0.8906323411678154,62.608564103154265,37.28576410914972,0.0,1.0,18.6561409043271,18.434353404968164,0.0,Landing
29.5,-481.71624333022083,-883.8248788331499,160.73329133721555,3.533661598440843,0.745461280023971,62.77775409768907,36.404456875372894,0.0,1.0,18.6561409043271,18.434353404968164,0.0,Landing
29.6,-483.2547834274206,-888.5270892527047,161.46819808341158,3.5448514502114477,1.2057763200175429,62.85284177675703,37.306384408466364,0.0,1.0,18.6561409043271,18.434353404968164,0.0,Landing
29.700000000000003,-484.73887013274623,-907.1421831300655,160.08288045780037,3.783857162206583,0.9776455401287274,62.83865574076515,36.583021094335926,0.0,1.0,18.6561409043271,18.434353404968164,0.0,Landing
29.8,-486.25195424587116,-896.2698264905499,159.4088484754523,3.182936712442631,1.0614277260833154,62.72144770005258,37.12643639239666,0.0,1.0,18.6561409043271,18.434353404968164,0.0,Landing
29.900000000000002,-487.73613255987334,-906.5512882354824,161.51281063018513,3.7333556447452203,0.7177166027273578,62.84453480034398,36.97493471229961,0.0,1.0,18.6561409043271,18.434353404968164,0.0,Landing
30.0,-489.27162657392364,-888.4471971993889,161.22521483962413,3.8760377638466523,0.9573651178522166,62.67457083632331,37.12847789486344,0.0,1.0,18.6561409043271,18.434353404968164,0.0,Landing
30.1,-490.6941902318681,-896.3982700841143,161.18071236355672,3.6467714516586502,0.9459903064721114,62.803212033032366,37.144731188027855,0.0,1.0,18.6561409043271,18.434353404968164,0.0,Landing
30.200000000000003,-492.2181239102939,-893.5053188839107,160.5821798524892,3.281655366968751,0.8744674482190616,62.6340188589387,36.958937517073856,0.0,1.0,18.6561409043271,18.434353404968164,0.0,Landing
