time_s,altitude_ft,vertical_speed_fpm,ias_kt,pitch_deg,roll_deg,heading_deg,throttle_pct,afterburner_on,gear_down,flaps_deg,speedbrake_pct,weight_on_wheels,label
0.0,-2.2048946747934486,-649.6588429194082,160.42476768217176,0.788724647449518,1.7028218343620105,126.57140202122815,31.082268259250867,0.0,1.0,19.79869319439493,18.333811822268448,0.0,Landing
0.1,-4.370424151191476,-849.7102602231358,160.84798304186486,0.9744778965720821,0.9207567321543314,126.53932385461457,31.06411781424054,0.0,1.0,19.79869319439493,18.333811822268448,0.0,Landing
0.2,-6.453445975909128,-1274.7884282941204,160.52851171574594,0.5848018335640569,1.3147959989728952,126.45516468444049,31.51728474546657,0.0,1.0,19.79869319439493,18.333811822268448,0.0,Landing
0.30000000000000004,-8.578836816264051,-1275.8217193246571,162.15135198436798,0.7117474663031937,0.932990321013463,126.60890293157911,30.865864202546188,0.0,1.0,19.79869319439493,18.333811822268448,0.0,Landing
0.4,-10.749532747814762,-1291.5978271485894,161.46033039131433,1.0775875980997887,1.5940073310942653,126.46948938710568,31.447423853749207,0.0,1.0,19.79869319439493,18.333811822268448,0.0,Landing
0.5,-12.911435111652075,-1286.2153720248248,161.65780999997162,0.8679830686785354,1.4427930378061968,126.77931319861858,30.82034403164352,0.0,1.0,19.79869319439493,18.333811822268448,0.0,Landing
0.6000000000000001,-15.009913676388175,-1283.8976441742204,159.42568261407234,1.1083528369966331,1.6478196277970873,126.74832230499044,31.476219460651848,0.0,1.0,19.79869319439493,18.333811822268448,0.0,Landing
0.7000000000000001,-17.169020968685864,-1268.0653719463344,160.41113781117105,0.683485542196534,1.3948933725327661,126.56611538782346,31.234809519707156,0.0,1.0,19.79869319439493,18.333811822268448,0.0,Landing
0.8,-19.251761971383747,-1278.1082071647934,161.7719305785082,1.281271861615917,1.3967950990583753,126.67179843537963,31.58893513232943,0.0,1.0,19.79869319439493,18.333811822268448,0.0,Landing
0.9,-21.40045471221214,-1258.8471369421932,159.69052553922467,1.2642970439569228,1.5140865555992111,126.3073496288489,30.588660600817022,0.0,1.0,19.79869319439493,18.333811822268448,0.0,Landing
1.0,-23.46325665339683,-1257.8325239154558,159.69842963909943,0.9598135143458072,1.4586126111692839,126.55794101145312,31.683078008123054,0.0,1.0,19.79869319439493,18.333811822268448,0.0,Landing
1.1,-25.540924590961026,-1260.7856144373018,161.00975181923215,0.8396347847424411,1.337173632756381,126.27012858809246,31.402241815924636,0.0,1.0,19.79869319439493,18.333811822268448,0.0,Landing
1.2000000000000002,-27.70438278439865,-1267.2563254080721,160.55568995710286,0.8957071797094607,1.6173216959423597,126.54856356925967,31.258553292015492,0.0,1.0,19.79869319439493,18.333811822268448,0.0,Landing
1.3,-29.79953828043719,-1292.0042955677757,160.06862479068886,1.017852545714498,1.6641141992719743,126.4122545057154,31.55600163509748,0.0,1.0,19.79869319439493,18.333811822268448,0.0,Landing
1.4000000000000001,-32.000946068799905,-1285.0737466025587,160.36057442809414,0.8593813525357595,1.5068715902661949,126.66880047981459,31.53266426880153,0.0,1.0,19.79869319439493,18.333811822268448,0.0,Landing
1.5,-34.12975151741144,-1292.3634736090478,158.26611196753214,0.7396374855905438,1.7190104564267727,126.54508832656234,30.98583439814882,0.0,1.0,19.79869319439493,18.333811822268448,0.0,Landing
1.6,-36.26135564848243,-1295.0191621102135,159.7525887023315,0.603612963386824,1.7373950402878928,126.477030563541,31.446179896602505,0.0,1.0,19.79869319439493,18.333811822268448,0.0,Landing
1.7000000000000002,-38.47604187935097,-1312.6511983287799,159.23804840696613,0.37467285082189716,1.323095099680307,126.47950850266102,31.61871150102438,0.0,1.0,19.79869319439493,18.333811822268448,0.0,Landing
1.8,-40.69300750905534,-1299.8877570374232,161.69142563966352,0.7499744855113164,1.4453615938873419,126.20351096592128,30.921145393132292,0.0,1.0,19.79869319439493,18.333811822268448,0.0,Landing
1.9000000000000001,-42.760794433669545,-1282.6416839298856,159.90931757847972,0.3970557152397445,1.5168279915730483,126.66560364840825,31.460283804171482,0.0,1.0,19.79869319439493,18.333811822268448,0.0,Landing
2.0,-44.8892502990004,-1262.7840533327785,160.17199810918987,0.778518459480614,1.122109897725738,126.73981944638405,31.760292612334318,0.0,1.0,19.79869319439493,18.333811822268448,0.0,Landing
2.1,-47.006927775719234,-1277.0169912658077,161.18897150472927,1.121273160120027,1.4624642472450486,126.65000084369723,31.45031637630806,0.0,1.0,19.79869319439493,18.333811822268448,0.0,Landing
2.2,-49.14587938999858,-1263.3152520014876,161.63960615629574,0.7947811013593051,1.4152652231048233,126.45848966139113,31.257993252906463,0.0,1.0,19.79869319439493,18.333811822268448,0.0,Landing
2.3000000000000003,-51.20582655900784,-1279.1555007823774,160.35424825297522,0.6202769876058589,1.2929137583234056,126.40273794142274,30.988289804852464,0.0,1.0,19.79869319439493,18.333811822268448,0.0,Landing
2.4000000000000004,-53.40270527963112,-1267.0530114429396,159.23593852256192,0.7065108266137625,1.4906424453204834,126.2817157156482,31.069105548759868,0.0,1.0,19.79869319439493,18.333811822268448,0.0,Landing
2.5,-55.48114444721328,-1259.1726485910299,159.53875070170102,0.6460217600237059,1.2525421791513978,126.47498183357021,31.277546958575936,0.0,1.0,19.79869319439493,18.333811822268448,0.0,Landing
2.6,-57.50168980196299,-1251.4675182726633,160.3815412901075,1.1492193226347394,1.1304203663373384,126.18660949783214,31.632052545938354,0.0,1.0,19.79869319439493,18.333811822268448,0.0,Landing
2.7,-59.66004287099444,-1268.8395538197894,160.4105309207792,0.6776099244393938,0.9632465790906106,126.21241206459808,31.576897344286007,0.0,1.0,19.79869319439493,18.333811822268448,0.0,Landing
2.8000000000000003,-61.82534221631223,-1283.9902615432864,159.27818555310438,0.45144791524306105,1.0966486876363464,126.67808513940918,31.27896663872038,0.0,1.0,19.79869319439493,18.333811822268448,0.0,Landing
2.9000000000000004,-63.92164110967942,-1268.69048183393,158.02649226543997,1.3184956891908741,1.197988571496428,126.77327242780308,31.15099065916665,0.0,1.0,19.79869319439493,18.333811822268448,0.0,Landing
3.0,-66.00349528016409,-1271.080563994896,158.4658865038357,0.770846947810028,1.4458902730506606,126.43970097470185,31.21571270411855,0.0,1.0,19.79869319439493,18.333811822268448,0.0,Landing
3.1,-68.18074503628671,-1277.7684184322525,158.90137727123061,0.6329887338484671,1.5053655542684459,126.60371501300176,31.74557275488448,0.0,1.0,19.79869319439493,18.333811822268448,0.0,Landing
3.2,-70.31048320184068,-1268.3351030877361,159.86810811368233,0.8107320782603064,1.3190459502345377,126.45900057577217,30.940869853289495,0.0,1.0,19.79869319439493,18.333811822268448,0.0,Landing
3.3000000000000003,-72.34517079560277,-1235.6141115591981,159.76945293983974,0.7616140300813058,1.560803477111206,126.70967788384382,31.403841440040065,0.0,1.0,19.79869319439493,18.333811822268448,0.0,Landing
3.4000000000000004,-74.3588155940827,-1232.914098188786,158.42424968930015,0.9028105132985159,1.5025297526467791,126.56711882920797,31.235423484258657,0.0,1.0,19.79869319439493,18.333811822268448,0.0,Landing
3.5,-76.47505369278461,-1246.0221224549657,159.84320722120952,0.7763905146135883,1.2591542031375604,126.62549178173128,31.589895943167793,0.0,1.0,19.79869319439493,18.333811822268448,0.0,Landing
3.6,-78.5752814078776,-1261.2088900075776,161.7540083851235,0.3805690351743003,1.2468680098635982,126.26046961025332,31.32477564579261,0.0,1.0,19.79869319439493,18.333811822268448,0.0,Landing
3.7,-80.66486004412059,-1286.6537437382588,160.4435887543176,0.7730642306814928,1.6846835542936167,126.51898313821198,31.009448037888554,0.0,1.0,19.79869319439493,18.333811822268448,0.0,Landing
3.8000000000000003,-82.90832241147591,-1294.744832170417,162.089256924887,0.986172568282202,1.3342736440291336,126.4540385714568,31.860276553495613,0.0,1.0,19.79869319439493,18.333811822268448,0.0,Landing
3.9000000000000004,-85.04900556872968,-1297.6853201019878,160.09230958126247,0.7014110278787736,1.786817054024795,126.7386135170259,31.451027046327752,0.0,1.0,19.79869319439493,18.333811822268448,0.0,Landing
4.0,-87.15328664463053,-1245.651174796524,160.06163450710443,0.9545183219047627,1.1848449481357517,126.4511540418531,31.4336621078809,0.0,1.0,19.79869319439493,18.333811822268448,0.0,Landing
4.1000000000000005,-89.13657828545853,-1233.1216460513704,160.37024126972352,0.9977808970661183,1.3874978073509543,126.49568710977064,30.965714266663152,0.0,1.0,19.79869319439493,18.333811822268448,0.0,Landing
4.2,-91.21461379898653,-1217.2708575381905,161.9082067154955,1.0447859668719885,1.1335656690259792,126.25410060524428,31.286474755104916,0.0,1.0,19.79869319439493,18.333811822268448,0.0,Landing
4.3,-93.23964093232148,-1241.8535568258478,161.66022718288906,0.6016048360224613,1.0393503809525886,126.55600639779323,31.16398163411104,0.0,1.0,19.79869319439493,18.333811822268448,0.0,Landing
4.4,-95.34584606958776,-1240.844496759982,160.8456777610159,0.6223074533120001,1.3002386278609481,126.54848396516348,31.35697043271857,0.0,1.0,19.79869319439493,18.333811822268448,0.0,Landing
4.5,-97.41883628278644,-1264.286671369581,160.51496811734705,0.8133634383816172,1.5805331136691654,126.48962113483196,30.82026116575595,0.0,1.0,19.79869319439493,18.333811822268448,0.0,Landing
4.6000000000000005,-99.56107428916938,-1276.44141769276,159.22955659335852,0.44609237859730294,1.308077705678988,126.72414819193153,31.422003035989743,0.0,1.0,19.79869319439493,18.333811822268448,0.0,Landing
4.7,-101.72805315805157,-1291.5168934650976,158.74581531897093,0.5929061722341052,1.5527709450837968,126.53602099488609,31.633060970199512,0.0,1.0,19.79869319439493,18.333811822268448,0.0,Landing
4.800000000000001,-103.87642075011193,-1285.6343442946381,159.64051486763674,0.8684749879951906,1.259578383025444,126.43865236814258,31.218860022265005,0.0,1.0,19.79869319439493,18.333811822268448,0.0,Landing
4.9,-105.98924601064257,-1271.1106570374257,161.61867678782946,0.39201033681283953,1.7061194507778763,126.41294907582721,31.46529901820619,0.0,1.0,19.79869319439493,18.333811822268448,0.0,Landing
5.0,-108.0836064432387,-1265.506486308189,161.87365318450435,0.44997258113189553,1.2703899106692829,126.64541720744211,31.072317182583728,0.0,1.0,19.79869319439493,18.333811822268448,0.0,Landing
5.1000000000000005,-110.20395318165288,-1283.9601691126234,158.478327077336,0.9108987302089975,1.7300600488899796,126.28987454031432,31.88868247314151,0.0,1.0,19.79869319439493,18.333811822268448,0.0,Landing
5.2,-112.40904685620569,-1275.696390771975,161.43699004866008,0.4846983871330534,1.4457680750554807,126.43358336593042,31.077636929195055,0.0,1.0,19.79869319439493,18.333811822268448,0.0,Landing
5.300000000000001,-114.46208839709857,-1277.54250450202,161.9145088262431,1.3470627734625995,1.2282447112095158,126.5140186951345,31.3272837597524,0.0,1.0,19.79869319439493,18.333811822268448,0.0,Landing
5.4,-116.59166570416298,-1253.587924146126,161.33602942365948,0.6050086687605206,1.2633912345094598,126.47146267688629,31.142892994960526,0.0,1.0,19.79869319439493,18.333811822268448,0.0,Landing
5.5,-118.67698647693632,-1267.5539711119939,159.63425484333274,0.592181351379815,1.5123078187509067,126.52202625144065,31.103908791705297,0.0,1.0,19.79869319439493,18.333811822268448,0.0,Landing
5.6000000000000005,-120.79985825265854,-1248.5968276321473,160.9086781331535,0.5249886310731022,1.2075804457547894,126.7027250800121,31.860798401781057,0.0,1.0,19.79869319439493,18.333811822268448,0.0,Landing
5.7,-122.83464984232371,-1265.851601896867,158.545593385674,0.8013533425352709,1.4904970029612936,126.49245624385401,31.82832388450246,0.0,1.0,19.79869319439493,18.333811822268448,0.0,Landing
5.800000000000001,-125.00624448642066,-1248.807590174394,158.685489634066,0.7648888957988381,1.289650517110364,126.38352667692357,31.238280298512457,0.0,1.0,19.79869319439493,18.333811822268448,0.0,Landing
5.9,-127.04389620353051,-1262.7817353708251,162.58874029215838,0.8825773112794928,1.2171229645745456,126.76387525675636,32.41572784321139,0.0,1.0,19.79869319439493,18.333811822268448,0.0,Landing
6.0,-129.14855851917784,-1248.0280511860144,159.63349351415607,0.7550403238921625,1.2646099220075726,126.49145649881484,31.722362871602396,0.0,1.0,19.79869319439493,18.333811822268448,0.0,Landing
6.1000000000000005,-131.24638474235073,-1256.1553260850958,158.94950241004975,0.98915484890718,1.120615027431734,126.5965494704867,31.696884069363747,0.0,1.0,19.79869319439493,18.333811822268448,0.0,Landing
6.2,-133.324672833956,-1251.7629855005055,159.73356470657487,0.7583079739533704,1.4585074861124492,126.754733620661,31.39486149423896,0.0,1.0,19.79869319439493,18.333811822268448,0.0,Landing
6.300000000000001,-135.40737344668037,-1233.8363238332477,161.95537581776802,0.7297653025268992,1.4726008789005436,126.42505260744537,31.750248235996278,0.0,1.0,19.79869319439493,18.333811822268448,0.0,Landing
6.4,-137.41556636151697,-1227.0430361176068,161.25412121643356,0.8502159240105841,1.2795571829463213,126.80059333707698,31.43062780568728,0.0,1.0,19.79869319439493,18.333811822268448,0.0,Landing
6.5,-139.45988801454402,-1212.283438711006,159.42562150548804,0.4125081286200337,1.2728515614978262,126.80053506015292,31.097404294514373,0.0,1.0,19.79869319439493,18.333811822268448,0.0,Landing
6.6000000000000005,-141.4687906402354,-1220.5358069588272,160.0251661774199,0.580193250770387,1.130948194325158,126.4234185532581,31.387147100213564,0.0,1.0,19.79869319439493,18.333811822268448,0.0,Landing
6.7,-143.5182453963111,-1227.6579811402826,160.59051980478247,1.1450639345694114,1.3019924376496435,126.44712153470266,31.26045183459081,0.0,1.0,19.79869319439493,18.333811822268448,0.0,Landing
6.800000000000001,-145.59817792024543,-1241.4445254556028,160.77173666341858,0.44806279293863294,1.5195611886291231,126.643376263248,31.02372518570451,0.0,1.0,19.79869319439493,18.333811822268448,0.0,Landing
6.9,-147.6760132675134,-1261.6743614916913,160.60602892710293,0.9809129608623138,1.2887993041803951,126.75050568935717,31.69764474068043,0.0,1.0,19.79869319439493,18.333811822268448,0.0,Landing
7.0,-149.82661720376956,-1240.5851696940201,159.15106553149238,0.32605063230222686,1.4775787714665731,126.65736791379732,31.446952094327962,0.0,1.0,19.79869319439493,18.333811822268448,0.0,Landing
7.1000000000000005,-151.80110376871554,-1239.9751320162238,159.8700271883716,0.48179980956346735,1.5453389777328415,126.52684157615931,31.37412732540896,0.0,1.0,19.79869319439493,18.333811822268448,0.0,Landing
7.2,-153.87588892759453,-1241.047481350023,158.99434301442898,0.6467045439084012,1.1896575496997162,126.61327810907528,31.920867563574383,0.0,1.0,19.79869319439493,18.333811822268448,0.0,Landing
7.300000000000001,-156.03185461051967,-1269.5880892127434,161.05700966584328,0.8886163627114413,1.8667152641912634,126.63994681540834,31.446696548489836,0.0,1.0,19.79869319439493,18.333811822268448,0.0,Landing
7.4,-158.14904421477925,-1283.259163834299,160.00742036954495,0.7732685078613386,1.6111930228607774,126.58019658255711,31.767902834605504,0.0,1.0,19.79869319439493,18.333811822268448,0.0,Landing
7.5,-160.29218474676603,-1271.9535191060231,160.43904188345024,0.8813059944125069,1.3569352476560301,126.46544034985959,31.08133858946819,0.0,1.0,19.79869319439493,18.333811822268448,0.0,Landing
7.6000000000000005,-162.3916222060498,-1255.3729781100856,159.43760596077402,0.6952655343195173,1.0771557047298912,126.65569650513413,31.161373514822067,0.0,1.0,19.79869319439493,18.333811822268448,0.0,Landing
7.7,-164.42590910532968,-1259.5526926826667,160.74368328917174,0.7695379581651994,1.2233517529676114,126.49376506295283,31.398641020577642,0.0,1.0,19.79869319439493,18.333811822268448,0.0,Landing
7.800000000000001,-166.58994821017936,-1238.3922240357094,160.7779125109125,0.8088114496954766,1.8191499046565172,126.24964254181316,31.427577628765857,0.0,1.0,19.79869319439493,18.333811822268448,0.0,Landing
7.9,-168.58358332622834,-1249.4983809581527,158.6787755326975,0.9917936000993255,1.5192729339106918,126.32862711713216,31.487978188922405,0.0,1.0,19.79869319439493,18.333811822268448,0.0,Landing
8.0,-170.67340101012044,-1230.2704343738867,160.8979550221151,1.148488783578921,1.319797558601681,126.72768344158555,31.699621799984584,0.0,1.0,19.79869319439493,18.333811822268448,0.0,Landing
8.1,-172.7413003820488,-1243.4541501299577,158.94789847254324,0.5872146071525957,1.3396604062689355,126.37304712526401,32.484552505993136,0.0,1.0,19.79869319439493,18.333811822268448,0.0,Landing
8.200000000000001,-174.80085407687812,-1247.3934031419165,159.42324610889057,0.7701655666824305,1.7102395796002325,126.5493627613431,30.91494700279089,0.0,1.0,19.79869319439493,18.333811822268448,0.0,Landing
8.3,-176.91036802583002,-1237.3136348800642,161.02448946641246,0.7217894011223711,1.5157662645840881,126.72522135367501,31.21528641898568,0.0,1.0,19.79869319439493,18.333811822268448,0.0,Landing
8.4,-178.9278685564491,-1249.9022076851588,159.4553251856398,0.8647136246803048,1.3509552479128002,126.5601684678702,31.519062531325073,0.0,1.0,19.79869319439493,18.333811822268448,0.0,Landing
8.5,-181.05036511530392,-1222.7518504751515,160.22502808149838,1.0842819315348577,1.1014780270406481,126.87885767104677,31.984684970364768,0.0,1.0,19.79869319439493,18.333811822268448,0.0,Landing
8.6,-183.02412727820578,-1239.7677823995139,160.0148293230928,0.8229925097169942,1.392032447551335,126.51898110946337,31.33092644480472,0.0,1.0,19.79869319439493,18.333811822268448,0.0,Landing
8.700000000000001,-185.12670746844668,-1225.2992059178894,158.6689979634424,0.6908428552820868,1.5497133103426637,126.41003576920872,31.392315512002487,0.0,1.0,19.79869319439493,18.333811822268448,0.0,Landing
8.8,-187.17686114489337,-1246.804858269644,161.52166074820522,1.0106200299852226,1.5307621830345168,126.31706402890006,31.275470328716914,0.0,1.0,19.79869319439493,18.333811822268448,0.0,Landing
8.9,-189.258151569554,-1224.5053588725852,161.5346886089088,0.756244729402451,1.2274387372594286,126.2557038335076,31.557383063554894,0.0,1.0,19.79869319439493,18.333811822268448,0.0,Landing
9.0,-191.2492342628096,-1234.7329876929336,160.57253271452518,0.7750902535273343,1.42800926831477,126.76510724473496,31.389630267071254,0.0,1.0,19.79869319439493,18.333811822268448,0.0,Landing
9.1,-193.35052608335803,-1213.0789397572357,159.80957709754856,0.9260923665258072,1.5441890106094505,126.3661843188384,31.64354231540773,0.0,1.0,19.79869319439493,18.333811822268448,0.0,Landing
9.200000000000001,-195.32354626834018,-1201.7582225074875,160.20593252862335,0.5415913506840513,1.7180804882578589,126.29170938553085,31.765808871095008,0.0,1.0,19.79869319439493,18.333811822268448,0.0,Landing
9.3,-197.25802537534705,-1203.517700732806,161.44879588154072,0.5288246746189795,1.3594737848880374,126.47958336265981,31.284084668067596,0.0,1.0,19.79869319439493,18.333811822268448,0.0,Landing
9.4,-199.36811458702206,-1235.6947584367902,159.5921973893055,0.6057766400858143,1.7914031792216825,126.44571099974445,31.684885319150208,0.0,1.0,19.79869319439493,18.333811822268448,0.0,Landing
9.5,-201.50202006052413,-1259.1384192418102,159.68368809109816,0.7498063722330577,1.5339090472138583,126.43360065377328,31.172843648892727,0.0,1.0,19.79869319439493,18.333811822268448,0.0,Landing
9.600000000000001,-203.5537174715561,-1243.0085918312327,159.89028733955863,1.0140879831644796,1.317155596176887,126.72753751135042,31.46432253660726,0.0,1.0,19.79869319439493,18.333811822268448,0.0,Landing
9.700000000000001,-205.58315754617823,-1225.5608247138014,157.9306299242636,0.6731167231540198,1.230970791669551,126.56709391984344,31.196318556570514,0.0,1.0,19.79869319439493,18.333811822268448,0.0,Landing
9.8,-207.62982418409314,-1224.8480107470357,160.81243078395707,0.7039368865798624,0.9966723143486882,126.66428023366632,30.899817043571442,0.0,1.0,19.79869319439493,18.333811822268448,0.0,Landing
9.9,-209.67795752529128,-1218.6355289479818,160.3094007093094,0.8430426793232605,1.2329658332281646,126.87744345216254,31.674077331204806,0.0,1.0,19.79869319439493,18.333811822268448,0.0,Landing
10.0,-211.67633519091814,-1212.0372675532906,160.94657058446174,0.6209982324912426,1.7345923960360514,126.41432073774598,31.090859875714568,0.0,1.0,19.79869319439493,18.333811822268448,0.0,Landing
10.100000000000001,-213.6900105218596,-1224.4219377286583,159.64618024767415,0.7131458868245327,1.3445466135359572,126.56805509727968,31.176128585837773,0.0,1.0,19.79869319439493,18.333811822268448,0.0,Landing
10.200000000000001,-215.80006721393457,-1237.7894384806723,158.6697608911297,0.8005068522754976,1.1080854990094495,126.3245425483646,31.29014470415109,0.0,1.0,19.79869319439493,18.333811822268448,0.0,Landing
10.3,-217.8652823833215,-1227.258427369395,160.25528822628402,0.922103107547298,1.26564517374775,126.76411925362453,31.968452540955163,0.0,1.0,19.79869319439493,18.333811822268448,0.0,Landing
10.4,-219.82630265870657,-1208.8588498348656,158.95559993510346,0.9973266661812725,1.442491627523494,126.50240140295705,31.885928266675393,0.0,1.0,19.79869319439493,18.333811822268448,0.0,Landing
10.5,-221.8443614631089,-1201.157920259078,160.69084118796323,0.7767794208653663,1.3649780348046614,126.0709098030569,30.894467651050565,0.0,1.0,19.79869319439493,18.333811822268448,0.0,Landing
10.600000000000001,-223.8710719846169,-1226.2966160089434,160.7761091746793,0.7493664773142976,1.5093459792953086,126.33338567120853,31.027407399206236,0.0,1.0,19.79869319439493,18.333811822268448,0.0,Landing
10.700000000000001,-225.95778573875128,-1219.6083413674671,162.25943861494622,0.7660434066300494,1.3670791291802824,126.75664784359037,31.961875281891135,0.0,1.0,19.79869319439493,18.333811822268448,0.0,Landing
10.8,-227.94240316994623,-1218.4310441796242,161.52577761487376,0.8497512426264633,1.3147443490164272,126.25937266505122,32.054731819907474,0.0,1.0,19.79869319439493,18.333811822268448,0.0,Landing
10.9,-229.963227205515,-1205.010247422922,160.39429129195022,1.102551613317805,1.4205756472367848,126.51822468609305,31.542579983567652,0.0,1.0,19.79869319439493,18.333811822268448,0.0,Landing
11.0,-231.9828369758659,-1201.7906232305734,159.86614908820323,1.243901404269813,1.206705175594563,126.60737526334958,31.44022337040325,0.0,1.0,19.79869319439493,18.333811822268448,0.0,Landing
11.100000000000001,-233.9513562860991,-1211.3867064386795,161.00451064095995,1.178741261051508,1.4681761116908703,126.61773311866324,31.380332156301588,0.0,1.0,19.79869319439493,18.333811822268448,0.0,Landing
11.200000000000001,-236.0201607377084,-1198.7013541707597,160.42547399136527,1.0221415769089546,1.234396825491563,126.91707347119609,31.333241874656714,0.0,1.0,19.79869319439493,18.333811822268448,0.0,Landing
11.3,-237.9763437467197,-1204.6881801266352,159.65169629845985,0.6045121449168931,1.3958455317619058,126.5213130659821,31.02463976928017,0.0,1.0,19.79869319439493,18.333811822268448,0.0,Landing
11.4,-239.97479718673227,-1181.812449009226,158.0569429050262,0.852443024256613,1.4963278074652084,126.38851207135866,31.647267726237427,0.0,1.0,19.79869319439493,18.333811822268448,0.0,Landing
11.5,-241.92922298275454,-1195.6238309571404,162.42077630283583,0.7358565570980242,1.3596507365421597,126.40146985931904,31.11626732707135,0.0,1.0,19.79869319439493,18.333811822268448,0.0,Landing
11.600000000000001,-243.9544629015054,-1185.054632796988,161.19016438458885,0.7815699538317213,1.4276989318276727,126.70790011905171,31.594970531546384,0.0,1.0,19.79869319439493,18.333811822268448,0.0,Landing
11.700000000000001,-245.90007035071721,-1224.1031304356738,160.76604993814863,1.1569792826582,1.5706854156485786,126.16477731122433,31.409381088931102,0.0,1.0,19.79869319439493,18.333811822268448,0.0,Landing
11.8,-248.0497386349329,-1234.2723920809135,160.18175963580865,1.0746717347521,1.2880701201961218,126.56819174564492,31.72754643635829,0.0,1.0,19.79869319439493,18.333811822268448,0.0,Landing
11.9,-250.12582486190996,-1255.5810401944825,162.0212317441974,0.9783555210701365,1.7689231995470192,126.77946604145222,31.193367342401874,0.0,1.0,19.79869319439493,18.333811822268448,0.0,Landing
12.0,-252.17797555168963,-1234.1636678411078,161.0104582417018,1.332106476851163,1.179886866753697,126.546596315643,31.016172963854903,0.0,1.0,19.79869319439493,18.333811822268448,0.0,Landing
12.100000000000001,-254.22055697413845,-1208.6339198782298,158.72886655152413,0.9742153608176902,1.6784253050232598,126.73063418491176,31.095608504407657,0.0,1.0,19.79869319439493,18.333811822268448,0.0,Landing
12.200000000000001,-256.1689944613011,-1218.0953442342059,159.86525481086522,1.1064068281999893,1.518439429634117,126.21190721782222,31.392595661078165,0.0,1.0,19.79869319439493,18.333811822268448,0.0,Landing
12.3,-258.26845227286066,-1200.8232539716232,160.87704239379076,0.9201293920921207,1.5261922728753097,126.72446132203265,31.352451080604723,0.0,1.0,19.79869319439493,18.333811822268448,0.0,Landing
12.4,-260.22467324399656,-1211.2453847830693,161.32815031724468,0.8485905525434988,1.6348479967939993,126.56379406521131,31.01435728675461,0.0,1.0,19.79869319439493,18.333811822268448,0.0,Landing
12.5,-262.22522138521646,-1202.3030492860812,159.82759876814913,1.2150961697233833,1.4368745843831132,126.45206187425424,31.239109463544654,0.0,1.0,19.79869319439493,18.333811822268448,0.0,Landing
12.600000000000001,-264.27996751929106,-1192.9419527259824,161.64843445233927,0.6522574675512042,1.473421982200252,126.45445909926059,31.422640083407817,0.0,1.0,19.79869319439493,18.333811822268448,0.0,Landing
12.700000000000001,-266.1893830076265,-1205.5244472188406,158.79041532047276,0.4864954805223858,1.4505911413945587,126.79446352467232,31.611102244042527,0.0,1.0,19.79869319439493,18.333811822268448,0.0,Landing
12.8,-268.25284362131066,-1184.494031802501,159.86179425496454,0.6167207855996534,1.6066305302739816,126.40811294261846,31.39221524312212,0.0,1.0,19.79869319439493,18.333811822268448,0.0,Landing
12.9,-270.20243767830357,-1188.1058742053483,159.90359590263998,0.7175749634766185,1.642523133223996,126.41588908487245,31.609534498232225,0.0,1.0,19.79869319439493,18.333811822268448,0.0,Landing
13.0,-272.1299123786532,-1192.5375161429088,161.0700032050019,0.9922780325955701,1.4366523316091069,126.77523569186161,31.411724518872493,0.0,1.0,19.79869319439493,18.333811822268448,0.0,Landing
13.100000000000001,-274.2155312020252,-1211.2075756971535,161.42352050452178,1.060585460085216,1.3663869840949803,126.57806445778812,31.413490576102628,0.0,1.0,19.79869319439493,18.333811822268448,0.0,Landing
13.200000000000001,-276.25847555678934,-1210.1030368867896,161.39930346342652,0.6520062179005,1.2287108676178815,126.6074847503537,31.549150861197894,0.0,1.0,19.79869319439493,18.333811822268448,0.0,Landing
13.3,-278.18042756308716,-1188.8777944100866,158.7289413453774,0.6874474557274468,1.476869217175066,126.37839888645436,31.041418839300864,0.0,1.0,19.79869319439493,18.333811822268448,0.0,Landing
13.4,-280.15992017407564,-1170.9883172279092,160.262631029698,0.7207470820088092,1.341019405388908,126.37614346319657,31.96510724619107,0.0,1.0,19.79869319439493,18.333811822268448,0.0,Landing
13.5,-282.1134171429289,-1182.9636382638,158.58668386189322,0.8184356426069723,1.0818100362710534,126.79698741166885,31.422310849827177,0.0,1.0,19.79869319439493,18.333811822268448,0.0,Landing
13.600000000000001,-284.09524575440616,-1176.1115148322915,160.15736768722851,0.8100708026107593,1.4114308290601456,126.58316563231426,31.372657443520122,0.0,1.0,19.79869319439493,18.333811822268448,0.0,Landing
13.700000000000001,-286.0404777482371,-1194.0641551944395,161.78555695346307,0.8821735879787251,1.4476739800042384,126.52879446011332,31.47379224600957,0.0,1.0,19.79869319439493,18.333811822268448,0.0,Landing
13.8,-288.0837379189011,-1186.5651843691467,162.1442581950677,0.6205424999943133,1.5969380463025373,126.4829226093587,31.740836315623348,0.0,1.0,19.79869319439493,18.333811822268448,0.0,Landing
13.9,-290.0280716762519,-1195.2235326313144,160.59966657209804,0.594716164973679,1.4319687130226044,126.50887201165949,31.523831168540475,0.0,1.0,19.79869319439493,18.333811822268448,0.0,Landing
14.0,-292.01659541139367,-1184.4622564590964,160.4104699398446,0.6354870795252752,1.2301756014225664,126.41412277098561,31.590211015712324,0.0,1.0,19.79869319439493,18.333811822268448,0.0,Landing
14.100000000000001,-294.00604920119656,-1204.7280767987445,159.94691949153176,0.8177687137258168,1.6402997730800721,126.59069128875524,31.425729476724847,0.0,1.0,19.79869319439493,18.333811822268448,0.0,Landing
14.200000000000001,-296.0517120602456,-1217.8320158667361,160.09821992570772,0.5650421404364159,1.0200283964652836,126.43177699344966,31.07474848331604,0.0,1.0,19.79869319439493,18.333811822268448,0.0,Landing
14.3,-298.10575549072735,-1216.3806709409528,161.57441524898647,0.6287640892102296,1.127878072345148,126.46861525048882,30.620335189276023,0.0,1.0,19.79869319439493,18.333811822268448,0.0,Landing
14.4,-300.0879525559013,-1189.7344902675172,159.25314890734046,0.9115094867853651,1.3820697697970865,126.60123075413492,31.64791467187063,0.0,1.0,19.79869319439493,18.333811822268448,0.0,Landing
14.5,-302.0003845115832,-1171.4349898454998,159.848892683658,1.1029219466815858,1.3711222374080252,126.7435192517388,31.701776902148875,0.0,1.0,19.79869319439493,18.333811822268448,0.0,Landing
14.600000000000001,-303.96293043995485,-1178.9948085950527,160.13319498393432,0.886697734643998,1.3834120197119864,126.71639895781504,31.03962701547465,0.0,1.0,19.79869319439493,18.333811822268448,0.0,Landing
14.700000000000001,-305.9829265988766,-1192.2658317555374,159.4049141186641,0.5914645163690235,1.2645472778241025,126.4334117927798,31.003975941414733,0.0,1.0,19.79869319439493,18.333811822268448,0.0,Landing
14.8,-307.9617136703609,-1196.27901736784,160.61660348603337,0.9474120549649752,1.6197217068491767,126.49917835324493,31.04784356615763,0.0,1.0,19.79869319439493,18.333811822268448,0.0,Landing
14.9,-309.94432552679405,-1194.0171706357319,161.65988736471786,0.69444866115027,1.389081562506343,126.2763403699513,31.20669993369077,0.0,1.0,19.79869319439493,18.333811822268448,0.0,Landing
15.0,-311.95301245205525,-1187.322714457298,160.73883186496795,1.0895944175014052,1.1536944552082369,126.62445317021388,31.112692972824338,0.0,1.0,19.79869319439493,18.333811822268448,0.0,Landing
15.100000000000001,-313.8983272426474,-1193.4632153724124,159.40416197469713,0.8951295513136067,1.5017690674296416,126.64132189783447,31.421908605817325,0.0,1.0,19.79869319439493,18.333811822268448,0.0,Landing
15.200000000000001,-315.9116416036561,-1191.2928757301643,159.35304875377415,0.6391407532983139,1.2698063207328274,126.5313333498903,31.43186958596986,0.0,1.0,19.79869319439493,18.333811822268448,0.0,Landing
15.3,-317.90947683070607,-1205.6393499350634,158.8287618521711,0.83305549422585,1.2358609394118394,126.72034811129299,31.395669943980074,0.0,1.0,19.79869319439493,18.333811822268448,0.0,Landing
15.4,-319.9265239923227,-1202.7651467131818,159.9867545177422,0.5287498004023394,1.4080780898017924,126.43983135508586,31.222305819232925,0.0,1.0,19.79869319439493,18.333811822268448,0.0,Landing
15.5,-321.925467337222,-1179.7989561174063,159.2627080636298,0.8437211634484251,1.7468021420555384,126.54341867666903,31.105530053998844,0.0,1.0,19.79869319439493,18.333811822268448,0.0,Landing
15.600000000000001,-323.8084716112931,-1175.1361738195214,160.33683273643547,0.7558091587762774,0.9908880027139462,126.3547970150974,30.933576000046756,0.0,1.0,19.79869319439493,18.333811822268448,0.0,Landing
15.700000000000001,-325.8022048614203,-1171.5714634172741,159.3919345357477,1.2292170426473805,1.095035019501252,126.50862391620046,31.204072192466644,0.0,1.0,19.79869319439493,18.333811822268448,0.0,Landing
15.8,-327.7833246543084,-1178.1416339820566,158.68500445316198,0.8508793349258782,1.2404927909869943,126.45705777010244,31.5651280011947,0.0,1.0,19.79869319439493,18.333811822268448,0.0,Landing
15.9,-329.6991797812034,-1159.902989750833,158.15175717790765,0.8209468089440788,1.754471092335136,126.61946836718641,30.888448996676935,0.0,1.0,19.79869319439493,18.333811822268448,0.0,Landing
16.0,-331.6017198101745,-1159.3820816439916,160.71620178874005,0.33157327673479714,1.1975712652640056,126.47207778844023,31.35374424697974,0.0,1.0,19.79869319439493,18.333811822268448,0.0,Landing
16.1,-333.58023506252835,-1154.0411728406298,158.69801682849334,0.9354453658254112,1.6268851310535557,126.7081117178509,31.05708187256851,0.0,1.0,19.79869319439493,18.333811822268448,0.0,Landing
16.2,-335.46938564540653,-1173.4882655773163,160.58392549740904,1.0427089325015944,1.5922980372434754,126.27405015834444,30.98419063315407,0.0,1.0,19.79869319439493,18.333811822268448,0.0,Landing
16.3,-337.46916113806105,-1160.849815562574,159.4365674926547,1.0441128666987585,1.6425237366808256,126.61408434977403,31.664596386449155,0.0,1.0,19.79869319439493,18.333811822268448,0.0,Landing
16.400000000000002,-339.3844841403412,-1173.3636035417476,160.34908104795196,0.7841876353043415,1.236057752070375,126.11529789909014,31.74462254025263,0.0,1.0,19.79869319439493,18.333811822268448,0.0,Landing
16.5,-341.33620366311527,-1158.4274232081725,160.03915860886053,0.6858150252289436,1.4369222604554077,126.5122799260082,31.525185420142183,0.0,1.0,19.79869319439493,18.333811822268448,0.0,Landing
16.6,-343.2612982541019,-1158.409223908052,160.23532951045877,1.0574879592363782,1.5587077164583745,126.70678123518877,31.018749132876703,0.0,1.0,19.79869319439493,18.333811822268448,0.0,Landing
16.7,-345.1765302598815,-1157.5642887314984,161.04188754900701,0.7915898129990525,1.4972070122105847,126.51312358224436,31.626567306459766,0.0,1.0,19.79869319439493,18.333811822268448,0.0,Landing
16.8,-347.12402510677276,-1155.8775520307222,159.37889725036095,0.8017119169275359,1.9864049735186833,126.71210716212732,31.59883594678605,0.0,1.0,19.79869319439493,18.333811822268448,0.0,Landing
16.900000000000002,-349.0406860142555,-1153.3048087983389,161.57487166465248,0.7426938048517018,1.801690798385577,126.37983330495484,31.975887934841214,0.0,1.0,19.79869319439493,18.333811822268448,0.0,Landing
17.0,-350.94305430387317,-1168.0627730042374,160.85082825505788,0.35954714546647837,1.6548772805872183,126.5562424889776,31.21653742078308,0.0,1.0,19.79869319439493,18.333811822268448,0.0,Landing
17.1,-352.96433897179395,-1181.2806254544398,159.7495166798454,0.644738075265659,1.564974179807976,126.40605920517248,31.48965126260999,0.0,1.0,19.79869319439493,18.333811822268448,0.0,Landing
17.2,-354.9470891415277,-1179.2051841579564,159.85432179710523,0.8285823614614957,1.580479718537481,126.7510445826959,31.109960084971192,0.0,1.0,19.79869319439493,18.333811822268448,0.0,Landing
17.3,-356.83908022466295,-1181.4386582977818,160.20091257005083,0.9288676797483681,1.643803161677143,126.40186374419477,30.807299519479056,0.0,1.0,19.79869319439493,18.333811822268448,0.0,Landing
17.400000000000002,-358.87153226328286,-1183.2312550156303,159.65884358125084,0.8027531862423578,1.7805947319389235,126.38244295246022,30.827670797112397,0.0,1.0,19.79869319439493,18.333811822268448,0.0,Landing
17.5,-360.8632454166059,-1176.1533333395619,158.34596805179856,0.9167221231776209,1.2703466856152485,126.71935960587746,31.395190379900544,0.0,1.0,19.79869319439493,18.333811822268448,0.0,Landing
17.6,-362.71984689136076,-1159.8771432422154,159.10501230052836,0.46636529904889734,1.666855527599757,126.34066488276085,31.15551909818872,0.0,1.0,19.79869319439493,18.333811822268448,0.0,Landing
17.7,-364.67091797949394,-1145.7702049634577,159.101730320763,0.6180283383605103,1.4843162382099055,126.40472107044161,31.53448743125836,0.0,1.0,19.79869319439493,18.333811822268448,0.0,Landing
17.8,-366.59209644142317,-1156.3302759028488,159.88801061425553,1.2694563690826173,1.641985870917914,126.61174371951853,31.572355307896267,0.0,1.0,19.79869319439493,18.333811822268448,0.0,Landing
17.900000000000002,-368.501498270875,-1147.2875967523578,158.8671996850598,0.9503165428918419,1.449917943413679,126.56266498067492,31.38417267495773,0.0,1.0,19.79869319439493,18.333811822268448,0.0,Landing
18.0,-370.4073559632557,-1153.5964984797033,160.91492149667243,1.0798020265959096,1.3438321028955298,126.42352277890348,30.91421138654756,0.0,1.0,19.79869319439493,18.333811822268448,0.0,Landing
18.1,-372.3600789338217,-1160.425506116485,160.21390532976946,0.7546065109842104,1.3472504181434566,126.51173110189745,31.08390550289932,0.0,1.0,19.79869319439493,18.333811822268448,0.0,Landing
18.2,-374.30362580145743,-1142.669837087442,159.66967916550897,1.0151575262347388,1.4582316037280438,126.79745422709232,31.450638734658174,0.0,1.0,19.79869319439493,18.333811822268448,0.0,Landing
18.3,-376.12070514869293,-1150.0284530842919,159.2658999719817,1.0073531691646063,1.5406811641426301,126.37691606891985,31.480814462893306,0.0,1.0,19.79869319439493,18.333811822268448,0.0,Landing
18.400000000000002,-378.11022119924314,-1152.6520710847421,160.1048219290795,1.2402279550255708,1.3523317832812836,126.52911381282928,31.48507250391515,0.0,1.0,19.79869319439493,18.333811822268448,0.0,Landing
18.5,-380.06688615688114,-1185.0145718332783,161.0239271545793,0.8980639379456078,1.1437601360127296,126.48501961918026,31.640068917110778,0.0,1.0,19.79869319439493,18.333811822268448,0.0,Landing
18.6,-382.0457780078593,-1172.999732219182,158.2035536884507,0.5997504716959909,1.5698603527392403,126.6792247969347,31.3078121159935,0.0,1.0,19.79869319439493,18.333811822268448,0.0,Landing
18.7,-383.97521986033905,-1174.5808532756655,158.58351852231777,0.6561662589013648,1.413746261557193,126.34421324535742,31.443049448397748,0.0,1.0,19.79869319439493,18.333811822268448,0.0,Landing
18.8,-385.93979042325947,-1149.5229072321877,159.05314559867605,0.8698481674375259,1.0207723300450664,126.42716115770753,31.54759453185757,0.0,1.0,19.79869319439493,18.333811822268448,0.0,Landing
18.900000000000002,-387.79339254402026,-1130.9198612276305,158.77174245093636,0.2874716097702966,1.1163673003321257,126.47872381590781,31.670540183930186,0.0,1.0,19.79869319439493,18.333811822268448,0.0,Landing
19.0,-389.6298191664772,-1121.287133961755,158.6349851606869,0.8915589195008302,1.4940523620955541,126.42581402217746,31.376185622349116,0.0,1.0,19.79869319439493,18.333811822268448,0.0,Landing
19.1,-391.54622609306824,-1143.426466991525,160.09283673366295,0.9213922627137068,1.5682978318305123,126.59336178927333,31.3657169563301,0.0,1.0,19.79869319439493,18.333811822268448,0.0,Landing
19.200000000000003,-393.5105248789779,-1140.3204930157017,160.04572930162706,1.1052365135100597,1.6603870885309382,126.63337195118316,31.472586928007374,0.0,1.0,19.79869319439493,18.333811822268448,0.0,Landing
19.3,-395.3314216315557,-1146.8035059117824,159.7054467853793,0.44560549037516745,1.3342536839729982,126.59177099508815,31.394263049025767,0.0,1.0,19.79869319439493,18.333811822268448,0.0,Landing
19.400000000000002,-397.28024362262715,-1133.6595756138308,160.2843975084465,0.5869031570449069,1.3096038766981848,126.26331196417323,31.298470857952253,0.0,1.0,19.79869319439493,18.333811822268448,0.0,Landing
19.5,-399.17882275704704,-1147.478257961518,160.0044566880319,0.832159734362275,1.5481432408841846,126.47836408642365,31.189831960679523,0.0,1.0,19.79869319439493,18.333811822268448,0.0,Landing
19.6,-401.0688129213633,-1148.9649379662978,159.3247949206676,0.8002745679407868,1.2665988801089583,126.49122165223281,30.864881446114946,0.0,1.0,19.79869319439493,18.333811822268448,0.0,Landing
19.700000000000003,-403.02506831245864,-1154.63604938235,159.65155781920848,0.8130084013403129,1.2731596838269115,126.35648848263838,31.540622744941523,0.0,1.0,19.79869319439493,18.333811822268448,0.0,Landing
19.8,-404.9520030039588,-1139.0412412045407,160.29966329977657,1.0039649346637742,1.4761962728690234,126.39568037895674,31.51960163601345,0.0,1.0,19.79869319439493,18.333811822268448,0.0,Landing
19.900000000000002,-406.764019127386,-1125.7325128289494,158.86854736582384,0.8782490334456285,1.4921962557403563,126.79389554583241,31.45945314330315,0.0,1.0,19.79869319439493,18.333811822268448,0.0,Landing
20.0,-408.6537308766034,-1115.8514175622713,160.38053127635973,1.1160479139915567,1.5471649239139091,126.64914945937585,31.503331677103528,0.0,1.0,19.79869319439493,18.333811822268448,0.0,Landing
20.1,-410.53126009177015,-1125.473772449709,156.87285999899834,1.049684811123039,1.4601587311750428,126.34637128450146,31.330571149738947,0.0,1.0,19.79869319439493,18.333811822268448,0.0,Landing
20.200000000000003,-412.39138798963455,-1123.1696801226121,160.05253053328045,0.6742796788716698,1.2374017385390879,126.62584530746363,31.941609392664308,0.0,1.0,19.79869319439493,18.333811822268448,0.0,Landing
20.3,-414.26957927721645,-1117.239083218692,160.40329847089203,0.8692536517885149,1.3660539101542684,126.61527085717216,31.64615595293713,0.0,1.0,19.79869319439493,18.333811822268448,0.0,Landing
20.400000000000002,-416.1174555078636,-1119.1919653415312,159.1191441875121,0.9229072883848626,1.4535176772058467,126.41068998495825,31.963536595024003,0.0,1.0,19.79869319439493,18.333811822268448,0.0,Landing
20.5,-417.9873478163422,-1124.0335318143593,161.15027524283616,1.1896727985584055,1.690964940417603,126.60176093433961,31.182630820376183,0.0,1.0,19.79869319439493,18.333811822268448,0.0,Landing
20.6,-419.88974693628825,-1101.7455164094144,161.23090485863113,0.8556316152293741,1.575370421057507,126.45851037052523,31.363981167797874,0.0,1.0,19.79869319439493,18.333811822268448,0.0,Landing
20.700000000000003,-421.6261830899107,-1112.2743653136013,160.29610640522384,0.9268784637040274,1.4713451510236735,126.25528357306962,31.363994202461907,0.0,1.0,19.79869319439493,18.333811822268448,0.0,Landing
20.8,-423.5487196429102,-1113.9814815061527,161.70623687106783,0.7165542626187367,1.5674762166953742,126.4611865941016,31.816325142443013,0.0,1.0,19.79869319439493,18.333811822268448,0.0,Landing
20.900000000000002,-425.459654343819,-1130.8920524921177,159.28573528881185,0.919267176234147,1.696071083340063,126.36637707369442,30.76135643587916,0.0,1.0,19.79869319439493,18.333811822268448,0.0,Landing
21.0,-427.28064335237127,-1116.28380900122,160.96720991984498,0.5958992379689954,1.1796574659153718,126.43679905215942,31.56617423428817,0.0,1.0,19.79869319439493,18.333811822268448,0.0,Landing
21.1,-429.1301386879163,-1115.7028536114694,161.49910768781402,0.6791443444394204,1.445068455329673,126.60581501476628,31.44688836291353,0.0,1.0,19.79869319439493,18.333811822268448,0.0,Landing
21.200000000000003,-431.03816861187636,-1133.6118075394552,158.9453147111615,1.0638666941834796,1.1136282731519735,126.60596864588905,31.712531027080388,0.0,1.0,19.79869319439493,18.333811822268448,0.0,Landing
21.3,-432.94870239006855,-1140.6878830712458,160.16423641919818,0.982414278942743,1.4416948726826948,126.58678557631856,31.23128268582487,0.0,1.0,19.79869319439493,18.333811822268448,0.0,Landing
21.400000000000002,-434.83357810327254,-1132.633666037907,158.6089053977173,1.0825390152599679,1.3430489612962488,126.57619984379664,30.878064024357762,0.0,1.0,19.79869319439493,18.333811822268448,0.0,Landing
21.5,-436.7013369420659,-1126.9260951343085,160.92253192998365,1.2628742662002752,1.7097374095581435,126.37102071455575,31.967093551391642,0.0,1.0,19.79869319439493,18.333811822268448,0.0,Landing
21.6,-438.5833328657401,-1131.2908122583053,161.75401548498152,0.9991799393431273,1.6709995570138687,126.41203521339986,31.395680435421728,0.0,1.0,19.79869319439493,18.333811822268448,0.0,Landing
21.700000000000003,-440.49003216456407,-1126.84692040973,159.5404854258893,0.8601301273581924,1.8495279000679044,126.70550110754397,31.6857647026606,0.0,1.0,19.79869319439493,18.333811822268448,0.0,Landing
21.8,-442.33557154411454,-1125.4237091133973,160.0534495415388,0.699211685126772,1.3856211299377263,126.79890156096673,31.306812659372664,0.0,1.0,19.79869319439493,18.333811822268448,0.0,Landing
21.900000000000002,-444.2104514113071,-1110.6171450325746,159.5759184353437,0.7030114948435987,1.4918819537457928,126.53071291104482,31.740702492512742,0.0,1.0,19.79869319439493,18.333811822268448,0.0,Landing
22.0,-446.04311788972694,-1115.0927401436547,162.57977639222827,0.814216771102456,1.4314556941333891,126.5770698219103,31.631451309323367,0.0,1.0,19.79869319439493,18.333811822268448,0.0,Landing
22.1,-447.9110352448328,-1130.0511810810463,159.17886024544697,0.7991718310005158,1.7058179053387303,126.8509298647395,31.765969879586923,0.0,1.0,19.79869319439493,18.333811822268448,0.0,Landing
22.200000000000003,-449.8607073167123,-1133.138497166135,159.17518378843215,0.9843110533004562,1.4370188107402087,126.46835486216952,31.300715384720004,0.0,1.0,19.79869319439493,18.333811822268448,0.0,Landing
22.3,-451.7088103755576,-1124.026778905386,160.6451471277457,0.634432158376719,1.2514008886065808,126.55725570709683,31.805561136787542,0.0,1.0,19.79869319439493,18.333811822268448,0.0,Landing
22.400000000000002,-453.53116913935975,-1104.0931382972644,159.99877085791286,0.6980209165389073,1.1026214120280464,126.43317091393396,31.558172439455763,0.0,1.0,19.79869319439493,18.333811822268448,0.0,Landing
22.5,-455.38117300819863,-1123.997883392451,162.5993938562123,0.8822815246644992,1.6947248906211767,126.21419451289404,30.855588093966514,0.0,1.0,19.79869319439493,18.333811822268448,0.0,Landing
22.6,-457.3287997925199,-1130.0424444029773,162.07344436332977,0.5149572003058253,1.5086173463317423,126.44352140677256,31.80908021698906,0.0,1.0,19.79869319439493,18.333811822268448,0.0,Landing
22.700000000000003,-459.18138136137463,-1137.8586647753082,160.70385407663218,1.1032512743018674,1.4815135003995188,126.58876743247373,31.573586870672862,0.0,1.0,19.79869319439493,18.333811822268448,0.0,Landing
22.8,-461.07046633207517,-1120.5864797929735,161.0189586151364,0.9828687572220516,1.7509357118520823,126.29551277860685,31.311008110459174,0.0,1.0,19.79869319439493,18.333811822268448,0.0,Landing
22.900000000000002,-462.93173219148474,-1117.6986605425782,160.81863272488144,0.8511667803481818,1.4725695786042035,126.60734373645505,31.36081492473699,0.0,1.0,19.79869319439493,18.333811822268448,0.0,Landing
23.0,-464.7698746640875,-1114.6367555316715,161.1327801857356,0.6054727472307346,1.1464082545682475,126.33830952164107,31.098336005972875,0.0,1.0,19.79869319439493,18.333811822268448,0.0,Landing
23.1,-466.6436501097335,-1108.118926453028,160.61122766999654,0.7819597494603054,1.1925714658418918,126.4396077333264,31.44482811502034,0.0,1.0,19.79869319439493,18.333811822268448,0.0,Landing
23.200000000000003,-468.4723268237499,-1107.4792691585117,159.0784691375809,0.9525504272341929,1.563957219124911,126.50302039205707,31.566539315577234,0.0,1.0,19.79869319439493,18.333811822268448,0.0,Landing
23.3,-470.3072710098801,-1100.7189268163643,159.26457974850817,0.684006344084183,1.585905722043999,126.39373273285639,31.434685120841976,0.0,1.0,19.79869319439493,18.333811822268448,0.0,Landing
23.400000000000002,-472.14724474381535,-1109.84680858694,161.05834196933182,0.4813029570509366,1.8899957614598875,126.53692901832619,31.46966370692628,0.0,1.0,19.79869319439493,18.333811822268448,0.0,Landing
23.5,-474.0215608666846,-1103.902381985472,159.58592271472008,0.9031484200244044,1.459306061848013,126.51535758481867,31.236444996255777,0.0,1.0,19.79869319439493,18.333811822268448,0.0,Landing
23.6,-475.82678291980744,-1091.9422246560998,161.4294668724693,0.8726759304507526,1.8248020180315714,126.5429132397241,31.124077226109254,0.0,1.0,19.79869319439493,18.333811822268448,0.0,Landing
23.700000000000003,-477.60695586709585,-1087.6773416639026,160.81387821460527,0.7124490783188541,1.2259062585662988,126.7532356933076,31.410243729196434,0.0,1.0,19.79869319439493,18.333811822268448,0.0,Landing
23.8,-479.4599475750041,-1101.6254217931987,158.90079383866592,1.2784245501586777,1.3041910367462977,126.40948970749588,31.477920924550585,0.0,1.0,19.79869319439493,18.333811822268448,0.0,Landing
23.900000000000002,-481.33491002877344,-1119.5325867701968,158.9397598592426,0.6453553708079021,1.2336608125574098,126.60383686764067,31.276975855281275,0.0,1.0,19.79869319439493,18.333811822268448,0.0,Landing
24.0,-483.20461880094683,-1110.6324154763456,158.78144912648855,1.0879335572225108,1.4971533927901473,126.4202282902304,31.54211431181591,0.0,1.0,19.79869319439493,18.333811822268448,0.0,Landing
24.1,-485.0131096523858,-1103.9958214694025,160.8723799734188,0.9439664477380547,1.6952852178480673,126.53454931298455,31.659439704913645,0.0,1.0,19.79869319439493,18.333811822268448,0.0,Landing
24.200000000000003,-486.85488913612045,-1101.5293195072445,161.2513665765255,0.8829406835809651,1.4199399649000994,126.67701536422413,31.69244564314121,0.0,1.0,19.79869319439493,18.333811822268448,0.0,Landing
24.3,-488.71226539848305,-1116.0551655132963,159.69799384792563,1.2750636037027638,1.2661724057894994,126.68130617916086,31.25388372848062,0.0,1.0,19.79869319439493,18.333811822268448,0.0,Landing
24.400000000000002,-490.5933854799523,-1112.3568577095853,160.08284474924048,1.0421202783545853,1.58144037377865,126.46349945933491,30.90167832570022,0.0,1.0,19.79869319439493,18.333811822268448,0.0,Landing
24.5,-492.4166734246684,-1103.065960484139,160.40751981864025,0.6773849535888773,1.430032979518164,126.66927754969538,31.52976093914128,0.0,1.0,19.79869319439493,18.333811822268448,0.0,Landing
24.6,-494.22759520090375,-1095.6431668899768,160.9629917925314,0.6968916095493918,1.585045030272717,126.57558542912,31.313729633109375,0.0,1.0,19.79869319439493,18.333811822268448,0.0,Landing
24.700000000000003,-496.0716013144022,-1096.0585243086712,159.7383310089368,0.6578542075761967,1.4379143342885095,126.55127344240066,31.407063442424068,0.0,1.0,19.79869319439493,18.333811822268448,0.0,Landing
24.8,-497.89696604621173,-1096.4625341668125,160.52116739164046,0.8731250268729184,1.436994954634052,126.57451447368612,31.255021495635464,0.0,1.0,19.79869319439493,18.333811822268448,0.0,Landing
24.900000000000002,-499.7099078717378,-1085.7559318504627,160.0142802500961,0.6699264584974816,1.8612690792403828,126.52947246086171,31.890138675789846,0.0,1.0,19.79869319439493,18.333811822268448,0.0,Landing
25.0,-501.5003809736545,-1096.5085089818785,158.52777715568374,0.38978974454812015,1.2454887355896744,126.40250317048196,31.2748817157757,0.0,1.0,19.79869319439493,18.333811822268448,0.0,Landing
25.1,-503.3795085911211,-1107.8656291120865,161.45554284777603,0.7150460429708547,1.539057191019438,126.51223627004225,31.961562898566285,0.0,1.0,19.79869319439493,18.333811822268448,0.0,Landing
25.200000000000003,-505.24923601729824,-1120.349690506771,160.40356344720357,0.9964006977794883,1.5995792684790064,126.74768807075878,31.633517436353323,0.0,1.0,19.79869319439493,18.333811822268448,0.0,Landing
25.3,-507.10212942618836,-1110.537139680173,159.89663357408682,1.0844996320438152,1.6667013478383197,126.43988954698926,31.715313513897232,0.0,1.0,19.79869319439493,18.333811822268448,0.0,Landing
25.400000000000002,-508.932194289522,-1107.2854374185454,159.3301586240208,0.9798329389645658,1.2364397324644012,127.01866601532635,31.360564106752513,0.0,1.0,19.79869319439493,18.333811822268448,0.0,Landing
25.5,-510.78566320439097,-1105.3205616447372,159.37932005750932,0.7877594496799093,1.534018673504372,126.42040562867595,31.150004441714636,0.0,1.0,19.79869319439493,18.333811822268448,0.0,Landing
25.6,-512.628732234412,-1097.663730001716,158.6413471241642,1.0239690972517774,1.3597677046097574,126.66400493441216,31.60990315606554,0.0,1.0,19.79869319439493,18.333811822268448,0.0,Landing
25.700000000000003,-514.4205129395306,-1106.7427183338168,158.96384519396315,1.2037139365462632,1.4398347909021636,126.31431965048478,31.502760017023057,0.0,1.0,19.79869319439493,18.333811822268448,0.0,Landing
25.8,-516.31937679606,-1111.0880729013388,159.1496992236141,0.918345314240333,1.3668634035469607,126.59563880200528,31.248490331740356,0.0,1.0,19.79869319439493,18.333811822268448,0.0,Landing
25.900000000000002,-518.1841725989187,-1124.3658268413583,159.53214577896492,0.8212640531254097,1.349019750105836,126.28381355132353,31.612903587109322,0.0,1.0,19.79869319439493,18.333811822268448,0.0,Landing
26.0,-520.0423420737374,-1096.6469801817539,161.40955534009095,1.1619782432558756,1.763915308499505,126.66646338120029,31.575953405397254,0.0,1.0,19.79869319439493,18.333811822268448,0.0,Landing
26.1,-521.8026116969688,-1087.2111446733697,160.68392221535458,0.6862876819510246,1.6564927099342743,126.5377929845597,30.882926491663426,0.0,1.0,19.79869319439493,18.333811822268448,0.0,Landing
26.200000000000003,-523.6202283222856,-1077.3664967221976,159.16810537770357,0.9671439334189209,1.1747340680715652,126.68229573013332,31.58535666651768,0.0,1.0,19.79869319439493,18.333811822268448,0.0,Landing
26.3,-525.4291745573483,-1097.475548434818,158.49367012185152,0.19698399879171657,1.3971966039190153,126.35270724604436,31.688977330510617,0.0,1.0,19.79869319439493,18.333811822268448,0.0,Landing
26.400000000000002,-527.2899894391429,-1102.418734457251,159.1700238780011,0.738314766816731,1.4263838956273465,126.56303131470099,30.942848023043624,0.0,1.0,19.79869319439493,18.333811822268448,0.0,Landing
26.5,-529.1323219945718,-1129.6507381478705,161.53292276932092,0.3666998715668544,1.7238448666244548,126.62525962863214,31.985730881321782,0.0,1.0,19.79869319439493,18.333811822268448,0.0,Landing
26.6,-531.0774282480877,-1120.0037200642328,160.751295879606,0.9665292558736653,1.2196538347500123,126.62394104347186,31.820005441251283,0.0,1.0,19.79869319439493,18.333811822268448,0.0,Landing
26.700000000000003,-532.8900080394641,-1121.0996388565718,159.90705747644418,0.6552536775223553,1.3122134792607174,126.39981668327073,30.88383596109217,0.0,1.0,19.79869319439493,18.333811822268448,0.0,Landing
26.8,-534.7378201888547,-1110.8503327158814,160.07043523000684,0.9463740211443775,1.3002370742044103,126.55522003028625,31.29177836365076,0.0,1.0,19.79869319439493,18.333811822268448,0.0,Landing
26.900000000000002,-536.6316799116671,-1107.67154826583,161.23262687017558,0.6986676774436228,1.0558545639372316,126.45642438278378,31.13127467403288,0.0,1.0,19.79869319439493,18.333811822268448,0.0,Landing
27.0,-538.4283657807932,-1109.556734943817,160.06518052450926,0.7154386284712353,1.0581584950972345,126.56310777582155,31.043342582728624,0.0,1.0,19.79869319439493,18.333811822268448,0.0,Landing
27.1,-540.2856038635738,-1091.6914155704262,162.3530914084006,0.6801991559638098,1.4977129122504633,126.28261961728526,31.493427841796173,0.0,1.0,19.79869319439493,18.333811822268448,0.0,Landing
27.200000000000003,-542.0901369895192,-1091.1383678673474,160.16948683485822,0.926368348870584,1.2960422364817716,126.75533247157665,31.443958950553647,0.0,1.0,19.79869319439493,18.333811822268448,0.0,Landing
27.3,-543.88405762013,-1053.3292916755727,159.15576931513374,0.8826829518699674,1.4908972251359514,126.44225609536124,31.12626733013778,0.0,1.0,19.79869319439493,18.333811822268448,0.0,Landing
27.400000000000002,-545.5522503219516,-1057.4716727293435,158.06701127245,0.6365494942187248,1.1227688191807352,126.60593067371155,31.160878807320024,0.0,1.0,19.79869319439493,18.333811822268448,0.0,Landing
27.5,-547.377495353166,-1057.6636760312567,160.52924790968396,0.797447470323181,1.2159542112447315,126.35881431821258,31.402681934007035,0.0,1.0,19.79869319439493,18.333811822268448,0.0,Landing
27.6,-549.1723760002862,-1085.1412108636623,159.87778921556784,0.6773635368533296,1.3579410777630914,126.2836938119915,31.52258406318877,0.0,1.0,19.79869319439493,18.333811822268448,0.0,Landing
27.700000000000003,-550.97795637627,-1088.1144692370071,159.15013374883026,0.7200478145999047,1.145665362863689,126.63361188642807,31.151493777332647,0.0,1.0,19.79869319439493,18.333811822268448,0.0,Landing
27.8,-552.818067699351,-1087.2404935219038,160.77918213566133,0.7189364450057546,1.3824712110204171,126.63035657587426,31.42003974384202,0.0,1.0,19.79869319439493,18.333811822268448,0.0,Landing
27.900000000000002,-554.6085784678958,-1078.301298124802,160.35753078521276,0.7029161909584307,1.3795749861077256,126.66076585238432,31.564947942020236,0.0,1.0,19.79869319439493,18.333811822268448,0.0,Landing
28.0,-556.369462866894,-1064.460334195087,159.62794332698937,0.953261109779808,1.36211864877328,126.58675057503655,31.67412473859543,0.0,1.0,19.79869319439493,18.333811822268448,0.0,Landing
28.1,-558.1403693703264,-1058.815307160421,160.3932858354423,0.9507205413757712,1.1679338473193948,126.71000276418033,31.48760466329842,0.0,1.0,19.79869319439493,18.333811822268448,0.0,Landing
28.200000000000003,-559.9026550036979,-1073.7037797450967,159.95012732188206,0.500471760081517,1.6770764060014118,126.58463789920228,31.44720159811854,0.0,1.0,19.79869319439493,18.333811822268448,0.0,Landing
28.3,-561.7379817656195,-1077.6443505480756,161.01169228584436,0.7683633836811928,1.1999612171586886,126.39474686364122,31.327464973503428,0.0,1.0,19.79869319439493,18.333811822268448,0.0,Landing
28.400000000000002,-563.5285911230668,-1099.72057516336,160.1779587602661,1.3366506042186859,1.4063236682378821,126.8936913039002,31.27672566330699,0.0,1.0,19.79869319439493,18.333811822268448,0.0,Landing
28.5,-565.4012578795147,-1108.277114986322,159.7051685386134,1.074454520691252,1.4074933301415093,126.40791187884207,31.452778266193548,0.0,1.0,19.79869319439493,18.333811822268448,0.0,Landing
28.6,-567.2793673405511,-1091.2707551246513,161.33320436627798,1.2517545272375927,1.4479703343857022,126.65943702204498,31.427774653165724,0.0,1.0,19.79869319439493,18.333811822268448,0.0,Landing
28.700000000000003,-568.9849448986901,-1073.4640307881136,159.01881239505943,0.6172909654941074,1.164699951431412,126.60779842137185,31.52314574171986,0.0,1.0,19.79869319439493,18.333811822268448,0.0,Landing
28.8,-570.7685780334552,-1049.1388295679371,158.6796108021788,0.7420646149362035,1.495988573884079,126.69220182277343,31.169807885321312,0.0,1.0,19.79869319439493,18.333811822268448,0.0,Landing
28.900000000000002,-572.5250614883907,-1059.0317318282587,159.48915556678153,0.6467323669079217,1.3014360927674808,126.51895389846374,31.591462455483537,0.0,1.0,19.79869319439493,18.333811822268448,0.0,Landing
29.0,-574.2801035578314,-1059.6933208431892,158.30275974681493,0.8218341715117887,1.5475440880536224,126.58347355618622,30.943415606401953,0.0,1.0,19.79869319439493,18.333811822268448,0.0,Landing
29.1,-576.0670446376712,-1051.9026908941441,158.550881517523,0.8697387091481137,1.6222273101748246,126.43896459306114,31.603879650974537,0.0,1.0,19.79869319439493,18.333811822268448,0.0,Landing
29.200000000000003,-577.7845749428615,-1058.8645500988605,159.84872179271323,0.9196173280810148,1.4510739423856942,126.62008831530079,31.33553398262871,0.0,1.0,19.79869319439493,18.333811822268448,0.0,Landing
29.3,-579.5744263083257,-1079.3665243223586,160.14710345193737,0.7261672694151305,1.3271560934304194,126.34048307590865,31.05989831685709,0.0,1.0,19.79869319439493,18.333811822268448,0.0,Landing
29.400000000000002,-581.463877259283,-1090.1871647068447,159.82345175661658,0.6849714655766528,1.7620615702550364,126.72352995685208,31.061740302095266,0.0,1.0,19.79869319439493,18.333811822268448,0.0,Landing
29.5,-583.2355107663957,-1078.6754248057377,160.59105169152028,0.6382025244546409,1.5241391980907875,126.88570097780473,31.563913407935214,0.0,1.0,19.79869319439493,18.333811822268448,0.0,Landing
29.6,-584.9678034323543,-1070.4637240262855,159.61977407940302,0.7845734190138876,1.2853510386232219,126.69823356174601,31.436529341475616,0.0,1.0,19.79869319439493,18.333811822268448,0.0,Landing
29.700000000000003,-586.8161958794144,-1074.2782537901803,158.18926491009884,0.9387410481041032,1.2133721142945264,126.22204759066528,31.461022641672706,0.0,1.0,19.79869319439493,18.333811822268448,0.0,Landing
29.8,-588.6069020353466,-1071.7857974814478,160.83423739951786,0.9657408731367966,1.5171479937881953,126.45324218083363,31.34203456081947,0.0,1.0,19.79869319439493,18.333811822268448,0.0,Landing
