time_s,altitude_ft,vertical_speed_fpm,ias_kt,pitch_deg,roll_deg,heading_deg,throttle_pct,afterburner_on,gear_down,flaps_deg,speedbrake_pct,weight_on_wheels,label
0.0,-1.7101084875728172,-524.3208777002344,149.93878179924442,0.8766867048773627,-0.03872243636226551,311.002200487394,39.83395169148491,0.0,1.0,14.701839900441078,9.625181357757546,0.0,Landing
0.1,-3.4578447465735986,-695.461316269777,149.84785970095825,0.9503257344104569,-0.3284187386077241,310.62517926784426,40.1090458098316,0.0,1.0,14.701839900441078,9.625181357757546,0.0,Landing
0.2,-5.187415068921702,-1044.7939840080792,150.6387229332196,1.0728546165048607,-0.17612543996443755,310.67369389290616,40.278600015199956,0.0,1.0,14.701839900441078,9.625181357757546,0.0,Landing
0.30000000000000004,-6.934078407613213,-1047.973956133584,151.02223946901722,0.47449817259404603,-0.6174182197772884,310.91899042632986,39.96988126943968,0.0,1.0,14.701839900441078,9.625181357757546,0.0,Landing
0.4,-8.697714527241518,-1054.9031709456037,149.20641385321193,0.7389541469528099,-0.38167618682482807,310.86857307377,39.88648882188286,0.0,1.0,14.701839900441078,9.625181357757546,0.0,Landing
0.5,-10.46193092364972,-1060.4141256637286,148.71399613766727,0.6900726697031303,-0.17234053993589846,310.86829433657135,40.330328498160014,0.0,1.0,14.701839900441078,9.625181357757546,0.0,Landing
0.6000000000000001,-12.236149035931856,-1068.463775372638,148.82654064055558,0.8090843654709077,-0.38080167758941985,310.78075117803473,39.84338323822397,0.0,1.0,14.701839900441078,9.625181357757546,0.0,Landing
0.7000000000000001,-14.040033404104708,-1060.5110527006966,149.15848761981158,0.6918229878633311,-0.022151539325414304,310.807335636914,40.04431261804896,0.0,1.0,14.701839900441078,9.625181357757546,0.0,Landing
0.8,-15.764486187153205,-1053.6366665057083,150.95328706643295,0.6935234230462508,0.15216510814605383,310.99168849845387,39.93014745212883,0.0,1.0,14.701839900441078,9.625181357757546,0.0,Landing
0.9,-17.504332368460396,-1052.1328395984888,149.36120536153425,0.5972496812252774,0.05412805496701609,310.83668760881665,40.24746527840563,0.0,1.0,14.701839900441078,9.625181357757546,0.0,Landing
1.0,-19.300697602097152,-1043.9600838094311,150.22468661863405,0.8322923949075178,-0.22064983173039382,310.681077761256,39.964791303768074,0.0,1.0,14.701839900441078,9.625181357757546,0.0,Landing
1.1,-20.98428660620036,-1041.9583708601579,148.61347232705333,0.5715247537878547,-0.46133168723637324,310.93765887263453,40.23221796280113,0.0,1.0,14.701839900441078,9.625181357757546,0.0,Landing
1.2000000000000002,-22.714124222761185,-1026.6172458021472,151.01774240547815,1.2681587704856554,-0.3966265558863937,310.9830859442901,40.25310568884724,0.0,1.0,14.701839900441078,9.625181357757546,0.0,Landing
1.3,-24.43378383110789,-1038.3637298790127,150.81426027967532,0.641894958302068,-0.30418103764816734,310.56440885700954,40.048027509003205,0.0,1.0,14.701839900441078,9.625181357757546,0.0,Landing
1.4000000000000001,-26.176105255595424,-1038.6482389658859,150.40452693032645,0.9805351751916394,0.27074344655780114,311.0125270736372,40.480922871066596,0.0,1.0,14.701839900441078,9.625181357757546,0.0,Landing
1.5,-27.907365417590615,-1036.0223777064796,152.43965121277125,0.5024060552641975,-0.019763483265092377,310.68014473170103,40.30528597636815,0.0,1.0,14.701839900441078,9.625181357757546,0.0,Landing
1.6,-29.613895719640286,-1049.3704348345943,150.60051387680286,1.0500333564461872,-0.24832584811272918,310.87940056765933,40.3631241872976,0.0,1.0,14.701839900441078,9.625181357757546,0.0,Landing
1.7000000000000002,-31.422957429768395,-1071.186434162157,150.76485463887488,0.9193157479629309,-0.12707182894652097,310.94075861881504,39.99631565054934,0.0,1.0,14.701839900441078,9.625181357757546,0.0,Landing
1.8,-33.2632975884014,-1089.0857926015833,151.24625904705417,1.079899115346031,0.0459777775636353,310.9036417834245,39.54095797153906,0.0,1.0,14.701839900441078,9.625181357757546,0.0,Landing
1.9000000000000001,-35.0593246826482,-1075.5614958210572,150.3439354618541,0.24859472923868875,-0.20303203388618252,310.8013192986498,39.89913476602118,0.0,1.0,14.701839900441078,9.625181357757546,0.0,Landing
2.0,-36.80076490887368,-1064.3987786126347,149.07076536942083,0.17590878744599758,-0.0999325522410223,310.96976282108994,39.90401252000568,0.0,1.0,14.701839900441078,9.625181357757546,0.0,Landing
2.1,-38.58529148146457,-1055.3079113660729,150.2013653337929,0.6857534900807437,-0.17651346278307414,311.12045674898695,40.487655618586906,0.0,1.0,14.701839900441078,9.625181357757546,0.0,Landing
2.2,-40.33586423947857,-1047.1343336153097,149.24976360701515,0.8413830907953199,-0.24628572674289162,310.54557976276647,39.58735104164298,0.0,1.0,14.701839900441078,9.625181357757546,0.0,Landing
2.3000000000000003,-42.03643657695023,-1045.3543597250346,149.9128665084536,0.8514065520187115,-0.2543199279639364,310.7442975968577,40.098873631753186,0.0,1.0,14.701839900441078,9.625181357757546,0.0,Landing
2.4000000000000004,-43.812063280089745,-1052.4550137836598,148.6474090047913,0.17612019207569507,0.0916972744273079,311.0447708262561,40.388216910163386,0.0,1.0,14.701839900441078,9.625181357757546,0.0,Landing
2.5,-45.59813930839687,-1066.032184943124,150.69348673427908,0.732184126223306,0.09125566676505828,310.78969185540836,40.049744802064474,0.0,1.0,14.701839900441078,9.625181357757546,0.0,Landing
2.6,-47.36659750166585,-1058.4850932859054,148.67171414325196,0.45623089011156925,-0.47136275291588947,310.88844332016686,40.08888620653248,0.0,1.0,14.701839900441078,9.625181357757546,0.0,Landing
2.7,-49.10448874651927,-1043.5877698997756,149.12483175629993,0.9998165560392531,-0.3205364720503902,310.88174665622716,40.29214952768581,0.0,1.0,14.701839900441078,9.625181357757546,0.0,Landing
2.8000000000000003,-50.816078157895745,-1034.2143717983688,150.51427736280635,0.8762757879308264,-0.2323714605357545,311.2046482214955,40.659805511356566,0.0,1.0,14.701839900441078,9.625181357757546,0.0,Landing
2.9000000000000004,-52.537669360657695,-1027.5327880164211,149.0898115040464,0.1964681430294778,0.024510941601935954,310.90381407307075,39.82455732365414,0.0,1.0,14.701839900441078,9.625181357757546,0.0,Landing
3.0,-54.24215268660138,-1026.2698506875024,151.04267688289426,0.7176715470155057,-0.08173660662452373,310.9176201669061,39.85856113302111,0.0,1.0,14.701839900441078,9.625181357757546,0.0,Landing
3.1,-55.94742741133326,-1019.9612586720846,148.09230468684564,0.6549314751457904,-0.13260411351080675,311.12322992634245,40.150420898078224,0.0,1.0,14.701839900441078,9.625181357757546,0.0,Landing
3.2,-57.63747565401812,-1028.0777395220666,150.07757916911305,0.830434207785036,-0.02538342357785278,310.7253385249538,39.63658289018715,0.0,1.0,14.701839900441078,9.625181357757546,0.0,Landing
3.3000000000000003,-59.38254138421171,-1063.2544526537004,149.87033713183095,0.808435899047594,-0.1633797190111637,311.0815422612061,40.29730503628998,0.0,1.0,14.701839900441078,9.625181357757546,0.0,Landing
3.4000000000000004,-61.26369967460176,-1076.7404993508649,150.1184078038067,0.7356501248929943,-0.25999090098744393,310.92713377411997,39.923350193902856,0.0,1.0,14.701839900441078,9.625181357757546,0.0,Landing
3.5,-63.02117815077244,-1078.022641099257,150.52913814603968,0.7412596837212794,-0.47397774008423765,310.9318927764283,40.4444244706384,0.0,1.0,14.701839900441078,9.625181357757546,0.0,Landing
3.6,-64.772654589708,-1049.7852290477013,149.66388051991052,0.7607623088971344,-0.05987932775405738,310.7316528832291,39.58151919841649,0.0,1.0,14.701839900441078,9.625181357757546,0.0,Landing
3.7,-66.51262581984027,-1050.0724937384405,151.7165701329728,0.7342120385992936,-0.21284095569994857,311.01632581382523,40.03028094461472,0.0,1.0,14.701839900441078,9.625181357757546,0.0,Landing
3.8000000000000003,-68.27154061946464,-1051.0121785309764,151.5667613484075,0.7491292935709664,-0.39922148754541154,310.72741184011693,40.068952769807645,0.0,1.0,14.701839900441078,9.625181357757546,0.0,Landing
3.9000000000000004,-70.02771548236288,-1047.6892846784922,149.55962103457034,0.8882145052022495,0.027840008947250583,310.79767141739194,40.433826190330244,0.0,1.0,14.701839900441078,9.625181357757546,0.0,Landing
4.0,-71.75107224323273,-1060.8955469862196,151.8893034749267,0.756451501386542,-0.21066402404091397,310.60547190951377,40.16372525647596,0.0,1.0,14.701839900441078,9.625181357757546,0.0,Landing
4.1000000000000005,-73.57601835439574,-1076.8612526662935,149.72208806814902,0.8620767433792081,-0.006104343319831312,310.76961944890354,39.69452661888421,0.0,1.0,14.701839900441078,9.625181357757546,0.0,Landing
4.2,-75.41202174569435,-1057.9994472245062,148.06936526954252,0.7031621096414352,-0.37218005858628966,311.0375948531596,40.19070056793373,0.0,1.0,14.701839900441078,9.625181357757546,0.0,Landing
4.3,-77.04106947935526,-1045.538946343933,150.4913502686856,0.8075669071888388,-0.011423269444120754,310.85078275337776,39.78735629434543,0.0,1.0,14.701839900441078,9.625181357757546,0.0,Landing
4.4,-78.80371308611541,-1024.7317577912243,149.09466076126319,0.7458880868405183,-0.32495213527234146,310.6979435470189,39.984891554243426,0.0,1.0,14.701839900441078,9.625181357757546,0.0,Landing
4.5,-80.53568053465047,-1047.5763450817112,151.2363532131634,0.9537069417571857,-0.2654265463587987,310.8810171272671,40.14113630038159,0.0,1.0,14.701839900441078,9.625181357757546,0.0,Landing
4.6000000000000005,-82.27895120476381,-1054.905386459842,150.19436273982282,0.8133642875188816,-0.41184546109246395,310.91625221577465,40.21847221062679,0.0,1.0,14.701839900441078,9.625181357757546,0.0,Landing
4.7,-84.07824001841462,-1061.996783674678,149.95493812532285,0.7760116410753105,0.19129357825729237,310.6075079389159,39.81419733528418,0.0,1.0,14.701839900441078,9.625181357757546,0.0,Landing
4.800000000000001,-85.84566445302386,-1055.3255980006895,151.03706815507104,0.9178637165882775,0.043413663174430905,310.92871694241126,39.83917571225619,0.0,1.0,14.701839900441078,9.625181357757546,0.0,Landing
4.9,-87.55557919476726,-1056.3036495502358,150.3710070396098,0.640569879777739,0.3052851556008217,310.85994124773356,40.081300764884006,0.0,1.0,14.701839900441078,9.625181357757546,0.0,Landing
5.0,-89.3597582661658,-1050.380064736339,149.70419857051408,0.7069579431270846,-0.09249740303122105,311.1606187014695,39.64111196884906,0.0,1.0,14.701839900441078,9.625181357757546,0.0,Landing
5.1000000000000005,-91.09756477670555,-1064.3941165136168,150.6321295769803,0.6361646832956317,-0.0031853617761235242,311.09983824247956,39.83155158681678,0.0,1.0,14.701839900441078,9.625181357757546,0.0,Landing
5.2,-92.87754977733535,-1065.6716410706993,148.15812196016583,0.8739999803972385,-0.3009860332342216,310.5836523369385,40.27726458779943,0.0,1.0,14.701839900441078,9.625181357757546,0.0,Landing
5.300000000000001,-94.6881164715193,-1058.9444787251439,151.53654843941285,0.9965261490629873,-0.42132370490314447,310.7685960685362,39.95655604382733,0.0,1.0,14.701839900441078,9.625181357757546,0.0,Landing
5.4,-96.39228717033127,-1066.011244877842,150.07076578216385,0.8460928871997326,-0.34886602317964743,310.8207945003687,39.69014268826286,0.0,1.0,14.701839900441078,9.625181357757546,0.0,Landing
5.5,-98.20760600172456,-1048.4848770675512,149.53055233366496,0.6173882846076328,-0.2983262191374745,311.1040528957576,39.82003122402175,0.0,1.0,14.701839900441078,9.625181357757546,0.0,Landing
5.6000000000000005,-99.93054085685705,-1061.1260871786042,150.1776696206305,0.6796102775900865,-0.43677750902710316,310.82847460550283,40.18275378184238,0.0,1.0,14.701839900441078,9.625181357757546,0.0,Landing
5.7,-101.6979176062243,-1033.261463249775,148.8564349782951,0.48523526768767133,-0.13662561508646043,310.8936361912813,40.17765156296821,0.0,1.0,14.701839900441078,9.625181357757546,0.0,Landing
5.800000000000001,-103.37391331797343,-1036.920175403759,150.46452574067044,0.7036156504511599,0.004222663041019037,311.00908716087486,40.64944899287319,0.0,1.0,14.701839900441078,9.625181357757546,0.0,Landing
5.9,-105.11514173387584,-1033.949486195064,151.15634320672694,0.9846885601092985,-0.060380235608450156,311.06903013872443,39.934840917878965,0.0,1.0,14.701839900441078,9.625181357757546,0.0,Landing
6.0,-106.86766503719961,-1051.4914572148684,150.0877551017708,1.1300025984061302,-0.3773818655848967,311.1087196412841,40.107962547634834,0.0,1.0,14.701839900441078,9.625181357757546,0.0,Landing
6.1000000000000005,-108.63137060404777,-1051.45721845426,149.80081587144596,0.604161237492206,-0.3790441488988081,311.1228800092474,39.50913122014336,0.0,1.0,14.701839900441078,9.625181357757546,0.0,Landing
6.2,-110.37242782614715,-1068.9816648224053,149.82621121495316,0.942364047121131,0.1783110830103658,310.96104233349365,39.44253368697134,0.0,1.0,14.701839900441078,9.625181357757546,0.0,Landing
6.300000000000001,-112.21257336131164,-1063.497672580516,150.23726520544054,0.720931026464806,0.025403784000111423,310.8393628822571,40.1206301699758,0.0,1.0,14.701839900441078,9.625181357757546,0.0,Landing
6.4,-113.94885896695035,-1054.998239289435,150.6666177323,0.85539435958893,-0.21603557812312613,310.867190790304,39.835020705299335,0.0,1.0,14.701839900441078,9.625181357757546,0.0,Landing
6.5,-115.64741902259432,-1022.0368543316454,151.288789336893,0.9831084321324262,-0.04734526425818898,310.66963401047394,40.16148689360066,0.0,1.0,14.701839900441078,9.625181357757546,0.0,Landing
6.6000000000000005,-117.32275763296987,-1023.1591069696323,149.70881374097598,0.9322943292350307,-0.27453783505419926,310.81574366028144,40.14576050706772,0.0,1.0,14.701839900441078,9.625181357757546,0.0,Landing
6.7,-119.06465450179851,-1030.7108533864864,150.7258994964409,0.7784949977150718,-0.3489668177716565,310.7550591730528,40.17664885171909,0.0,1.0,14.701839900441078,9.625181357757546,0.0,Landing
6.800000000000001,-120.80097328952675,-1051.7963555545891,150.9511952838175,0.6184270612549323,0.19322495125623423,311.12819769785654,40.08597380919672,0.0,1.0,14.701839900441078,9.625181357757546,0.0,Landing
6.9,-122.58173941074281,-1055.2454066444882,149.38585461500995,1.0242373993250524,-0.09583292229252227,311.1056920794813,39.936992545432275,0.0,1.0,14.701839900441078,9.625181357757546,0.0,Landing
7.0,-124.34088153502096,-1054.6371385976356,149.18725380627447,1.1087625116335127,0.11539010719472242,311.0927175685471,39.69835658381214,0.0,1.0,14.701839900441078,9.625181357757546,0.0,Landing
7.1000000000000005,-126.07415898251493,-1047.7144576347712,150.73738497835723,0.37365243407494264,-0.47984728356566175,310.84375507667596,39.65760575012542,0.0,1.0,14.701839900441078,9.625181357757546,0.0,Landing
7.2,-127.82031169891667,-1056.8347591176605,148.28026702467764,0.9147965941986727,-0.0923958213456012,310.84736571623876,40.3394965914766,0.0,1.0,14.701839900441078,9.625181357757546,0.0,Landing
7.300000000000001,-129.62505533060926,-1042.8445958930836,151.86555264279605,0.9178411790583647,-0.20240177925852165,310.9207634478337,39.85765899741238,0.0,1.0,14.701839900441078,9.625181357757546,0.0,Landing
7.4,-131.28838196198035,-1043.4978089680556,150.59368880674475,0.8439216991686651,0.0678026816600375,311.07195502595596,40.357335822371255,0.0,1.0,14.701839900441078,9.625181357757546,0.0,Landing
7.5,-133.03780074375695,-1019.7827743341064,149.4370779358564,0.7820054109593376,-0.024031517172853803,310.9642410335864,39.71038831198216,0.0,1.0,14.701839900441078,9.625181357757546,0.0,Landing
7.6000000000000005,-134.7239692022798,-1037.4196277813212,150.60648846751943,0.7073525481630557,-0.35193594625604774,310.99371614013353,40.80524395180802,0.0,1.0,14.701839900441078,9.625181357757546,0.0,Landing
7.7,-136.47548010088695,-1031.642188403265,150.43114385824,0.6951029922305704,0.011187923002334926,311.1479446520789,40.185085618871966,0.0,1.0,14.701839900441078,9.625181357757546,0.0,Landing
7.800000000000001,-138.19601168577327,-1050.586876352304,149.45204955361922,0.3245208265186259,-0.0056882588376361565,311.0090471236131,40.58080974026387,0.0,1.0,14.701839900441078,9.625181357757546,0.0,Landing
7.9,-139.9769035840413,-1057.4445135112853,150.97876255583566,0.5996428608977037,-0.11805844219726376,310.71439325959875,39.48889602849484,0.0,1.0,14.701839900441078,9.625181357757546,0.0,Landing
8.0,-141.76270266844338,-1068.4200115708677,149.2832086536917,0.7752113626535628,-0.1713214438417146,310.8719752086504,39.92070431130112,0.0,1.0,14.701839900441078,9.625181357757546,0.0,Landing
8.1,-143.5381117436276,-1040.3599958392476,150.27159457048828,0.5084988341794839,-0.3924694737079612,310.8721168615655,40.21680643356924,0.0,1.0,14.701839900441078,9.625181357757546,0.0,Landing
8.200000000000001,-145.17870356323755,-1033.806250634899,150.35578781350867,0.747700791115701,-0.18552499713779702,310.9842288637093,40.19955530443848,0.0,1.0,14.701839900441078,9.625181357757546,0.0,Landing
8.3,-146.93173392161788,-1009.8512414803622,149.92089385064506,1.0533811489276932,-0.13502430042716485,310.98094373307913,40.17044294465139,0.0,1.0,14.701839900441078,9.625181357757546,0.0,Landing
8.4,-148.58736795102942,-1025.0971196512921,149.10291376177048,0.7023189214146563,-0.2085124605875635,310.81215532644273,39.901185546341566,0.0,1.0,14.701839900441078,9.625181357757546,0.0,Landing
8.5,-150.304189161494,-1026.1942012175211,149.27150426197488,1.0169476093299754,0.06079650091190883,310.94362622164203,40.18879662003736,0.0,1.0,14.701839900441078,9.625181357757546,0.0,Landing
8.6,-152.06270492770548,-1042.5514910022173,150.39908823583562,0.7139008296320188,0.2179433389924222,310.99137938640047,40.261440854853454,0.0,1.0,14.701839900441078,9.625181357757546,0.0,Landing
8.700000000000001,-153.8001254060405,-1034.3563227873574,151.10610266999683,0.8875369894140127,-0.22256986423220515,310.7546666468911,39.76231527377918,0.0,1.0,14.701839900441078,9.625181357757546,0.0,Landing
8.8,-155.4759707754308,-1038.4021484780817,151.98257437441833,0.7294768939162597,-0.19393645286882316,310.926847899408,39.901004777886,0.0,1.0,14.701839900441078,9.625181357757546,0.0,Landing
8.9,-157.2547156700959,-1027.399268869334,149.22755872469142,0.6573691701213236,0.23018873951497826,310.93231877776293,40.41066917873256,0.0,1.0,14.701839900441078,9.625181357757546,0.0,Landing
9.0,-158.93712175038718,-1038.5561178366686,150.05979481514188,0.5402642942509827,0.05789009794409339,310.8040929574561,40.36814607919655,0.0,1.0,14.701839900441078,9.625181357757546,0.0,Landing
9.1,-160.66875136461414,-1018.070594166045,150.7892470694354,0.6903787382141832,-0.08681082105305464,311.0995587377945,39.62381732490582,0.0,1.0,14.701839900441078,9.625181357757546,0.0,Landing
9.200000000000001,-162.34506864092612,-1034.1440051750396,149.07348720950966,0.5441517655304811,-0.19189108118050335,310.8170087488186,39.80911948283943,0.0,1.0,14.701839900441078,9.625181357757546,0.0,Landing
9.3,-164.10784177626238,-1042.4763157863197,149.9630919196273,0.7420858816129201,-0.1542428534048954,310.7898156799806,39.729458195369645,0.0,1.0,14.701839900441078,9.625181357757546,0.0,Landing
9.4,-165.88113294354574,-1050.8035112046343,151.27056722672341,0.8119584845318929,-0.3879036699332853,310.7478720054346,39.391387785662054,0.0,1.0,14.701839900441078,9.625181357757546,0.0,Landing
9.5,-167.5990861969493,-1062.5388160166722,149.4380548124152,0.6302873373385264,0.06108754814135048,310.9537538274117,40.399455782263914,0.0,1.0,14.701839900441078,9.625181357757546,0.0,Landing
9.600000000000001,-169.42053585634574,-1028.3707360600713,150.02501026655918,0.5531480486785152,0.044857218645695335,310.86974430800933,40.265856645479715,0.0,1.0,14.701839900441078,9.625181357757546,0.0,Landing
9.700000000000001,-171.0229866238461,-1035.3554750416495,150.86964434354093,0.709755532937333,-0.4427000400915521,311.0788985933259,40.328145053668415,0.0,1.0,14.701839900441078,9.625181357757546,0.0,Landing
9.8,-172.77586357215753,-1013.6889624051095,149.88622666333683,0.37151392841926484,0.27498976832050437,310.97244152394364,39.87495426104196,0.0,1.0,14.701839900441078,9.625181357757546,0.0,Landing
9.9,-174.48898066837128,-1045.4552202000175,149.9796235736068,0.7305557206018892,-0.2751933735278568,310.8491467527682,40.23085727538021,0.0,1.0,14.701839900441078,9.625181357757546,0.0,Landing
10.0,-176.25026272484618,-1059.6978816059334,150.05221719654054,0.5192981473690483,-0.008244394607961475,310.65845888515037,40.08322108132281,0.0,1.0,14.701839900441078,9.625181357757546,0.0,Landing
10.100000000000001,-178.0743529801872,-1066.9448515071165,149.91965352485062,0.8198516504766147,0.06559590200046697,311.17053934881596,39.81946176285595,0.0,1.0,14.701839900441078,9.625181357757546,0.0,Landing
10.200000000000001,-179.82370492590687,-1038.346044528049,148.96180387625398,1.0020855581176864,-0.2871659179603825,310.6784704685365,39.89787483376173,0.0,1.0,14.701839900441078,9.625181357757546,0.0,Landing
10.3,-181.44199294748643,-1031.6617166719425,148.1877940679148,0.7229542615042164,0.22257909835591122,310.85159473444367,40.25143848023396,0.0,1.0,14.701839900441078,9.625181357757546,0.0,Landing
10.4,-183.2326615635469,-1026.4346065225368,149.3308967171441,0.5632081609798816,-0.2099300954635604,310.9205710488029,39.95909223213515,0.0,1.0,14.701839900441078,9.625181357757546,0.0,Landing
10.5,-184.95587795851955,-1030.2642987811168,150.31385592001624,0.5191002085046842,-0.09874611142335646,310.8385801660502,40.13943966827681,0.0,1.0,14.701839900441078,9.625181357757546,0.0,Landing
10.600000000000001,-186.593314441392,-1030.466581208185,149.91425252703505,0.9287103190959354,-0.12545940911996675,311.10176714169563,40.4409144645346,0.0,1.0,14.701839900441078,9.625181357757546,0.0,Landing
10.700000000000001,-188.38499446958784,-1038.2843994508676,150.80030360708164,0.932333134531781,-0.46284331937939344,311.08350214262646,40.08565239141007,0.0,1.0,14.701839900441078,9.625181357757546,0.0,Landing
10.8,-190.1472999557739,-1054.939831426799,150.46700399891006,0.48186876515806054,-0.013965619722146966,310.8750218165944,39.64960041162299,0.0,1.0,14.701839900441078,9.625181357757546,0.0,Landing
10.9,-191.868013598526,-1047.0897323107408,150.90797612356835,0.5109028515807623,-0.0030309772266338686,311.1094866299294,40.13221463628025,0.0,1.0,14.701839900441078,9.625181357757546,0.0,Landing
11.0,-193.62044313114154,-1028.285901789269,150.21262107354016,0.41952026081774874,0.2659604056576644,310.79396625228424,39.849883099086796,0.0,1.0,14.701839900441078,9.625181357757546,0.0,Landing
11.100000000000001,-195.28872946472023,-1034.3718148949677,149.46151828392271,0.7201145157548161,-0.2800085307910952,310.76461717853874,39.59165937737961,0.0,1.0,14.701839900441078,9.625181357757546,0.0,Landing
11.200000000000001,-197.03987267300084,-1026.4434678859345,149.4674446120457,0.8011676509758769,-0.29582851320108905,310.9018952210997,40.20038207364209,0.0,1.0,14.701839900441078,9.625181357757546,0.0,Landing
11.3,-198.75266047057121,-1038.7161576592007,149.46455118458348,0.9714596099647007,-0.030910881075252764,310.70070550698915,40.02786943420738,0.0,1.0,14.701839900441078,9.625181357757546,0.0,Landing
11.4,-200.48231025301624,-1035.1912410401667,149.06757335603882,0.8978061994701942,-0.12150810525150404,310.94175756492723,39.73273991756286,0.0,1.0,14.701839900441078,9.625181357757546,0.0,Landing
11.5,-202.21582887820168,-1019.0020198897004,150.09865294492772,0.3556927915010521,-0.08626889164885913,311.09754734937223,40.24398260408335,0.0,1.0,14.701839900441078,9.625181357757546,0.0,Landing
11.600000000000001,-203.84767057001972,-1004.8602757712729,150.68160254605664,0.8408158323640893,-0.36346284216817526,310.7480917524073,39.59010816417593,0.0,1.0,14.701839900441078,9.625181357757546,0.0,Landing
11.700000000000001,-205.5066116318726,-983.0491909443878,151.4684294147293,0.42743205001134493,-0.019674276351077213,310.68005647430596,39.969731188656134,0.0,1.0,14.701839900441078,9.625181357757546,0.0,Landing
11.8,-207.13107483292362,-1010.2046429063136,150.22057456611049,0.7386618596047632,0.1808637685252963,310.68437480796285,39.635081456947425,0.0,1.0,14.701839900441078,9.625181357757546,0.0,Landing
11.9,-208.89869378455128,-1020.7068076105543,151.33190108888942,0.7970265139723098,0.1366053534923362,310.87974934653334,40.28605128612494,0.0,1.0,14.701839900441078,9.625181357757546,0.0,Landing
12.0,-210.61014566992537,-1028.3098994921318,149.7481837353102,0.7965390255993072,-0.007303900487135029,311.16393338503303,40.07521461204321,0.0,1.0,14.701839900441078,9.625181357757546,0.0,Landing
12.100000000000001,-212.27262433038428,-1021.8782724571325,148.74920876181596,0.5324400610277853,-0.06420337751357102,310.84155846141414,40.07509756228089,0.0,1.0,14.701839900441078,9.625181357757546,0.0,Landing
12.200000000000001,-214.00808514683695,-1036.8810760845122,149.95132529238006,0.764378589191955,-0.24593418848737225,310.8926523517191,40.14096762837844,0.0,1.0,14.701839900441078,9.625181357757546,0.0,Landing
12.3,-215.79455105034793,-1039.7381445091867,150.50310421975962,0.8578362620875148,-0.23160515243004587,310.89798343047005,40.10938083629258,0.0,1.0,14.701839900441078,9.625181357757546,0.0,Landing
12.4,-217.4713150529302,-1056.1995757779982,150.03053717007734,0.5186427799068118,-0.4195684048123534,310.87258159010617,39.860146965558805,0.0,1.0,14.701839900441078,9.625181357757546,0.0,Landing
12.5,-219.28908302572694,-1035.141717796023,149.0351188481624,0.887219100743778,0.11261254574350082,310.61633275483325,39.639341272061586,0.0,1.0,14.701839900441078,9.625181357757546,0.0,Landing
12.600000000000001,-220.97025963932805,-1041.961491256501,150.31301183491476,0.38561227833784467,-0.22310570605766733,310.8172772749333,40.511775034919594,0.0,1.0,14.701839900441078,9.625181357757546,0.0,Landing
12.700000000000001,-222.6811225092127,-1011.1014923003892,150.71602931003557,0.7909438337367768,-0.09906200783317326,311.053253838563,40.35711683340703,0.0,1.0,14.701839900441078,9.625181357757546,0.0,Landing
12.8,-224.34459048722888,-1028.3218599501424,149.83007362128018,0.7465636999478983,-0.2896331080934159,310.9971378228058,40.56849399382913,0.0,1.0,14.701839900441078,9.625181357757546,0.0,Landing
12.9,-226.11186893907876,-1029.6939010702656,149.57102587137013,0.4393023119789538,-0.1733024293340833,310.88853323022795,39.76225252314813,0.0,1.0,14.701839900441078,9.625181357757546,0.0,Landing
13.0,-227.82959201456404,-1034.8049779526434,148.41956623650964,0.38519990706012686,-0.3776767891601607,310.92451876709106,40.10171524616102,0.0,1.0,14.701839900441078,9.625181357757546,0.0,Landing
13.100000000000001,-229.5186153769921,-1046.4635293737501,149.88494333304274,0.754548031910218,-0.05077721499817471,310.8689449424295,40.33610396295096,0.0,1.0,14.701839900441078,9.625181357757546,0.0,Landing
13.200000000000001,-231.3441865859475,-1047.0004734655276,151.174527405534,1.0211041224664505,0.17179929313392628,310.60573160464037,39.66022409760702,0.0,1.0,14.701839900441078,9.625181357757546,0.0,Landing
13.3,-233.06459438189168,-1042.8548124203076,150.92847698305346,0.746562454660555,0.11435114150232328,310.71683222544857,39.64760492033099,0.0,1.0,14.701839900441078,9.625181357757546,0.0,Landing
13.4,-234.73288943909364,-1024.2080709039612,148.99089274133016,0.8424866572559448,-0.46479546138238537,310.77848868849264,39.940535608530716,0.0,1.0,14.701839900441078,9.625181357757546,0.0,Landing
13.5,-236.46522694046732,-1011.9551551269238,149.4237688116553,0.6419693082402212,0.0011581528671006092,310.9664872769331,40.15059951899733,0.0,1.0,14.701839900441078,9.625181357757546,0.0,Landing
13.600000000000001,-238.1243701575263,-998.4547190218733,151.51497325918652,0.8562504799801327,-0.297767688359008,310.8851888903898,40.37309974947437,0.0,1.0,14.701839900441078,9.625181357757546,0.0,Landing
13.700000000000001,-239.725163034203,-985.1208361487749,149.53276422579327,0.6338270817974385,0.1475237031715952,310.82374787498475,40.107494744027484,0.0,1.0,14.701839900441078,9.625181357757546,0.0,Landing
13.8,-241.3908311212112,-981.4213904988151,148.80864753573698,0.6128869539935351,-0.2114378085634369,310.6474753545202,40.191798299966564,0.0,1.0,14.701839900441078,9.625181357757546,0.0,Landing
13.9,-243.03147711002038,-1001.8287895087327,151.5924454097977,0.5527308733564511,0.12093590411886168,310.5295236189629,39.914926534241026,0.0,1.0,14.701839900441078,9.625181357757546,0.0,Landing
14.0,-244.73430698174667,-1024.5167184387014,147.78152986962846,0.6616749739681275,0.138929104160125,310.52470297025707,40.275868692588325,0.0,1.0,14.701839900441078,9.625181357757546,0.0,Landing
14.100000000000001,-246.5134147134047,-1034.9074215214557,149.9010644358165,0.4745186158088434,0.04671588780384639,310.82098798974425,39.98599478234149,0.0,1.0,14.701839900441078,9.625181357757546,0.0,Landing
14.200000000000001,-248.20601421762765,-1038.8506941108744,150.4256467349798,0.6710146259490202,-0.13439345414569817,310.95170631113217,40.238364824230146,0.0,1.0,14.701839900441078,9.625181357757546,0.0,Landing
14.3,-249.92856045230104,-1031.1163301347221,150.90204596820908,0.3611814836087861,-0.28776036647766423,310.8747204769543,40.42436870953008,0.0,1.0,14.701839900441078,9.625181357757546,0.0,Landing
14.4,-251.6689963640783,-1017.4823859966976,149.1310253018818,1.0771116275897208,-0.2892373169692979,310.7729508698435,40.352637281282895,0.0,1.0,14.701839900441078,9.625181357757546,0.0,Landing
14.5,-253.29342614761114,-1016.1135638823622,149.0984109607521,0.8751674318499016,-0.17366482517384021,310.674217605331,40.10673861074983,0.0,1.0,14.701839900441078,9.625181357757546,0.0,Landing
14.600000000000001,-255.00912827171285,-989.0979010578518,147.993422239175,0.8891173190623581,-0.18606662047095346,311.0790749990397,40.22004923662733,0.0,1.0,14.701839900441078,9.625181357757546,0.0,Landing
14.700000000000001,-256.61448586936757,-988.4240068058886,149.60120962330748,0.5301234066191005,-0.10213926365586665,311.15982342817324,40.728003285248015,0.0,1.0,14.701839900441078,9.625181357757546,0.0,Landing
14.8,-258.2355461816406,-983.3250568654136,151.76080167754694,0.7922494138709993,-0.28279579421521817,310.85581692271046,40.132937367469324,0.0,1.0,14.701839900441078,9.625181357757546,0.0,Landing
14.9,-259.9257535560399,-1011.3547707324415,150.8644865284657,0.41730778448512784,0.023304566348102296,310.9433166253233,39.648350693277166,0.0,1.0,14.701839900441078,9.625181357757546,0.0,Landing
15.0,-261.6712597230298,-1021.9768101483965,150.81716621033772,0.8164420560121287,-0.24487121282966573,310.9209083333242,39.88569529330737,0.0,1.0,14.701839900441078,9.625181357757546,0.0,Landing
15.100000000000001,-263.34543023238257,-1038.6826988256416,149.94332598731856,0.63669158033721,-0.36402516538821683,310.8067200607695,39.97146848009745,0.0,1.0,14.701839900441078,9.625181357757546,0.0,Landing
15.200000000000001,-265.11916705016813,-1039.8005445840113,150.21918113268825,0.3466122918934629,-0.2041779024910064,311.0960047285728,40.21473159920028,0.0,1.0,14.701839900441078,9.625181357757546,0.0,Landing
15.3,-266.87026244594983,-1060.6804473408374,149.899563925017,0.927683142521316,-0.1356221886176723,310.95825389125764,39.60975410273028,0.0,1.0,14.701839900441078,9.625181357757546,0.0,Landing
15.4,-268.64883246908676,-1047.7507932916637,149.76169087458635,0.9436082375305735,-0.06546243614404483,311.187725301809,40.24250818457328,0.0,1.0,14.701839900441078,9.625181357757546,0.0,Landing
15.5,-270.35792101662645,-1037.3636548737181,151.45794990608144,1.0024989864155964,0.08545760808739447,310.6561552994765,39.50453514943505,0.0,1.0,14.701839900441078,9.625181357757546,0.0,Landing
15.600000000000001,-272.0570807203184,-1037.166387991988,150.4666948716921,1.0958111687811547,0.0706803451945687,310.95406328297236,40.24249511389429,0.0,1.0,14.701839900441078,9.625181357757546,0.0,Landing
15.700000000000001,-273.8346644090467,-1043.1270800125958,149.81186969056213,0.6237711694583747,0.021517197888984818,310.93681192726126,40.077688653061806,0.0,1.0,14.701839900441078,9.625181357757546,0.0,Landing
15.8,-275.5735564166894,-1039.8372887166715,152.23113024727576,1.0566734457978362,0.11988629904831088,310.9333901111413,39.8323227598272,0.0,1.0,14.701839900441078,9.625181357757546,0.0,Landing
15.9,-277.2562671639018,-1007.4516470759363,148.62293039130662,0.6551641750401723,-0.5119368879569876,310.9082949812441,40.18088295717749,0.0,1.0,14.701839900441078,9.625181357757546,0.0,Landing
16.0,-278.8719226444264,-1013.1721086788957,149.49986830124482,0.6463219227303676,-0.6040722136898762,310.85232048468913,40.09736108838867,0.0,1.0,14.701839900441078,9.625181357757546,0.0,Landing
16.1,-280.6394169600839,-999.6551281311554,150.70027513144984,0.7032499194460231,-0.15038475016493008,311.21963782518696,40.50884291781331,0.0,1.0,14.701839900441078,9.625181357757546,0.0,Landing
16.2,-282.25454280455756,-1012.1220107145859,150.6354119033826,0.816933558520332,0.26233752702924873,310.83675706513077,40.22795503860415,0.0,1.0,14.701839900441078,9.625181357757546,0.0,Landing
16.3,-283.9325326979993,-984.191384124324,147.59585664491394,0.5944385042222277,-0.5419670083592667,310.8097335318146,40.43150920029693,0.0,1.0,14.701839900441078,9.625181357757546,0.0,Landing
16.400000000000002,-285.5603738807055,-992.3375505773265,150.16794833829744,0.7912223703638049,-0.2594719336425512,310.8746413568423,40.14210166334894,0.0,1.0,14.701839900441078,9.625181357757546,0.0,Landing
16.5,-287.2162305574442,-993.1527993327222,149.9511881216236,0.8129624169151126,0.0808034620138682,310.7659480698512,39.9552022558315,0.0,1.0,14.701839900441078,9.625181357757546,0.0,Landing
16.6,-288.8982966946629,-1007.9466819620052,149.94496832934945,0.257446296594195,0.12538207737542123,310.921942527572,40.20998593502189,0.0,1.0,14.701839900441078,9.625181357757546,0.0,Landing
16.7,-290.60010729051555,-1010.3828497809673,148.51434686721424,0.6925417062865693,-0.05372984324561331,310.64752127905297,40.31383234303523,0.0,1.0,14.701839900441078,9.625181357757546,0.0,Landing
16.8,-292.268144806349,-1021.8712943511605,150.5263805375153,0.877379822673169,-0.00981533845911986,310.8065868131159,40.137414754509734,0.0,1.0,14.701839900441078,9.625181357757546,0.0,Landing
16.900000000000002,-294.0076531664187,-1011.1815938779159,149.00460168243328,0.7381198946595906,-0.05804350649941846,311.14486095657287,39.57892373437543,0.0,1.0,14.701839900441078,9.625181357757546,0.0,Landing
17.0,-295.65601525990513,-1032.8748229554321,151.99185591627108,0.8231189975440101,0.05701113188700513,310.8254030355855,40.14275677033818,0.0,1.0,14.701839900441078,9.625181357757546,0.0,Landing
17.1,-297.4325189211262,-1008.4112548597432,151.48317222291905,0.7580591447376926,-0.16110910800323894,310.92204924304315,39.913271445365936,0.0,1.0,14.701839900441078,9.625181357757546,0.0,Landing
17.2,-299.04970944071744,-1024.0642216655601,150.72030722510874,1.0654561462445806,0.1437202841398616,310.91435418184415,40.366080702265265,0.0,1.0,14.701839900441078,9.625181357757546,0.0,Landing
17.3,-300.77633636823293,-998.7307918185593,150.20762787292026,1.041367583178956,-0.34702447803946934,310.896459811225,40.27689737020818,0.0,1.0,14.701839900441078,9.625181357757546,0.0,Landing
17.400000000000002,-302.426172880219,-1017.9694314387802,151.41012771296653,0.5686443395740922,-0.6099939761408911,310.7768158490471,40.03424690234826,0.0,1.0,14.701839900441078,9.625181357757546,0.0,Landing
17.5,-304.13955659791134,-1005.5533877391667,150.84823856071205,0.5662993155493794,-0.572559299049133,310.8589114353068,40.664196272725924,0.0,1.0,14.701839900441078,9.625181357757546,0.0,Landing
17.6,-305.80410330692877,-1015.5797292939496,149.18293617410978,0.591178180877597,-0.3500593980263163,310.7803600402036,39.99747951148474,0.0,1.0,14.701839900441078,9.625181357757546,0.0,Landing
17.7,-307.50407152668873,-1001.6907524641965,148.04276405324453,0.6074907736689525,-0.18022192774469498,310.8843671470472,39.67235276239646,0.0,1.0,14.701839900441078,9.625181357757546,0.0,Landing
17.8,-309.1480103602323,-1004.7448149633055,148.61502376297935,0.6437265962134203,-0.231350869022989,310.9652776183759,40.116040649693566,0.0,1.0,14.701839900441078,9.625181357757546,0.0,Landing
17.900000000000002,-310.8278273817453,-1005.6779387112101,151.4556999616756,1.0928390657378042,-0.16458688735228522,310.79835922703364,39.4557558533459,0.0,1.0,14.701839900441078,9.625181357757546,0.0,Landing
18.0,-312.5324612202448,-1004.8433830802196,150.5599837966054,0.7537507804538298,-0.47236617133800635,310.8601972619597,40.35453865587345,0.0,1.0,14.701839900441078,9.625181357757546,0.0,Landing
18.1,-314.1722272756334,-1009.9488507332921,148.2751145747388,1.0764893056858769,-0.33438475034351056,311.03501036262094,39.933314821827814,0.0,1.0,14.701839900441078,9.625181357757546,0.0,Landing
18.2,-315.87757163541175,-1019.7585053817534,150.1037796349128,0.7941554181614094,-0.10693642763143327,310.97570988477617,40.345552993467,0.0,1.0,14.701839900441078,9.625181357757546,0.0,Landing
18.3,-317.63125374715355,-1057.046653173711,150.99946799921162,0.8098826107983768,-0.06470013711374038,310.75326104932833,40.05915585033014,0.0,1.0,14.701839900441078,9.625181357757546,0.0,Landing
18.400000000000002,-319.457460541502,-1055.0120779347935,148.5196067042347,0.7596889340998632,-0.25340949926499307,310.82898330921785,40.20844475637629,0.0,1.0,14.701839900441078,9.625181357757546,0.0,Landing
18.5,-321.1526320250857,-1052.3860762774234,149.26776650911407,0.892225900247101,-0.10629652942583949,310.7030042028098,40.072560996485436,0.0,1.0,14.701839900441078,9.625181357757546,0.0,Landing
18.6,-322.89318412854067,-1030.7305549605417,149.50802567504346,0.7522576399256458,-0.20950873283726373,310.7677433018455,40.43513845226502,0.0,1.0,14.701839900441078,9.625181357757546,0.0,Landing
18.7,-324.6111133163047,-1035.1181640339746,147.98024614863235,1.0104487143200718,-0.33195617033548996,310.85728480047817,39.74604039048165,0.0,1.0,14.701839900441078,9.625181357757546,0.0,Landing
18.8,-326.3282228452556,-1027.0166761707856,151.36221875459353,0.13208881575522624,-0.2962151697975337,310.7582661336926,39.709685149190506,0.0,1.0,14.701839900441078,9.625181357757546,0.0,Landing
18.900000000000002,-328.0282675093946,-1010.2114518003532,149.34248544445552,0.6430137371943988,-0.2323541863164041,310.89339440768754,40.52205764695464,0.0,1.0,14.701839900441078,9.625181357757546,0.0,Landing
19.0,-329.66217057530645,-1014.5159444137221,151.1616020825837,0.4874150071762622,-0.11926617947459989,310.64078329317886,39.779422029669625,0.0,1.0,14.701839900441078,9.625181357757546,0.0,Landing
19.1,-331.4008025673242,-1013.633954927775,149.28192598074634,0.6987011054918517,-0.013672787922518026,311.065976781515,39.64239637625267,0.0,1.0,14.701839900441078,9.625181357757546,0.0,Landing
19.200000000000003,-333.09643728403347,-1030.8961920894717,151.11523679153268,0.5952522618554204,-0.3687442277760721,310.98874590636,39.80498697415013,0.0,1.0,14.701839900441078,9.625181357757546,0.0,Landing
19.3,-334.8166515357538,-1034.9882428162005,149.50364922364892,0.5082998591653333,-0.09868018994300458,311.0488333878062,40.173014823972615,0.0,1.0,14.701839900441078,9.625181357757546,0.0,Landing
19.400000000000002,-336.5757437814052,-1037.326505307351,150.3423511995964,0.34506770025032907,-0.18349714655943095,311.138587336805,40.168938421347505,0.0,1.0,14.701839900441078,9.625181357757546,0.0,Landing
19.5,-338.2830698105702,-1025.128348002761,149.8701016429924,0.6686294395951918,-0.24820851466538696,311.112200004992,40.27481393633718,0.0,1.0,14.701839900441078,9.625181357757546,0.0,Landing
19.6,-339.9422932757676,-1015.1536207837921,149.15910506237753,0.574676218413361,-0.10180664452874613,310.95394699650194,39.979791088168724,0.0,1.0,14.701839900441078,9.625181357757546,0.0,Landing
19.700000000000003,-341.65151188532417,-1006.9402512130864,149.03333265305736,0.5670296086923688,-0.5234272949694765,310.69291774037697,40.44770321621723,0.0,1.0,14.701839900441078,9.625181357757546,0.0,Landing
19.8,-343.31777106663566,-995.0157809366488,150.33198401203944,0.49764138434515964,0.07248657569181433,310.96586399957266,39.97901967725513,0.0,1.0,14.701839900441078,9.625181357757546,0.0,Landing
19.900000000000002,-344.91737218045085,-984.3599975454026,150.85929966115037,0.4746890396691691,-0.2647723531230969,310.77844607269503,40.004097601361934,0.0,1.0,14.701839900441078,9.625181357757546,0.0,Landing
20.0,-346.5733118730512,-990.4808891087328,148.39867174030883,0.860661051372764,-0.027098086895914683,311.036970518345,40.20227629424658,0.0,1.0,14.701839900441078,9.625181357757546,0.0,Landing
20.1,-348.2701755121793,-1016.7332662199556,149.53353169189316,0.3346321820397496,-0.9269624036149895,310.8118299449336,40.06200004727006,0.0,1.0,14.701839900441078,9.625181357757546,0.0,Landing
20.200000000000003,-350.00103851155063,-1023.427484717422,150.19885984163244,0.5190472661562148,-0.12833503337512556,310.9151954779662,40.1660461141934,0.0,1.0,14.701839900441078,9.625181357757546,0.0,Landing
20.3,-351.6904492966383,-1017.2773241309415,150.59843297509715,0.8318183918024099,-0.27664699755973543,310.906497690798,40.08826263642861,0.0,1.0,14.701839900441078,9.625181357757546,0.0,Landing
20.400000000000002,-353.35656213283403,-994.6729764907104,149.46130797713445,1.0811997521776213,0.177184328524162,310.8785200645,39.8375656650052,0.0,1.0,14.701839900441078,9.625181357757546,0.0,Landing
20.5,-354.9744033940042,-993.1072470049799,148.3977864484076,0.6531767659964873,-0.07005223176826798,310.69947484074714,39.85494130754715,0.0,1.0,14.701839900441078,9.625181357757546,0.0,Landing
20.6,-356.6559855316632,-994.0964431857196,150.00166727910485,0.7596080815793231,-0.24196092850510326,311.2201091368689,40.252400297710004,0.0,1.0,14.701839900441078,9.625181357757546,0.0,Landing
20.700000000000003,-358.3270443487626,-1011.5346727044084,150.05567675861045,0.7123214746560946,-0.08532869177692493,310.7716336456242,40.5328778855115,0.0,1.0,14.701839900441078,9.625181357757546,0.0,Landing
20.8,-360.0320767575262,-998.2086664474878,149.3663469679329,0.6650149229067917,-0.06815775952635025,310.90650068708896,39.68477677757914,0.0,1.0,14.701839900441078,9.625181357757546,0.0,Landing
20.900000000000002,-361.64702886390063,-984.4185375541656,150.9723648558282,0.38303489238273847,-0.14594784427255472,311.08461400013425,39.90138080700198,0.0,1.0,14.701839900441078,9.625181357757546,0.0,Landing
21.0,-363.24913703653345,-975.3206972316548,149.42230148140965,0.5575402326567189,-0.1171708191244061,310.95329503134735,40.3748337656539,0.0,1.0,14.701839900441078,9.625181357757546,0.0,Landing
21.1,-364.9086802436845,-981.2612086020636,149.6934774950195,0.9134945209628353,-0.45517361599253053,310.71596287639363,39.75222387101424,0.0,1.0,14.701839900441078,9.625181357757546,0.0,Landing
21.200000000000003,-366.55333490691095,-999.4456295363648,150.21380326332897,0.8983293491508153,0.2844557100925285,311.19514883439297,39.65870421151273,0.0,1.0,14.701839900441078,9.625181357757546,0.0,Landing
21.3,-368.2463651842153,-1021.8909864746479,150.78082836753308,0.6116683618160141,-0.030222461636600917,310.94686375879417,40.23507339161098,0.0,1.0,14.701839900441078,9.625181357757546,0.0,Landing
21.400000000000002,-370.01813517605774,-1013.8812006448006,150.92471465563318,0.4077964341909184,-0.03943833892781402,311.03332944567967,40.451247816677586,0.0,1.0,14.701839900441078,9.625181357757546,0.0,Landing
21.5,-371.62274091013495,-1007.2545173220192,148.33329574369904,0.8206887270358705,-0.23392402928247008,311.12129363771635,39.430011119512784,0.0,1.0,14.701839900441078,9.625181357757546,0.0,Landing
21.6,-373.2826377708254,-995.6171930809433,148.5257761702787,0.7274570357968226,-0.04744245147761117,310.64384460162046,39.20482894861186,0.0,1.0,14.701839900441078,9.625181357757546,0.0,Landing
21.700000000000003,-374.99622114146246,-1026.620105255381,150.09599504411517,0.5510792863197711,0.06555211014041928,310.93146963120887,39.96926919599169,0.0,1.0,14.701839900441078,9.625181357757546,0.0,Landing
21.8,-376.75584143641186,-1043.866967282463,151.18231644645851,0.8750439724873184,0.1689654503688402,310.89434902991684,40.19535786305483,0.0,1.0,14.701839900441078,9.625181357757546,0.0,Landing
21.900000000000002,-378.5019726072377,-1063.7697621839152,149.89384671898893,0.6107989007445805,0.11215027517261117,310.98012802040125,39.94382654460423,0.0,1.0,14.701839900441078,9.625181357757546,0.0,Landing
22.0,-380.31506995238203,-1041.037617407369,150.39288967379787,0.5822749510432726,-0.13177897613571343,310.7794423311816,40.14527247408635,0.0,1.0,14.701839900441078,9.625181357757546,0.0,Landing
22.1,-381.9610295234487,-1026.1650782841343,150.38024896486468,0.706484176187355,-0.11814629356271163,310.89247933017884,40.24036934239706,0.0,1.0,14.701839900441078,9.625181357757546,0.0,Landing
22.200000000000003,-383.63279799865836,-1004.5472100260668,147.8761761165975,0.46926838083091904,-0.00922849721730104,310.6781044657646,40.090131956951296,0.0,1.0,14.701839900441078,9.625181357757546,0.0,Landing
22.3,-385.33780600251237,-1000.1739922682077,149.12766595618262,0.32761755547865556,-0.10613899605320673,310.816669789009,40.00633770980215,0.0,1.0,14.701839900441078,9.625181357757546,0.0,Landing
22.400000000000002,-386.96189948478974,-1003.977462052751,152.85661172527293,0.9759011815305971,-0.033243505569133414,310.9073826866852,40.357590635229435,0.0,1.0,14.701839900441078,9.625181357757546,0.0,Landing
22.5,-388.6526853089221,-997.968025846501,151.73348312138262,0.5774520027171246,0.11184324462762169,310.8461421482882,39.81167700978412,0.0,1.0,14.701839900441078,9.625181357757546,0.0,Landing
22.6,-390.32764613174487,-1004.5341166478693,150.15891769735575,0.7731104578972698,-0.5166470598344748,311.04963737875994,39.78404145607163,0.0,1.0,14.701839900441078,9.625181357757546,0.0,Landing
22.700000000000003,-391.9845700680291,-998.8639027081945,150.5650497440473,1.054513210667312,-0.13746369492937657,310.8518492470786,40.12590354035504,0.0,1.0,14.701839900441078,9.625181357757546,0.0,Landing
22.8,-393.6470048224631,-994.4530797557832,150.2928170286075,0.7590895143868681,-0.016812705960465066,310.7250544668731,40.12063018105324,0.0,1.0,14.701839900441078,9.625181357757546,0.0,Landing
22.900000000000002,-395.2999115305238,-988.5876958265726,150.48376030895352,0.6864192282105588,-0.16162009809922662,311.0708629274575,40.33315975991504,0.0,1.0,14.701839900441078,9.625181357757546,0.0,Landing
23.0,-396.92750854716195,-1013.0187371759689,149.1463161219402,0.5170001544624862,-0.19079584420125117,310.9043843315328,40.16135425877948,0.0,1.0,14.701839900441078,9.625181357757546,0.0,Landing
23.1,-398.71209850834293,-1002.2699974957959,148.98769596608494,0.9879917716645381,-0.22256082712227146,311.0903021482245,39.869891552448316,0.0,1.0,14.701839900441078,9.625181357757546,0.0,Landing
23.200000000000003,-400.31126151800277,-997.934295724383,151.19914014825028,0.7164898994443945,-0.3470149161723178,310.8149867337977,40.22351359721126,0.0,1.0,14.701839900441078,9.625181357757546,0.0,Landing
23.3,-401.91718002578386,-990.1467314284332,150.60277571937206,0.7136605096786337,-0.4265785090673835,310.6343901390742,39.62661037613056,0.0,1.0,14.701839900441078,9.625181357757546,0.0,Landing
23.400000000000002,-403.6628321654851,-1006.9486636518718,149.70147640153894,0.8866997335378554,-0.25849690510478507,310.8562535203956,40.323410546528976,0.0,1.0,14.701839900441078,9.625181357757546,0.0,Landing
23.5,-405.3460048362621,-1025.025884270019,150.36905239416294,0.8009054319664461,-0.18642811986948554,310.82424789033837,40.211324348500376,0.0,1.0,14.701839900441078,9.625181357757546,0.0,Landing
23.6,-407.04230944713396,-998.0735213743287,149.48825606504988,0.7783998268136606,-0.08528166036421539,310.6310073728139,40.296218347200906,0.0,1.0,14.701839900441078,9.625181357757546,0.0,Landing
23.700000000000003,-408.65319977235674,-987.7172824012177,149.37345459749304,0.7805402232952168,-0.24217795895813016,310.8678405221492,39.88405612186545,0.0,1.0,14.701839900441078,9.625181357757546,0.0,Landing
23.8,-410.2845912482682,-983.6497685141126,150.37913368888934,0.9237436098709135,-0.38207891797124965,310.9373940842388,40.163157131588186,0.0,1.0,14.701839900441078,9.625181357757546,0.0,Landing
23.900000000000002,-411.9605582897045,-995.3644475672149,149.95175888141034,0.6247049098340257,0.08971482117733642,311.09822320528383,40.27166461614989,0.0,1.0,14.701839900441078,9.625181357757546,0.0,Landing
24.0,-413.6300220101928,-997.9294825789225,150.21223614969978,0.6279079139452741,-0.4459325262099354,310.789346976811,39.484053719951305,0.0,1.0,14.701839900441078,9.625181357757546,0.0,Landing
24.1,-415.2742386611628,-1008.0490473799159,150.76270771468447,0.5660999084557257,0.05233189891150092,310.76759574967105,40.12606878676329,0.0,1.0,14.701839900441078,9.625181357757546,0.0,Landing
24.200000000000003,-417.0008035266041,-1007.0409385467428,150.28048642080924,0.6718570374412429,-0.2535154102873108,310.95451505920096,39.97960621262704,0.0,1.0,14.701839900441078,9.625181357757546,0.0,Landing
24.3,-418.66522670292653,-1023.5414261143092,149.3223145608867,0.8300117269607618,0.04372507827683503,310.8241896633747,39.85663352095567,0.0,1.0,14.701839900441078,9.625181357757546,0.0,Landing
24.400000000000002,-420.3919457917344,-1009.6840970845278,148.1273319603126,0.8997715798835294,-0.009376462210772957,310.8760093639677,39.55199675145966,0.0,1.0,14.701839900441078,9.625181357757546,0.0,Landing
24.5,-422.04922401202674,-999.5327046550074,151.35725147419285,1.1076600165467907,0.033216774409116356,310.9480230776609,39.38097223775577,0.0,1.0,14.701839900441078,9.625181357757546,0.0,Landing
24.6,-423.66289022620157,-968.4764727876995,150.00862035680748,0.6068419597749009,-0.47410964373127396,310.72336955833407,40.46589572344099,0.0,1.0,14.701839900441078,9.625181357757546,0.0,Landing
24.700000000000003,-425.23432815567287,-971.2102009537261,148.9781227413695,0.5066637399455167,-0.27126918477619366,310.9683156346621,40.21034646775982,0.0,1.0,14.701839900441078,9.625181357757546,0.0,Landing
24.8,-426.9052750167954,-956.4893315119548,150.39679534993385,0.5862642991067446,-0.45899149422489194,311.19776894287565,40.55488336000101,0.0,1.0,14.701839900441078,9.625181357757546,0.0,Landing
24.900000000000002,-428.44533688376134,-963.7804366535647,149.42408265277786,0.5916543746248484,-0.02039846462648373,310.6795630590966,40.050254937151415,0.0,1.0,14.701839900441078,9.625181357757546,0.0,Landing
25.0,-430.0532303389407,-958.2410455172408,150.31621398542697,0.5803796730980006,-0.34896309936118014,310.78889996626856,39.90626798315084,0.0,1.0,14.701839900441078,9.625181357757546,0.0,Landing
25.1,-431.6964802443816,-982.7459739124492,151.10674800969963,0.5296615985117812,-0.4037102968041147,310.85025950535567,40.30430058396862,0.0,1.0,14.701839900441078,9.625181357757546,0.0,Landing
25.200000000000003,-433.3590667533236,-999.2670495739617,149.76477768034368,0.2814771544044248,-0.3597412368389816,311.10646218801435,39.845410409038415,0.0,1.0,14.701839900441078,9.625181357757546,0.0,Landing
25.3,-435.0495655868105,-1021.6800070942782,149.94458328258347,0.6302530803286027,-0.4248765954558998,311.1428990369898,40.53748289610502,0.0,1.0,14.701839900441078,9.625181357757546,0.0,Landing
25.400000000000002,-436.80488027985297,-1017.5654764401543,150.34665321285294,0.5851497429539582,-0.11956383219950803,310.8789617254632,39.846547183990374,0.0,1.0,14.701839900441078,9.625181357757546,0.0,Landing
25.5,-438.44689413552436,-1016.5992169940637,149.491624320776,0.7560859160104828,-0.10445495604843892,310.8538120182018,40.046139087721734,0.0,1.0,14.701839900441078,9.625181357757546,0.0,Landing
25.6,-440.1325616717808,-993.0846386687222,149.9601618137165,0.5498365974865976,-0.03318200237735289,311.0761458914866,39.96552678354345,0.0,1.0,14.701839900441078,9.625181357757546,0.0,Landing
25.700000000000003,-441.7703034731966,-983.9661937417077,148.20447734922885,0.5739419861955741,-0.03825065161106202,311.00283245457854,39.98711677918059,0.0,1.0,14.701839900441078,9.625181357757546,0.0,Landing
25.8,-443.3667251042329,-989.6908021634886,151.16241668946034,0.34593074962103537,-0.10990294568080597,311.0120277078868,39.86167127766585,0.0,1.0,14.701839900441078,9.625181357757546,0.0,Landing
25.900000000000002,-445.08101568259826,-993.4922839380306,149.4296891909001,0.7514297770301006,-0.09426255019482435,310.9864235827322,40.61821980311033,0.0,1.0,14.701839900441078,9.625181357757546,0.0,Landing
26.0,-446.73776489288673,-1004.7828198793582,147.99415460339725,0.7575354305525124,0.004252034860621756,310.7442812010919,39.79158527633326,0.0,1.0,14.701839900441078,9.625181357757546,0.0,Landing
26.1,-448.3906392036297,-981.0593356778327,150.98302443507305,0.5849716178596343,0.12072868233534234,311.0618662182908,40.45284252431954,0.0,1.0,14.701839900441078,9.625181357757546,0.0,Landing
26.200000000000003,-449.9863123609874,-979.4198832603001,149.90249726670967,0.7093766550735386,0.1606242433211813,310.7535844432675,40.383903273506235,0.0,1.0,14.701839900441078,9.625181357757546,0.0,Landing
26.3,-451.63486430918823,-979.1484884763918,149.97747282037494,0.947537886915651,-0.5753642690714833,310.7668040126797,40.060167851141415,0.0,1.0,14.701839900441078,9.625181357757546,0.0,Landing
26.400000000000002,-453.28638164601165,-994.5871273417424,149.3112965173311,1.025166074616806,-0.30472961077457805,311.05753941123146,40.16608628531209,0.0,1.0,14.701839900441078,9.625181357757546,0.0,Landing
26.5,-454.95924799769614,-995.2558480628795,152.4344023381428,0.9765744193054479,-0.06063490315846115,310.641274507901,39.591704719893684,0.0,1.0,14.701839900441078,9.625181357757546,0.0,Landing
26.6,-456.61114354950263,-1001.6738944942972,150.0728088523982,0.8357650455696829,-0.36222142283010383,311.1235466943525,39.71784611337366,0.0,1.0,14.701839900441078,9.625181357757546,0.0,Landing
26.700000000000003,-458.29475111848313,-1001.3741895359544,149.90628068190557,0.6126953963910192,-0.22708332729851877,310.9278999610499,40.27250574965631,0.0,1.0,14.701839900441078,9.625181357757546,0.0,Landing
26.8,-459.9661189453759,-987.3602935984536,151.02613721883074,0.7014008997272301,-0.2842510142561586,310.88791963007725,40.40997804537266,0.0,1.0,14.701839900441078,9.625181357757546,0.0,Landing
26.900000000000002,-461.5479450174949,-999.9578350428578,149.54644764688402,0.7986299992571826,-0.09660877412162744,310.84671377171503,39.99716169437855,0.0,1.0,14.701839900441078,9.625181357757546,0.0,Landing
27.0,-463.2945402936974,-996.0041299680142,150.979886343073,0.34244489082196455,-0.12575982400019203,310.9778081866732,40.28565100556515,0.0,1.0,14.701839900441078,9.625181357757546,0.0,Landing
27.1,-464.946139595216,-1007.5882024868292,150.08553476386612,0.49399059346990914,-0.11360514411974464,310.80680986804293,40.10421006709555,0.0,1.0,14.701839900441078,9.625181357757546,0.0,Landing
27.200000000000003,-466.58588602992904,-989.175429675754,149.18176072724899,0.3960354707251756,-0.06990361616021429,310.94339240085594,39.82933551376139,0.0,1.0,14.701839900441078,9.625181357757546,0.0,Landing
27.3,-468.2404174420762,-1001.7966379769632,148.7193485604669,0.8896694600726489,-0.5547643321989472,311.2306144512165,39.912223338456066,0.0,1.0,14.701839900441078,9.625181357757546,0.0,Landing
27.400000000000002,-469.9551227851008,-1011.6118542177674,151.06436927087748,0.5075881481540462,-0.1679011235080114,310.9611115091436,39.44907866170792,0.0,1.0,14.701839900441078,9.625181357757546,0.0,Landing
27.5,-471.6439453010179,-1015.4960623766669,147.98060068082182,0.7915116637906658,-0.2527745046307135,310.78684524085065,40.042212721560304,0.0,1.0,14.701839900441078,9.625181357757546,0.0,Landing
27.6,-473.3178977539595,-1006.385689064291,150.3258833089826,0.705475661869445,-0.08954030558563625,310.8765195242843,39.88534305844239,0.0,1.0,14.701839900441078,9.625181357757546,0.0,Landing
27.700000000000003,-474.98705123042225,-1008.2417747629165,149.54514991503797,0.7090216646170951,-0.5407999307426927,311.1062059814999,39.422904305119395,0.0,1.0,14.701839900441078,9.625181357757546,0.0,Landing
27.8,-476.68515417483246,-1003.9560733087114,150.07408874848815,0.6306583419834084,-0.2696280824067685,310.9175000402254,39.82590988454509,0.0,1.0,14.701839900441078,9.625181357757546,0.0,Landing
27.900000000000002,-478.3376781205031,-996.0290386680413,151.08795168944417,0.45110979122813105,-0.1612147003778791,310.7148387744527,40.277399282108895,0.0,1.0,14.701839900441078,9.625181357757546,0.0,Landing
28.0,-479.96719642376246,-988.2745783058454,148.04540704407557,0.7929576970525007,-0.05359779302394181,310.9971823522749,40.26135544543861,0.0,1.0,14.701839900441078,9.625181357757546,0.0,Landing
28.1,-481.6265270663617,-978.1979347152969,148.20696430444403,0.5384801928113537,-0.08681568181401654,311.02917090905817,39.72706679890155,0.0,1.0,14.701839900441078,9.625181357757546,0.0,Landing
28.200000000000003,-483.22866779407957,-970.9337144910251,150.04826894756073,0.9738529546654431,0.06437205735833973,311.0088402071008,39.538625974756464,0.0,1.0,14.701839900441078,9.625181357757546,0.0,Landing
28.3,-484.8218649962176,-960.9035084086145,151.0409283034013,0.8332429251515774,-0.1098691529703983,310.6998011914326,39.74967091087316,0.0,1.0,14.701839900441078,9.625181357757546,0.0,Landing
28.400000000000002,-486.43104460840476,-978.4404322661317,149.33767526583242,0.7731762401570913,-0.1454870344439494,310.79391335329217,40.05831904368861,0.0,1.0,14.701839900441078,9.625181357757546,0.0,Landing
28.5,-488.1208699554102,-988.7731286562143,149.39227075996072,0.9404471054521563,-0.014871545352801482,311.1906711797176,40.00304155937212,0.0,1.0,14.701839900441078,9.625181357757546,0.0,Landing
28.6,-489.76573063949866,-999.0924646070198,150.34555315515843,0.4804421150999363,0.1427668330072422,310.9619092605228,39.990403946322424,0.0,1.0,14.701839900441078,9.625181357757546,0.0,Landing
28.700000000000003,-491.42650693143986,-992.7221692366516,150.38757000194383,0.6132648806057989,-0.07393276590676749,310.7826116555036,40.577694526456426,0.0,1.0,14.701839900441078,9.625181357757546,0.0,Landing
28.8,-493.0844808015935,-1002.5865268399571,149.444721269749,0.6856865145903854,-0.16673038197230808,311.11626537533493,40.4264137224522,0.0,1.0,14.701839900441078,9.625181357757546,0.0,Landing
28.900000000000002,-494.77866327369844,-1011.4449462401808,150.65641782413994,0.7640781242254036,-0.007262365791523423,310.48711471551906,40.11143192782188,0.0,1.0,14.701839900441078,9.625181357757546,0.0,Landing
29.0,-496.48373166264076,-1023.4753537360234,149.02568156156804,0.6004350357862509,-0.3073610629099337,311.012638341164,40.51846273277561,0.0,1.0,14.701839900441078,9.625181357757546,0.0,Landing
29.1,-498.2018575702736,-1021.7663870830847,150.1766408449337,0.6209830124388611,-0.017426731003046897,310.8558326096331,39.98661514729431,0.0,1.0,14.701839900441078,9.625181357757546,0.0,Landing
29.200000000000003,-499.88749520911387,-1015.9323754821003,148.51354030533014,0.8776763297403378,-0.20774365692832522,310.7408450547457,39.50944516915795,0.0,1.0,14.701839900441078,9.625181357757546,0.0,Landing
29.3,-501.56339354005127,-1005.718091438473,151.05576845607587,1.0376383166885998,-0.062381976130957445,310.89875518369354,39.890944822109816,0.0,1.0,14.701839900441078,9.625181357757546,0.0,Landing
29.400000000000002,-503.23044802746597,-1003.1716026640993,149.54525913891302,0.7518980214525215,0.10238583955614455,311.0664518783931,40.16331257338434,0.0,1.0,14.701839900441078,9.625181357757546,0.0,Landing
29.5,-504.90335322243436,-988.8211172109891,147.85107341506423,0.8238370633608014,-0.07987433760144452,310.6510455630996,40.129707697333245,0.0,1.0,14.701839900441078,9.625181357757546,0.0,Landing
29.6,-506.5074991261062,-979.8713414606027,151.08975462453188,0.5338688290231297,-0.09797923576698367,310.8981244499396,40.29313471476326,0.0,1.0,14.701839900441078,9.625181357757546,0.0,Landing
29.700000000000003,-508.129804734769,-961.0306878261781,150.799872034746,0.5992997629438601,-0.32399754672961856,310.9291248723936,40.088601055585485,0.0,1.0,14.701839900441078,9.625181357757546,0.0,Landing
