time_s,altitude_ft,vertical_speed_fpm,ias_kt,pitch_deg,roll_deg,heading_deg,throttle_pct,afterburner_on,gear_down,flaps_deg,speedbrake_pct,weight_on_wheels,label
0.0,-0.008805817811616398,49.46230825661798,12.230343838943085,-0.47967226898595083,-0.4999956091101195,133.687648380459,21.418169014832625,0.0,1.0,0.0,0.0,1.0,Taxi
0.1,0.15606854304377685,8.56680003344591,12.655726815209603,-0.4012496365781489,-0.7402757170644814,133.46280320137487,22.832378697124362,0.0,1.0,0.0,0.0,1.0,Taxi
0.2,0.03402818235561313,2.820908431269693,13.215497913151077,-0.1061818072600812,0.40885990195793265,133.42394031732528,21.454976558825987,0.0,1.0,0.0,0.0,1.0,Taxi
0.30000000000000004,0.005298724344732048,2.1469227825055746,13.255570494736933,-0.3603501631557384,0.5460900059152779,133.68684262492184,22.646899529547433,0.0,1.0,0.0,0.0,1.0,Taxi
0.4,0.16680315695630474,19.862058861699293,11.966784338299824,-0.29642984099499703,-0.49034827620089394,133.57105044727098,22.376000635231165,0.0,1.0,0.0,0.0,1.0,Taxi
0.5,0.13333847666410958,29.163553184195518,11.855249781314495,-0.4476993191909458,0.16190892542316615,133.55186468406578,22.039258581383677,0.0,1.0,0.0,0.0,1.0,Taxi
0.6000000000000001,0.1511164902657096,-55.02524014295417,12.879631347413113,-0.6516721075314524,-0.5036649891688257,133.5890963455629,21.86542779952367,0.0,1.0,0.0,0.0,1.0,Taxi
0.7000000000000001,-0.10832304375846613,-36.64956730277503,10.809058345401485,-0.14395681941630284,-0.1720920194224396,133.53455445821055,21.615721625196116,0.0,1.0,0.0,0.0,1.0,Taxi
0.8,-0.04990935984976561,-58.93059513184937,12.108805355999817,-0.6334912683194405,-0.9865867807813066,133.68285183933574,22.024750486575407,0.0,1.0,0.0,0.0,1.0,Taxi
0.9,-0.1435364853935373,15.653163458110464,10.9031526020281,-0.7325842731789503,-0.33653024742412085,133.61775273870478,22.33429656396167,0.0,1.0,0.0,0.0,1.0,Taxi
1.0,-0.030057226467913818,-12.446999547162838,12.00138145639992,-0.6117856205392777,-0.783092878169568,133.5845780348629,21.46040812502491,0.0,1.0,0.0,0.0,1.0,Taxi
1.1,-0.11214435758557982,26.168352079225603,12.6454333229482,-0.5334076536820868,0.167104389973187,133.58956610203916,21.841037389873907,0.0,1.0,0.0,0.0,1.0,Taxi
1.2000000000000002,-0.012694724997409333,-21.251813875340304,11.857654770334905,-0.8220396237617894,0.10252509141276814,133.76045203124664,21.938321857054714,0.0,1.0,0.0,0.0,1.0,Taxi
1.3,-0.13631629584461538,23.387312028459743,11.65231172652642,-0.37337108051876844,-0.23906989898161043,133.73260152985665,22.22847976702551,0.0,1.0,0.0,0.0,1.0,Taxi
1.4000000000000001,0.004792202556718852,19.70002216746383,11.149150457316605,-0.32246921724197886,0.12399352807386692,133.76268703339275,21.638692698904993,0.0,1.0,0.0,0.0,1.0,Taxi
1.5,0.08580538583990978,16.724876104800888,12.418498026248532,-0.3326682385465549,-0.0347525275898912,133.47653481267037,21.82119713206486,0.0,1.0,0.0,0.0,1.0,Taxi
1.6,-0.05269191532061093,8.10747639215446,12.366869416112284,-0.40587487134132705,-0.2940940310109483,133.6158732575716,22.00673581772886,0.0,1.0,0.0,0.0,1.0,Taxi
1.7000000000000002,0.04532958451749114,-42.87283690236813,11.542379619121885,-0.2626774354655885,-0.4856736415227486,133.566135215548,21.975921272949986,0.0,1.0,0.0,0.0,1.0,Taxi
1.8,-0.12855879867193087,17.38404197718982,12.02173211968652,-0.37419994484955477,-0.5602289617251319,133.49359765707732,22.06029782848674,0.0,1.0,0.0,0.0,1.0,Taxi
1.9000000000000001,0.03422829456533812,-29.045722729590096,12.389176722481498,-0.35480761919117143,-0.11582863927150039,133.65549294471418,22.012233884347843,0.0,1.0,0.0,0.0,1.0,Taxi
2.0,-0.0998990291304594,41.95103726280387,11.628144427270668,-0.5167519992215134,0.21292951211130973,133.65518732277656,22.286272449795305,0.0,1.0,0.0,0.0,1.0,Taxi
2.1,0.08119638764208842,6.62652020877097,12.872649059660526,-0.11871363226388476,0.5731302006754666,133.56769691652357,21.85891869866864,0.0,1.0,0.0,0.0,1.0,Taxi
2.2,0.06736089560919292,43.902816322140104,11.30884136774573,-0.5047136208290885,-0.3257522560092216,133.49132777553336,21.1759983329311,0.0,1.0,0.0,0.0,1.0,Taxi
2.3000000000000003,0.1196150524802411,42.25980017937122,11.552207394704066,-0.3676539876319052,0.17609060435603005,133.68502484106727,21.768060413353002,0.0,1.0,0.0,0.0,1.0,Taxi
2.4000000000000004,0.29249538853894447,0.8927739422388944,11.021483807569348,-0.9266800504800817,0.6182090705987783,133.47472662207923,21.986416147785057,0.0,1.0,0.0,0.0,1.0,Taxi
2.5,0.07182476532038733,-14.309316010863137,13.068231323496216,-0.7691032242161351,0.07322719795537355,133.52836028862777,21.520289036860028,0.0,1.0,0.0,0.0,1.0,Taxi
2.6,0.04806847242592532,-99.69855174168272,11.342295091211346,-0.29700380788695085,0.035042571666270304,133.42135208965004,23.095994969413056,0.0,1.0,0.0,0.0,1.0,Taxi
2.7,-0.20599737016946917,-35.89900144611442,12.826628964121925,-0.6004269628781587,-0.364197300970609,133.67924609588795,22.33669900466805,0.0,1.0,0.0,0.0,1.0,Taxi
2.8000000000000003,-0.1076702419101848,-2.6567336843216274,11.640292631593121,-0.3915512712241324,-0.45557307246335144,133.6234157277841,21.352482390641402,0.0,1.0,0.0,0.0,1.0,Taxi
2.9000000000000004,0.03478480400431714,-11.959628099458627,12.175183614060286,-0.3261727920468779,0.32245217911194024,133.6032871889338,22.58231665139418,0.0,1.0,0.0,0.0,1.0,Taxi
3.0,-0.2657955106667624,13.444642272381387,12.33630216484747,-0.27525948574640025,-0.2180373185670611,133.53074575054825,22.41186079709787,0.0,1.0,0.0,0.0,1.0,Taxi
3.1,-0.040447030548277946,28.818558087317868,11.427895808609103,-0.34567457561978754,-0.17748090154073337,133.67099553419268,22.858085139182194,0.0,1.0,0.0,0.0,1.0,Taxi
3.2,0.17887759444090642,21.410855837851624,11.234247366178021,-0.5193943428192893,-0.1805720275786113,133.53057695522398,20.970492485095363,0.0,1.0,0.0,0.0,1.0,Taxi
3.3000000000000003,-0.15874123147750435,-3.0516474723657274,12.324475243898116,-0.5192401886055151,0.07352485926646565,133.6739875509042,23.221363027622253,0.0,1.0,0.0,0.0,1.0,Taxi
3.4000000000000004,-0.05570526791010665,-29.118163536345453,12.406750343498237,-0.3673078138485803,-0.23536962481015186,133.73840223916227,22.252864513888007,0.0,1.0,0.0,0.0,1.0,Taxi
3.5,0.033286776759179064,52.65249086273524,12.564500585379738,-0.524126917228956,-0.2854832290390257,133.57649967862847,22.246047608849,0.0,1.0,0.0,0.0,1.0,Taxi
3.6,0.10452122283617174,-23.674395312124688,13.128183104351077,-0.4533369246186901,0.12437427666179163,133.6560054731268,23.009498590612832,0.0,1.0,0.0,0.0,1.0,Taxi
3.7,-0.17407724447073017,-13.16552926310104,12.59746806896458,-0.5442604553010677,0.2892998956525811,133.64362218647022,22.270138046081378,0.0,1.0,0.0,0.0,1.0,Taxi
3.8000000000000003,-0.032540869556326235,-24.506977853330312,11.744163758075025,-0.48115691387275944,0.01155074545009635,133.48742255638643,21.187065337170893,0.0,1.0,0.0,0.0,1.0,Taxi
3.9000000000000004,-0.018013666430479927,43.505803557580585,12.736507732554774,-0.4610011838337736,-0.6275622062737185,133.8057806196216,22.33072427667318,0.0,1.0,0.0,0.0,1.0,Taxi
4.0,0.04345177331717264,36.552711959201105,13.040153078308698,-0.2948317733476029,1.2183862988956813,133.55355810426465,21.85718022450065,0.0,1.0,0.0,0.0,1.0,Taxi
4.1000000000000005,0.15022269023967919,18.835823514709478,12.627256820075164,-0.3873146615342276,0.07375914546548872,133.5500388365748,22.172048967520222,0.0,1.0,0.0,0.0,1.0,Taxi
4.2,0.07616545114306737,23.557376995384846,11.117546661997103,-0.700338354050279,0.1264945839257105,133.52121578237063,22.541564961832677,0.0,1.0,0.0,0.0,1.0,Taxi
4.3,0.16123865829409678,-14.657812026806406,11.80809095498999,-0.38886745863594296,0.8509715908885493,133.38653488720047,21.544902217013327,0.0,1.0,0.0,0.0,1.0,Taxi
4.4,0.07693363010564704,-61.271729521866234,12.258727374890364,-0.37273558591834627,0.11142123323112742,133.60512109497756,21.733169802091133,0.0,1.0,0.0,0.0,1.0,Taxi
4.5,-0.23019319646626393,-15.797595967256987,12.445827912167596,-0.25570322080987384,0.014244211780650749,133.55707131790257,21.146977443041255,0.0,1.0,0.0,0.0,1.0,Taxi
4.6000000000000005,0.08225067845781171,18.777564730425137,12.883875859326688,-0.5998391684009053,-0.48789736780084997,133.56587531005414,22.855259966993465,0.0,1.0,0.0,0.0,1.0,Taxi
4.7,0.1708214537577726,50.24092696436651,11.819228123615273,-0.48731684054314933,-0.3201678428054179,133.65012771220404,22.4356057551636,0.0,1.0,0.0,0.0,1.0,Taxi
4.800000000000001,0.021011438355568526,28.081257987907062,12.796406165761372,-0.47129684814564965,0.008483519456644408,133.63732988301103,21.8129725435912,0.0,1.0,0.0,0.0,1.0,Taxi
4.9,0.22265696839734692,-44.04790644435155,11.30468004001905,-0.7728204474338336,0.8129806286093629,133.57613985658975,21.53000111024431,0.0,1.0,0.0,0.0,1.0,Taxi
5.0,-0.04941807846398516,-27.92727136772703,12.445399139444108,-0.35527924713012876,-0.029800699341502437,133.5864468063943,21.71308065870108,0.0,1.0,0.0,0.0,1.0,Taxi
5.1000000000000005,-0.11862491848306667,-52.388019263863924,12.226362406976168,-0.6368155020438158,-0.21007718122326813,133.64595024074868,21.250810755167137,0.0,1.0,0.0,0.0,1.0,Taxi
5.2,-0.03928312792197275,2.680847116606252,11.524113827238342,-0.37234882540361636,0.3478628374147814,133.58432974246415,21.96517195745975,0.0,1.0,0.0,0.0,1.0,Taxi
5.300000000000001,-0.036013842880954015,7.9460799219970655,12.68883404749663,-0.32577685946207185,0.25995380315830147,133.6670178099152,22.410150763275627,0.0,1.0,0.0,0.0,1.0,Taxi
5.4,-0.07889451887308145,33.033573696341826,11.732579272277114,-0.3710864269206401,0.6004555414892024,133.72983596459346,21.81281153957363,0.0,1.0,0.0,0.0,1.0,Taxi
5.5,0.12588474055973625,4.04023179733574,10.668021605274783,-0.766323225045755,-0.2907457457754341,133.71092034754918,21.89294755209469,0.0,1.0,0.0,0.0,1.0,Taxi
5.6000000000000005,-0.01581268389427541,18.45994686150021,10.923138627667026,-0.4060494401272786,0.4634542652125676,133.6399041294424,22.534152748203745,0.0,1.0,0.0,0.0,1.0,Taxi
5.7,0.013405215434419492,-29.3470030995565,12.231131949648862,-0.5811737090748355,-0.375390975814707,133.6498919198641,21.260198462403885,0.0,1.0,0.0,0.0,1.0,Taxi
5.800000000000001,-0.020850274938046344,-2.0221664971169315,12.355208814258715,-0.5597680487582608,-0.28172809218608263,133.5354083684,21.915704797780617,0.0,1.0,0.0,0.0,1.0,Taxi
5.9,-0.025923516379860186,-27.465702313947144,12.014407943382642,-0.44108180324775126,-0.011077615962813512,133.58813004736595,20.421789072013375,0.0,1.0,0.0,0.0,1.0,Taxi
6.0,-0.12392329613531633,39.26833879149356,11.598101176261993,-0.7659359265585858,0.3793106956609164,133.63148158530288,22.65193956602845,0.0,1.0,0.0,0.0,1.0,Taxi
6.1000000000000005,0.17549141901942134,14.489843301887035,11.764489435192814,-0.8688267435538897,-0.9238522779161913,133.75836954884892,21.820939883713528,0.0,1.0,0.0,0.0,1.0,Taxi
6.2,0.046525700129574854,31.03312754935293,11.579760029222353,-0.3775969837402412,-0.4558941176050811,133.37545546177319,21.87135282331854,0.0,1.0,0.0,0.0,1.0,Taxi
6.300000000000001,0.03124234161144819,-45.1423056714569,12.44358869028946,-0.2895248050550417,-0.4159817135690303,133.4239371986801,22.234450026363554,0.0,1.0,0.0,0.0,1.0,Taxi
6.4,-0.05022010933786323,10.43603467091728,11.949402685089423,-0.68447505918312,0.5380172716516088,133.67059855323333,22.342666625803478,0.0,1.0,0.0,0.0,1.0,Taxi
6.5,0.09870587348416117,-17.736965273027867,11.544572932251883,-0.6481194949999827,0.14317447378460926,133.59288591226175,21.822559299176113,0.0,1.0,0.0,0.0,1.0,Taxi
6.6000000000000005,-0.05744248475369121,-22.0038353443753,11.705733668077475,-0.7027360028050406,0.185626965962167,133.57565635373146,21.553743145038368,0.0,1.0,0.0,0.0,1.0,Taxi
6.7,-0.1602392860597398,-53.747816951930055,12.671909430703025,-0.814687511563609,-0.2924899969077543,133.58370373877125,21.407566461934206,0.0,1.0,0.0,0.0,1.0,Taxi
6.800000000000001,-0.17003321127548915,14.81649175877117,11.474856190367026,-0.500001960324403,-0.23496662369299226,133.43233211516713,22.188253806334842,0.0,1.0,0.0,0.0,1.0,Taxi
6.9,0.016639974040164547,28.28040759188905,11.989214942943908,-0.46910402042485466,-1.0803909103115228,133.6810972846299,21.267931974257582,0.0,1.0,0.0,0.0,1.0,Taxi
7.0,-0.018837248100294655,10.605509877076377,13.118459388997408,-0.6248718183490665,0.5865933548182514,133.5103458853489,22.197971548543922,0.0,1.0,0.0,0.0,1.0,Taxi
7.1000000000000005,-0.11700566189010737,6.337587772565982,12.70239052384799,-0.28853903543905357,-0.06164400900175209,133.5647839236441,23.023635297902924,0.0,1.0,0.0,0.0,1.0,Taxi
7.2,0.04832791290299437,10.919578356897823,10.35147497456054,-0.3372970156494639,0.32323206127239446,133.51552175238862,21.196209023221826,0.0,1.0,0.0,0.0,1.0,Taxi
7.300000000000001,0.03576064368419437,56.286327214211234,11.932709632171342,-0.20794299587555026,0.4433549603933432,133.6874505498755,21.827573647926005,0.0,1.0,0.0,0.0,1.0,Taxi
7.4,0.16442597418094868,-14.071097268097455,11.82064635808645,-0.6182586563494017,0.11036745093454627,133.4157759942649,21.647195979859582,0.0,1.0,0.0,0.0,1.0,Taxi
7.5,-0.022027573437493012,2.1280088901753658,11.365920776631546,-0.38259872361541203,-0.11765744135057639,133.51193383232567,21.790024282753347,0.0,1.0,0.0,0.0,1.0,Taxi
7.6000000000000005,0.0464006881350711,-30.743468845590527,13.46515321880887,-0.3324080708219669,0.3411642607337044,133.55391848108388,21.971209461614748,0.0,1.0,0.0,0.0,1.0,Taxi
7.7,0.010708629952995928,42.113790996144964,12.664788808340681,-0.5106917492051246,-0.17675467438346326,133.67623733165374,22.693863035196205,0.0,1.0,0.0,0.0,1.0,Taxi
7.800000000000001,0.18854138154323172,-40.13734795305521,12.41137891675033,-0.4098572473164398,-0.35855573107329597,133.56007101365236,21.59339356299765,0.0,1.0,0.0,0.0,1.0,Taxi
7.9,-0.15428605163020503,9.66671716398686,11.333925726171035,-0.7268970190956434,1.0199144385037864,133.70051796183623,23.067533245263117,0.0,1.0,0.0,0.0,1.0,Taxi
8.0,0.05904221577293017,-61.21119732235146,11.851137669415257,-0.3653546114562362,-0.4157454975403283,133.73024392796026,22.237962394652534,0.0,1.0,0.0,0.0,1.0,Taxi
8.1,-0.11751460506852561,14.582749892850751,12.369065203773847,-0.5095940794009272,0.3020979234452451,133.77215344783679,22.17716180680923,0.0,1.0,0.0,0.0,1.0,Taxi
8.200000000000001,-0.08137230216595132,-13.49580598673055,12.066189821445388,-0.5143905948271645,-0.292738996884628,133.75636382223087,22.23480494319323,0.0,1.0,0.0,0.0,1.0,Taxi
8.3,-0.008436814160722643,16.175084034713485,11.82101697390949,-0.5253945700813966,0.9274980518973993,133.63879372471945,20.91647335220002,0.0,1.0,0.0,0.0,1.0,Taxi
8.4,-0.036639184894958286,21.487527771999535,12.58245146978178,-0.29230479904257656,-0.368455508864573,133.61759143313236,22.366045416308474,0.0,1.0,0.0,0.0,1.0,Taxi
8.5,0.02606533669404625,-17.864787514256836,11.87746303914199,-0.4555775452754728,0.10858936662158972,133.52481568640434,22.876135647999355,0.0,1.0,0.0,0.0,1.0,Taxi
8.6,-0.09776075173200693,-21.005486155408803,12.103179046623094,-0.2324863405427477,0.6408681502325415,133.57211598903012,21.872236381918505,0.0,1.0,0.0,0.0,1.0,Taxi
8.700000000000001,-0.14166661567200242,-17.0345870129192,11.670625613616979,-0.483617657539076,-1.1682240516870057,133.64824649147363,22.017939601957547,0.0,1.0,0.0,0.0,1.0,Taxi
8.8,-0.059107598370549866,26.103711599113705,11.306855242066757,-0.5392523100786464,-0.48947851303335554,133.70188443303505,22.207207773938343,0.0,1.0,0.0,0.0,1.0,Taxi
8.9,0.03275780626356149,0.9058369763572832,12.618372360148514,-0.6380522948136039,0.08919620217907082,133.6877697271446,21.989728414775286,0.0,1.0,0.0,0.0,1.0,Taxi
9.0,-0.13713743079021606,0.553528272710551,12.028290010490013,0.12558210209800913,-0.22181268230247256,133.60847242763998,22.569957460264273,0.0,1.0,0.0,0.0,1.0,Taxi
9.1,-0.05633995700699717,-0.08325637098489125,12.415839750487384,-0.49622863898470376,-0.000907229503457715,133.56409234440446,22.427333547061615,0.0,1.0,0.0,0.0,1.0,Taxi
9.200000000000001,0.03234152440863697,17.803864977384617,11.4612496099333,-0.3243715549546593,-0.2421474500263283,133.50692426784605,21.99407120636727,0.0,1.0,0.0,0.0,1.0,Taxi
9.3,-0.04811810590329306,-18.672947152988517,11.675736449071556,-0.47316659129261046,-0.6346791320568846,133.6090607777399,22.632968073707673,0.0,1.0,0.0,0.0,1.0,Taxi
9.4,-0.14970469277193985,10.742706667680343,12.337907031763953,-0.3947733068275952,-0.43065887567985706,133.51823978307516,20.88345460134304,0.0,1.0,0.0,0.0,1.0,Taxi
9.5,0.08605505774703863,-10.953297739221293,11.911951513919169,-0.42011990646301955,-0.604907484794351,133.55662738732985,21.23800388042223,0.0,1.0,0.0,0.0,1.0,Taxi
9.600000000000001,-0.10288459459939957,7.9029421695149615,12.064808949248091,-0.09433701734075445,-0.0004792366143086223,133.58038512863004,21.96004052720028,0.0,1.0,0.0,0.0,1.0,Taxi
9.700000000000001,-0.11018998192436508,-12.347354754487204,11.691731190239835,-0.37410193717008394,-0.673776960601069,133.7177215525586,21.970962299956536,0.0,1.0,0.0,0.0,1.0,Taxi
9.8,0.024318283974602516,10.765222135925926,11.419537068098187,-0.36288933195456713,0.14519650581009774,133.6001869980022,22.555684348823625,0.0,1.0,0.0,0.0,1.0,Taxi
9.9,-0.049058483919770024,23.4706465167361,12.378306083024166,-0.513261048270904,1.349751121480266,133.39343516392296,21.824471561390318,0.0,1.0,0.0,0.0,1.0,Taxi
10.0,0.007163250659315325,-40.06318881537226,11.540493420137249,-0.6733178803741914,0.42820767395172393,133.529624394773,22.18007433753906,0.0,1.0,0.0,0.0,1.0,Taxi
10.100000000000001,-0.17599766010225887,-13.818900045806664,11.377898258222784,-0.38351439419311534,-0.40226385923412966,133.7756635212761,22.498559514498435,0.0,1.0,0.0,0.0,1.0,Taxi
10.200000000000001,-0.11815298414880344,-22.057684278995406,13.80331958468209,-0.4247211314293061,-0.016776260023837863,133.5983003095929,22.71279028684014,0.0,1.0,0.0,0.0,1.0,Taxi
10.3,-0.10312517073566184,89.04960054162096,11.943171441622178,-0.5085852999804021,0.04099512840255908,133.58169328408246,22.115495231541228,0.0,1.0,0.0,0.0,1.0,Taxi
10.4,0.26925034260584574,-3.3149055373610756,12.908096126656929,-0.5101732157645441,0.6659783476100694,133.60885310969587,22.348315652396927,0.0,1.0,0.0,0.0,1.0,Taxi
10.5,-0.13472751183560902,25.886512198546225,12.30026296393432,0.0209307047803744,-0.1364040068962158,133.4763044344635,22.488532142426486,0.0,1.0,0.0,0.0,1.0,Taxi
10.600000000000001,0.026307390257069064,-59.09958995117654,12.039726590489572,-0.24571609188834087,-0.3053654185595962,133.5880658361557,21.65749497331091,0.0,1.0,0.0,0.0,1.0,Taxi
10.700000000000001,-0.02624760715003719,10.28873795874957,11.461432402556797,-0.3860157664961468,0.3797838530790045,133.60829318805355,21.711057010340603,0.0,1.0,0.0,0.0,1.0,Taxi
10.8,-0.08328382204186131,7.511795122547288,12.311935014145513,-0.414151927615324,-0.5128649920492652,133.66082696608373,21.83910645901679,0.0,1.0,0.0,0.0,1.0,Taxi
10.9,0.06386636586980539,-19.53725379688086,12.549014987103252,-0.13306656287900875,-0.5660724911576552,133.52065439000165,21.25385199246437,0.0,1.0,0.0,0.0,1.0,Taxi
11.0,-0.12393387613444162,32.25746292919276,12.578229568608474,-0.4471996816622819,0.23279463378033924,133.58291363626017,21.32255629602395,0.0,1.0,0.0,0.0,1.0,Taxi
11.100000000000001,0.07800349260410239,45.25801573571937,12.976981581335238,-0.755870677487231,0.5012600240588838,133.63814827220733,21.615967617668375,0.0,1.0,0.0,0.0,1.0,Taxi
11.200000000000001,0.2901564445484021,24.58070533941206,11.947003014636946,-0.10722040491624718,1.3903799639684928,133.7035332257177,23.08335812398905,0.0,1.0,0.0,0.0,1.0,Taxi
11.3,-0.001030349437381425,-19.805981626763725,11.937933058560203,-0.6254605003447467,0.44624742402052586,133.6364727416165,22.008079123888752,0.0,1.0,0.0,0.0,1.0,Taxi
11.4,-0.021026415529716333,-80.863786496266,10.918005350955415,-0.31008822940301584,-0.3154385565445183,133.6188174876483,22.265447333338788,0.0,1.0,0.0,0.0,1.0,Taxi
11.5,-0.114162487932928,-32.39171676102354,11.971910605296209,-0.7538368467226386,0.283616986704204,133.84909581892873,21.391550775343614,0.0,1.0,0.0,0.0,1.0,Taxi
11.600000000000001,-0.16298893324249925,10.506027631044091,11.472861311524296,-0.31677435601616594,-0.24858253956603568,133.58233115347707,22.386142842136362,0.0,1.0,0.0,0.0,1.0,Taxi
11.700000000000001,0.03150372262550396,30.419474513701857,11.778943368648589,-0.4130468328488277,0.18180259554422135,133.5724169148432,22.064668370864094,0.0,1.0,0.0,0.0,1.0,Taxi
11.8,0.03793488463558112,59.642263797134625,11.4714281728437,-0.7968617248476673,-0.8965650295439173,133.50610218995746,22.376990552980146,0.0,1.0,0.0,0.0,1.0,Taxi
11.9,0.1352223857431737,-26.451008662984766,11.850668595989585,-0.761708862326779,-0.24268890503780413,133.56613625553263,21.473158998436542,0.0,1.0,0.0,0.0,1.0,Taxi
12.0,-0.10075132068941994,3.759574463345468,11.839082305483736,-0.6772801379470559,-0.6776885950522974,133.73669583505813,22.32245912231046,0.0,1.0,0.0,0.0,1.0,Taxi
12.100000000000001,0.056732756952308394,-37.12808397925822,11.857900206668411,-0.524643107770396,0.07945875820139402,133.62905473789556,21.659966414697486,0.0,1.0,0.0,0.0,1.0,Taxi
12.200000000000001,-0.05041803415311749,2.7183051040784534,12.254151817448294,-0.4513894690977551,0.7802723402764642,133.50549323424764,20.916486631150768,0.0,1.0,0.0,0.0,1.0,Taxi
12.3,-0.08715979516902779,-12.216781797223419,11.442407697364295,-0.6164835903166488,-0.3008556159381329,133.5127222802571,22.23617860163287,0.0,1.0,0.0,0.0,1.0,Taxi
12.4,-0.004351152033808803,11.801669311819351,12.99969643995452,-0.49032484205016935,-0.3697248262463135,133.58864463907292,22.006127582992676,0.0,1.0,0.0,0.0,1.0,Taxi
12.5,0.008590312405979152,15.318961899839053,11.957827715675997,-0.4915333182645623,0.37963794810904805,133.8167108642523,22.35903411766428,0.0,1.0,0.0,0.0,1.0,Taxi
12.600000000000001,-0.010564985669832636,27.570442985283616,11.754711698447197,-0.3182652515343864,-0.14359706120794,133.39217401812652,21.504180024328182,0.0,1.0,0.0,0.0,1.0,Taxi
12.700000000000001,0.13350106289260916,20.80140736738299,11.333202264484422,-0.4745669203007105,-0.8100143472691862,133.56536741749085,22.038864206388677,0.0,1.0,0.0,0.0,1.0,Taxi
12.8,0.11259734924289398,27.76135263671992,12.197356987380664,-0.3988632510344279,-0.4775761238217425,133.5147822479422,21.898082009315193,0.0,1.0,0.0,0.0,1.0,Taxi
12.9,0.12824177751376684,-36.35811742775213,12.573602800271168,-0.344595112076199,0.30619051533649483,133.50035765310582,21.452808924318674,0.0,1.0,0.0,0.0,1.0,Taxi
13.0,-0.0482895242461516,-9.146664008585455,12.852463644970012,0.04020931267329353,-0.45517471572943863,133.69850442670725,21.271200428805088,0.0,1.0,0.0,0.0,1.0,Taxi
13.100000000000001,0.06686402919996658,-31.645063396441675,11.102362123257016,-0.5319540518038872,0.004267727525241284,133.5726532339594,22.071077492186344,0.0,1.0,0.0,0.0,1.0,Taxi
13.200000000000001,-0.029983539468441685,6.099323929148757,10.822029046487318,-0.5232516547821495,0.38183193722572467,133.6356004514356,20.39959744303048,0.0,1.0,0.0,0.0,1.0,Taxi
13.3,-0.017792904600407937,-33.7448396804487,11.951013183082477,-0.4284302789170205,0.1237328723334007,133.70867045604882,21.544851781780576,0.0,1.0,0.0,0.0,1.0,Taxi
13.4,-0.10186016920227703,-12.45561398120065,10.533840936501267,-0.24479105705412924,-0.4359058233445331,133.63695893801548,22.21268018298426,0.0,1.0,0.0,0.0,1.0,Taxi
13.5,-0.09226160937444507,-3.2640908302987435,12.159860293147524,-0.7546194827114742,-0.3341415789948408,133.65453874327193,21.74846505414948,0.0,1.0,0.0,0.0,1.0,Taxi
13.600000000000001,-0.03411335875190179,-6.292947060557826,11.822663150994535,-0.7571098217370678,0.06418911354713128,133.66721951828526,21.79871627294812,0.0,1.0,0.0,0.0,1.0,Taxi
13.700000000000001,-0.1333249045050663,48.628222827183016,11.505894173209837,-0.7281905852023579,0.4403264764358787,133.65846421889262,21.62496423809661,0.0,1.0,0.0,0.0,1.0,Taxi
13.8,0.15087950476146994,-2.1272387643633217,11.961654304292122,-0.3389975199884928,-0.39329467897404413,133.2469008829571,21.920948210118866,0.0,1.0,0.0,0.0,1.0,Taxi
13.9,-0.044749552573718494,0.4952163362920909,13.192152273871361,-0.6516729318787178,0.00326487607555272,133.5288008689363,22.182607803602078,0.0,1.0,0.0,0.0,1.0,Taxi
14.0,-0.13084882282360594,-34.90745471273208,13.16727246370065,-0.6560752504967364,0.16784030390034635,133.75637307033844,22.245946185288243,0.0,1.0,0.0,0.0,1.0,Taxi
14.100000000000001,-0.023657768802190594,5.990160992770089,10.353108170595679,-0.5036740035464574,-0.153750119556761,133.64292457385204,22.07256069258022,0.0,1.0,0.0,0.0,1.0,Taxi
14.200000000000001,-0.014798747609868143,40.12736420285941,12.088037812450725,-0.3163639489415436,-0.07370065847891953,133.64220732492805,22.087819197453967,0.0,1.0,0.0,0.0,1.0,Taxi
14.3,0.06978799819069102,35.08861130904469,12.02799219829565,-0.7122492799891702,0.2806685328142729,133.59945526369233,21.253319717475044,0.0,1.0,0.0,0.0,1.0,Taxi
14.4,0.15178528774303274,-22.26417119957864,12.35294050916039,-0.3658381450716454,-0.4559689532546834,133.52920595856943,21.87903261207779,0.0,1.0,0.0,0.0,1.0,Taxi
14.5,-0.12611960360776142,-32.87152119565064,11.902315344694868,-0.5856765201931596,0.1294849148436796,133.8053783044826,22.03188643553281,0.0,1.0,0.0,0.0,1.0,Taxi
14.600000000000001,-0.09456960778756222,-39.94356612349288,11.49629318513062,-0.3224540253024989,0.10324210861189435,133.66593094036716,22.054591891967828,0.0,1.0,0.0,0.0,1.0,Taxi
14.700000000000001,-0.04793254287443173,18.182280806849825,12.658433517036489,-0.6044655735564426,-0.12031185507791439,133.54254653178373,21.843906896697558,0.0,1.0,0.0,0.0,1.0,Taxi
14.8,-0.035208199573512414,12.187404094055202,11.161375842119188,-0.3673590786107664,-0.9178867956745878,133.69352653528063,22.301300296437535,0.0,1.0,0.0,0.0,1.0,Taxi
14.9,-0.03363258731728634,0.8600415149432162,11.455662565092593,-0.7475877999059186,-0.10774530323605606,133.42214587083652,20.834692262990025,0.0,1.0,0.0,0.0,1.0,Taxi
15.0,-0.04363233529971577,-6.296496821567833,12.544043085820597,-0.5450677078766705,0.6024750438604783,133.5494887364191,22.604374209214395,0.0,1.0,0.0,0.0,1.0,Taxi
15.100000000000001,-0.0666906836813517,33.37345366257451,11.88880172244936,-0.36874132921726943,-0.05216975402877395,133.69258429251101,22.102643377344105,0.0,1.0,0.0,0.0,1.0,Taxi
15.200000000000001,0.1332346809955861,4.754771807345445,11.681835043442941,-0.4513008043367918,-0.32994963988188664,133.52969911609193,21.833181365050212,0.0,1.0,0.0,0.0,1.0,Taxi
15.3,-0.019858476262988645,-11.326611807029982,12.518548979855733,-0.4021672340537604,0.72904712349075,133.63259826541633,21.624158323241357,0.0,1.0,0.0,0.0,1.0,Taxi
15.4,-0.1233237427165017,-27.482085161374567,12.550844069858623,-0.1543887463374234,-0.03805945496844563,133.4820295147419,22.236637392086074,0.0,1.0,0.0,0.0,1.0,Taxi
15.5,-0.004175744811286801,-24.143743004373473,12.005518393485175,-0.20492595163922434,0.19508790780936117,133.70741525998721,21.46691917110921,0.0,1.0,0.0,0.0,1.0,Taxi
15.600000000000001,-0.1405771912848561,34.15957989006392,10.739623778494208,-0.8722996673742228,0.06511009089365827,133.60775532807202,21.811253721258375,0.0,1.0,0.0,0.0,1.0,Taxi
15.700000000000001,0.047474156733817774,14.86566812961822,11.849942182976378,-0.7239784636706553,-0.7102910845356638,133.68753632394612,23.01599416793261,0.0,1.0,0.0,0.0,1.0,Taxi
15.8,0.0701525958368042,20.041284444472122,12.301459049134879,-0.5111127623199944,0.2547998477274552,133.58831948688476,21.78143323627442,0.0,1.0,0.0,0.0,1.0,Taxi
15.9,-0.04037076906249563,-20.975630487223487,11.487511392893786,-0.7584914588766593,0.3410978960923303,133.64483935791787,22.31326237571873,0.0,1.0,0.0,0.0,1.0,Taxi
16.0,-0.057403995702299794,-26.39886277997741,11.842157489575657,-0.5943366814575947,0.25694654255657307,133.66586930327196,20.839476167736706,0.0,1.0,0.0,0.0,1.0,Taxi
16.1,-0.061841718063083,3.516886567394234,12.006959940963457,-0.4563051114195797,-0.32462125915157924,133.63506500270228,21.44786109486307,0.0,1.0,0.0,0.0,1.0,Taxi
16.2,-0.022786336225524593,-10.70136107317964,12.859193071733657,-0.6203748481666909,0.736041667362245,133.72742861656047,23.286603090253585,0.0,1.0,0.0,0.0,1.0,Taxi
16.3,-0.11091080106819812,4.143521912964242,11.711369274892755,-0.5024301965180376,0.02635129167780073,133.72531755015342,21.595438333828685,0.0,1.0,0.0,0.0,1.0,Taxi
16.400000000000002,-0.04112410849826192,27.620466928565808,12.847868455558606,-0.35765664814550724,0.682461256288848,133.7245932276698,21.21090119640455,0.0,1.0,0.0,0.0,1.0,Taxi
16.5,0.11531599841730433,20.051285017390892,12.573659273716336,-0.6395236563674156,0.9108943967727972,133.45666831694592,21.489668299222725,0.0,1.0,0.0,0.0,1.0,Taxi
16.6,-0.010654375981243806,30.59106660429877,11.90607165611722,-0.34688457893646363,-0.7095275506089797,133.4488839466792,21.44471987554245,0.0,1.0,0.0,0.0,1.0,Taxi
16.7,0.11183122452323178,-35.4818639960895,11.868676855269026,-0.5235070976189921,0.41365495497070076,133.56827538387137,22.17731054229814,0.0,1.0,0.0,0.0,1.0,Taxi
16.8,-0.062093321563143324,18.096841091201853,11.9828270536767,-0.5930291150116294,0.5716920843901631,133.66119504661265,21.737969218328786,0.0,1.0,0.0,0.0,1.0,Taxi
16.900000000000002,0.07982982947476532,-27.0654163648354,12.776543348962484,-0.24146104987957157,-0.22749684839068124,133.81610020966139,21.355160397424733,0.0,1.0,0.0,0.0,1.0,Taxi
17.0,-0.02349585730094536,8.823112277379156,11.017728381927983,-0.5094513619970727,-0.807927455278659,133.74643080725411,21.829769201879508,0.0,1.0,0.0,0.0,1.0,Taxi
17.1,-0.0179777601762477,-20.556182054474906,13.02909882933222,-0.3417607430589462,0.34068707280826405,133.79172068954227,22.71892234663585,0.0,1.0,0.0,0.0,1.0,Taxi
17.2,-0.022951080797609352,23.37768367597701,11.858681514634062,-0.2712179048595636,-0.5556507283075793,133.65340717677736,21.459140919551924,0.0,1.0,0.0,0.0,1.0,Taxi
17.3,0.09339256107893956,15.94438009080484,12.541799071095959,-0.22809201556431358,-0.3031256210165297,133.5517144459185,22.558856709714043,0.0,1.0,0.0,0.0,1.0,Taxi
17.400000000000002,0.061744140277776374,3.124199517605483,11.767327396725715,-0.3709687517036646,-0.043168336921915636,133.55894055211502,21.240018613818364,0.0,1.0,0.0,0.0,1.0,Taxi
17.5,-0.007330083209582058,-41.97709290179392,12.44827937677456,-0.2973283763116902,-0.02598265048303461,133.49475856757408,21.913370269438605,0.0,1.0,0.0,0.0,1.0,Taxi
17.6,-0.11649290343003012,-11.144075196295129,12.192554434397193,-0.3901687267616773,0.5689353093433929,133.44801243233405,22.686384894314376,0.0,1.0,0.0,0.0,1.0,Taxi
17.7,0.006023764296300609,1.7979343840049264,12.002165561506406,-0.391142935243892,0.4428658846805756,133.61334459532418,22.165091540745394,0.0,1.0,0.0,0.0,1.0,Taxi
17.8,0.001659588710442463,27.11770038129838,12.13904463527961,-0.4979868440122366,0.10724569592485975,133.65618257396955,22.437161460754652,0.0,1.0,0.0,0.0,1.0,Taxi
17.900000000000002,0.019095598476461674,15.296232875987267,11.8886436429444,-0.36303061652463486,0.9179239190395196,133.70909109504385,22.27396072945991,0.0,1.0,0.0,0.0,1.0,Taxi
18.0,0.08250492867623684,-2.9485791547385247,12.140980670686622,-0.5078228851757582,-0.38788894570180593,133.6669689080996,21.793598309863864,0.0,1.0,0.0,0.0,1.0,Taxi
18.1,-0.013083307063250277,16.889476133880404,11.628070394100353,-0.43046395098283124,-0.09083026036200988,133.53528417208912,22.03039996958855,0.0,1.0,0.0,0.0,1.0,Taxi
18.2,0.10354297914586358,-21.131668157276994,10.876374246727677,-0.3038565603588317,0.9222605221012011,133.51756301767784,22.506857740530762,0.0,1.0,0.0,0.0,1.0,Taxi
18.3,-0.023153412110148278,12.247514724504525,11.495974568993242,-0.5443764721728557,0.031383240348275665,133.62223337383375,21.889825038163696,0.0,1.0,0.0,0.0,1.0,Taxi
18.400000000000002,0.048154266559272206,14.64385535975024,11.790746285792801,-0.5603697392920729,0.5134415562647316,133.40515623672695,22.077527306957894,0.0,1.0,0.0,0.0,1.0,Taxi
18.5,0.17676225594461467,-28.052681730543423,12.269419697465597,-0.39385726774931495,0.6437590928384481,133.55303879071857,22.78468182310676,0.0,1.0,0.0,0.0,1.0,Taxi
18.6,-0.1634168207628655,-42.13753202600606,12.783760912788079,-0.4434388523111137,-0.3893243830974051,133.48834645214538,22.283295127368543,0.0,1.0,0.0,0.0,1.0,Taxi
18.7,-0.16253339357075824,-19.75342709114319,11.795039293006289,-0.6214303446076395,0.4115657871500075,133.71781539197752,21.292200950596172,0.0,1.0,0.0,0.0,1.0,Taxi
18.8,0.07799512048889858,1.449770641861619,12.016310102672776,-0.45689452735084185,-0.18245866096375188,133.59595060495593,22.617084637880208,0.0,1.0,0.0,0.0,1.0,Taxi
18.900000000000002,-0.15616796755355758,40.02590160637522,11.947200010926245,-0.12889309104786395,0.21715199416835926,133.61589013792832,22.180339846051435,0.0,1.0,0.0,0.0,1.0,Taxi
19.0,0.03759611446111769,-41.637452002465686,11.951389252625058,-0.3984375560990776,-0.11312798536506602,133.70261405692645,22.029444463860155,0.0,1.0,0.0,0.0,1.0,Taxi
19.1,-0.13019213952343003,44.627088673763545,11.765230246044347,-0.3408242951893006,-0.642055583677207,133.66365977206783,21.931160847866632,0.0,1.0,0.0,0.0,1.0,Taxi
19.200000000000003,0.06696747581525991,3.9533589127370505,11.977697633017678,-0.4898095997086453,0.3823976616028881,133.57212617098753,22.852200150309365,0.0,1.0,0.0,0.0,1.0,Taxi
19.3,0.05736290902480275,30.3596120890013,11.937981002632306,-0.5354980782409434,-0.3909967805734686,133.50444344096275,22.70592323069624,0.0,1.0,0.0,0.0,1.0,Taxi
19.400000000000002,0.021605920921576285,-30.320265544340188,11.510440202713141,-0.39994059880764893,0.2640417413012017,133.4928420980442,22.36739241097682,0.0,1.0,0.0,0.0,1.0,Taxi
19.5,-0.08463385190644118,18.822454425977906,12.611481798699948,-0.19144360182827164,0.3681860245961539,133.36002649843465,21.939562061045855,0.0,1.0,0.0,0.0,1.0,Taxi
19.6,0.1514751811546921,-18.725177663718238,12.329044630840057,-0.7820979106261283,0.6569690679447935,133.52727924155192,21.93337185671344,0.0,1.0,0.0,0.0,1.0,Taxi
19.700000000000003,-0.07201996739701505,15.784015275248018,12.286619344933841,-0.6910196583764687,-0.28930595655214975,133.6577507129905,22.46080754079166,0.0,1.0,0.0,0.0,1.0,Taxi
19.8,-0.005713775530201249,-49.69357488652553,11.709735808653875,-0.6118888379137871,-0.09957524065032942,133.63894445149208,22.36763690388604,0.0,1.0,0.0,0.0,1.0,Taxi
19.900000000000002,-0.09699269327793571,21.405321442770603,11.935991660108847,-0.5577746491455666,-0.31097333580899594,133.7396614898522,21.99967875096213,0.0,1.0,0.0,0.0,1.0,Taxi
20.0,0.03500663981683782,0.22501194653701262,12.087663185266269,-0.285356201297864,0.7116053886345202,133.519592591324,22.372321571111588,0.0,1.0,0.0,0.0,1.0,Taxi
20.1,-0.004588715797516335,42.68694210816506,12.18757366340754,-0.32446475008146236,0.07900014674691132,133.48101609904995,21.36560421384147,0.0,1.0,0.0,0.0,1.0,Taxi
20.200000000000003,0.11644201726288946,-0.864503354277853,11.777414040822935,-0.8368324948192627,0.23951430308352703,133.5080991806813,22.836012037067853,0.0,1.0,0.0,0.0,1.0,Taxi
20.3,0.03068412304544839,-10.345653462465497,12.462387967181598,-0.6342063003375018,0.25164021871783654,133.5940592932908,21.654931825704598,0.0,1.0,0.0,0.0,1.0,Taxi
20.400000000000002,-0.05631698310984399,-38.09802961794523,13.046570870157396,-0.5404237240160203,-0.5063062501302683,133.55324605972726,20.889032187953383,0.0,1.0,0.0,0.0,1.0,Taxi
20.5,-0.07404813082683685,-16.0964248274915,10.982399477378559,-0.5398261471700624,-1.0846987408928959,133.57804450622336,23.137115168306764,0.0,1.0,0.0,0.0,1.0,Taxi
20.6,-0.04979800109200927,-15.135649481300682,12.07786993915729,-0.5426773243844788,0.1840185527087199,133.6391763359146,21.016089904143353,0.0,1.0,0.0,0.0,1.0,Taxi
20.700000000000003,-0.13199523051634757,23.603575949849006,12.224281404653716,-0.7632426013583369,0.18612465306062448,133.6214842261631,22.504702674141456,0.0,1.0,0.0,0.0,1.0,Taxi
20.8,0.04396974892240801,14.171579133686135,11.769651621747474,-0.3733974027308467,0.4883579680446678,133.51132630951224,21.60647031995181,0.0,1.0,0.0,0.0,1.0,Taxi
20.900000000000002,0.021059894576421226,34.49841267153939,10.469254871589808,-0.6785025278059957,-1.4125093576415741,133.66757962566533,21.799027680628807,0.0,1.0,0.0,0.0,1.0,Taxi
21.0,0.04049683284134922,-7.7843352032083315,11.852028787129452,-0.481119158637766,-0.27530877981956825,133.71919415899663,20.979435331545204,0.0,1.0,0.0,0.0,1.0,Taxi
21.1,0.005048072906366172,-25.388462172891405,13.079983595014925,-0.42256886132631266,0.24476184461330702,133.73915561211624,22.297086976088195,0.0,1.0,0.0,0.0,1.0,Taxi
21.200000000000003,-0.10588241628803596,-9.769329096583796,12.949630528417895,-0.2735777841423821,0.19802420810370847,133.45171055721983,21.7465454966413,0.0,1.0,0.0,0.0,1.0,Taxi
21.3,-0.008349812641569938,11.048162580355744,11.756438178776534,-0.3758734591057254,0.10927665668084695,133.52221277797366,20.567005705606185,0.0,1.0,0.0,0.0,1.0,Taxi
21.400000000000002,0.060288885808144704,51.15007154292372,11.75966158051253,-0.48992823602056246,-0.055954927452717795,133.61234824287806,21.618465004371973,0.0,1.0,0.0,0.0,1.0,Taxi
21.5,0.14986794142658247,1.8631992450568902,12.289688311284298,-0.8305351360612638,0.039907276297791505,133.50280492011967,22.421861778601976,0.0,1.0,0.0,0.0,1.0,Taxi
21.6,0.0009661835837143579,-3.273823514453151,11.429389154653178,-0.7159129923990126,0.3919502272085558,133.56779119443559,21.899778682132972,0.0,1.0,0.0,0.0,1.0,Taxi
21.700000000000003,0.04391976823587879,-27.33626075532695,12.039800774558614,-0.21864417877972758,-0.7506933880369863,133.62446771576344,22.169556556784737,0.0,1.0,0.0,0.0,1.0,Taxi
21.8,0.013186637649947548,-8.441846663909155,11.878072542853317,-0.4621521399175847,0.04529769879509515,133.40695428746255,21.87170902160497,0.0,1.0,0.0,0.0,1.0,Taxi
21.900000000000002,-0.04124304973583159,-10.043601555377288,11.384030318059342,-0.2733809518670278,-0.6170387129405127,133.6350989877974,21.17544827787909,0.0,1.0,0.0,0.0,1.0,Taxi
22.0,-0.006298239541007828,18.50746104718867,13.136417634586063,-0.708613002631862,-0.5039622916140505,133.56072712977766,22.23373048787411,0.0,1.0,0.0,0.0,1.0,Taxi
22.1,0.10572394288589071,25.07339591503117,11.58447874962912,-0.3646797776734455,-0.17230815195667454,133.57365525505259,22.559555326907198,0.0,1.0,0.0,0.0,1.0,Taxi
22.200000000000003,0.08412392983932405,15.59226506350691,12.322673243114703,-0.47775102794241087,0.06675477935305402,133.5472708742605,21.291511768859785,0.0,1.0,0.0,0.0,1.0,Taxi
22.3,0.07166308577652654,-40.3953966429988,11.059713043256094,-0.527559899209248,0.7870649514900646,133.6314157046237,21.763585714172034,0.0,1.0,0.0,0.0,1.0,Taxi
22.400000000000002,-0.09625304032910345,-30.557970947153223,12.275836882694641,-0.6488226676494864,-0.1346566621737418,133.68455805431608,21.65259779028665,0.0,1.0,0.0,0.0,1.0,Taxi
22.5,-0.06866592489644223,-58.25539600864954,12.626777060166821,-0.44029128775615073,-1.0321752709425351,133.5726870919616,22.30594590297118,0.0,1.0,0.0,0.0,1.0,Taxi
22.6,-0.2196138942667213,27.08110253948344,11.53557426714237,-0.37662093171719035,-0.0339724345781986,133.70575812318953,22.373141902088303,0.0,1.0,0.0,0.0,1.0,Taxi
22.700000000000003,0.03915247236831362,44.54748979337322,12.454388872494333,-0.6772884124853348,0.161746912359575,133.49639860765342,22.763748976708527,0.0,1.0,0.0,0.0,1.0,Taxi
22.8,0.15407152407042374,22.10613741832637,11.778725391004363,-0.3210492530579975,0.6411455075530329,133.68963799972187,22.35203230613654,0.0,1.0,0.0,0.0,1.0,Taxi
22.900000000000002,-0.10908320717508957,-1.6363264383446676,12.31594523597452,-0.31363644791592105,-1.2847406832750143,133.59881058821378,20.848737802455055,0.0,1.0,0.0,0.0,1.0,Taxi
23.0,0.030970840176590148,1.5164983235003529,11.764306273682173,-0.6092194360745617,-0.050946909289469364,133.73680000246407,21.980927247708653,0.0,1.0,0.0,0.0,1.0,Taxi
23.1,0.16165401568792537,29.104688724381628,11.493608688451898,-0.6543901675449773,-0.4421808580910122,133.58150423819586,22.467330153188772,0.0,1.0,0.0,0.0,1.0,Taxi
23.200000000000003,0.03644023644681844,-19.709239191777453,11.564179808204313,-0.5198929871048336,-0.25125864290049144,133.7415406635148,22.38651678660021,0.0,1.0,0.0,0.0,1.0,Taxi
23.3,-0.06757535578229722,-24.34259111007627,11.286146637337689,-0.33006399513032514,-1.0945987172607472,133.59033069521968,22.618184527388358,0.0,1.0,0.0,0.0,1.0,Taxi
23.400000000000002,0.03994106013754391,-9.189824192667574,12.700970429924599,-0.3812365290955402,-0.03091620205932773,133.6697392886091,22.65055817662449,0.0,1.0,0.0,0.0,1.0,Taxi
23.5,-0.009508884516519558,-1.6225474532199324,12.170093279072466,-0.9504056913495625,-0.46686091483395625,133.5267755266176,21.601481355163006,0.0,1.0,0.0,0.0,1.0,Taxi
23.6,-0.07568809304839703,-3.901278092170351,10.542153012912715,-0.22333264594403024,0.08991549395545856,133.70029583625376,22.34852414819974,0.0,1.0,0.0,0.0,1.0,Taxi
23.700000000000003,0.020434669676692014,33.78352957939324,12.40571647368894,-0.6352548365840739,-0.30187513448800074,133.72967293121383,22.294289727885555,0.0,1.0,0.0,0.0,1.0,Taxi
23.8,0.1594087633804465,-13.933710048197062,11.974174490358832,-0.2860615165288866,-0.15500065795992363,133.53040344057376,21.65909714101007,0.0,1.0,0.0,0.0,1.0,Taxi
23.900000000000002,-0.14535664328938244,3.2146881203366653,12.271608370175395,-0.35302188301834825,0.5368226500868073,133.69261469354615,22.709876755799353,0.0,1.0,0.0,0.0,1.0,Taxi
24.0,0.03650811027837523,-1.6527683325091214,11.400172725507517,-0.39475993400595316,-1.3899301773113828,133.68483391979623,21.61345261531276,0.0,1.0,0.0,0.0,1.0,Taxi
24.1,0.15114492171790075,28.65867363201389,12.133450122243994,-0.40395508287551773,0.1280415120037498,133.50181004962405,22.035457532675625,0.0,1.0,0.0,0.0,1.0,Taxi
24.200000000000003,-0.0020632751293131117,-14.871206320020129,12.319226550140396,-0.4612409144555543,0.550825940237912,133.6332264775117,21.99435145529388,0.0,1.0,0.0,0.0,1.0,Taxi
24.3,-0.03784792132172555,-51.59322673427772,11.848068146896324,-0.3243354038832872,0.07183762050514404,133.66281523913415,21.8245421382741,0.0,1.0,0.0,0.0,1.0,Taxi
24.400000000000002,-0.106821211953488,5.8968525767969355,11.93694474948475,-0.8184323361591468,0.6879465295966418,133.50020850882896,21.910344023188205,0.0,1.0,0.0,0.0,1.0,Taxi
24.5,0.027420987754671444,7.0697668840486445,13.149430668881621,0.05462309383550967,-0.973507224172453,133.53903822467055,23.021488883842988,0.0,1.0,0.0,0.0,1.0,Taxi
24.6,-0.002499086901482449,41.97723836498096,12.072336593743117,-0.7072797877171484,0.48938803991919994,133.71344012602026,21.172191027329504,0.0,1.0,0.0,0.0,1.0,Taxi
24.700000000000003,0.1030649798714167,-34.57769655759112,12.574691130713202,-0.5097525810587406,0.7426834666277579,133.4103511618431,21.77282671955478,0.0,1.0,0.0,0.0,1.0,Taxi
24.8,-0.1454674950332843,12.903510072795626,12.624598674725254,-0.28559516292309306,0.759782985555168,133.50305922991004,21.312376352201838,0.0,1.0,0.0,0.0,1.0,Taxi
24.900000000000002,0.062018463462495545,-20.220038198836225,12.184816154672152,-0.49169968762404825,0.7352261624432119,133.58428153350712,23.0656640686237,0.0,1.0,0.0,0.0,1.0,Taxi
25.0,0.0019647888772354604,20.090944721409816,10.72155384018675,-0.1596640338491756,0.14774845417747817,133.65393955117617,22.047405503731635,0.0,1.0,0.0,0.0,1.0,Taxi
25.1,-0.045012771426235304,-42.016818146137716,12.656572463341684,-0.7426779077458181,0.31603264924827285,133.6382933191851,21.81102442149022,0.0,1.0,0.0,0.0,1.0,Taxi
25.200000000000003,-0.14806562726819314,-6.822883926590474,10.98657850166181,-0.14654844761486135,-0.28183213391461065,133.4851817126107,22.71896344040154,0.0,1.0,0.0,0.0,1.0,Taxi
25.3,-0.03214963075571702,12.219535690314402,11.427330725150032,-0.2351349704232213,-0.20947968898387193,133.49739756959866,22.20783554953911,0.0,1.0,0.0,0.0,1.0,Taxi
25.400000000000002,0.016084907025336603,44.939251929096905,11.255083379174087,-0.5135537412288712,0.16982286200256186,133.7439859173573,21.20410212612968,0.0,1.0,0.0,0.0,1.0,Taxi
25.5,0.07663063237729123,22.45068015703259,11.959843235192926,-0.3868503898753231,0.4194708913083372,133.7978037065966,21.6789204778528,0.0,1.0,0.0,0.0,1.0,Taxi
25.6,0.08010377002944578,19.94508960803302,11.617976133257926,-0.5439951041158237,-0.8513737997031345,133.67204406505823,22.790374077920163,0.0,1.0,0.0,0.0,1.0,Taxi
25.700000000000003,0.11581035506550158,-16.92862215175924,12.106553821366592,-0.4207977904294482,-0.23476199913959522,133.57640758966215,21.206355275671402,0.0,1.0,0.0,0.0,1.0,Taxi
25.8,-0.008012478381505077,-12.41148244388686,12.194205623063402,-0.6952800476335402,0.3945390773545044,133.38096893473607,22.233714631312647,0.0,1.0,0.0,0.0,1.0,Taxi
25.900000000000002,0.01804635781001139,-53.86968271547073,12.108471286156286,-0.7533684948474393,0.5090187147203048,133.6321120543534,22.080602068751308,0.0,1.0,0.0,0.0,1.0,Taxi
26.0,-0.1535380585118522,-12.355196775675457,11.911504121598872,-0.42139918763286105,-0.21496069179163135,133.64457686079334,21.158425465565315,0.0,1.0,0.0,0.0,1.0,Taxi
26.1,-0.06978846225988249,14.520231641706348,12.026859545291575,-0.42685193622622064,-0.3114444352674915,133.44704854095806,22.35016057180534,0.0,1.0,0.0,0.0,1.0,Taxi
26.200000000000003,0.09064751601854301,72.89482081895333,11.87403319889808,-0.5752660948738186,-0.02048221343178701,133.7153312471637,22.022168146760173,0.0,1.0,0.0,0.0,1.0,Taxi
26.3,0.21093604558291432,-15.244831538485224,11.559979272370885,-0.5557893078586547,-0.36590329188731735,133.55384345635866,22.355873767850447,0.0,1.0,0.0,0.0,1.0,Taxi
26.400000000000002,-0.14601261995230871,-22.987644029797565,11.650767694014002,-0.5971351892839951,-0.16914606095969922,133.59631549185315,22.22364136744202,0.0,1.0,0.0,0.0,1.0,Taxi
26.5,-0.024290704130444964,-88.13984034304595,13.214904779813812,-0.47887520101226533,0.9348467098373443,133.54360485398172,22.2327393061584,0.0,1.0,0.0,0.0,1.0,Taxi
26.6,-0.2297631561323156,50.48090755809668,11.920075598696299,-0.19652785583244903,0.6088007417025368,133.80968123589207,21.459170025784655,0.0,1.0,0.0,0.0,1.0,Taxi
26.700000000000003,0.10639191783817455,21.378390679893908,11.95669121092264,-0.7597896351339686,-0.40167196698725904,133.85296874315196,22.067515863674554,0.0,1.0,0.0,0.0,1.0,Taxi
26.8,0.08260124926902443,38.964195937704915,11.298470153073367,-0.3896604359275049,-0.18447017514576225,133.66867297971794,21.113978419547774,0.0,1.0,0.0,0.0,1.0,Taxi
26.900000000000002,-0.034942176443791155,-13.89242502412817,12.437230827518059,-0.5157663084341224,0.8228670767291726,133.6227747921181,21.955716607782996,0.0,1.0,0.0,0.0,1.0,Taxi
27.0,0.03692979271753357,6.60921843112044,12.099423187233443,-0.40317761118158335,-0.4565944735197592,133.8011166526602,21.735758850774268,0.0,1.0,0.0,0.0,1.0,Taxi
27.1,0.1156473414246265,-14.156978371137626,12.028283521836597,-0.3113466944836459,-0.008479171418917207,133.47239002886704,21.823205051002667,0.0,1.0,0.0,0.0,1.0,Taxi
27.200000000000003,-0.10572706829947945,-40.248406622102216,11.084691048566055,0.036475439853306146,-0.08436348061494854,133.69782200612246,22.90131006340044,0.0,1.0,0.0,0.0,1.0,Taxi
27.3,-0.16431224039297768,-19.0995794628216,11.966076505325105,-0.966571016302131,1.0039158268119692,133.68221625337674,21.81237714833187,0.0,1.0,0.0,0.0,1.0,Taxi
27.400000000000002,0.02014944411051833,41.89011402446001,11.901510163788029,-0.47511069886117696,-0.14959694348553018,133.548212234405,21.366077913739385,0.0,1.0,0.0,0.0,1.0,Taxi
27.5,0.10372350182282045,42.8629681047579,12.53005741976866,-0.46261625504516,0.5524496476231452,133.73319045525363,22.11492621900144,0.0,1.0,0.0,0.0,1.0,Taxi
27.6,0.050002600130811675,14.285806093529409,11.545568915711799,-0.8865847790365073,-0.7369573180657806,133.6953716823882,22.139904282816207,0.0,1.0,0.0,0.0,1.0,Taxi
27.700000000000003,0.09157847457816524,12.282089809055813,11.9168373158723,-0.6710562720759277,-0.8755321584120176,133.51661034130927,22.263657737642077,0.0,1.0,0.0,0.0,1.0,Taxi
27.8,0.16513395086809937,-0.03474119513567094,12.119083313779608,-0.6401208173664965,0.037463630916546184,133.53962717485757,22.216398125892017,0.0,1.0,0.0,0.0,1.0,Taxi
27.900000000000002,0.04982889415513317,-23.29173497952441,12.177426696158548,-0.8098085219710838,0.20632232956476435,133.5441869421096,22.23001220998811,0.0,1.0,0.0,0.0,1.0,Taxi
28.0,-0.024880200319456938,-25.01510126756372,11.844499256640649,-0.6070118538393823,-0.05245473959030943,133.61223598493825,22.535526201262844,0.0,1.0,0.0,0.0,1.0,Taxi
28.1,0.04005844453028065,-8.055916837472806,11.714053688477557,-0.6382634712549065,1.0192451284521775,133.61269604655928,22.80154323045187,0.0,1.0,0.0,0.0,1.0,Taxi
28.200000000000003,0.009549309967769006,21.360872284565616,13.286957795286039,-0.41221470096981794,-1.182466904177605,133.61079704020477,23.092252723463027,0.0,1.0,0.0,0.0,1.0,Taxi
28.3,0.081924161103371,20.74313870999615,12.266888294540552,-0.6708324723171357,0.3103897127925082,133.67177659620393,21.210898382255063,0.0,1.0,0.0,0.0,1.0,Taxi
28.400000000000002,0.14377413808026127,-34.20568462718669,12.031531436189523,-0.6125156637719787,0.6152934821312027,133.71800708987269,21.628251359479986,0.0,1.0,0.0,0.0,1.0,Taxi
28.5,-0.16147911316816455,-51.24612916367483,11.731110260563863,-0.6666583354575255,-0.11351526791160416,133.47283039328488,22.03643234046715,0.0,1.0,0.0,0.0,1.0,Taxi
28.6,-0.17430648471500326,-38.314098366363254,12.404557190735655,-0.505426947880246,-0.04575348109997692,133.5262237423695,22.041334148017015,0.0,1.0,0.0,0.0,1.0,Taxi
28.700000000000003,-0.047796353751555096,25.651165455394416,11.903253070188493,-0.22761164556659796,0.1924869665440194,133.5865597382362,21.642289885499256,0.0,1.0,0.0,0.0,1.0,Taxi
28.8,-0.033223285891192604,38.72445514589553,11.528660543826105,-0.5148406534614358,-0.6823132410861436,133.64384353298328,22.284534097479323,0.0,1.0,0.0,0.0,1.0,Taxi
28.900000000000002,0.01931579101447426,7.429235799687902,11.35960023325759,-0.3374498277610276,-0.8090462304043902,133.72281127501714,21.602170158696715,0.0,1.0,0.0,0.0,1.0,Taxi
29.0,-0.010650174753115728,-19.149186002566243,12.803191939297628,-0.6288362731947571,1.4551311114753547,133.62938032009447,22.095951357024582,0.0,1.0,0.0,0.0,1.0,Taxi
29.1,-0.12896921590402394,35.05712796630787,11.661999450822046,-0.37885815307912696,0.0607085672151223,133.64961531552683,21.085481990743823,0.0,1.0,0.0,0.0,1.0,Taxi
29.200000000000003,0.19460143084601345,-39.256545386984406,12.033179148207518,-0.5718973748050106,0.3270597301520059,133.5889336398078,21.686576660720647,0.0,1.0,0.0,0.0,1.0,Taxi
29.3,-0.2069329016880379,48.41131361151759,11.957319228730446,-0.48950405993159335,-1.0119955189324252,133.52000285032216,21.71817999204925,0.0,1.0,0.0,0.0,1.0,Taxi
29.400000000000002,0.11308735215356387,-73.0669040180698,11.896389038440855,-0.47049338246338734,0.22682929042317765,133.8120611272426,22.16716043360757,0.0,1.0,0.0,0.0,1.0,Taxi
29.5,-0.1707330892443357,44.552343063439395,11.552285528140832,-0.2925128148254524,-0.26255305532912876,133.70486491228002,22.244796659074066,0.0,1.0,0.0,0.0,1.0,Taxi
29.6,0.01582881362915896,-34.50609367547546,11.919347268218665,-0.629412143656584,1.02047116145466,133.88811503539443,22.386092977434124,0.0,1.0,0.0,0.0,1.0,Taxi
29.700000000000003,-0.05944311622381357,18.933718239469155,12.658328684381937,-0.6151199454230747,-0.6479039444381296,133.5792648627529,21.935934727909416,0.0,1.0,0.0,0.0,1.0,Taxi
29.8,-0.07606449804699006,4.09979908905418,11.999086227111286,-0.6764306714253725,-0.5505709215351128,133.41429090534524,21.191901382311958,0.0,1.0,0.0,0.0,1.0,Taxi
29.900000000000002,0.03632780907442971,29.118778041364966,11.148405015759971,-0.3926758575332734,0.17544681708827572,133.62206324206426,22.284585181376315,0.0,1.0,0.0,0.0,1.0,Taxi
30.0,0.08615077398301112,1.4434619040846097,11.363586571697294,-0.4154400960521825,-0.3407084182923312,133.5968391954587,21.728192445953283,0.0,1.0,0.0,0.0,1.0,Taxi
30.1,-0.06884718852656714,-21.797468160291064,12.013218902942294,-0.7294094781614041,0.14726152915945082,133.60291147807175,22.509083480893914,0.0,1.0,0.0,0.0,1.0,Taxi
30.200000000000003,-0.07265953172702576,-8.42545159986257,12.491637865550542,0.13781198193992172,-0.21882638139172464,133.57969670267983,22.288144415691022,0.0,1.0,0.0,0.0,1.0,Taxi
30.3,0.04402351598369812,11.581577423290655,11.369291251860785,-0.8233338303463058,0.09603730410642822,133.71084606583838,22.17602622153811,0.0,1.0,0.0,0.0,1.0,Taxi
30.400000000000002,-0.010939301410113992,2.5084523870856934,11.96673777247149,-0.34401525391706417,0.06473374277254682,133.48621795867098,22.563392957793766,0.0,1.0,0.0,0.0,1.0,Taxi
30.5,-0.06011726979159742,-5.2095474284134795,13.05228165875337,-0.46571274540626983,-0.11399464017639502,133.72488276912384,22.1820919752337,0.0,1.0,0.0,0.0,1.0,Taxi
30.6,0.01797577884163061,4.5453064672264185,12.790587665256238,-0.5916069867100048,-0.13498426777076208,133.68519715675484,21.35976166630176,0.0,1.0,0.0,0.0,1.0,Taxi
30.700000000000003,0.011787230926017987,6.997893131413918,11.550974231711105,-0.5994473871467655,0.22015540805682854,133.7241006773561,22.607038103112398,0.0,1.0,0.0,0.0,1.0,Taxi
30.8,-0.025127804134527944,32.41101845443063,12.526632636590328,-0.7792267141199154,-0.17505171924059482,133.5518966497997,21.935455608461,0.0,1.0,0.0,0.0,1.0,Taxi
30.900000000000002,0.18003087111378363,6.32994261579653,12.458019877466855,-0.5679628707807328,0.17818717996174765,133.69117695366236,22.101574883596797,0.0,1.0,0.0,0.0,1.0,Taxi
31.0,0.04343694400500051,14.756082334679574,12.24593729621739,-0.254491521780911,0.22256800334241206,133.63731003166248,22.168704395197373,0.0,1.0,0.0,0.0,1.0,Taxi
31.1,0.048652607538869796,-13.77119328756938,13.189172092244654,-0.6474459339426034,-0.4646518146996263,133.54862097242437,22.285554139555764,0.0,1.0,0.0,0.0,1.0,Taxi
31.200000000000003,0.11117490467593663,6.5758656413326095,13.065599120024864,-0.4868097911648153,-0.4612635168229131,133.705956190783,22.76600426330995,0.0,1.0,0.0,0.0,1.0,Taxi
31.3,0.07631627221166343,-19.455330073004166,11.52013131943954,-0.619644655292727,-0.03937884163155904,133.68999472472888,22.795196862724012,0.0,1.0,0.0,0.0,1.0,Taxi
31.400000000000002,-0.04862404282615119,-28.92618188710976,12.123851095548632,-0.5791899662578255,-0.08919000069136039,133.70581897727152,21.25968652339104,0.0,1.0,0.0,0.0,1.0,Taxi
31.5,-0.03345600475961232,-67.04502358061971,12.066509475392655,-0.45307189214149957,-0.7624468152377163,133.57395906573913,22.483386684348773,0.0,1.0,0.0,0.0,1.0,Taxi
31.6,-0.25890884569143535,26.664047739281216,11.974316945563032,-0.41883817914240906,-0.08531029189314143,133.56265752668207,23.22148469117171,0.0,1.0,0.0,0.0,1.0,Taxi
31.700000000000003,0.08469619587025472,0.347385887332635,12.342983889170663,-0.09522830732943782,-0.534600840680563,133.59555350969907,21.917169571996435,0.0,1.0,0.0,0.0,1.0,Taxi
31.8,-0.03171907532294931,43.86770925216822,13.044103411675977,-0.18616129512896684,0.13203861049534196,133.59014353962368,21.39312357715505,0.0,1.0,0.0,0.0,1.0,Taxi
31.900000000000002,-0.039570299430594424,-14.296270895893207,12.348284493353319,-0.8525728392002958,0.778555882845811,133.5023126756654,22.880740031829326,0.0,1.0,0.0,0.0,1.0,Taxi
32.0,0.013214841390788516,-17.384414858621543,12.579701608863035,-0.33191633932745457,0.2395962290707876,133.57499239440517,23.127209561840445,0.0,1.0,0.0,0.0,1.0,Taxi
32.1,-0.1186411496160572,28.55729830123707,11.10404604047421,-0.5854555227565544,0.12398808811850333,133.48760393582552,21.49464106760584,0.0,1.0,0.0,0.0,1.0,Taxi
32.2,0.10321619207559074,45.159065355871086,12.532110529842441,-0.5158737167245843,-0.07209023370943395,133.48704477881273,21.963550809152206,0.0,1.0,0.0,0.0,1.0,Taxi
32.300000000000004,0.23901016817014376,31.382001924531618,12.341192242015081,-0.5767955138329501,0.528345581884113,133.68805019703984,20.9980202216469,0.0,1.0,0.0,0.0,1.0,Taxi
32.4,0.03826886000660069,-24.416759755833453,13.305778702909796,0.04799955648691401,-0.26609018205594054,133.64893606474965,22.099106147881955,0.0,1.0,0.0,0.0,1.0,Taxi
32.5,-0.018867606703576675,-18.431751183249265,11.774336835464535,-0.8188567249021812,-0.8427630086321196,133.54949752617387,21.65443804566161,0.0,1.0,0.0,0.0,1.0,Taxi
32.6,0.1468514122538973,-35.99029755239587,13.58313824643877,-0.15311174125641414,-0.72972333136848,133.65510584288677,23.71028987559251,0.0,1.0,0.0,0.0,1.0,Taxi
32.7,-0.1416826277553788,6.051992222564825,11.964903999387431,-0.5922158215319836,-0.6162954031070621,133.52916173794483,21.947527252131593,0.0,1.0,0.0,0.0,1.0,Taxi
32.800000000000004,0.01139235440924731,7.042540369792813,12.767784273171486,-0.5380985153980715,-0.08242445213687097,133.54378916295366,21.554487985303695,0.0,1.0,0.0,0.0,1.0,Taxi
32.9,0.18206411410286122,58.43923936258591,12.316171024188192,-0.6549296617808432,1.020589624351392,133.48670935205053,23.578503544650882,0.0,1.0,0.0,0.0,1.0,Taxi
33.0,0.15051356905755062,-10.271867043610385,11.868817990110227,-0.3993805064708581,-0.28065841158978394,133.84626285526588,21.666693513974902,0.0,1.0,0.0,0.0,1.0,Taxi
33.1,-0.03996698080880474,-52.65105767206526,11.990714421592422,-0.32171044832149054,0.5120578462690478,133.81232623645258,22.299063933079147,0.0,1.0,0.0,0.0,1.0,Taxi
33.2,-0.0811911742574652,-34.63516575241406,11.943427189123268,-0.7441812332398688,-0.056585353112528644,133.59260869397963,21.48173793261956,0.0,1.0,0.0,0.0,1.0,Taxi
33.300000000000004,-0.022662259704519783,19.62780467932224,12.13068475381431,-0.22079150571714534,-0.5069753265856826,133.70325636810412,21.415997635298165,0.0,1.0,0.0,0.0,1.0,Taxi
33.4,0.05817204258780633,29.157854772635975,12.522945075133675,-0.19367613337708445,-0.2770009962924148,133.66818266259224,22.940416036643988,0.0,1.0,0.0,0.0,1.0,Taxi
33.5,0.06459809960571454,-31.098502857546464,12.170550451401589,-0.08136701143505515,-0.17513809320804213,133.64572173107047,22.044849782895636,0.0,1.0,0.0,0.0,1.0,Taxi
33.6,-0.17815477399225227,-9.467513448801228,12.031362317832569,-1.1177614313163016,-0.9284596717596139,133.59713175117463,22.462444621572644,0.0,1.0,0.0,0.0,1.0,Taxi
33.7,0.01083447534380004,-8.135255853077117,11.8595261192156,-0.6265459508738762,0.1946876641062892,133.50696930441603,23.0457924888797,0.0,1.0,0.0,0.0,1.0,Taxi
33.800000000000004,0.023921820340328786,42.41908936515627,11.56515054073729,-0.2672541245746636,0.5358698956540248,133.56648673598824,21.222573732814347,0.0,1.0,0.0,0.0,1.0,Taxi
33.9,0.033940672833528925,-11.183931902437644,11.518780536473436,-0.1809045237492613,-0.05027769122973377,133.57039227190023,22.590019825469774,0.0,1.0,0.0,0.0,1.0,Taxi
34.0,-0.04508518416838832,-6.768448614990416,11.773386413198201,-0.28600063918754437,0.7291019185080344,133.62177524628964,22.205629203209508,0.0,1.0,0.0,0.0,1.0,Taxi
34.1,-0.009920422734623426,10.447265382695136,12.559694784218706,-0.6578880059738096,-0.2620920500671704,133.5880245167857,21.698256031082693,0.0,1.0,0.0,0.0,1.0,Taxi
34.2,0.08617699974700448,45.73841337307376,11.940019908741883,-0.6249768121777781,-0.26905983600469363,133.47703812843133,22.252744891350943,0.0,1.0,0.0,0.0,1.0,Taxi
34.300000000000004,0.18360688269698036,31.1538027890326,11.737912695305475,-0.5147920614379291,-0.2375865500199726,133.74556962533165,21.69139237125083,0.0,1.0,0.0,0.0,1.0,Taxi
34.4,0.14584859121053945,10.924552559045127,12.919905873413692,-0.5505862449374331,-0.28603184344542376,133.52795778483653,22.119439659250872,0.0,1.0,0.0,0.0,1.0,Taxi
34.5,0.14079976254222998,-27.31891266890591,12.101753275034232,-0.5718364813363133,0.25200544253960283,133.75852749187987,22.344605836328977,0.0,1.0,0.0,0.0,1.0,Taxi
34.6,0.04701231935245069,-45.9730533260319,11.839611628638396,-0.2943092294441634,-0.5893536924457046,133.80806695108424,21.761910934097866,0.0,1.0,0.0,0.0,1.0,Taxi
34.7,-0.08401667541962021,-24.224808773369944,11.995421263404191,-0.42875266848991056,0.3685798784449743,133.71611682190434,22.28491464103215,0.0,1.0,0.0,0.0,1.0,Taxi
34.800000000000004,0.019675718675380077,3.355336765772685,12.746838313835159,-0.5495291714397996,-0.47057838770446603,133.86152903513653,21.76376601383408,0.0,1.0,0.0,0.0,1.0,Taxi
34.9,0.06378900318131397,45.90553036964378,11.853813719139364,-0.8315107645720314,0.026319465110163327,133.67326365254598,21.8639071357943,0.0,1.0,0.0,0.0,1.0,Taxi
