time_s,altitude_ft,vertical_speed_fpm,ias_kt,pitch_deg,roll_deg,heading_deg,throttle_pct,afterburner_on,gear_down,flaps_deg,speedbrake_pct,weight_on_wheels,label
0.0,-0.11399066821136526,34.109243128031295,11.33799477443781,0.8439672326164287,-0.21959817325998313,307.6409327625456,15.577330699162694,0.0,1.0,0.0,0.0,1.0,Taxi
0.1,-0.0002931911179276053,31.837724621773646,11.088511593402156,0.9964971147894508,0.03581010459011813,307.5483677598753,15.43986281993856,0.0,1.0,0.0,0.0,1.0,Taxi
0.2,0.04519795489750299,16.247506240315257,11.258847882175434,0.3776059736914129,0.33443789125752016,307.56889568258066,14.593767342782725,0.0,1.0,0.0,0.0,1.0,Taxi
0.30000000000000004,-0.03275313700978896,6.955075102693425,11.508140631418541,0.7348831108170477,-0.29791201421614866,307.753005872102,15.805695899502537,0.0,1.0,0.0,0.0,1.0,Taxi
0.4,0.03448218439553952,-35.1795122968576,12.181338223761715,0.8384720452821874,0.3235158845106512,307.52413761226285,14.073068375766889,0.0,1.0,0.0,0.0,1.0,Taxi
0.5,-0.13069960658678503,6.902913392276891,11.22762976408158,1.0307017225853,0.7640865941167693,307.5416399285946,13.927936095170553,0.0,1.0,0.0,0.0,1.0,Taxi
0.6000000000000001,0.0017614299515955102,24.480501044361617,11.167922268761014,0.8969831938680938,0.26162671516540575,307.5350302347915,15.130036277788525,0.0,1.0,0.0,0.0,1.0,Taxi
0.7000000000000001,0.1568846896173476,-5.092835957639788,11.808844699303606,0.6429369355665385,0.26130303105125635,307.55987233470705,13.992330592424198,0.0,1.0,0.0,0.0,1.0,Taxi
0.8,-0.156163786374984,-5.096537057381302,12.539130385680787,0.4787545547882317,-0.005016379469742081,307.43800227254076,16.51550097037093,0.0,1.0,0.0,0.0,1.0,Taxi
0.9,-0.023721255335311008,-3.8759828018993545,12.449119928653653,0.5167859435991826,-1.5036493239908448,307.6903835811545,14.931291595751553,0.0,1.0,0.0,0.0,1.0,Taxi
1.0,0.13750477560785085,27.960637741492615,12.320373294153537,0.4939008145892389,0.11167607262834033,307.51680868085907,15.232845216403105,0.0,1.0,0.0,0.0,1.0,Taxi
1.1,-0.01636059766752087,5.881989926499274,12.119666757610332,0.7162881126239646,-0.7547551706784387,307.4797288338989,15.245005795831919,0.0,1.0,0.0,0.0,1.0,Taxi
1.2000000000000002,0.0056886942971854084,26.09444624584346,11.643222024624212,0.8328697803381162,-0.24266835831352732,307.5838497261948,15.08919640585912,0.0,1.0,0.0,0.0,1.0,Taxi
1.3,0.2679770068370682,-3.1721612232687924,12.049833074568232,0.5586125882327446,-0.018512873250406178,307.5353636631555,15.221605111566841,0.0,1.0,0.0,0.0,1.0,Taxi
1.4000000000000001,-0.03222140378386477,-51.44469729622722,11.185701492642464,0.7251843559958719,0.6097427647300293,307.66167385382255,15.008164873850005,0.0,1.0,0.0,0.0,1.0,Taxi
1.5,-0.2515347921839506,-50.97017678261694,11.67042842269021,0.7178227767598435,-0.3757621495779979,307.6209374607936,15.03374549678594,0.0,1.0,0.0,0.0,1.0,Taxi
1.6,0.013126122923983597,73.20646924135302,11.422607889448415,0.5561775723187601,0.5220568016089621,307.64580641310124,14.341061458842463,0.0,1.0,0.0,0.0,1.0,Taxi
1.7000000000000002,0.3338109424229004,68.46240880395274,11.568580671567759,0.7600834780691885,-1.0093981781178143,307.5241091499022,14.661636448446318,0.0,1.0,0.0,0.0,1.0,Taxi
1.8,0.0907772518358132,1.1496698273817596,12.601340923315782,0.7896698033155727,0.18833058779016987,307.6919639565514,14.649070579515392,0.0,1.0,0.0,0.0,1.0,Taxi
1.9000000000000001,0.01887447206089243,-95.58665569169415,12.51039163288132,0.8890279195226268,0.17167329636418888,307.5719475206465,14.632527147372096,0.0,1.0,0.0,0.0,1.0,Taxi
2.0,-0.14412233603557034,5.752296843030393,11.5169037033896,0.5229202025952013,-0.3054949593248021,307.65706907177093,15.850441379544575,0.0,1.0,0.0,0.0,1.0,Taxi
2.1,0.11953873605096521,-44.74039260028153,10.98549048815142,0.6597479394178676,0.3307436118943819,307.61352345383636,15.742621279255765,0.0,1.0,0.0,0.0,1.0,Taxi
2.2,-0.2048274909405152,-13.646472124975169,13.181014239670663,0.7732488916265445,-0.14053633009512273,307.6922829743494,14.827252632819302,0.0,1.0,0.0,0.0,1.0,Taxi
2.3000000000000003,-0.21235469666044615,14.16455502777769,11.99365882926176,0.8710027863091928,0.7455341994761115,307.5744937011759,15.388781628721713,0.0,1.0,0.0,0.0,1.0,Taxi
2.4000000000000004,0.19036151118985364,63.70199820197576,11.657567048527792,0.776343233671926,0.2609978381693004,307.67109915101196,14.764903311823172,0.0,1.0,0.0,0.0,1.0,Taxi
2.5,0.1136825000693636,74.67463456050555,13.081675472970907,0.874307574034615,-0.4730597191921945,307.59974848763875,13.736782327335376,0.0,1.0,0.0,0.0,1.0,Taxi
2.6,0.1610184761420816,-2.3537528383283255,12.746652523896627,0.6953083468353858,-0.14212378803957357,307.5410063563222,15.58887588805525,0.0,1.0,0.0,0.0,1.0,Taxi
2.7,0.17859274699821207,-63.08882316207734,11.160929641471297,0.7828486665839157,0.47352756348333325,307.6125508976904,14.023974895054979,0.0,1.0,0.0,0.0,1.0,Taxi
2.8000000000000003,-0.20176161574102303,-44.64910094769249,12.197995921089278,1.0188588663071168,0.38773136217366533,307.7428372324264,15.388857821641201,0.0,1.0,0.0,0.0,1.0,Taxi
2.9000000000000004,-0.062227028596380775,-35.000611839515265,12.235924516841163,0.6898248599371672,-0.530219253995721,307.8039834647177,14.747944183654234,0.0,1.0,0.0,0.0,1.0,Taxi
3.0,0.0035896878006357945,58.56022188085088,12.661823546966854,0.8879808723405473,0.33924737622322465,307.5678875858862,14.95947174837905,0.0,1.0,0.0,0.0,1.0,Taxi
3.1,0.09103949366323141,9.60084662191656,13.208812154697913,0.32326034104088586,-0.5698291814144395,307.6351794297718,14.36731629520406,0.0,1.0,0.0,0.0,1.0,Taxi
3.2,-0.014222795486797953,7.644014821010967,11.461653697833132,0.4972560547041491,0.36072606553106107,307.5587678530228,14.968278740004264,0.0,1.0,0.0,0.0,1.0,Taxi
3.3000000000000003,0.04180976190569066,-14.574207547766223,11.128042631817038,0.5969950393077252,0.2947952022338278,307.652469811253,14.773557213786724,0.0,1.0,0.0,0.0,1.0,Taxi
3.4000000000000004,0.01816845592440034,-6.267543179065423,12.017229322273483,0.34828035110174616,-0.6075643008192865,307.7285010253886,15.419952155344989,0.0,1.0,0.0,0.0,1.0,Taxi
3.5,-0.04556051138212501,-23.53408364404535,11.724130323443102,0.9189717214720373,-0.05449968851309294,307.74592498545576,14.238201985516124,0.0,1.0,0.0,0.0,1.0,Taxi
3.6,-0.07586065631453603,5.23155464483347,12.466476111989813,1.0775716399452455,-0.9523463078918765,307.65018503978354,14.58447913140492,0.0,1.0,0.0,0.0,1.0,Taxi
3.7,0.044326229148567736,27.667156579509335,11.735527618973709,0.6384933244684454,-0.17246988028687535,307.6223863940264,14.693565128282328,0.0,1.0,0.0,0.0,1.0,Taxi
3.8000000000000003,0.0927752715154217,17.840792998452102,12.252820392002226,0.7224005930262255,0.7952023713245044,307.79478167909804,14.72290798332355,0.0,1.0,0.0,0.0,1.0,Taxi
3.9000000000000004,0.013343308677724526,-40.37169567526139,10.776415165114276,0.7914926344769941,-0.2671923510149095,307.6448628274045,14.76837703128078,0.0,1.0,0.0,0.0,1.0,Taxi
4.0,-0.15753224922773917,-46.648125285868254,11.197517448447597,1.0211179116031206,0.259369475277319,307.785977157612,14.437956605391188,0.0,1.0,0.0,0.0,1.0,Taxi
4.1000000000000005,-0.1404653549139195,20.023901723230058,12.39591742853004,0.8838539331339741,-0.545629288368515,307.426608705793,13.622681765143211,0.0,1.0,0.0,0.0,1.0,Taxi
4.2,0.11346281729387486,32.64693442268041,11.808195812798353,0.8465084163158769,-0.13120473431941138,307.5986901729634,15.21462718413385,0.0,1.0,0.0,0.0,1.0,Taxi
4.3,0.005702422885662889,43.5525429944124,11.773136597442234,0.5993001327010199,-0.703353153172306,307.60874821941843,14.277410500462086,0.0,1.0,0.0,0.0,1.0,Taxi
4.4,0.07729736005814253,-33.3045630819391,12.25365199766871,0.5150157905598797,0.16124917507637504,307.4919222940998,14.610199224495723,0.0,1.0,0.0,0.0,1.0,Taxi
4.5,-0.05305999811582061,-10.440649352824735,12.320861339232811,0.4350702710629591,-0.056904798727535295,307.61740150533774,15.564902692494718,0.0,1.0,0.0,0.0,1.0,Taxi
4.6000000000000005,-0.04650082387846073,-11.30588032885454,11.365029139726833,0.85807848469099,-0.749955619893127,307.5586186816639,14.168426124259694,0.0,1.0,0.0,0.0,1.0,Taxi
4.7,0.020767958413869882,-7.246314164051685,11.275294319853144,0.5815820203022568,-0.9072102471269449,307.550141990846,15.377604050129898,0.0,1.0,0.0,0.0,1.0,Taxi
4.800000000000001,-0.08929156893607897,39.32581621059745,12.080737556869986,0.9919085632896751,-0.6293689493454497,307.6842714757614,14.96982594297452,0.0,1.0,0.0,0.0,1.0,Taxi
4.9,0.15012825717452663,4.5977027615877715,12.393558619507756,0.8234003467053617,-0.09978937585265234,307.82438201603736,14.80669891352176,0.0,1.0,0.0,0.0,1.0,Taxi
5.0,0.04375647222180884,7.035231170846205,12.717371257902656,0.8142571759526669,0.08027807634712955,307.4478225130539,14.331146271347881,0.0,1.0,0.0,0.0,1.0,Taxi
5.1000000000000005,-0.054115413081847835,-8.98938468866839,12.049179043745722,0.5254946745293503,-0.35772215297046034,307.51991402298063,15.29304168208216,0.0,1.0,0.0,0.0,1.0,Taxi
5.2,0.10518133373118477,-7.96107274249368,12.529893412553305,0.9642808293393639,-0.05085078111353345,307.6621531364415,14.044488440926825,0.0,1.0,0.0,0.0,1.0,Taxi
5.300000000000001,0.003951108509340531,23.84869009876142,11.813811404575533,0.764411620874339,0.039997796530092805,307.6056939029868,14.65796820167372,0.0,1.0,0.0,0.0,1.0,Taxi
5.4,0.06512803741195934,-22.834318157155327,11.038016244623618,1.0536183111901631,0.16592221717664124,307.5986472623987,14.870721770984769,0.0,1.0,0.0,0.0,1.0,Taxi
5.5,-0.008990257054591748,26.776313153239148,12.052674982774324,0.8259839854836115,-0.008661811107359408,307.8521674847465,14.971374879288362,0.0,1.0,0.0,0.0,1.0,Taxi
5.6000000000000005,0.1378326742755364,-24.938887030475914,11.842645711103069,0.825274525512781,-0.5802093342385101,307.60485052800595,15.396261014667212,0.0,1.0,0.0,0.0,1.0,Taxi
5.7,-0.05956639774042012,-19.45406754995746,12.51550430197836,0.31472744943085595,0.5117226664125181,307.6682742037442,15.556643465577842,0.0,1.0,0.0,0.0,1.0,Taxi
5.800000000000001,-0.10626059480437895,-22.618491827025476,11.71458581532728,0.5520718300894432,0.8539691056256234,307.7960632228022,14.164089225887038,0.0,1.0,0.0,0.0,1.0,Taxi
5.9,0.024740215140409128,3.714065979556622,11.84271374309852,0.7242827459470182,0.09340949082660244,307.6217657640442,14.910718451632329,0.0,1.0,0.0,0.0,1.0,Taxi
6.0,-0.04099606784263693,42.9629203083904,12.11836817456435,0.4157398535629455,-0.08243614706957023,307.62813754382796,14.722338914326558,0.0,1.0,0.0,0.0,1.0,Taxi
6.1000000000000005,0.10855400673757316,-50.44489455294041,13.31123980697473,0.4819053452239709,-0.009909770304578219,307.50416339223375,14.747297026023128,0.0,1.0,0.0,0.0,1.0,Taxi
6.2,-0.22748425762429292,20.91077163269404,12.444076574703967,0.6282175525276467,0.5111373475095209,307.66904298535474,14.386821214299335,0.0,1.0,0.0,0.0,1.0,Taxi
6.300000000000001,0.0635577903208333,-4.530178922402123,12.091176122204576,0.6382040156585455,0.22705916618222866,307.58651360552085,15.687781623758376,0.0,1.0,0.0,0.0,1.0,Taxi
6.4,0.08590311212556255,60.937629568899645,12.74923570762328,0.8316129857055349,-0.6688403880266299,307.6043466292798,14.556929931433702,0.0,1.0,0.0,0.0,1.0,Taxi
6.5,0.07720389022020535,4.585155351462692,12.238121465620168,0.6878899065260203,0.24575600777749043,307.6609321956206,14.405000346013855,0.0,1.0,0.0,0.0,1.0,Taxi
6.6000000000000005,0.0864835670781468,32.76890063019027,12.735495651415812,0.6203910139111642,0.4026079413525306,307.5991929143206,14.180146406072476,0.0,1.0,0.0,0.0,1.0,Taxi
6.7,0.2497476152765139,-10.680353447929184,12.058756454141523,0.8547511954725797,0.08442445902768794,307.63243072987643,14.756530301494886,0.0,1.0,0.0,0.0,1.0,Taxi
6.800000000000001,0.023802122980559476,-29.28539330524144,11.711583981390516,0.6931345275035611,-0.1907387429269326,307.60732009497883,13.57052578426861,0.0,1.0,0.0,0.0,1.0,Taxi
6.9,-0.05994339944806035,-36.85468594862416,11.575049014965478,0.6280749042030545,0.4572415612451252,307.6666590016516,14.781363016190372,0.0,1.0,0.0,0.0,1.0,Taxi
7.0,0.06547418553339315,-11.440968273797077,10.76523648679261,0.9543422925003413,-1.4743545871642338,307.74053849260576,14.590123686238456,0.0,1.0,0.0,0.0,1.0,Taxi
7.1000000000000005,-0.03340271838842591,-3.924954066178296,11.787938922306314,0.3460942850573123,-0.24830747136935352,307.6436094180067,15.410328157480494,0.0,1.0,0.0,0.0,1.0,Taxi
7.2,-0.07956816977895181,-6.881003228622973,12.788355778169326,0.8118651896547084,0.48624657201930094,307.5812486222246,13.712574092883628,0.0,1.0,0.0,0.0,1.0,Taxi
7.300000000000001,0.031069169390278317,28.974874142644552,12.009462054383617,0.9935366539582591,-0.6273181336492732,307.80373691050943,14.991970419938777,0.0,1.0,0.0,0.0,1.0,Taxi
7.4,0.1114716523247969,12.755160412040913,11.224124419004477,0.46977788073993837,0.18022847375846357,307.5515751066255,14.98685491093135,0.0,1.0,0.0,0.0,1.0,Taxi
7.5,-0.015792367718747202,-10.005698142804482,11.951327111461824,0.9668127815177165,0.4567639830819137,307.7270140546526,15.598122887447072,0.0,1.0,0.0,0.0,1.0,Taxi
7.6000000000000005,-0.018959321323744047,20.792346550171217,12.368982402006793,0.7153864815361962,0.3995503648403777,307.73371881698574,15.454843516212577,0.0,1.0,0.0,0.0,1.0,Taxi
7.7,0.21543338507565302,-15.539175868805879,12.241299781603217,0.9161489368918159,-0.6667767707633253,307.75901683682423,14.988056928944877,0.0,1.0,0.0,0.0,1.0,Taxi
7.800000000000001,-0.09348824706277657,-7.791733843829046,12.159564920028737,1.0313485039968777,0.0908078341775611,307.5311657198239,14.630179145946494,0.0,1.0,0.0,0.0,1.0,Taxi
7.9,-0.05791799054288924,-21.810986804892114,11.511839688345455,0.5673388016026226,0.08314555196921022,307.84675748033396,15.31984530021528,0.0,1.0,0.0,0.0,1.0,Taxi
8.0,0.10637845105119247,17.61782373872917,11.974504221995915,0.24745684417597102,0.3097187324539983,307.59991838370183,16.35895717863779,0.0,1.0,0.0,0.0,1.0,Taxi
8.1,-0.005399128369130702,14.962829080441097,11.754835380494766,0.7111610833641837,0.07534111092701361,307.67475582754673,15.135312199475827,0.0,1.0,0.0,0.0,1.0,Taxi
8.200000000000001,0.016896154859316254,-17.987912406153374,12.088243650459944,0.9916703869301794,-0.32354140037467655,307.72766835392235,14.105147404389035,0.0,1.0,0.0,0.0,1.0,Taxi
8.3,0.016438889020425625,7.449649198671466,11.24014046396413,0.683637456397352,0.25275152031810194,307.5679301211595,14.71228188549013,0.0,1.0,0.0,0.0,1.0,Taxi
8.4,0.031849117624226674,5.528908255004865,11.312448406039042,0.8783946804123284,-0.37621505454598375,307.46850060730014,14.763081114937544,0.0,1.0,0.0,0.0,1.0,Taxi
8.5,0.04454069613434062,20.865240664860632,12.268116166676588,0.7276437298221248,0.12501961260304756,307.64803510195634,15.11454855785928,0.0,1.0,0.0,0.0,1.0,Taxi
8.6,0.12076509234472882,7.021323038589593,11.82537590998824,0.8008279926058102,0.42025203334030775,307.62493731975223,14.27654987100834,0.0,1.0,0.0,0.0,1.0,Taxi
8.700000000000001,0.06695573281717468,-30.442730271758634,11.515057147292508,0.6026913042816827,0.26625689846526857,307.8387563605895,14.48598101376486,0.0,1.0,0.0,0.0,1.0,Taxi
8.8,-0.10767295522445251,-41.04746038151074,12.522112458032304,0.8016863498309226,0.17386899500020092,307.52720670285703,15.429720810308508,0.0,1.0,0.0,0.0,1.0,Taxi
8.9,-0.08447220956282483,10.062575679327372,12.041418558239156,0.9376253640075148,-0.1413298733332963,307.7216002473755,14.608557866611138,0.0,1.0,0.0,0.0,1.0,Taxi
9.0,0.1172686112138116,8.651501589263162,10.707011105160788,0.6711852324477325,0.23987954412277257,307.4914077588835,15.182324921687309,0.0,1.0,0.0,0.0,1.0,Taxi
9.1,-0.06441544727813665,28.838670518415487,11.511365904289319,0.7978872799492306,-0.7420685556899025,307.634752248861,14.235137117587632,0.0,1.0,0.0,0.0,1.0,Taxi
9.200000000000001,0.059721143029252646,-42.58254314629454,12.338143201567952,0.6383653010049005,-0.7308969069480171,307.60859999844183,14.850380574333686,0.0,1.0,0.0,0.0,1.0,Taxi
9.3,-0.09564410451766106,-3.269307711472127,11.534110850917706,0.6556029635950558,-0.6198111924964322,307.62725969982307,14.673209580547207,0.0,1.0,0.0,0.0,1.0,Taxi
9.4,-0.08076198583549724,-19.849910288338595,11.30424125792932,0.5350768675266293,1.154003197477497,307.5377409274213,15.024105963393339,0.0,1.0,0.0,0.0,1.0,Taxi
9.5,-0.03952840841244025,28.1099514273227,12.779397146931117,0.8779605427270979,-0.562341558777235,307.68327171070564,15.97168458718571,0.0,1.0,0.0,0.0,1.0,Taxi
9.600000000000001,0.044905652618952505,20.903191384607485,12.456509037253168,0.7494511822615525,0.44732759553921003,307.4722722247011,15.243656973493344,0.0,1.0,0.0,0.0,1.0,Taxi
9.700000000000001,0.02375397108754025,-1.567146779810848,11.603132796818333,0.972266088676464,-0.9623795246192162,307.6579553344686,14.763614666208646,0.0,1.0,0.0,0.0,1.0,Taxi
9.8,-0.047364142311494425,-16.055363178690182,11.6957324419209,0.708991550125843,-0.5024378147418744,307.5918099693291,14.886021204312405,0.0,1.0,0.0,0.0,1.0,Taxi
9.9,-0.03537116327449835,26.270169596613044,12.094756332478243,0.6862127669437945,0.18108629617547733,307.7355461513605,14.058101171073654,0.0,1.0,0.0,0.0,1.0,Taxi
10.0,0.15510481907060553,43.743074439638036,11.891269620509409,0.38226621001734135,0.06213527414428512,307.4881245644224,15.727713080610254,0.0,1.0,0.0,0.0,1.0,Taxi
10.100000000000001,0.1713512298866958,14.984605930175286,11.431625170378412,0.7521527038006312,0.39300388767038025,307.6786329861766,15.027165648347454,0.0,1.0,0.0,0.0,1.0,Taxi
10.200000000000001,0.039551866376378114,-52.24148293720592,10.993152540866001,0.6049639937082791,0.25230310994149,307.5715393272244,15.023277099514408,0.0,1.0,0.0,0.0,1.0,Taxi
10.3,-0.10610259561542408,-51.199334972220605,12.38528326435633,0.8976968377752645,-0.7067202055626303,307.3831131951971,15.415470946514322,0.0,1.0,0.0,0.0,1.0,Taxi
10.4,-0.08464544497440718,7.484518962963293,11.395487307403693,0.9044258861433075,-0.9101241947366576,307.46246055465053,14.39094706690349,0.0,1.0,0.0,0.0,1.0,Taxi
10.5,0.07697446119119468,8.072707730554106,11.900320443316074,0.8050969652960506,0.5892702039511676,307.603317955243,15.372070921810497,0.0,1.0,0.0,0.0,1.0,Taxi
10.600000000000001,-0.06573905696265347,1.975614164479709,11.606278194751619,0.8305015227907219,-0.8527566435816215,307.5771812346143,15.223791952141239,0.0,1.0,0.0,0.0,1.0,Taxi
10.700000000000001,-0.07476737415200856,-32.15649547149241,12.42291674131285,0.8273608781459602,0.2664620660443226,307.43648566499303,14.475840157099574,0.0,1.0,0.0,0.0,1.0,Taxi
10.8,-0.08380801616626732,8.699532313264731,12.266779214225597,0.5287142877871925,0.3007675493118236,307.5756240678444,15.222161944398131,0.0,1.0,0.0,0.0,1.0,Taxi
10.9,-0.022241395396329744,37.68566628674292,12.4808975535954,0.747177609267519,-0.03219135377392102,307.5442752982301,13.861757008271503,0.0,1.0,0.0,0.0,1.0,Taxi
11.0,0.11366095728170614,-12.1686416265752,10.958188276716925,0.6296304104509991,-0.29222903445559856,307.38481709141877,14.289773467486283,0.0,1.0,0.0,0.0,1.0,Taxi
11.100000000000001,-0.14465122429914326,2.3782127290067288,11.510914677818956,0.8929274754616167,0.19482027667569518,307.64519273145675,14.990878771509621,0.0,1.0,0.0,0.0,1.0,Taxi
11.200000000000001,-0.010350331751296035,-29.241327346803725,11.34336807114856,0.4966979863244324,-0.24901899450220263,307.53840749051017,15.307457594600168,0.0,1.0,0.0,0.0,1.0,Taxi
11.3,-0.032545679452312425,35.08132724095687,11.462987155415323,0.9758110109769071,-0.01076556135558442,307.4248272459163,15.485622374401228,0.0,1.0,0.0,0.0,1.0,Taxi
11.4,0.03075541190564117,-18.39867235413791,11.623067852008552,0.6610151714857853,0.393004008348479,307.58898904547846,14.034308965965318,0.0,1.0,0.0,0.0,1.0,Taxi
11.5,-0.10234369352198547,20.959305536414437,11.942474514677098,0.7822359767069086,0.41007435008486437,307.62936916939884,15.897312672723023,0.0,1.0,0.0,0.0,1.0,Taxi
11.600000000000001,0.07225084822975988,26.64517833839162,12.193210070859266,0.5031107502708593,-0.3086899580727881,307.68480341306383,15.115489877509107,0.0,1.0,0.0,0.0,1.0,Taxi
11.700000000000001,0.16398130359759938,13.77655028690564,12.97359885185503,0.7570075152157881,0.6305205244172153,307.5622307296112,14.98781911374219,0.0,1.0,0.0,0.0,1.0,Taxi
11.8,-0.03346094208745714,-12.336880832960341,11.480576734637747,0.8312650841576408,-0.02549742099269463,307.60799611403525,14.550900691747955,0.0,1.0,0.0,0.0,1.0,Taxi
11.9,0.010566444064958285,-46.59202914306142,12.092152591236978,0.7677141335926536,0.5021764876096085,307.6482036399233,15.600043365835708,0.0,1.0,0.0,0.0,1.0,Taxi
12.0,-0.06897884211770762,-9.050745496798775,13.029329085891412,0.8839967381156754,-0.6311788683780104,307.53014512694256,14.710826167918448,0.0,1.0,0.0,0.0,1.0,Taxi
12.100000000000001,-0.07871466957145093,-17.092858376358894,11.07278969028117,0.45540545082485,1.169466609344377,307.6233671553457,14.533398839640062,0.0,1.0,0.0,0.0,1.0,Taxi
12.200000000000001,-0.0748978478168361,22.733340091486664,11.276519775090188,1.0122278922642134,0.5328961801748646,307.563957081779,14.602998575578646,0.0,1.0,0.0,0.0,1.0,Taxi
12.3,0.04468785833972577,14.528514337667838,12.054011726731794,0.8808918451057146,-0.08497304662536423,307.63988453885804,15.402915913069943,0.0,1.0,0.0,0.0,1.0,Taxi
12.4,-0.006072097883111666,-23.985371459125748,11.786448933335729,0.8538686693042091,-0.574451367204475,307.68908570111466,15.181383125652799,0.0,1.0,0.0,0.0,1.0,Taxi
12.5,-0.19482470511246477,-16.00058725570347,10.796562304083738,0.5094548002658775,0.18428546206697263,307.60710767669116,14.100179420343402,0.0,1.0,0.0,0.0,1.0,Taxi
12.600000000000001,-0.03531507793879148,30.336511109653454,11.807768988445856,0.7766647786989188,1.1462788340785635,307.6536314905843,13.897130377595284,0.0,1.0,0.0,0.0,1.0,Taxi
12.700000000000001,0.14561045766515565,36.07263486555125,11.965580610653973,0.2896659559975736,0.23267364292697146,307.52937114540555,14.63040893949996,0.0,1.0,0.0,0.0,1.0,Taxi
12.8,-0.014461530784708437,21.71444146303399,12.935607919821251,0.7233247737326661,-0.15923368379845948,307.8059316251166,14.908173412246956,0.0,1.0,0.0,0.0,1.0,Taxi
12.9,0.07325712937637852,-2.8216217065414235,11.282057472672905,0.8886259990338936,0.18959375472611695,307.7509667715872,15.509811610509502,0.0,1.0,0.0,0.0,1.0,Taxi
13.0,0.1315023491324486,22.05454782596004,12.283292245650378,0.6555532728172249,-0.04930784564638119,307.5485358970045,15.562120510371132,0.0,1.0,0.0,0.0,1.0,Taxi
13.100000000000001,0.09581120834509183,19.437540499980926,11.142643302375145,0.9966060296864785,-0.5001854659277494,307.6103620633701,14.125810116296137,0.0,1.0,0.0,0.0,1.0,Taxi
13.200000000000001,0.17044483187628326,-35.107131160283494,11.837977771363018,0.7518756333801068,0.06191908333059716,307.5654845049619,14.888332179748883,0.0,1.0,0.0,0.0,1.0,Taxi
13.3,-0.04403330666896874,-34.808939434170284,12.509449890355688,0.8523024753258858,-0.6038216544710865,307.7065781977967,14.997993038928223,0.0,1.0,0.0,0.0,1.0,Taxi
13.4,-0.07823348882575948,-70.60296917898005,13.240050063504643,0.6130589400115506,0.341646875630939,307.48482840489953,15.359238465206493,0.0,1.0,0.0,0.0,1.0,Taxi
13.5,-0.18257001401861683,-10.360070969406044,11.489258818080895,0.11250571502271778,0.7154745431023194,307.53340746952824,14.404096724901729,0.0,1.0,0.0,0.0,1.0,Taxi
13.600000000000001,-0.0958336615159988,21.54668251649895,12.109576722798634,0.7381447840983529,-0.45316033526718064,307.5116767228824,14.116283352348422,0.0,1.0,0.0,0.0,1.0,Taxi
13.700000000000001,0.029499923756735442,12.93039436376371,11.762495879711043,1.1287546832515882,0.3541556965144534,307.70912706060585,15.050310350129967,0.0,1.0,0.0,0.0,1.0,Taxi
13.8,-0.11791804219979814,5.765786306054284,12.372504534689666,0.8695634690520954,-0.39933457437464553,307.658956098129,15.943781942991315,0.0,1.0,0.0,0.0,1.0,Taxi
13.9,-0.06700472998572723,-10.687725778264765,12.75865336191301,0.6457747014156925,0.013420902409192349,307.624373542478,14.73406962331474,0.0,1.0,0.0,0.0,1.0,Taxi
14.0,-0.023938705134588255,13.413749842088508,13.031127926966965,0.6215896111966316,-1.1831160851657472,307.6272089828153,14.645805805926946,0.0,1.0,0.0,0.0,1.0,Taxi
14.100000000000001,-0.050849292989355456,27.776206797371984,13.35833508360842,0.7083666494554266,-0.4561320362402859,307.4219089399754,15.258765911894947,0.0,1.0,0.0,0.0,1.0,Taxi
14.200000000000001,0.0718763040011328,-8.96057019916657,12.246704293083242,0.6192735940740856,0.14281012908585214,307.63150528426036,14.237414861031983,0.0,1.0,0.0,0.0,1.0,Taxi
14.3,-0.06874155613042102,22.331585080860112,12.798760378127183,0.7020418303245914,-0.5134901143922607,307.8364386412569,14.728433847440735,0.0,1.0,0.0,0.0,1.0,Taxi
14.4,0.06080863241494521,-23.581187541650475,11.96623867755408,0.46343253632683373,0.36168944728827873,307.5427795442796,14.105605596067813,0.0,1.0,0.0,0.0,1.0,Taxi
14.5,-0.046029633707119454,19.356857599007178,12.508398223739789,0.44085190277692543,-0.37046703585210566,307.4965696379861,15.06363006362653,0.0,1.0,0.0,0.0,1.0,Taxi
14.600000000000001,0.028042731864615006,11.206233519436102,12.413353807170731,0.46502329564769657,0.46141364681474173,307.78630774713804,14.174929607297406,0.0,1.0,0.0,0.0,1.0,Taxi
14.700000000000001,0.11683980001212585,-3.4628937304932967,13.057685091842554,0.29152545054103907,-0.5087000177699724,307.668638427234,13.856731345847125,0.0,1.0,0.0,0.0,1.0,Taxi
14.8,-0.06334410235958582,-21.405262910826902,12.067135500075658,1.0988125934647721,0.2921278184739206,307.55859628270764,15.103256674673517,0.0,1.0,0.0,0.0,1.0,Taxi
14.9,-0.07898358268951938,-13.475750020134038,11.544056951901075,0.7531068607830058,-1.001200430272943,307.7657125606107,14.475695904006873,0.0,1.0,0.0,0.0,1.0,Taxi
15.0,0.04946104991145579,-15.010899238661741,12.99775427750544,0.9783842010790975,0.30664212382846506,307.5540448422123,15.25123653303936,0.0,1.0,0.0,0.0,1.0,Taxi
15.100000000000001,-0.13839859855289435,8.015155383776317,11.944875800485637,0.7210495099700616,0.17747632215128004,307.60200199006124,15.151590621259558,0.0,1.0,0.0,0.0,1.0,Taxi
15.200000000000001,-0.03890780577063763,-3.1571649115999896,12.18488036905159,0.7822128612271785,0.00558365915679864,307.6305935746707,14.439760856935093,0.0,1.0,0.0,0.0,1.0,Taxi
15.3,0.03367522535345602,22.39649364180144,11.99098685883666,1.0189247940781616,1.2604643294568771,307.5450279310039,13.94443695611305,0.0,1.0,0.0,0.0,1.0,Taxi
15.4,-0.026416130343886984,15.258965336174642,12.33158317221535,0.9470089536074608,0.0958067385243851,307.4854534048586,14.685963036837997,0.0,1.0,0.0,0.0,1.0,Taxi
15.5,0.03738702091023573,14.698703157061715,11.750952657075143,0.7621347363924668,-0.17483181759349273,307.59009015386437,14.673343973347054,0.0,1.0,0.0,0.0,1.0,Taxi
15.600000000000001,0.10716874113876472,-30.103543876020552,11.336668324335072,0.4494275531133592,0.16638910014480437,307.473177245977,14.59872461308067,0.0,1.0,0.0,0.0,1.0,Taxi
15.700000000000001,-0.17693384972398965,-0.8203020791654533,12.363029579149934,0.9361375096261848,-0.009233768702478858,307.7335787177278,15.376895034848514,0.0,1.0,0.0,0.0,1.0,Taxi
15.8,0.03328551051440853,0.5748566119606006,11.832298618473207,0.532706439991736,-0.4463382333336889,307.62300103866596,14.60151838001961,0.0,1.0,0.0,0.0,1.0,Taxi
15.9,0.1100430241985678,53.940689937695076,12.173267390597218,0.5740856657729992,-0.2263414830736778,307.5922878883475,15.992002340437745,0.0,1.0,0.0,0.0,1.0,Taxi
16.0,0.09276959996448583,12.136774699026795,12.954079172464683,0.8968359437734159,0.7497197904236039,307.62455040894554,14.277506790893584,0.0,1.0,0.0,0.0,1.0,Taxi
16.1,0.09396938400954263,-4.534278165941733,12.198162427976575,0.9739027323488539,-0.6023874750837833,307.58342860236337,15.299058536296796,0.0,1.0,0.0,0.0,1.0,Taxi
16.2,0.08737163336885928,-2.573106325916192,11.359865213361342,0.902669883724969,-0.2697828245171674,307.473269547721,14.731498492647574,0.0,1.0,0.0,0.0,1.0,Taxi
16.3,0.07990406833490502,-22.340160360852355,12.481324832960459,0.686342448020538,0.009893375465846907,307.59211750719396,15.080043307678975,0.0,1.0,0.0,0.0,1.0,Taxi
16.400000000000002,-0.017731417794719005,-40.710956664276246,12.150214149365235,0.8779478121905635,-0.07481093808128465,307.75379664289096,14.64846199440275,0.0,1.0,0.0,0.0,1.0,Taxi
16.5,-0.11618314995252182,-35.23432828817273,11.998412732654366,0.8050274213867219,-0.1561614211658809,307.8166794871422,15.712581302893527,0.0,1.0,0.0,0.0,1.0,Taxi
16.6,-0.09626757310595853,6.510210016365188,11.340476523700305,0.8054392332020317,0.2760450884327749,307.6835513088158,14.81427611216762,0.0,1.0,0.0,0.0,1.0,Taxi
16.7,0.014819632287107053,49.54431503298133,12.594763587468897,1.0922609369235472,-0.29388151118429706,307.6327946169804,15.359091209320122,0.0,1.0,0.0,0.0,1.0,Taxi
16.8,0.13153842521238496,31.744786131168766,10.592855312131531,0.6213608314371004,-0.23147807397773384,307.6694874804108,14.810620379230615,0.0,1.0,0.0,0.0,1.0,Taxi
16.900000000000002,0.06245635754988545,-27.71046009488207,12.563254286519989,0.7655815639902049,0.2351717242593579,307.56454669890843,14.093793628359528,0.0,1.0,0.0,0.0,1.0,Taxi
17.0,-0.12373266818730314,-40.653464185142354,12.113277471247573,1.008022517342958,0.10973263400427676,307.5431482117376,14.9073806144104,0.0,1.0,0.0,0.0,1.0,Taxi
17.1,-0.07172889571332669,-7.339316931767821,11.576498937196058,0.6330848759632098,-0.7212326676993022,307.60196948000953,14.841252930880469,0.0,1.0,0.0,0.0,1.0,Taxi
17.2,0.025759772891046487,40.89986353307311,11.565279014179893,1.0331752606744162,0.08083719628689079,307.6032192833409,15.37178945580727,0.0,1.0,0.0,0.0,1.0,Taxi
17.3,0.08076664947806256,19.12846352266511,12.551335549126119,0.5106443037176422,-0.654551947594598,307.62127823250125,15.529730517313515,0.0,1.0,0.0,0.0,1.0,Taxi
17.400000000000002,0.023913421899999007,-21.83299467592857,12.148608987704087,0.7074253639156051,0.5475321924236014,307.8574759390324,14.076000624905058,0.0,1.0,0.0,0.0,1.0,Taxi
17.5,-0.08340520048859622,-35.595002652873966,12.292162437897087,0.6095393845492514,-0.26078101668806697,307.59769858136633,14.224719800523829,0.0,1.0,0.0,0.0,1.0,Taxi
17.6,-0.09720836378630715,1.8040481323570294,12.246719455371554,0.7748893089679603,-0.7469052667471205,307.8737361529388,14.91616072300302,0.0,1.0,0.0,0.0,1.0,Taxi
17.7,0.03293366256178428,39.17600149299262,10.29614676599832,0.7035263950882299,1.0836767316097773,307.8119229049049,14.33050018023663,0.0,1.0,0.0,0.0,1.0,Taxi
17.8,0.11247480697636698,28.392605104099037,12.963189799028637,0.7047297527706756,0.5797358438259713,307.4664591707045,14.077120503633047,0.0,1.0,0.0,0.0,1.0,Taxi
17.900000000000002,0.04475466173418817,17.410696449747586,11.714367084061418,0.8704477439377474,-0.23875683121054203,307.6697990364594,14.257578639337314,0.0,1.0,0.0,0.0,1.0,Taxi
18.0,0.11998714481052236,1.145594927000175,11.680292001034925,0.9624024579327536,0.15755291933485271,307.69493554538144,13.80198315342808,0.0,1.0,0.0,0.0,1.0,Taxi
18.1,0.11820278161136802,-21.442089885743524,11.583183326020844,0.5209394700251092,0.32155913989230134,307.63642222138253,15.340938936332847,0.0,1.0,0.0,0.0,1.0,Taxi
18.2,-0.06245578769452931,-69.64068820788987,11.449065995917486,1.0941300300757146,0.7482791044459394,307.74977281584233,14.637884286450985,0.0,1.0,0.0,0.0,1.0,Taxi
18.3,-0.2282162962289268,-10.834936039384871,11.605992433895102,0.5755901570273173,-0.6795187579943872,307.606435402188,14.57734012666165,0.0,1.0,0.0,0.0,1.0,Taxi
18.400000000000002,0.06402810141444375,8.391912643573553,12.09535178065102,0.44425470931661876,0.5047374924993874,307.44811547443396,14.58799414039196,0.0,1.0,0.0,0.0,1.0,Taxi
18.5,-0.020496224476661457,19.346199813365686,11.189504459191067,0.9256642951685066,-0.15081599125366274,307.31156430638885,14.607761440268,0.0,1.0,0.0,0.0,1.0,Taxi
18.6,-0.13148529716209828,-18.765871708045484,11.94951210912366,0.8536519588959298,-0.35298490143545497,307.4767093799702,14.10524658649701,0.0,1.0,0.0,0.0,1.0,Taxi
18.7,-0.029801257125783548,0.5438322528956837,12.467136745772253,0.7522950648952245,-0.6410499484533724,307.6853500804442,14.849846508699137,0.0,1.0,0.0,0.0,1.0,Taxi
18.8,-0.0177770632121829,29.41911035544527,12.133270543470097,0.34098991367894466,-0.05739472109347967,307.5155655656433,14.661611722189615,0.0,1.0,0.0,0.0,1.0,Taxi
18.900000000000002,0.015610254615128197,37.575142362014155,12.125999340908857,0.5278510793861547,-0.17087622428617075,307.3871568919485,14.763766180842776,0.0,1.0,0.0,0.0,1.0,Taxi
19.0,0.15807445468428735,-20.808714171345446,11.746006262312193,1.2184684772842638,0.1371390162591012,307.49233685632817,15.302315225757882,0.0,1.0,0.0,0.0,1.0,Taxi
19.1,-0.12182063406890997,-29.103280962386748,12.132978824171262,0.5597678559669991,0.3356201732162447,307.60865262613663,14.808866040874701,0.0,1.0,0.0,0.0,1.0,Taxi
19.200000000000003,-0.12990615019680538,-48.914374436116,13.206809921718579,0.8206484803050113,-0.5366955183662944,307.6162255874433,14.280265014639943,0.0,1.0,0.0,0.0,1.0,Taxi
19.3,-0.08649741749629249,25.092489845893155,12.828490485869484,0.9522068631734865,-0.3339682149322654,307.5053159086657,15.278457919097814,0.0,1.0,0.0,0.0,1.0,Taxi
19.400000000000002,0.003641815160555921,24.653507225077266,12.144095932049325,0.8680357064839573,0.15410382687211616,307.6734049097204,14.510591798590761,0.0,1.0,0.0,0.0,1.0,Taxi
19.5,-0.006638614071418918,13.071584899754063,11.723432769399045,0.6323553293516271,0.2063904648176569,307.6348486151511,14.660469770595876,0.0,1.0,0.0,0.0,1.0,Taxi
19.6,-0.021139492997522057,-0.6997991619198061,12.529530739768312,0.9005804081386234,0.5745360638423505,307.60509309002634,14.529026944232319,0.0,1.0,0.0,0.0,1.0,Taxi
19.700000000000003,0.0001428193509570084,-5.189013919518483,12.000458162587025,0.6441277531093675,0.9463113891334923,307.5104329847147,15.628738437191988,0.0,1.0,0.0,0.0,1.0,Taxi
19.8,-0.03258368366901122,59.17441610048661,12.467448684936556,1.0311478454265628,-0.1136612096129516,307.5954661062908,14.318536235188706,0.0,1.0,0.0,0.0,1.0,Taxi
19.900000000000002,0.2747325875049111,22.187658576049262,12.101756358556115,0.7895607450587462,-0.6710971370565953,307.5360528566208,14.948782593793066,0.0,1.0,0.0,0.0,1.0,Taxi
20.0,0.11108111223120341,44.03261965195903,12.7620514888755,0.889176679595989,0.9094081717143806,307.66543100301783,14.91684172058589,0.0,1.0,0.0,0.0,1.0,Taxi
20.1,0.187579414590784,-77.3984609938857,11.983308004640861,0.5092712306247976,0.6080992030084169,307.35962367942034,15.09928575832962,0.0,1.0,0.0,0.0,1.0,Taxi
20.200000000000003,-0.11225971746451734,-12.811601421784653,11.861368520266925,1.2360967151420712,0.35265284143723014,307.7226186446609,14.664128015911377,0.0,1.0,0.0,0.0,1.0,Taxi
20.3,0.04702310512228023,-10.874299952344167,11.686065937726056,0.7137151425731308,0.25680904320139436,307.4893998905402,14.75246673005383,0.0,1.0,0.0,0.0,1.0,Taxi
20.400000000000002,0.13320791482906325,47.6326136816692,12.466304928655706,0.6480355965058839,-0.5085641178559271,307.63285423334537,14.54007973029271,0.0,1.0,0.0,0.0,1.0,Taxi
20.5,0.12590335094382873,8.867086474572536,12.888214065389768,1.1366800789988978,-0.04165459469118241,307.55768966657774,13.586441180240367,0.0,1.0,0.0,0.0,1.0,Taxi
20.6,0.09135853749514301,-71.91512986264947,12.448796011391895,0.8724547642175319,-0.4799430582824563,307.7865500727578,15.25461557963399,0.0,1.0,0.0,0.0,1.0,Taxi
20.700000000000003,-0.22636773448418396,-31.60946326356698,11.963613456208462,0.45263744174603704,0.9898934926584957,307.768153462933,14.751713902057919,0.0,1.0,0.0,0.0,1.0,Taxi
20.8,-0.03214396537400603,-19.583568886245647,11.719173002266707,0.7819629801839217,-0.2030029815865238,307.5016119561726,14.481648627813547,0.0,1.0,0.0,0.0,1.0,Taxi
20.900000000000002,-0.006559306936085105,42.785345537940536,12.084554520372743,0.6443115337562184,0.09575048625179937,307.6007517223147,14.55535444909338,0.0,1.0,0.0,0.0,1.0,Taxi
21.0,-0.012441006794481192,7.779597161333249,13.137721626601158,0.5337721454618938,0.032741771680746025,307.6655318580206,15.218932674639987,0.0,1.0,0.0,0.0,1.0,Taxi
21.1,0.0067540204326602795,16.0215542351149,12.007384665484958,0.8313730411235164,-0.9467453538434922,307.69211891429586,14.785059598808022,0.0,1.0,0.0,0.0,1.0,Taxi
21.200000000000003,0.07354846423948945,-10.011108624101238,10.107310381314633,0.48698055597350454,-0.20615912827761176,307.85194784330236,14.521044742415867,0.0,1.0,0.0,0.0,1.0,Taxi
21.3,-0.0624965499149873,-4.240804110298892,11.755611237124423,0.3617206336767082,0.17732033358352006,307.70614166469863,14.43541782699502,0.0,1.0,0.0,0.0,1.0,Taxi
21.400000000000002,-0.01445000011883409,-20.08867050688721,11.617346947329327,0.7827126249393859,0.06748369916081713,307.67857943891795,14.747089641416249,0.0,1.0,0.0,0.0,1.0,Taxi
21.5,-0.026894888294946486,-24.407634758003585,12.623202808593497,0.6651629737913897,-0.09101880034150814,307.85607222899534,15.172755901001596,0.0,1.0,0.0,0.0,1.0,Taxi
21.6,-0.18453472370500515,-21.65272818572272,12.278007637868829,0.5821738068406659,0.6640325599281439,307.6418777478008,14.155252389444787,0.0,1.0,0.0,0.0,1.0,Taxi
21.700000000000003,-0.12271364104744763,8.485645153426281,11.230032704104676,0.8652374930254411,-1.1831911587787938,307.58829859888544,15.220982042003065,0.0,1.0,0.0,0.0,1.0,Taxi
21.8,0.01553333747218498,47.144423881050535,12.070652376591765,0.5731299498445337,0.8256717265096375,307.4556290755477,14.290846270280861,0.0,1.0,0.0,0.0,1.0,Taxi
21.900000000000002,0.051187395700247586,54.13349266765106,12.438775010892046,0.8448278555689459,-0.14192533428906715,307.7000298551883,15.155005637655137,0.0,1.0,0.0,0.0,1.0,Taxi
22.0,0.14795382229080775,-37.14438282453214,10.947040177406276,0.9145175834289405,0.016995465346786996,307.5077586493005,14.707505163840219,0.0,1.0,0.0,0.0,1.0,Taxi
22.1,-0.1701885766504756,-17.466577784961853,11.79514161780536,0.7906619478095841,1.0183261526075102,307.66685939376475,14.861576600646085,0.0,1.0,0.0,0.0,1.0,Taxi
22.200000000000003,-0.03614549322456156,-44.48302191517677,11.501613996260897,0.741656063922699,-0.27425120355208554,307.67129389882655,14.961815216804238,0.0,1.0,0.0,0.0,1.0,Taxi
22.3,-0.07446128728507598,52.565512676486776,12.655890451424295,0.4210894287042425,-0.11129373194745096,307.57785373511615,15.256919763740422,0.0,1.0,0.0,0.0,1.0,Taxi
22.400000000000002,0.09263898673195836,15.22384728221275,11.927755385139339,1.0293428291027924,-0.7216731080415453,307.5754388738659,15.462454432561623,0.0,1.0,0.0,0.0,1.0,Taxi
22.5,0.03997374318650228,17.881688007616074,11.937950215728428,0.5608699803930435,0.1974443448121264,307.5915615415554,13.772741463922104,0.0,1.0,0.0,0.0,1.0,Taxi
22.6,0.014947152753004483,-42.52910599538598,11.585130544201784,0.5696268129560279,0.06699452463220748,307.5106979824626,14.563428387929081,0.0,1.0,0.0,0.0,1.0,Taxi
22.700000000000003,-0.12000654324497147,-15.047160806552057,11.462067275225817,0.981289066332593,1.1006087515304253,307.77368568090856,14.63568724244506,0.0,1.0,0.0,0.0,1.0,Taxi
22.8,-0.03526206084625792,-11.107650730581256,12.580134623165605,0.6900125661705462,-0.39249510143295807,307.54270119011505,15.218831342879774,0.0,1.0,0.0,0.0,1.0,Taxi
22.900000000000002,-0.0405911008999017,24.094460178506267,12.305247332727113,0.5623178881359957,-0.03602940288592129,307.7852973433804,14.185797268398334,0.0,1.0,0.0,0.0,1.0,Taxi
23.0,0.0004657576475599139,-4.282899872120552,12.061858560863806,0.9728266579228415,-0.026683186083762852,307.4878221225323,14.216103445494975,0.0,1.0,0.0,0.0,1.0,Taxi
23.1,-0.05667656020686062,19.8885314185934,11.322720758794185,0.3568295772465423,-0.15378536483547667,307.5681340712192,14.348897709876834,0.0,1.0,0.0,0.0,1.0,Taxi
23.200000000000003,0.05885155619306536,-3.6912950687223733,12.121683723801345,1.1213369283065062,-0.32151120768359603,307.5326526611848,14.48462565388312,0.0,1.0,0.0,0.0,1.0,Taxi
23.3,-0.017990717696051893,10.565949136625324,12.233215557614066,0.7098703784529022,-0.6935015091799261,307.6130247082157,15.18069139030186,0.0,1.0,0.0,0.0,1.0,Taxi
23.400000000000002,-0.0038468145237339304,12.103043563837607,12.303971913266963,0.5652605891216483,-0.38907017116210285,307.58722806278195,14.97160180328197,0.0,1.0,0.0,0.0,1.0,Taxi
23.5,0.11936677401225344,-27.899833547251664,12.015975334666598,0.8281075886546972,-0.058606378690260946,307.63675569903376,13.69061527351372,0.0,1.0,0.0,0.0,1.0,Taxi
23.6,-0.15748988543231016,19.134457542427256,12.38841903896479,0.9659451365978964,0.111349512008967,307.57582950020696,14.999204200935099,0.0,1.0,0.0,0.0,1.0,Taxi
23.700000000000003,0.09182547318840245,-21.825645280155673,13.035073010897152,0.7983083781451259,-0.0205153484674855,307.6021890374599,15.123480400959249,0.0,1.0,0.0,0.0,1.0,Taxi
23.8,0.010238547611475197,-2.3882357621322208,12.716442909447757,0.7678897521628142,-0.8960242888812061,307.4488387224593,15.074747719095624,0.0,1.0,0.0,0.0,1.0,Taxi
23.900000000000002,-0.16943106424297116,6.521819048637781,12.140312107469075,1.0199795555524263,-0.8282307651434453,307.5982133550094,14.837227669839665,0.0,1.0,0.0,0.0,1.0,Taxi
24.0,0.12443456843159138,-13.343433294936276,13.310739985354752,0.7182931681070763,0.5733439042184354,307.56978224791385,14.886920950404342,0.0,1.0,0.0,0.0,1.0,Taxi
24.1,-0.05647861886320617,39.905599249767505,11.828295585375587,0.7473130206230172,-0.2910937045533617,307.5586218912325,15.020496145406772,0.0,1.0,0.0,0.0,1.0,Taxi
24.200000000000003,0.030096932005866397,0.5920931899028309,12.382574535434937,1.1149510316536042,0.15908325679490945,307.48899326976084,15.07062094101719,0.0,1.0,0.0,0.0,1.0,Taxi
24.3,0.1273950343811056,7.356512421324514,13.713439108966497,0.8927783906913227,0.029400007279699245,307.6631629593369,14.928455223470685,0.0,1.0,0.0,0.0,1.0,Taxi
24.400000000000002,-0.019696056756583515,-2.1969715712477744,13.142292480258421,0.45682920191447435,0.16791493655625356,307.6280406870666,14.434733189301678,0.0,1.0,0.0,0.0,1.0,Taxi
24.5,0.0191120741496276,-21.812947984477404,11.564762883460551,0.5865539911678835,0.1209221228215233,307.62248083100167,14.73254064060017,0.0,1.0,0.0,0.0,1.0,Taxi
24.6,0.018330294458718678,10.002243121883364,13.497776202802655,0.8670599972817847,-0.010500581037867975,307.48760862401343,14.899096374639363,0.0,1.0,0.0,0.0,1.0,Taxi
24.700000000000003,0.030315158852833386,-20.257352627815333,12.43609190125988,1.2759025527494994,0.33542562605177373,307.63071340245097,14.967853618171919,0.0,1.0,0.0,0.0,1.0,Taxi
24.8,-0.08217468898944899,20.98010923996863,12.055024146726836,0.5032593901309282,-0.3890579497129749,307.56512376312367,15.13961829392661,0.0,1.0,0.0,0.0,1.0,Taxi
24.900000000000002,0.1232308406585619,-24.88302576105931,12.34494718063204,0.4676738731612312,0.6524278429274719,307.6676055819901,14.883990493570797,0.0,1.0,0.0,0.0,1.0,Taxi
25.0,-0.0940999699524631,-3.036831473388536,12.318561109520667,1.1293595375675147,-0.0022475186482576854,307.4696957583751,14.343402655165821,0.0,1.0,0.0,0.0,1.0,Taxi
25.1,-0.0973588463563916,-37.509293622380376,12.316852945910945,0.7118800049389623,-0.09481262463126496,307.73676610825953,15.024108513726251,0.0,1.0,0.0,0.0,1.0,Taxi
25.200000000000003,-0.0643156274533399,-4.062938818519,11.068863730649419,0.3872146800512046,-0.2948225140468889,307.82317804605464,15.406346907978593,0.0,1.0,0.0,0.0,1.0,Taxi
25.3,-0.11441466404505805,3.3160209385603587,12.219799831558882,0.2687093146477501,-0.020216853496243907,307.65093934408196,14.839885124513168,0.0,1.0,0.0,0.0,1.0,Taxi
25.400000000000002,-0.08077874166358975,36.8136237095992,11.860662397662884,0.6948650405457388,0.9810738944932619,307.6854493882221,15.03058952475058,0.0,1.0,0.0,0.0,1.0,Taxi
25.5,0.11975249109465613,23.920721282912805,11.447841570245293,0.7436345771631643,-0.3103406835857766,307.5621954173023,15.1128331176846,0.0,1.0,0.0,0.0,1.0,Taxi
25.6,0.005188942369505993,22.67724000815657,11.738680881610557,0.5651746805819992,-0.4686187279847356,307.5533047724914,14.549447643134993,0.0,1.0,0.0,0.0,1.0,Taxi
25.700000000000003,0.03260745837719312,-57.17185760255277,12.083010814720511,1.078613378444949,-0.3704169880985623,307.51872971560965,15.570956465581117,0.0,1.0,0.0,0.0,1.0,Taxi
25.8,-0.16610679691810773,12.798665991675236,12.628976470039953,0.8122024782368854,0.07640845641048935,307.54557785517545,14.586986506329659,0.0,1.0,0.0,0.0,1.0,Taxi
25.900000000000002,0.06918227232788224,19.512928011662492,11.42250498552106,1.113882477998661,0.7277313527300926,307.51854138498084,14.816546166320602,0.0,1.0,0.0,0.0,1.0,Taxi
26.0,0.13017209843550565,15.11290073180235,11.986523237754962,0.6125469900500972,-0.8311085671074866,307.5906200774697,14.94546267993126,0.0,1.0,0.0,0.0,1.0,Taxi
26.1,-0.09054229325909588,-12.108570154817784,12.370179144665133,0.6826566675708641,-0.671942352775167,307.5086711257434,15.113527280845943,0.0,1.0,0.0,0.0,1.0,Taxi
26.200000000000003,0.008639421553793396,-20.67888814412646,12.58448168921437,0.7193633263710804,0.04146710175323777,307.4970059505199,15.054758521238917,0.0,1.0,0.0,0.0,1.0,Taxi
26.3,0.026777657714873407,-1.945084798514363,11.6237327063293,0.7132308601131381,0.6418396176648733,307.5732991170735,15.295191438029395,0.0,1.0,0.0,0.0,1.0,Taxi
26.400000000000002,-0.10026771725166764,-8.534992410292594,11.457390052715564,0.8060719912187749,0.013280408826563882,307.6746564216194,15.069996324484062,0.0,1.0,0.0,0.0,1.0,Taxi
26.5,-0.03403554049766951,-11.790046888986389,12.63299864342488,0.8083314726191902,0.25228237951372623,307.5219055644858,15.64020598448431,0.0,1.0,0.0,0.0,1.0,Taxi
26.6,-0.03217257673005849,21.02411082906935,12.063339486631552,0.8714455009950557,-0.2111685547100978,307.7766170566433,14.672162914375559,0.0,1.0,0.0,0.0,1.0,Taxi
26.700000000000003,0.0048528368936791594,-31.815300940505296,11.717753116224124,0.8919868181084883,0.011298379013125661,307.6632130552846,14.700445071444161,0.0,1.0,0.0,0.0,1.0,Taxi
26.8,-0.19311204520019598,24.267889890909903,12.242385233986123,0.7558042764328585,-0.1460539687637764,307.5227251979079,14.158566241070805,0.0,1.0,0.0,0.0,1.0,Taxi
26.900000000000002,0.08916687272449104,10.743400341773148,11.160976292578061,0.7237666390148205,-0.18299694079217285,307.572163820357,15.425293417568291,0.0,1.0,0.0,0.0,1.0,Taxi
27.0,0.05856983860254492,42.044993109588766,12.87244682644123,0.717096626373309,0.049052763977613184,307.6491256341782,14.527776855398905,0.0,1.0,0.0,0.0,1.0,Taxi
27.1,0.017112920347747928,3.348719875426473,12.261959270407154,0.7775283894781739,0.6710204389537915,307.56208394696114,15.643511584039409,0.0,1.0,0.0,0.0,1.0,Taxi
27.200000000000003,0.10591047210162348,-21.868029497551074,12.322360788656106,0.8746838708859059,0.8430798095205062,307.72514590687547,15.010449028364734,0.0,1.0,0.0,0.0,1.0,Taxi
27.3,-0.05077030888521037,3.4288911777854025,11.687464770482178,0.8866649200875167,0.35990509994866154,307.482421257567,16.1209509283316,0.0,1.0,0.0,0.0,1.0,Taxi
27.400000000000002,0.03425737623667501,39.39041754473538,12.634254549057525,1.123955032959071,0.7637520133156305,307.7814703597255,15.330816724523633,0.0,1.0,0.0,0.0,1.0,Taxi
27.5,0.3028625598253004,56.693980669746146,11.965145501787767,0.9413430454665638,0.018297520038463203,307.63541972291443,15.31140516344041,0.0,1.0,0.0,0.0,1.0,Taxi
27.6,0.2326995944635204,-10.847001529194225,12.625562367602942,0.7474647472134176,0.09772723555919008,307.4788839445239,14.589895095939987,0.0,1.0,0.0,0.0,1.0,Taxi
27.700000000000003,-0.019977631409296013,-52.38296733067218,11.227068197861056,0.9871032051351685,0.621696771195473,307.57589488765666,14.594333471407777,0.0,1.0,0.0,0.0,1.0,Taxi
27.8,0.040947723171939614,-64.02914901618563,11.893305271749055,0.7993415908988557,0.01948517941683367,307.63833563862727,14.687530461031029,0.0,1.0,0.0,0.0,1.0,Taxi
27.900000000000002,-0.08744615061740764,7.425593375427307,10.79111780975837,0.47479738690363177,0.04580032126029055,307.7391385687679,14.397657848702893,0.0,1.0,0.0,0.0,1.0,Taxi
28.0,0.017150335467840585,-18.22270313972624,11.823315469035599,0.3648794237351689,0.8944788882727727,307.5677627250475,15.621343781522746,0.0,1.0,0.0,0.0,1.0,Taxi
28.1,-0.05016579252669151,14.86909746750615,11.98533471833594,0.7161608794267145,0.35410158050593166,307.57758826953057,14.078230955509383,0.0,1.0,0.0,0.0,1.0,Taxi
28.200000000000003,-0.013100663279876832,-18.422191157109264,12.105424569701844,0.4922702038058111,0.8608957043410824,307.58805254730214,15.464720854716877,0.0,1.0,0.0,0.0,1.0,Taxi
28.3,-0.07496062031770566,3.995208324930592,12.45528888340622,0.41989101739498436,0.2606075116551201,307.5986429698471,14.283068777962509,0.0,1.0,0.0,0.0,1.0,Taxi
28.400000000000002,-0.030189750902038483,22.25296997769584,11.914684706384962,0.46921682488783545,0.4271753878109953,307.4488856894136,14.60841389297524,0.0,1.0,0.0,0.0,1.0,Taxi
28.5,0.09816418660860245,16.920827945457635,11.437315516447322,0.7004834383181341,-0.15950271065413416,307.6503482841515,14.099471958792053,0.0,1.0,0.0,0.0,1.0,Taxi
28.6,0.009643519409582567,3.7987952562532055,11.94150624170038,0.40991291398516083,-1.0985962865986787,307.86136427480847,14.427436221308874,0.0,1.0,0.0,0.0,1.0,Taxi
28.700000000000003,-0.011195774620772397,-9.94436053529941,12.181061306782343,1.110413962883165,0.02101260585867503,307.7134381855225,15.644536676692613,0.0,1.0,0.0,0.0,1.0,Taxi
28.8,0.04844238393210547,-21.348593900922168,12.336461544453186,0.8032945172407195,0.4244561540159889,307.56647348724186,15.153565739565266,0.0,1.0,0.0,0.0,1.0,Taxi
28.900000000000002,-0.09709945009502818,-37.30752757297759,11.788265425030337,0.5453544729056411,0.26548313266975815,307.3839318928783,14.309241298958108,0.0,1.0,0.0,0.0,1.0,Taxi
29.0,-0.1977334124856603,38.48209453148954,12.202824111965189,0.6688534704986239,0.5158714128325257,307.5024788203798,15.492068389130432,0.0,1.0,0.0,0.0,1.0,Taxi
29.1,0.2408528565895532,19.782202111437744,11.426771230579304,0.6927802784792896,0.48857592154067103,307.7350935705351,15.420800141849597,0.0,1.0,0.0,0.0,1.0,Taxi
29.200000000000003,0.0018115604621605414,62.20827686716489,11.278166952508895,0.7834645305483393,0.6802854150515467,307.73299957897507,14.056499704528811,0.0,1.0,0.0,0.0,1.0,Taxi
29.3,0.11330797185016415,-48.92801143889066,12.636875653907563,0.6917161401153711,-0.5487556610862231,307.63330816360985,14.033366347828498,0.0,1.0,0.0,0.0,1.0,Taxi
29.400000000000002,-0.003787200604900081,6.486373633673146,11.15650806618887,0.8166285858818827,-0.3751391644062273,307.7541381652236,14.850511754330046,0.0,1.0,0.0,0.0,1.0,Taxi
29.5,0.03424342863052632,-39.99924236293029,11.746493447923934,0.9545912839844712,0.1410489946829563,307.62947866822515,14.414629465866785,0.0,1.0,0.0,0.0,1.0,Taxi
29.6,-0.08668823996448724,-15.405766963168261,12.320198390297401,0.7419580780291418,0.5158550709693723,307.5058873801653,15.965591004728891,0.0,1.0,0.0,0.0,1.0,Taxi
29.700000000000003,-0.08081603542074134,-32.4527826566436,11.967502770261971,0.9078674871106021,0.03951469229003307,307.6203926893429,14.736855738039424,0.0,1.0,0.0,0.0,1.0,Taxi
29.8,-0.12802048465269167,11.176750352579804,12.598322578662934,0.639579397081155,0.10170466912157292,307.658970513191,13.572821237977488,0.0,1.0,0.0,0.0,1.0,Taxi
29.900000000000002,-0.030804488201588195,-9.385230186254605,12.371705740674066,0.5447694975517438,-0.5961920716709267,307.63397558872657,15.913650605536388,0.0,1.0,0.0,0.0,1.0,Taxi
30.0,-0.12774218635201434,0.6007195508136347,13.081773314104971,0.46544448412925166,-0.3515142316829772,307.7913739726548,14.496332236231966,0.0,1.0,0.0,0.0,1.0,Taxi
30.1,-0.12501688689862347,43.944793597146564,11.852945164963874,1.0442610941136863,-0.060684945699907455,307.53259326957607,14.229595407773404,0.0,1.0,0.0,0.0,1.0,Taxi
30.200000000000003,0.18891947978414464,-17.50370628578193,12.283683384610708,0.558763439235356,-0.675629215120408,307.4716373611368,15.058234799640603,0.0,1.0,0.0,0.0,1.0,Taxi
30.3,-0.21526071778092393,14.133222515324952,12.065134300722937,0.807386046601464,0.24083108729711794,307.5122911524578,15.200821067408347,0.0,1.0,0.0,0.0,1.0,Taxi
30.400000000000002,-0.05435077432199864,-90.2169756316461,11.470140590452896,0.6842959044891177,0.30280825934935685,307.63996980848026,14.117667563936793,0.0,1.0,0.0,0.0,1.0,Taxi
30.5,-0.2621653983740857,88.63327201118096,13.469392116018568,0.9945244832547717,0.2268982204765523,307.50035071770003,14.998452292101799,0.0,1.0,0.0,0.0,1.0,Taxi
30.6,0.22790564227498092,24.60697421290465,12.189074794392244,0.8892516440931459,-0.25750740646031983,307.5259250156687,14.576287617211202,0.0,1.0,0.0,0.0,1.0,Taxi
30.700000000000003,0.06868409674252465,66.29493508398066,11.70334136991362,0.6346216345017445,0.4515557707261805,307.53517299235114,15.10649788667565,0.0,1.0,0.0,0.0,1.0,Taxi
30.8,0.06930927704581767,-37.80289707280732,11.636620353785611,1.059925125894132,0.5225226085856245,307.58365322732243,14.55935365747159,0.0,1.0,0.0,0.0,1.0,Taxi
30.900000000000002,0.03889115691094438,-10.577500520593716,11.879710900101184,0.9352854143924272,-0.34050229149835864,307.4341792826524,14.079672569272198,0.0,1.0,0.0,0.0,1.0,Taxi
31.0,0.015796594139556145,-40.254557693673526,11.396731621244772,0.6143916664056266,-0.253642192823831,307.6119846055486,15.732573129954176,0.0,1.0,0.0,0.0,1.0,Taxi
31.1,-0.13196351142254992,-5.23187236447112,10.80654868336058,0.7475686092450164,0.11604563045301991,307.64140310445373,15.478243985440164,0.0,1.0,0.0,0.0,1.0,Taxi
31.200000000000003,0.012731795088588852,-5.5218278361295505,12.126499314082741,0.9481553545840498,-0.16750068500388843,307.35420479078016,15.687491289447923,0.0,1.0,0.0,0.0,1.0,Taxi
31.3,-0.011812545041091525,22.872843011094897,12.61649759696216,0.6943738691139855,0.022561814482833023,307.5380252488776,14.946241369300338,0.0,1.0,0.0,0.0,1.0,Taxi
31.400000000000002,-0.017599296367075343,18.990393462633296,12.669012065065079,0.6241042213430416,-0.12153837266243772,307.49916177428713,15.76445802627491,0.0,1.0,0.0,0.0,1.0,Taxi
31.5,0.10768376240175542,-20.504596716405086,12.124966232028788,0.5676166805167342,-0.04166646773379239,307.6251686634331,14.750573712141884,0.0,1.0,0.0,0.0,1.0,Taxi
31.6,-0.11433552862311686,-35.2035684414143,12.933076167324991,0.40698698721761883,-0.059815150689169594,307.53466180697114,14.712091447328083,0.0,1.0,0.0,0.0,1.0,Taxi
31.700000000000003,-0.19361713857414675,-29.913479364996885,11.913962539725016,0.3144177999778239,-1.128687539438962,307.6195150702929,14.67849399312519,0.0,1.0,0.0,0.0,1.0,Taxi
31.8,-0.041883634423228934,38.65670285193328,11.635028529367142,0.8901009175747107,-0.2308983914956134,307.7763094290408,15.191772945840608,0.0,1.0,0.0,0.0,1.0,Taxi
31.900000000000002,0.07894798563654963,30.439597504759806,12.110455409858421,0.8125959199748554,0.25311754951244586,307.49560059699934,15.354531960449147,0.0,1.0,0.0,0.0,1.0,Taxi
32.0,-0.04141915105034763,26.828895136589626,11.858514265050092,0.5440817320447104,-1.3295439798387112,307.6866459566007,14.944316336042489,0.0,1.0,0.0,0.0,1.0,Taxi
32.1,0.09226084125971928,-23.98356864647532,11.619176595276805,0.9058047839345759,-0.4200217442659287,307.32174160632235,14.576536438597568,0.0,1.0,0.0,0.0,1.0,Taxi
32.2,-0.04096985759582688,25.30020916946195,11.884565462654257,0.43987792549271965,-0.36735382704485164,307.6811291593085,15.149564044261975,0.0,1.0,0.0,0.0,1.0,Taxi
32.300000000000004,0.08508189479696221,1.0370059189986207,12.871565618251694,0.5163742234857158,0.010570665036913871,307.6267235543279,15.259660106460496,0.0,1.0,0.0,0.0,1.0,Taxi
32.4,0.09744587085471246,4.5387102586802355,12.58765466893982,0.9513707728522995,0.2795567316524134,307.6905563198204,13.965969202444633,0.0,1.0,0.0,0.0,1.0,Taxi
32.5,-0.018276306302425622,13.329372520807942,12.688634594644245,0.8072678177525596,0.4262180347366445,307.47318763020894,14.420004776276306,0.0,1.0,0.0,0.0,1.0,Taxi
32.6,0.151728757401002,-18.01750562825192,11.00913765653089,0.43162448612604964,-0.5347710958776034,307.6445740590759,15.590967946416193,0.0,1.0,0.0,0.0,1.0,Taxi
32.7,0.007358342713452965,10.091878032204228,12.116874157484594,0.8206641822642085,-0.5875947337085099,307.66561232693766,14.79733811080258,0.0,1.0,0.0,0.0,1.0,Taxi
32.800000000000004,0.03218308385859561,-57.12517986607893,12.421368497722389,0.8695570932605854,0.5906993907313671,307.817448527376,15.498243759621587,0.0,1.0,0.0,0.0,1.0,Taxi
32.9,-0.1338971419293926,-9.17266183281148,12.688920828492584,0.6865846075839925,-0.48828158347458217,307.633288864655,14.624772765328096,0.0,1.0,0.0,0.0,1.0,Taxi
33.0,-0.03850496645060439,5.410962597938415,11.646784663096291,0.9003113032603568,0.0440802980997415,307.5434810851808,15.643998456155373,0.0,1.0,0.0,0.0,1.0,Taxi
33.1,0.05923789684828773,45.37913341683859,12.116694424561206,0.8446956992909647,0.9468722757907424,307.43610737147765,13.886869736054415,0.0,1.0,0.0,0.0,1.0,Taxi
33.2,0.09299852515480042,-8.100482321925261,11.72853552550031,0.6675114563959109,0.4219295204141526,307.5759154192342,15.07650618857402,0.0,1.0,0.0,0.0,1.0,Taxi
33.300000000000004,-0.07900737806023063,-28.625553683567265,11.941444125075328,0.7509093782443912,-0.016754516773918794,307.51448681423585,14.711552490805557,0.0,1.0,0.0,0.0,1.0,Taxi
33.4,-0.08388987156954852,-4.4577925566701895,13.049456454240097,0.6543744959904614,0.2697868978523914,307.53075423559244,14.913462791013007,0.0,1.0,0.0,0.0,1.0,Taxi
33.5,0.07070956237144956,10.072554731797723,11.715985821407736,0.659196522664572,0.11543045197761202,307.60418023901707,14.730756653867822,0.0,1.0,0.0,0.0,1.0,Taxi
33.6,-0.028644604401241953,29.58178163357123,11.182772677192133,0.7963098347930812,0.4365006607826043,307.6278280938948,15.348311376936882,0.0,1.0,0.0,0.0,1.0,Taxi
33.7,0.0640190365983077,-4.052426478406711,11.411332700736194,0.3522155798015892,-0.7598949992557763,307.55456461832534,14.971725966129902,0.0,1.0,0.0,0.0,1.0,Taxi
33.800000000000004,0.05044742997941605,-26.948354228506034,12.74114255611891,0.9115045699687034,-0.22528160897514582,307.7731736332762,14.920399846880736,0.0,1.0,0.0,0.0,1.0,Taxi
33.9,-0.1633863755437721,-9.088318939698643,12.534853731490964,0.937381079769374,-0.21003822285869864,307.66828288394913,14.411364232772758,0.0,1.0,0.0,0.0,1.0,Taxi
34.0,0.018577441899814487,-18.420868748353048,11.997666404507584,1.0484648467891249,-0.3096905852295158,307.65187539965416,14.729568867484355,0.0,1.0,0.0,0.0,1.0,Taxi
34.1,-0.04165691376234915,31.643630224061155,12.732417619048626,0.6028325494372537,-0.45839778066681336,307.55972441142603,14.753062634476894,0.0,1.0,0.0,0.0,1.0,Taxi
34.2,-0.0051682244234662455,-17.786346774031742,11.975846873832115,0.41729554372359384,0.6313006593849486,307.551017073544,15.652605622882207,0.0,1.0,0.0,0.0,1.0,Taxi
34.300000000000004,-0.07035429197034415,15.966817555932375,12.0240191261543,0.6790894005330166,-0.17157668708270601,307.5941743900447,14.757449629421453,0.0,1.0,0.0,0.0,1.0,Taxi
34.4,0.03817717401731279,19.58998223862017,13.38868222939395,0.6579367400090974,-0.2866088754954868,307.47168281653376,14.395821941209821,0.0,1.0,0.0,0.0,1.0,Taxi
34.5,0.09278168676963466,-1.0301344437658837,11.213367587782916,0.5185863664199761,0.038592741810699424,307.67260238295376,15.946733468152624,0.0,1.0,0.0,0.0,1.0,Taxi
34.6,-0.0755049641891735,-18.508932458183946,11.812546310154147,0.7456517022536561,0.46617635343616254,307.5671121962321,14.100601804533392,0.0,1.0,0.0,0.0,1.0,Taxi
34.7,-0.05436748827360686,-16.657275433295833,11.983452509751352,0.8673214848831985,-0.795250793231775,307.51715237776807,14.715372769039481,0.0,1.0,0.0,0.0,1.0,Taxi
34.800000000000004,0.009495309603155587,6.924701779312656,12.395808268476499,1.111107612681092,-0.645816271830875,307.6680779277492,15.356099035772266,0.0,1.0,0.0,0.0,1.0,Taxi
34.9,-0.040881455292610135,-5.5576117171347335,11.631480028586063,0.5407408737763807,-0.0435056943897356,307.6415959681651,15.00060457068444,0.0,1.0,0.0,0.0,1.0,Taxi
35.0,-0.08215554685928043,-7.9961129022341035,11.539328737600266,0.7720158389770051,0.34992218482354326,307.6356148651548,14.288957571814986,0.0,1.0,0.0,0.0,1.0,Taxi
35.1,-0.030485254908014865,16.195725514099234,12.056778389370374,0.8943912042794417,-0.7206545885697714,307.33630977349503,15.336493450630147,0.0,1.0,0.0,0.0,1.0,Taxi
35.2,0.0400971722778861,28.591945858911913,11.125743820908983,0.6893032605306627,1.1736136592701918,307.7524556355786,15.33528718271659,0.0,1.0,0.0,0.0,1.0,Taxi
