time_s,altitude_ft,vertical_speed_fpm,ias_kt,pitch_deg,roll_deg,heading_deg,throttle_pct,afterburner_on,gear_down,flaps_deg,speedbrake_pct,weight_on_wheels,label
0.0,0.11220773942696721,-79.02774263897531,16.476291602461146,0.5392283476038839,-0.4628775377493391,327.7580038454769,14.326603604111583,0.0,1.0,0.0,0.0,1.0,Taxi
0.1,-0.15121806936961718,-2.454129721047726,16.731117276402852,0.46872828200427563,-0.506733961511882,327.69576001188784,14.820353176799065,0.0,1.0,0.0,0.0,1.0,Taxi
0.2,0.09993709082172858,-37.657836107968684,16.551667508671883,0.27514344419694264,0.1308613683659194,327.7234786205066,15.195884525251927,0.0,1.0,0.0,0.0,1.0,Taxi
0.30000000000000004,-0.07608144111287617,10.55664330149496,16.744874061236757,0.2416027198412413,0.8770805723396707,327.67180593208445,15.091111456166582,0.0,1.0,0.0,0.0,1.0,Taxi
0.4,-0.09843485286214233,-18.47949512452438,16.744362055329116,0.16297133130686758,0.7844669754382366,327.6070362612131,15.279768475262738,0.0,1.0,0.0,0.0,1.0,Taxi
0.5,0.0075396151991067115,10.834458737650323,17.28739342434522,0.4122579832969422,-0.11123631020764556,327.5163338751354,14.14627164734962,0.0,1.0,0.0,0.0,1.0,Taxi
0.6000000000000001,-0.021909147424624565,27.542098074481643,17.867642966651818,0.4933412123884087,-0.06743389921288957,327.47644719616255,15.488792319078662,0.0,1.0,0.0,0.0,1.0,Taxi
0.7000000000000001,0.03927563751026587,-19.890372790722065,16.388386642800175,0.04887444029039445,-0.3156699009125745,327.4322080933598,15.063391399791314,0.0,1.0,0.0,0.0,1.0,Taxi
0.8,-0.09191224875450357,5.389528594701666,16.26104286355859,0.5477890814939288,0.11142356903987535,327.65762611770083,14.965202221792564,0.0,1.0,0.0,0.0,1.0,Taxi
0.9,0.005038495548883788,22.22806334382018,16.750502581338473,0.45010520705612406,0.30678054693184625,327.670500104044,15.111199743003775,0.0,1.0,0.0,0.0,1.0,Taxi
1.0,0.15041595422936674,14.62279614079788,17.465754092260752,0.14367632456707893,0.03439667064935801,327.6547272508517,15.384698698325968,0.0,1.0,0.0,0.0,1.0,Taxi
1.1,-0.018798268050514173,-27.41164440969685,16.423382401781918,0.4466778350217142,-0.02250592005422742,327.6384851221849,14.970218370661934,0.0,1.0,0.0,0.0,1.0,Taxi
1.2000000000000002,-0.13201972649960045,7.238960586165793,16.888564694129492,0.2350324467732679,-0.3738302027426371,327.73646786581605,15.619485072053244,0.0,1.0,0.0,0.0,1.0,Taxi
1.3,0.18661075716019573,-1.5054115157918868,16.650802828702883,0.10423766501634951,-0.14403849846170882,327.5367473876594,14.47093427739172,0.0,1.0,0.0,0.0,1.0,Taxi
1.4000000000000001,-0.026325325629473557,32.79086637492224,16.946840554622842,0.21960969471351094,0.6363072050388359,327.5712652698336,14.007031405072079,0.0,1.0,0.0,0.0,1.0,Taxi
1.5,0.03193460537501078,-62.09610110539774,16.94548402955056,0.5590164598619711,0.14913255726778543,327.69349186682587,14.46998427076829,0.0,1.0,0.0,0.0,1.0,Taxi
1.6,-0.12386974836679297,-33.65200708193634,17.50372754526086,-0.05339403183028835,-0.1443088360281464,327.76186242347467,14.238122444852149,0.0,1.0,0.0,0.0,1.0,Taxi
1.7000000000000002,-0.19458536103915525,-6.969276230740992,16.024871622149263,0.4188364720748843,0.29888392949853415,327.7036492588227,15.588065510423363,0.0,1.0,0.0,0.0,1.0,Taxi
1.8,-0.0029117757786942026,32.3495283002195,17.5161909535744,-0.14319082052632826,0.18673199950867464,327.66668021294356,14.863100600834022,0.0,1.0,0.0,0.0,1.0,Taxi
1.9000000000000001,0.037877893134304494,7.929541261571941,16.033113143063495,0.4350443123068435,0.06604855679100434,327.7770380178631,14.997061045268554,0.0,1.0,0.0,0.0,1.0,Taxi
2.0,-0.1549376547312956,10.368433820910155,16.30542338756023,0.10654706088462423,-0.0845783079767769,327.7006846563452,14.881684691079167,0.0,1.0,0.0,0.0,1.0,Taxi
2.1,0.048930393325856546,8.08514294784369,16.28905279680169,0.32055959583843363,0.1250178905520933,327.49878331250375,14.395677545764107,0.0,1.0,0.0,0.0,1.0,Taxi
2.2,0.07830360787352292,44.65652425135524,16.80331866409398,0.41582456013009234,-1.0519300293253766,327.69020389472416,15.050665792958325,0.0,1.0,0.0,0.0,1.0,Taxi
2.3000000000000003,0.0683449665254806,-21.511862606862355,16.803776029376056,0.16474408871348767,0.5889642823658545,327.67231673084734,15.442910203175106,0.0,1.0,0.0,0.0,1.0,Taxi
2.4000000000000004,-0.058628919708455234,-23.827138580669654,16.506767851947917,0.2928580036012491,-0.21755716758429328,327.5175431789819,14.85566072189531,0.0,1.0,0.0,0.0,1.0,Taxi
2.5,-0.04083208502982536,-16.566672879550396,16.388234764693877,0.3499241760638384,0.2040190821506688,327.5301507662125,15.760418094634144,0.0,1.0,0.0,0.0,1.0,Taxi
2.6,-0.014488397872271373,-44.7865375949627,16.053020504646756,0.4265960837672769,-0.25877646377555125,327.71984560519354,14.403080064966739,0.0,1.0,0.0,0.0,1.0,Taxi
2.7,-0.28256160768326866,-1.8628460790087804,16.907202878693894,0.33306401680244435,-0.867514258351312,327.62466045492897,14.37205199254562,0.0,1.0,0.0,0.0,1.0,Taxi
2.8000000000000003,-0.05014631542486928,-9.112351085360295,16.01592714217906,0.48893294181950103,0.4215775650520003,327.54084308944573,14.286998045647566,0.0,1.0,0.0,0.0,1.0,Taxi
2.9000000000000004,-0.06005015329907285,59.838436156645734,17.31703002532335,0.32582166211942093,-0.8422244869114789,327.66203477293675,15.727661998097894,0.0,1.0,0.0,0.0,1.0,Taxi
3.0,0.016630573099959956,22.724365099837968,16.667162179524233,0.2646973889472216,-0.41398186632195805,327.4652143470802,14.538395583151754,0.0,1.0,0.0,0.0,1.0,Taxi
3.1,0.06347551007432055,35.52633814604894,17.1789448344459,0.25730389066117165,0.7468396370345994,327.57592508399796,13.393041166014548,0.0,1.0,0.0,0.0,1.0,Taxi
3.2,0.11758153743117186,25.711064963084088,16.460174747581227,0.48323169649685443,1.0256492562480517,327.5476887660359,14.47006202283755,0.0,1.0,0.0,0.0,1.0,Taxi
3.3000000000000003,0.1451858979153804,-4.244568783078996,16.135143120137514,0.6436041068246421,-0.8660518048361548,327.5080668650621,14.648834620677729,0.0,1.0,0.0,0.0,1.0,Taxi
3.4000000000000004,0.042252666158925554,-48.24806858012341,16.205291933837447,0.6335876678209891,0.6278493703087719,327.6814727958075,15.47437695588363,0.0,1.0,0.0,0.0,1.0,Taxi
3.5,-0.12365880546944522,-7.996586811363358,17.431609230693095,0.19465299448089668,0.39753023679360733,327.7817345227801,14.645526767933516,0.0,1.0,0.0,0.0,1.0,Taxi
3.6,0.1052029638585636,-15.495553180089564,17.324750833826666,0.024746595585997677,-0.1333006142086603,327.57985207236356,14.951303137339917,0.0,1.0,0.0,0.0,1.0,Taxi
3.7,-0.03522509974152226,35.3309136902409,16.476258992174618,0.1809845748823936,1.252025907256266,327.5026076457858,14.831977785257175,0.0,1.0,0.0,0.0,1.0,Taxi
3.8000000000000003,0.05299576298175926,-32.90932325739336,16.553091106748813,0.34945302489117386,-0.9052069883763245,327.5614651220113,15.424695555688547,0.0,1.0,0.0,0.0,1.0,Taxi
3.9000000000000004,-0.059343652428403185,-4.869459477562747,16.233864644995478,0.04825520365408914,0.11122352887276875,327.6516783779575,13.711173447656217,0.0,1.0,0.0,0.0,1.0,Taxi
4.0,-0.059572397129335986,3.2888116583424014,17.31345237007053,0.3225454511453297,-1.0274933908041768,327.62847223373524,15.35804508568236,0.0,1.0,0.0,0.0,1.0,Taxi
4.1000000000000005,0.06943982127347124,10.858183432311142,16.58317833248016,0.5278494475628827,-0.4973115083214864,327.62460288077807,15.77187843989191,0.0,1.0,0.0,0.0,1.0,Taxi
4.2,-0.005052735266847469,-4.12457055551445,16.35453199003952,0.4065889799886455,0.05853798981794305,327.6013170232736,14.448978959158563,0.0,1.0,0.0,0.0,1.0,Taxi
4.3,-0.08019524990690823,-29.461448366429384,16.421433318455872,0.3534170874812391,0.23207899886385355,327.4720549878366,14.71399349175016,0.0,1.0,0.0,0.0,1.0,Taxi
4.4,-0.07786742055867561,11.899500605499895,16.81875785957597,0.3099418059305906,-0.24092579195366545,327.6122547886341,14.992974800578907,0.0,1.0,0.0,0.0,1.0,Taxi
4.5,0.054444767760652095,-15.162752312497057,16.45620090125105,0.1343514027088342,0.032581942953688686,327.70608342106766,14.845656638570167,0.0,1.0,0.0,0.0,1.0,Taxi
4.6000000000000005,-0.1560090114693934,-6.86251076992718,16.768061885581968,0.8038706218344194,-0.45369493651741155,327.4062839114688,14.344631123736042,0.0,1.0,0.0,0.0,1.0,Taxi
4.7,-0.1121799744083114,0.9799158641110873,15.532525235493528,0.2137432301412363,-0.06156367643853017,327.4568508536918,14.352235736481715,0.0,1.0,0.0,0.0,1.0,Taxi
4.800000000000001,0.05934434708120763,36.925909785237785,16.65294690472699,0.2614714095634385,-0.6278720590042782,327.54156740852795,14.067356483384573,0.0,1.0,0.0,0.0,1.0,Taxi
4.9,0.02862053745679561,35.56714651628122,16.574549359457638,0.5180366094278566,-0.8053513487983669,327.8090134459371,15.226109334162782,0.0,1.0,0.0,0.0,1.0,Taxi
5.0,0.0656557581730948,25.030464454878256,16.695885326372267,0.41592970036496496,0.8960945366717518,327.6002962702876,14.178078226146033,0.0,1.0,0.0,0.0,1.0,Taxi
5.1000000000000005,0.18449666935559897,-6.670445102678452,16.991777182850885,0.38996370370788525,-0.8317766601976895,327.7236992504704,14.817833621490669,0.0,1.0,0.0,0.0,1.0,Taxi
5.2,-0.004731688056596567,-19.806143087888604,16.675658213793987,0.30991114541929454,-0.24285995696556875,327.5778997132129,15.290110784698943,0.0,1.0,0.0,0.0,1.0,Taxi
5.300000000000001,-0.033374957266348156,-41.648005827728674,16.44407497629861,0.21264368973721842,-0.07707289808506984,327.4867850946491,14.550500358138935,0.0,1.0,0.0,0.0,1.0,Taxi
5.4,-0.023743359783044312,40.72119912499908,17.243146763033888,0.6191494442377289,0.9291507045728822,327.6796260599822,14.756173184999003,0.0,1.0,0.0,0.0,1.0,Taxi
5.5,0.19887430756839888,25.130875450733225,16.699923572063714,0.14268737770899684,-0.6949330057289358,327.6764316705213,14.826684983736241,0.0,1.0,0.0,0.0,1.0,Taxi
5.6000000000000005,0.092279419987318,-13.865850132848621,15.865861722923059,0.6794586101260678,-0.7534994491600809,327.5750864255881,14.415983542069526,0.0,1.0,0.0,0.0,1.0,Taxi
5.7,-0.09307261044728735,-1.0079011819606098,16.787031846885494,0.5831620473507246,-0.010626600871829041,327.5652888336199,15.860838952621288,0.0,1.0,0.0,0.0,1.0,Taxi
5.800000000000001,0.1938348016585959,33.30018536510742,16.454739503975915,0.5929245518964026,0.48109176763719974,327.5503232105141,15.022867123324106,0.0,1.0,0.0,0.0,1.0,Taxi
5.9,0.2587803468128552,-11.419040705267852,16.34285783914358,0.40023782340696334,0.3413731234697311,327.5731673263921,15.15776572427968,0.0,1.0,0.0,0.0,1.0,Taxi
6.0,-0.1501678139736265,-24.24594676719936,16.384056861680598,0.38335126184978796,0.2405516323200246,327.5153699767209,15.26074280975237,0.0,1.0,0.0,0.0,1.0,Taxi
6.1000000000000005,0.07260506782259916,-21.72954992459529,16.14152141478409,0.16136053678524215,0.7658531812114169,327.70247969387685,14.93560743993737,0.0,1.0,0.0,0.0,1.0,Taxi
6.2,0.15013259718987884,65.25084129626163,16.717242919222098,0.1361010106398205,-0.9124666209629151,327.62329916260205,14.945575659882703,0.0,1.0,0.0,0.0,1.0,Taxi
6.300000000000001,0.1760863925076817,21.727940673969318,16.627194359265644,0.47600412724514096,-0.7956335033690037,327.46770696046224,13.796627901769575,0.0,1.0,0.0,0.0,1.0,Taxi
6.4,0.18124477119244586,-20.144872663690975,16.04467108909522,0.42129951525801723,0.3217076290182976,327.5881693578517,15.16913490719837,0.0,1.0,0.0,0.0,1.0,Taxi
6.5,0.04940823387142407,-17.3527184341969,17.61664458505048,0.46002311719759426,-0.19369831658588407,327.60691047103614,14.544620910399894,0.0,1.0,0.0,0.0,1.0,Taxi
6.6000000000000005,0.08932280033669732,-17.206822475440276,16.77421344238521,0.3879739050652218,0.06215231060106759,327.616280857069,15.141751548804146,0.0,1.0,0.0,0.0,1.0,Taxi
6.7,0.09521065881524458,-33.29788901547149,15.634964919210132,0.45586895741978734,1.1777159865102569,327.53626809755167,14.381632973971545,0.0,1.0,0.0,0.0,1.0,Taxi
6.800000000000001,-0.11708121120593327,-19.99212829790028,15.531509689954866,0.6990475602171216,-0.9684457018344261,327.55324252114065,13.902062416622996,0.0,1.0,0.0,0.0,1.0,Taxi
6.9,-0.01063784115280396,-29.78481116241105,17.865371121116304,0.540684149772742,-0.17874894531779573,327.51266143605665,15.015653585271757,0.0,1.0,0.0,0.0,1.0,Taxi
7.0,-0.05371339699681055,3.697279299348512,16.59618370577033,-0.02036494053608867,0.03961495788087699,327.70772487782165,15.720435121155068,0.0,1.0,0.0,0.0,1.0,Taxi
7.1000000000000005,-0.09859481470919061,20.910468146046412,17.052286756744028,0.21163300705596058,-0.20796951899048416,327.6605309133496,14.477082993126398,0.0,1.0,0.0,0.0,1.0,Taxi
7.2,0.09391449957742823,11.51812862399199,15.828355741144758,0.4834206739949913,-0.17144787899811828,327.6561533331478,14.588269625474206,0.0,1.0,0.0,0.0,1.0,Taxi
7.300000000000001,0.0038772461231495374,25.80965691288264,16.75609861424307,0.3695542045126721,0.017704253286485314,327.6009004032835,15.686415993647135,0.0,1.0,0.0,0.0,1.0,Taxi
7.4,0.03045346985522271,-29.049951671334515,15.98338175657539,0.47727991047425217,0.20259103057097919,327.606017160501,14.62348013591111,0.0,1.0,0.0,0.0,1.0,Taxi
7.5,-0.051335258779244275,19.447877689934828,15.589640603404408,0.3505079015707774,1.02044282601985,327.727797461057,14.657454518126581,0.0,1.0,0.0,0.0,1.0,Taxi
7.6000000000000005,0.10111663457282379,3.6087319174953953,16.344717455285878,0.6336693042911298,0.016726367261193767,327.62506295005414,14.34578722313841,0.0,1.0,0.0,0.0,1.0,Taxi
7.7,0.04849712944269979,44.71131058714485,17.090739626300913,0.5800675831547109,0.06803686305941532,327.61064985915914,14.854753989866587,0.0,1.0,0.0,0.0,1.0,Taxi
7.800000000000001,0.17222129415648008,-25.96345054257573,17.12932043258756,0.09869559537767741,-0.5200296263234611,327.6877688877439,14.761544177368334,0.0,1.0,0.0,0.0,1.0,Taxi
7.9,-0.02870061814005477,5.367235317006795,16.527885927645947,0.3904941221880889,-0.7165556165307247,327.64663304673013,14.519112681447204,0.0,1.0,0.0,0.0,1.0,Taxi
8.0,0.07533330602773386,-45.050772469804144,15.632891632424608,0.6291048794459765,0.47362930317012386,327.6286244606915,15.22802185956251,0.0,1.0,0.0,0.0,1.0,Taxi
8.1,-0.053032568192540534,-17.355173661782956,17.60682866559671,0.5063118906431041,-0.8437555413002298,327.65176581287176,14.49822247072788,0.0,1.0,0.0,0.0,1.0,Taxi
8.200000000000001,-0.11547648644896942,-5.311444285570029,16.399724083322596,0.09707056458391655,1.1260684286532354,327.6111467138102,15.86923519549923,0.0,1.0,0.0,0.0,1.0,Taxi
8.3,0.04877608459988388,85.11591370053033,16.932530362761018,0.1531086473152894,0.806010360257579,327.7019603253241,14.576638680183114,0.0,1.0,0.0,0.0,1.0,Taxi
8.4,0.37254700031011123,28.537081766474888,16.659780006533914,0.395729064911313,-0.055867170502782004,327.4245294267822,15.322027003182258,0.0,1.0,0.0,0.0,1.0,Taxi
8.5,0.027208922383405106,-57.81817526911089,16.182608431250795,0.21035552266312996,-1.1946067564200695,327.6019401217046,15.019750290029446,0.0,1.0,0.0,0.0,1.0,Taxi
8.6,-0.2403147917456705,-61.01151955754651,16.151065343289456,0.17723888843925753,-0.5821478697413355,327.6891876562954,14.845934834929656,0.0,1.0,0.0,0.0,1.0,Taxi
8.700000000000001,0.06748940252237881,7.014567464643469,16.939636096624145,0.2376915876901247,0.029928018334250954,327.8963792448818,14.76859540937145,0.0,1.0,0.0,0.0,1.0,Taxi
8.8,0.062281759706622586,55.62521557926316,17.0940217367081,0.31702581731153967,-0.4687593718951741,327.6807414229902,14.807604750800579,0.0,1.0,0.0,0.0,1.0,Taxi
8.9,0.03781128615064545,-35.223572625196425,16.229059894450923,0.165781745645063,0.4761331501858413,327.57419835242035,15.550710788178815,0.0,1.0,0.0,0.0,1.0,Taxi
9.0,-0.10862846060360323,8.085499898122587,16.217390370378332,0.09341428044631483,0.25578217824254207,327.70706616681673,15.722893769785802,0.0,1.0,0.0,0.0,1.0,Taxi
9.1,0.1027092591972356,-33.929189537921836,16.023561833951813,0.3944795951322788,1.1150807418595128,327.5033053762329,15.710752196496015,0.0,1.0,0.0,0.0,1.0,Taxi
9.200000000000001,-0.13183466153896362,6.0765030302973555,17.407338401693806,0.2895765093036547,0.47369917106958853,327.5394613479896,14.50679208881892,0.0,1.0,0.0,0.0,1.0,Taxi
9.3,-0.07824594545211634,-42.25385779599309,16.173172109404245,0.09544327871031533,-0.13984024793651034,327.6683776773158,15.108596893924338,0.0,1.0,0.0,0.0,1.0,Taxi
9.4,-0.10856002978272974,24.048113716853326,17.029257184403388,0.36749724212572815,-0.4977740053354226,327.47574700161795,14.414789872323121,0.0,1.0,0.0,0.0,1.0,Taxi
9.5,-0.011594092954696896,11.350758071389263,17.228446654807847,0.5684820095725056,0.38691652652541336,327.69490034418334,14.236133751126811,0.0,1.0,0.0,0.0,1.0,Taxi
9.600000000000001,-0.021492155095169944,8.29842727090203,17.34044100176046,0.6934316457953285,0.4143631763181389,327.6246620313584,14.899183627409926,0.0,1.0,0.0,0.0,1.0,Taxi
9.700000000000001,-0.0670678934282195,1.1589356612567603,16.62897585604292,0.3124099249475018,0.08927705206879472,327.5321681413941,15.293023809688423,0.0,1.0,0.0,0.0,1.0,Taxi
9.8,-0.00579941464841301,15.442935157835429,17.4408598272478,0.6816364725834918,-0.3272859211152154,327.708501250439,15.00897286044471,0.0,1.0,0.0,0.0,1.0,Taxi
9.9,0.05572252069400729,-2.0919696701464687,16.502923547109564,0.6201975048919172,0.057219246176993845,327.5583857697227,14.761775023918448,0.0,1.0,0.0,0.0,1.0,Taxi
10.0,-0.07752774177895178,0.03590320218575963,16.450928275314126,0.23305848553949024,0.9766821158813024,327.7301762533582,15.134276805863422,0.0,1.0,0.0,0.0,1.0,Taxi
10.100000000000001,-0.005619898637484148,20.879513694378737,15.952085723788016,0.32898519466738174,-0.22374431357635374,327.53830275986365,14.736539554366981,0.0,1.0,0.0,0.0,1.0,Taxi
10.200000000000001,0.160120089165901,-8.066879146395715,16.549000407965455,0.24549312726912115,-0.48929656852753683,327.54456956775664,13.703259070861382,0.0,1.0,0.0,0.0,1.0,Taxi
10.3,-0.11786213751093032,7.20182795201012,16.910296040220036,0.5024729906489588,-0.09739307261256017,327.7403515665219,14.553815124954046,0.0,1.0,0.0,0.0,1.0,Taxi
10.4,0.03038924112256651,0.8700676611519734,16.947297793793833,0.20978496149935774,-0.6500252849759307,327.5560787479351,14.713715856050962,0.0,1.0,0.0,0.0,1.0,Taxi
10.5,0.16447042747166096,35.12453132621724,14.665990473417862,0.6086616778326388,-0.1569343861831009,327.6320392920152,15.264943391917086,0.0,1.0,0.0,0.0,1.0,Taxi
10.600000000000001,0.057760519120156,27.90950604173247,15.899412732823972,0.44283023854140086,-0.08185257217823201,327.6337500133417,14.655125421223692,0.0,1.0,0.0,0.0,1.0,Taxi
10.700000000000001,0.16993677133122898,-17.06956555645759,16.5496215446022,0.3322515249329584,0.1075999100611829,327.57091827412364,14.708715214418811,0.0,1.0,0.0,0.0,1.0,Taxi
10.8,0.07912259968937312,-49.66911096071444,16.887339627022865,0.4389318771179394,0.3287161977619906,327.6861576130847,13.80507989898002,0.0,1.0,0.0,0.0,1.0,Taxi
10.9,-0.19058503568341612,-53.51270398248759,16.248505037366925,0.4058673738982538,-0.1432017742926588,327.5509407152564,14.905883688450624,0.0,1.0,0.0,0.0,1.0,Taxi
11.0,-0.0976267485812089,-31.797073090435074,16.577127620860615,0.4289249282994226,-0.4299962796593509,327.5631730648638,14.732690271174377,0.0,1.0,0.0,0.0,1.0,Taxi
11.100000000000001,-0.07986276576280216,43.407375198492616,16.662075198093547,0.613242722875109,-0.7504099359994152,327.6985937428409,14.34920501100462,0.0,1.0,0.0,0.0,1.0,Taxi
11.200000000000001,0.026451840309047077,12.165702356744466,17.42828247803601,0.14976852862354262,-0.2036871695677614,327.87972988308957,15.32224427104784,0.0,1.0,0.0,0.0,1.0,Taxi
11.3,-0.036798236797486436,20.77326305849226,16.977257199389115,0.3114897262498405,-0.4198153095735948,327.74273141223784,15.6859902166153,0.0,1.0,0.0,0.0,1.0,Taxi
11.4,0.024003549529659274,-40.04423024992999,17.414774646155674,0.16669083512377245,0.179341046053443,327.6267167531289,14.062467742611437,0.0,1.0,0.0,0.0,1.0,Taxi
11.5,-0.17376931094060277,4.289677228995127,17.01758803416265,0.0593029734997389,-0.3675959435847783,327.5469660621061,14.77869263563205,0.0,1.0,0.0,0.0,1.0,Taxi
11.600000000000001,-0.015349850652510703,5.051155819698107,15.635685720199204,0.2888161137884868,0.7287508725653485,327.3892822744938,14.942290212753523,0.0,1.0,0.0,0.0,1.0,Taxi
11.700000000000001,0.04925932862814992,48.56384918528257,15.633652178699434,0.731518180578985,-0.7647389905678068,327.4793688842394,15.040007997621274,0.0,1.0,0.0,0.0,1.0,Taxi
11.8,0.06904993498581019,-1.1700035578771353,16.68530816991637,0.3200848452498698,0.3574710764584785,327.6080690569196,14.962023617387752,0.0,1.0,0.0,0.0,1.0,Taxi
11.9,-0.021199868441896266,-14.337397502653516,16.48487818878845,0.11345264208473199,0.18185333602490206,327.5076697618035,14.68370615338568,0.0,1.0,0.0,0.0,1.0,Taxi
12.0,-0.02242765888511755,-29.96266998676589,16.408143316273055,0.5717085934726891,-0.14940275654236132,327.72146564664365,14.507841705187346,0.0,1.0,0.0,0.0,1.0,Taxi
12.100000000000001,-0.08076341494801913,36.70160550580942,16.282571357277714,0.26155914756638154,-0.2865555536641048,327.5172009503724,14.939085740405012,0.0,1.0,0.0,0.0,1.0,Taxi
12.200000000000001,0.1623081590871509,-3.0651211212162743,16.0503196426324,0.4378373031899645,0.7270601370720752,327.6319006561806,14.485057609480611,0.0,1.0,0.0,0.0,1.0,Taxi
12.3,-0.03775326449119882,-9.13569460131184,16.77545526066809,0.27002534074178286,-0.6165465604885142,327.71661326235096,15.106027548473843,0.0,1.0,0.0,0.0,1.0,Taxi
12.4,-0.12644188795457822,-55.179404153654225,15.248241300741133,0.5505235537165176,0.24022826697076213,327.7354075720491,15.978920667728934,0.0,1.0,0.0,0.0,1.0,Taxi
12.5,-0.11358886168112009,-6.6121583551942,15.91123361682729,0.07109876379418656,-0.002298386373794082,327.61181629842827,14.98104461537934,0.0,1.0,0.0,0.0,1.0,Taxi
12.600000000000001,-0.07081405626716972,52.08881748567578,16.286299494196044,0.166532412388073,-0.3741049688776362,327.63431362087385,15.042767411113624,0.0,1.0,0.0,0.0,1.0,Taxi
12.700000000000001,0.1340021994738008,54.45699384933098,16.249252201101775,0.31115610577448477,0.17035343185975624,327.5890762437373,14.783586689697778,0.0,1.0,0.0,0.0,1.0,Taxi
12.8,0.15869610756553487,12.02818681137857,15.60991182729309,0.4571641515458051,-0.5434610929075345,327.5171697745593,14.417123084905223,0.0,1.0,0.0,0.0,1.0,Taxi
12.9,-0.010673122210276767,-40.518302161069336,16.937893835892044,0.3005766330940926,-0.6340716259955617,327.7400826430719,15.45132429542437,0.0,1.0,0.0,0.0,1.0,Taxi
13.0,-0.06858931133154579,-32.96362919284041,17.188729309668673,0.26612522389693016,0.2364785440992733,327.7009810733125,14.908353168510102,0.0,1.0,0.0,0.0,1.0,Taxi
13.100000000000001,-0.006122038398667023,16.69531768303953,16.921927110024786,0.48380854568298126,-0.3039362783718737,327.5532620304724,14.74120118804422,0.0,1.0,0.0,0.0,1.0,Taxi
13.200000000000001,0.07280346620492098,27.996849322444294,16.22169300704102,0.2757717184917232,-0.4408493272293088,327.6171766739001,14.954326863700595,0.0,1.0,0.0,0.0,1.0,Taxi
13.3,0.0713949352806758,28.091543186235842,15.082710321762944,0.4426229820985382,0.40420779431991355,327.5711670329106,14.897586417496608,0.0,1.0,0.0,0.0,1.0,Taxi
13.4,0.1343356775325123,-9.81422037589781,16.887006715927892,0.22204016787179337,-0.0024555105415723665,327.75051713525863,14.391895718815288,0.0,1.0,0.0,0.0,1.0,Taxi
13.5,0.023732364325432038,-28.873867514375647,16.921869928767368,0.4464294557426414,-0.03522550759955911,327.6503843961764,14.27237238292628,0.0,1.0,0.0,0.0,1.0,Taxi
13.600000000000001,-0.07297440229120233,-11.208296882114198,16.69598214770144,0.40082448560948697,-0.12066817355906555,327.5376988639389,14.340097110600281,0.0,1.0,0.0,0.0,1.0,Taxi
13.700000000000001,0.0782941931219414,6.5683996991399525,17.069231501707414,0.18230911433646022,0.3554442232163576,327.82179747063356,14.75500821891346,0.0,1.0,0.0,0.0,1.0,Taxi
13.8,0.05657436282113189,30.171303516139357,17.84716543974596,0.45725701090607374,-0.02836348033087833,327.6060059830363,14.353815199708825,0.0,1.0,0.0,0.0,1.0,Taxi
13.9,0.07788211528949454,-18.623221901134666,17.129800118877114,0.27808439136374496,0.6941783057335219,327.4641775514108,15.242285991280111,0.0,1.0,0.0,0.0,1.0,Taxi
14.0,-0.014821916383731822,-25.488715416074754,15.821246160990587,0.5755210790424198,-0.4292570599233457,327.65171859444024,14.660839622468615,0.0,1.0,0.0,0.0,1.0,Taxi
14.100000000000001,-0.07086921425924177,-14.226660176813908,16.51659826318173,0.4088919641057141,-0.13176956258568118,327.648328931946,15.2895311258477,0.0,1.0,0.0,0.0,1.0,Taxi
14.200000000000001,0.006748814405425118,2.2435909642258323,17.310994056330152,0.09729603291262068,-0.17010156279606958,327.67116701231237,15.117767975491505,0.0,1.0,0.0,0.0,1.0,Taxi
14.3,-0.0036039615626025437,46.13087132170687,17.23211161166099,0.4338397223291234,-0.22853594903875393,327.66696870126793,14.916054880494762,0.0,1.0,0.0,0.0,1.0,Taxi
14.4,0.1597851423492927,13.090855797755106,15.99592429620607,0.43933174806558967,0.432394575954606,327.51554390376737,14.922220300899069,0.0,1.0,0.0,0.0,1.0,Taxi
14.5,0.0722030933942008,-22.18489471217536,17.287889736560572,0.19914040447561768,-0.5422024552901052,327.7684840701778,15.200971256630499,0.0,1.0,0.0,0.0,1.0,Taxi
14.600000000000001,-0.1145284351234792,-29.045265683401595,16.699440901365506,0.026645188930570274,0.01981709964455749,327.70843736717484,14.701920736317167,0.0,1.0,0.0,0.0,1.0,Taxi
14.700000000000001,0.014558813932284809,8.20997309665646,16.03574475771483,0.461588601774587,-0.04467714146165457,327.55758625717294,14.836683424399231,0.0,1.0,0.0,0.0,1.0,Taxi
14.8,0.11325295887748321,24.298917134790553,16.97166134335346,0.19377367714922222,-0.4441016825403346,327.6975068481456,14.761517488832459,0.0,1.0,0.0,0.0,1.0,Taxi
14.9,0.006966150550473661,-14.657987207141817,16.329309792779494,0.27293493087190285,-0.9900471917259036,327.36470544423184,15.27273931583176,0.0,1.0,0.0,0.0,1.0,Taxi
15.0,-0.058731122103424155,-24.593712975152254,16.946583103325114,0.4930649991879865,-0.18022496033235946,327.6122740416174,14.624591321425024,0.0,1.0,0.0,0.0,1.0,Taxi
15.100000000000001,-0.00971560599827794,-8.994097114817206,16.741263199026488,0.31185374436182556,-0.13518461708625068,327.48919859727994,14.777229569023195,0.0,1.0,0.0,0.0,1.0,Taxi
15.200000000000001,-0.03800433502361225,-4.483088841388866,16.245942905439186,0.7849737162515369,-0.369864504634915,327.6234018904589,14.796508699040709,0.0,1.0,0.0,0.0,1.0,Taxi
15.3,-0.08114656631036836,24.689213609135,16.05113126311961,0.7694204565359819,-0.23138296129737407,327.594333138876,14.937677858006204,0.0,1.0,0.0,0.0,1.0,Taxi
15.4,0.11373046204739719,27.614686004760824,15.90357362417884,0.38921405042376245,-0.6098887216111498,327.3220977105793,14.211015000563,0.0,1.0,0.0,0.0,1.0,Taxi
15.5,0.100069095000192,33.14450370633038,17.7850143640865,0.2424206422851698,0.23268883940193855,327.53307965701197,14.458239073460785,0.0,1.0,0.0,0.0,1.0,Taxi
15.600000000000001,0.08457595222128367,-0.020358266874258863,16.434806357612295,0.6398343129505095,0.6802194671934317,327.75995544624266,14.731107218814852,0.0,1.0,0.0,0.0,1.0,Taxi
15.700000000000001,0.11362867071302601,-10.631989800818475,16.982956125280094,0.5240224713304944,-0.14047837985797104,327.5772031798258,15.773809243200361,0.0,1.0,0.0,0.0,1.0,Taxi
15.8,0.04690914599609975,22.125027182564086,16.487392039553505,0.6248768247099001,0.012734603117830765,327.6675932920682,14.978569423202096,0.0,1.0,0.0,0.0,1.0,Taxi
15.9,0.19520108813410425,-52.13481393095919,16.963340900869923,0.26234092312227303,0.12390593097215694,327.47432372123035,14.943673729091085,0.0,1.0,0.0,0.0,1.0,Taxi
16.0,-0.14704539894176974,-1.333506239885234,16.62645344424103,0.5684542191316375,0.41994777897741015,327.61554191448135,14.656493940419727,0.0,1.0,0.0,0.0,1.0,Taxi
16.1,0.0402416147966738,-26.54472182262461,17.452045525589796,0.1979080136635113,0.5735323986287567,327.708390022691,14.162378691684799,0.0,1.0,0.0,0.0,1.0,Taxi
16.2,0.0624774790209814,48.50369604058233,16.508702875405053,0.24377320095422242,-0.1691131298786457,327.62182467892603,13.621203217110171,0.0,1.0,0.0,0.0,1.0,Taxi
16.3,0.09547308126114201,-28.840555988602635,16.81258074900061,0.3629409288276962,0.5179571093466326,327.61413946067864,14.33859069725539,0.0,1.0,0.0,0.0,1.0,Taxi
16.400000000000002,-0.10396116514633927,-21.327758692744414,16.426187706898304,0.6420258229461628,0.8904539112631844,327.5974897595945,15.085202012630443,0.0,1.0,0.0,0.0,1.0,Taxi
16.5,-0.044161314442740546,-59.17521433956651,15.542976586848976,0.20615256993149364,0.27316504093928257,327.4929387939047,14.103183243433712,0.0,1.0,0.0,0.0,1.0,Taxi
16.6,-0.2004029904366904,46.89169929489515,16.215077585611944,0.5733152109372117,-0.4813163729588442,327.5910180343126,15.482796504873582,0.0,1.0,0.0,0.0,1.0,Taxi
16.7,0.13049733132813654,-2.2624720971262966,16.017235896973137,0.2524523073299972,-0.05881506595360197,327.6860225518735,14.608909530065475,0.0,1.0,0.0,0.0,1.0,Taxi
16.8,-0.05547367492837194,10.024826877395192,16.24313547955106,0.40485081784441146,-0.2554511167831471,327.5202464441802,15.768952640167306,0.0,1.0,0.0,0.0,1.0,Taxi
16.900000000000002,-0.1502788560497144,-5.927270235385929,15.325354434648665,0.38084050994549346,0.10733189977522048,327.5520983256623,14.879863290754622,0.0,1.0,0.0,0.0,1.0,Taxi
17.0,0.10086098015120704,-12.485173811280248,16.937001569913356,0.29809247508642145,0.27338506678540997,327.6468871289044,15.158166826090099,0.0,1.0,0.0,0.0,1.0,Taxi
17.1,-0.11789954398477301,14.13135395830623,16.002508114426067,-0.07467374979551161,0.458359307960201,327.4771371224083,14.459011425897103,0.0,1.0,0.0,0.0,1.0,Taxi
17.2,-0.07962208625818307,-0.289855632021343,15.705708484117185,0.28815380462425405,-0.22373593125027993,327.5136988396706,15.27463885767566,0.0,1.0,0.0,0.0,1.0,Taxi
17.3,0.09941170199110043,19.906851416351632,16.28369852971409,0.5480341956660637,0.3100577103010833,327.67884507199574,15.844712776469297,0.0,1.0,0.0,0.0,1.0,Taxi
17.400000000000002,-0.018365286903014758,53.411236935150406,15.275259904982777,0.46698798803372277,0.6831698288444629,327.7918485991912,14.21362902341036,0.0,1.0,0.0,0.0,1.0,Taxi
17.5,0.187434098417569,-4.423797548214874,15.414513070131992,0.26680870073617186,0.027843217019314075,327.63958848568086,15.009066452827701,0.0,1.0,0.0,0.0,1.0,Taxi
17.6,0.07729271425002614,15.94868310831444,15.530465601514605,0.24057083690845205,-0.7005943465577023,327.56114294080703,14.444035777601284,0.0,1.0,0.0,0.0,1.0,Taxi
17.7,0.061378128638557516,-4.362582549081902,15.861180696149585,0.3164697069282336,0.5746614303071378,327.5828284753261,14.537795243914504,0.0,1.0,0.0,0.0,1.0,Taxi
17.8,0.16562118567215958,5.889535420539784,17.59764018110211,0.05188315333269389,0.6590283567382366,327.58784408730185,15.200599499945374,0.0,1.0,0.0,0.0,1.0,Taxi
17.900000000000002,0.10674039135272513,-30.036952634241104,16.990730471714325,0.0430611267311688,-0.6286640333895201,327.75164075623,14.467111932202265,0.0,1.0,0.0,0.0,1.0,Taxi
18.0,-0.08880663453264792,-34.90038653504178,16.30773187925087,0.07644630972652672,0.6891671297468801,327.7401894350859,14.346690403761908,0.0,1.0,0.0,0.0,1.0,Taxi
18.1,-0.00888074700304926,-10.200743416185864,16.55234229589819,0.5221925625042795,0.3625001180654865,327.4674373010148,14.672450262349553,0.0,1.0,0.0,0.0,1.0,Taxi
18.2,0.05573667427179592,-10.639432216864748,16.794834743762024,0.3353507698878428,-0.20048668013481916,327.8142554366277,15.601296196430914,0.0,1.0,0.0,0.0,1.0,Taxi
18.3,-0.14200379561697155,17.57001081858341,15.76143835400999,0.593568251766703,-0.40735438267472224,327.79478183414767,14.79651947605082,0.0,1.0,0.0,0.0,1.0,Taxi
18.400000000000002,0.0789693070898679,-15.729237330842492,17.400293390409367,0.6529051512733398,-0.4858022743142192,327.4240205225318,14.728914381879873,0.0,1.0,0.0,0.0,1.0,Taxi
18.5,-0.022909512382416425,18.02962886790809,17.629249971554216,0.4670239904814228,0.31345019451888584,327.44548873825966,14.536412101895259,0.0,1.0,0.0,0.0,1.0,Taxi
18.6,-0.05185565127743096,22.182788450318018,17.464664669214738,0.6568343276417443,0.840977413833927,327.80995792719705,15.933829426685879,0.0,1.0,0.0,0.0,1.0,Taxi
18.7,0.1898832493414581,-8.873833960668085,16.5562232078204,0.5586549543587724,0.2512215966007216,327.5281182089259,14.81696969890737,0.0,1.0,0.0,0.0,1.0,Taxi
18.8,-0.06727868218575674,0.8359415414220285,16.954659359111304,0.3393502823565101,-0.4249235343382174,327.5699202574697,15.065700181710211,0.0,1.0,0.0,0.0,1.0,Taxi
18.900000000000002,-0.04767594357032073,-11.46541340403237,17.34021782742687,0.22339932984678296,0.18976251209669504,327.7037302005924,14.723854621985456,0.0,1.0,0.0,0.0,1.0,Taxi
19.0,0.13255618232129635,-24.335650384279635,15.248781601004941,0.7162323987253407,0.10677717823607324,327.47318571444293,15.08530772479277,0.0,1.0,0.0,0.0,1.0,Taxi
19.1,-0.18895693410715478,35.69449116500174,16.41374904344355,0.42029721985720914,-0.33531152287502103,327.5783283369319,14.5090267966063,0.0,1.0,0.0,0.0,1.0,Taxi
19.200000000000003,0.13079651225468814,-48.65987480006637,16.547412374178258,0.40415057989917097,0.9673413842545477,327.70907772908527,14.129483654949526,0.0,1.0,0.0,0.0,1.0,Taxi
19.3,-0.11074319167903535,23.206923949227217,16.996832515538802,0.4985697161808339,0.3112434376068335,327.727298497289,15.190509672742957,0.0,1.0,0.0,0.0,1.0,Taxi
19.400000000000002,-0.07292231436101854,-7.94906367321921,16.72628298961571,0.2192738147208602,-0.38521112892308706,327.6725509775697,14.693278642530354,0.0,1.0,0.0,0.0,1.0,Taxi
19.5,0.09105119388859224,21.83629281736799,16.281755471517528,0.17077775205763784,-0.499808238314102,327.5760826740874,15.16754666406751,0.0,1.0,0.0,0.0,1.0,Taxi
19.6,-0.0015617275921952184,58.887537034689615,17.17141773824916,-0.05031828209465827,0.009506900837119761,327.7425221934384,14.708058251022562,0.0,1.0,0.0,0.0,1.0,Taxi
19.700000000000003,0.22151537081242975,-41.65924824987411,17.45407158171832,0.23846927177679247,0.449936906269699,327.6478659287766,15.34262474279075,0.0,1.0,0.0,0.0,1.0,Taxi
19.8,-0.11724504736077818,-22.192444592692084,16.73283287128138,0.24759646388614837,-0.5028585756372578,327.55374167623677,14.317240287976194,0.0,1.0,0.0,0.0,1.0,Taxi
19.900000000000002,-0.1125239505556555,-67.41503416187108,16.2487047474751,0.051161506708302606,-0.5312911902414557,327.557459663547,15.187891574967765,0.0,1.0,0.0,0.0,1.0,Taxi
20.0,-0.11555979999692556,28.737790409011705,16.02023590897725,0.28976695362287475,0.023112550521837395,327.62250979252144,15.109943599548624,0.0,1.0,0.0,0.0,1.0,Taxi
20.1,0.026443904684280498,10.308183166631842,16.411433501640524,0.18817323237991293,0.36226214192933376,327.59463047784175,15.06441644901263,0.0,1.0,0.0,0.0,1.0,Taxi
20.200000000000003,-0.06098303472249616,-14.539353567313299,17.402055639521006,0.3093571147584794,-0.257338507997722,327.50682210903074,15.310144716441194,0.0,1.0,0.0,0.0,1.0,Taxi
20.3,-0.1882565678334919,-28.846787800534354,16.864431146428256,0.1191482640483606,-0.18465634424882746,327.4982237876301,15.067660139821164,0.0,1.0,0.0,0.0,1.0,Taxi
20.400000000000002,-0.11779003431839113,31.4473536725561,15.77867667237186,0.31309283858253456,0.134686477552415,327.69304132173454,14.580587182119451,0.0,1.0,0.0,0.0,1.0,Taxi
20.5,0.0962537336402845,42.81333032358692,17.23451485939526,0.09492512384194124,-0.49447794412957097,327.6169286849322,16.110134120065027,0.0,1.0,0.0,0.0,1.0,Taxi
20.6,0.02581008378444287,11.046546127597772,15.434176749708739,0.36161528381943525,0.8762223154282373,327.6811595076149,15.24163781682825,0.0,1.0,0.0,0.0,1.0,Taxi
20.700000000000003,-0.06255730368040213,19.81057275283037,16.2236285698236,0.20677005891593842,0.6365882895163476,327.6289807081706,13.568187915026204,0.0,1.0,0.0,0.0,1.0,Taxi
20.8,0.19530659740443648,-29.536234914216227,16.68905557041301,0.29705246537871344,-0.41220615953939715,327.47653517193385,14.799575976595628,0.0,1.0,0.0,0.0,1.0,Taxi
20.900000000000002,-0.12187109078663812,25.224484032348244,16.84458343485802,0.6456035774354425,0.5895935783586799,327.8150519763776,15.113317188121835,0.0,1.0,0.0,0.0,1.0,Taxi
21.0,0.06356511648133922,-39.68806144764414,16.611250393948612,0.37951195752126166,-0.032304212095336515,327.81621418643545,14.314431829219041,0.0,1.0,0.0,0.0,1.0,Taxi
21.1,-0.003133709833784032,7.871477518678167,17.534851969763718,0.28238722832954316,0.09066083549556436,327.4849854402428,15.105602276399903,0.0,1.0,0.0,0.0,1.0,Taxi
21.200000000000003,-0.08251370319324713,-0.4768346460610881,17.105428223130357,0.46173805011166114,0.13428292083220658,327.5349683904524,15.275067140884941,0.0,1.0,0.0,0.0,1.0,Taxi
21.3,0.06118094325103393,7.274164682541387,16.25437151880487,-0.015838751937654494,-0.021708648695850714,327.59196655733115,15.025579484595383,0.0,1.0,0.0,0.0,1.0,Taxi
21.400000000000002,0.033237113578923054,4.776872299305516,17.26522987645934,0.5254446913577454,0.26520329709098334,327.7030331084129,15.306064017615427,0.0,1.0,0.0,0.0,1.0,Taxi
21.5,-0.058629341696719406,-23.236079879492667,16.652200085830703,0.6591741639423458,0.5082840318789403,327.5279565805208,14.368151518358646,0.0,1.0,0.0,0.0,1.0,Taxi
21.6,-0.05499945614642925,-20.010357054078693,16.838349585973987,0.6888622330408398,-0.35875394200937216,327.5574477870789,15.682849773345765,0.0,1.0,0.0,0.0,1.0,Taxi
21.700000000000003,-0.06681467169147026,6.316900815245991,16.94697797194176,0.564659374346868,-0.12096338281821843,327.6329968977975,16.102156490103113,0.0,1.0,0.0,0.0,1.0,Taxi
21.8,-0.027044837620489294,8.139597648532453,16.527916196357644,0.04246397325230222,0.49962407444330204,327.5379835267074,14.794272536597951,0.0,1.0,0.0,0.0,1.0,Taxi
21.900000000000002,-0.014301467903766832,12.489853319123148,16.42551411042471,0.3725388933405581,0.07831292779197307,327.6310844953425,14.263194613060374,0.0,1.0,0.0,0.0,1.0,Taxi
22.0,-0.004365405095854378,-6.307349997000788,17.42679041606891,0.4036487794440433,-0.5037052712041297,327.41471501366664,15.701711886475135,0.0,1.0,0.0,0.0,1.0,Taxi
22.1,-0.05858158760549309,-16.378003186987282,17.750994233629857,0.7370022924987238,0.2615399356301596,327.6106098991031,15.354836563947428,0.0,1.0,0.0,0.0,1.0,Taxi
22.200000000000003,-0.0961914838387031,-15.609914062218643,16.592509919689064,-0.03449347514348411,0.04659632177728954,327.56810168329514,14.344758227321075,0.0,1.0,0.0,0.0,1.0,Taxi
22.3,-0.08241497540694745,8.443825539998526,17.071955919145687,0.8293357499639062,-0.29568147025543534,327.4556891288446,14.40340454618488,0.0,1.0,0.0,0.0,1.0,Taxi
22.400000000000002,-0.016362459905500306,12.54211615743108,17.147327124931657,0.3693418588785573,0.1866728660560714,327.51590652713276,15.503156747699263,0.0,1.0,0.0,0.0,1.0,Taxi
22.5,-0.03348090305154755,0.6897445178471043,16.197995311549207,0.2875215334372254,-0.4006007318765716,327.5148758423052,14.319612939373037,0.0,1.0,0.0,0.0,1.0,Taxi
22.6,-0.07896625281771177,8.39041931350731,17.279830366343212,0.1791629077258901,0.07571986648962663,327.6748095404678,14.484900977301917,0.0,1.0,0.0,0.0,1.0,Taxi
22.700000000000003,0.025589636662036397,20.948985871277305,16.788554473741847,0.48586960359339454,0.26749640248724393,327.68228178911795,14.410788306142228,0.0,1.0,0.0,0.0,1.0,Taxi
22.8,0.07126402630483913,23.106930636356978,16.536695486147497,0.11621108633035387,0.1106084560376609,327.58917038811205,15.914382541595232,0.0,1.0,0.0,0.0,1.0,Taxi
22.900000000000002,0.03656840036407329,12.077881346793907,16.182766892046338,0.20779935832144625,0.37024495460960355,327.6209121560946,15.670201962587349,0.0,1.0,0.0,0.0,1.0,Taxi
23.0,0.08597904339600608,-4.453797572561135,15.854214711777916,0.264526458938385,0.2687732953327743,327.6143690765489,14.981795017896902,0.0,1.0,0.0,0.0,1.0,Taxi
23.1,0.04899503844203361,5.992211502479577,17.48916410551115,0.34115803709569975,0.03784606183249,327.5110175192169,14.773491065531543,0.0,1.0,0.0,0.0,1.0,Taxi
23.200000000000003,0.06652945787647133,-41.38144725818369,16.15160303977721,0.40480772302792595,-0.3494667915665215,327.58251975952226,14.446045832711677,0.0,1.0,0.0,0.0,1.0,Taxi
23.3,-0.12092819289491222,-5.247132364232773,17.175099577705605,0.38877479294412864,0.9742224918789643,327.58543718087935,15.024073460039038,0.0,1.0,0.0,0.0,1.0,Taxi
23.400000000000002,0.022759376620869867,-29.297004060846138,17.167415831223966,0.2845758072680225,-0.35864318254730637,327.5872857427215,13.565375293471835,0.0,1.0,0.0,0.0,1.0,Taxi
23.5,-0.07995556242775925,17.035128840786154,17.280287387921607,0.6766777400752493,0.15018708269371986,327.78126891847535,14.303870893353123,0.0,1.0,0.0,0.0,1.0,Taxi
23.6,-0.03575254869098133,-12.301839445016945,16.424925311155274,0.349326107004359,0.1572847129797238,327.46339033030245,15.272112135385001,0.0,1.0,0.0,0.0,1.0,Taxi
23.700000000000003,-0.03874982060421471,6.302233248855289,16.32746305414904,0.30012652869437656,0.17919068828237963,327.5073323902394,14.87712146231799,0.0,1.0,0.0,0.0,1.0,Taxi
23.8,-0.04844439618348265,-0.2463099973621364,16.873469250033654,-0.03500113054831833,0.4506015263487715,327.44907562457877,15.219504534353906,0.0,1.0,0.0,0.0,1.0,Taxi
23.900000000000002,-0.03698409867779186,22.20802768241383,17.25639239703455,0.08850613868695517,-0.27492713111955475,327.5760481726322,14.053174338440458,0.0,1.0,0.0,0.0,1.0,Taxi
24.0,0.0722903178078546,27.180321922791588,16.39910990406934,0.427674012134188,0.5854653165548648,327.6164438617287,14.287579931454461,0.0,1.0,0.0,0.0,1.0,Taxi
24.1,0.08745721343047541,27.19647401213454,16.688750157510484,0.4749188268347926,0.9361473060064797,327.6092223950661,15.352876024586173,0.0,1.0,0.0,0.0,1.0,Taxi
24.200000000000003,0.09899827138288099,-17.90386529703487,17.747919205810334,0.30243808792813054,-0.42498178193177305,327.53327743531213,15.481855389694815,0.0,1.0,0.0,0.0,1.0,Taxi
24.3,-0.017229008677319576,-50.905716731911944,17.79513096307758,0.3308657533068041,0.41575299642801417,327.5883937342919,14.849508130561356,0.0,1.0,0.0,0.0,1.0,Taxi
24.400000000000002,-0.16707137022908414,-16.702752119429608,16.80797468655218,0.2788417376599155,0.08960556243740188,327.4959375333233,16.173795998726828,0.0,1.0,0.0,0.0,1.0,Taxi
24.5,0.015484510785733114,-7.447755836093234,15.92187869228332,-0.061375107979807664,-0.2705689181361268,327.6703329240438,15.9823905484005,0.0,1.0,0.0,0.0,1.0,Taxi
24.6,-0.05446778785778561,25.248070107697448,17.977556937699337,0.5406509795844078,-0.33171673446310523,327.6446830082418,15.275951197033175,0.0,1.0,0.0,0.0,1.0,Taxi
24.700000000000003,-0.04083101969059677,-11.56458372074966,17.071343726429305,0.5915064705358292,-0.49572750091660456,327.5547207079428,14.476595226614336,0.0,1.0,0.0,0.0,1.0,Taxi
24.8,-0.04233840781801507,-2.6125176047969734,15.929452207246646,0.3474525912112029,0.2431368730758422,327.7614894411365,14.82934599822475,0.0,1.0,0.0,0.0,1.0,Taxi
24.900000000000002,-0.06753037588177034,5.400378070474676,16.558096934320425,0.29213586375652156,0.10301674859861697,327.59957241790516,15.324220151852172,0.0,1.0,0.0,0.0,1.0,Taxi
25.0,-0.013829129338223264,18.60071311489924,15.837565500395113,0.5856918380619602,0.5895599940721505,327.72299295833045,14.546313007728319,0.0,1.0,0.0,0.0,1.0,Taxi
25.1,0.050665157756481255,28.40243104294363,17.584825041712502,0.09252617136369445,-0.6306300720435412,327.6746234152072,14.560205410143887,0.0,1.0,0.0,0.0,1.0,Taxi
25.200000000000003,0.07448177933294794,17.674255440751182,17.364780168070652,0.24103394372513892,0.7653175854313116,327.5745516250595,14.910617264854196,0.0,1.0,0.0,0.0,1.0,Taxi
25.3,0.07454214786553277,2.8925658344876966,17.33774691338532,-0.21499384787997566,-0.14367641710007076,327.5453887717995,14.60262717309818,0.0,1.0,0.0,0.0,1.0,Taxi
25.400000000000002,0.06512798692891987,-25.329682756548454,16.570088339633443,0.5298363301582033,0.07070146762669133,327.59648488897597,15.359400515396151,0.0,1.0,0.0,0.0,1.0,Taxi
25.5,-0.05216663444979422,-9.61407526937132,16.90194840578008,0.18439365332175842,0.9893325597501025,327.5444334735621,15.041145465728286,0.0,1.0,0.0,0.0,1.0,Taxi
25.6,0.02647177151867631,-11.471607240342955,16.445222978005816,0.48850038016816544,-0.3297450400093352,327.7250630981141,15.309593233586424,0.0,1.0,0.0,0.0,1.0,Taxi
25.700000000000003,0.007769950727205226,0.8990866194925905,15.424248135765598,0.4065783432692132,1.0554160762405214,327.62567871726753,13.573293535583666,0.0,1.0,0.0,0.0,1.0,Taxi
25.8,-0.04767120135233113,-8.663159607447133,15.617206173955957,0.2949715845892577,-0.09839410891951447,327.7025179484905,15.570947047101921,0.0,1.0,0.0,0.0,1.0,Taxi
25.900000000000002,-0.01684402651855923,3.022598273192419,16.936614541822006,0.2617288820127827,0.6707279685915573,327.55034302424974,14.632534055820841,0.0,1.0,0.0,0.0,1.0,Taxi
26.0,0.022882942093167442,-4.749175282991963,16.756000981010388,0.3486140936206099,-0.22171080465754534,327.5560629601043,14.972846954538799,0.0,1.0,0.0,0.0,1.0,Taxi
26.1,-0.07141707776729084,-4.79454237676027,16.260845337297237,0.30365079803590145,0.5122455497748111,327.68865645757273,15.353478690298429,0.0,1.0,0.0,0.0,1.0,Taxi
26.200000000000003,-0.04081673840236047,11.28847288210369,16.21611393433541,0.6586374565699047,-0.5002399222052011,327.70294715038585,14.943026214014585,0.0,1.0,0.0,0.0,1.0,Taxi
26.3,0.07932530650368601,12.08770278314797,16.845391652860474,0.42518876143645085,-0.34835670041262207,327.43955230596157,15.122052990864919,0.0,1.0,0.0,0.0,1.0,Taxi
26.400000000000002,-0.010978563851550875,19.365676286144964,16.54102825469303,0.20619093067921024,0.7466228378849075,327.6072075988393,14.478707721489874,0.0,1.0,0.0,0.0,1.0,Taxi
26.5,0.05601164302836447,-13.569992230185866,15.995443603335657,0.2204643040760661,0.02981585483561679,327.64525474759466,14.15157457879327,0.0,1.0,0.0,0.0,1.0,Taxi
26.6,0.011475345352756787,-0.8518750236095277,16.493135767949063,0.45374200557891864,-0.31092993751090003,327.72786573585176,14.82109299665304,0.0,1.0,0.0,0.0,1.0,Taxi
26.700000000000003,-0.015237938969598398,8.153807377295038,16.670157866627694,0.23805679731319437,-0.2879361553418241,327.7421108352197,14.583362284256749,0.0,1.0,0.0,0.0,1.0,Taxi
26.8,0.0967806799148398,-1.2468713995646017,16.579090791861784,0.15512821659120446,-0.36584300994903196,327.5719129494465,15.2028852159903,0.0,1.0,0.0,0.0,1.0,Taxi
26.900000000000002,0.005240988354933911,-12.86313977078723,16.08743216620859,0.6080041462582058,0.8527366766445029,327.5289609797899,15.100631425831924,0.0,1.0,0.0,0.0,1.0,Taxi
27.0,-0.07955363782353442,-5.68330137758448,17.26677290109235,0.2956556428146814,0.24895781696868294,327.64295684771264,14.826294274006154,0.0,1.0,0.0,0.0,1.0,Taxi
27.1,0.06836417302691752,20.79924324276145,15.61742672203513,0.1452230541675237,-0.06846608066958804,327.5900759807047,15.109347348272609,0.0,1.0,0.0,0.0,1.0,Taxi
27.200000000000003,0.10923720456874127,5.361989074225808,15.825814982807584,0.38431182051566104,0.18795226791622552,327.68416751401946,14.09656161129822,0.0,1.0,0.0,0.0,1.0,Taxi
27.3,-0.05274369245240529,-25.722085053686623,16.679536813190737,0.3067077106561377,0.7108389446183973,327.44133548154286,14.672763328897533,0.0,1.0,0.0,0.0,1.0,Taxi
27.400000000000002,-0.06024625224151552,-41.12490003279745,16.46752248530847,0.33787681322031915,0.49648470452783483,327.67765941253447,15.37430039444532,0.0,1.0,0.0,0.0,1.0,Taxi
27.5,-0.09638729559524592,33.876888962577134,16.162395135804882,0.3134495233836079,0.3098750388598269,327.62689958095166,15.339757886814885,0.0,1.0,0.0,0.0,1.0,Taxi
27.6,0.11664075236048049,44.87695889216808,16.449176774976415,0.5592062514472161,0.011979649268507349,327.50444250673877,14.847756017747022,0.0,1.0,0.0,0.0,1.0,Taxi
27.700000000000003,0.164138542219325,19.883189119437617,16.158117714034816,0.038777538010109136,0.7638863337531726,327.69290860313924,14.827938015788442,0.0,1.0,0.0,0.0,1.0,Taxi
27.8,0.003028650001942264,-41.1374832873943,16.674407270680213,0.5723076235940445,0.032069577105482285,327.6893794273551,14.523159779123036,0.0,1.0,0.0,0.0,1.0,Taxi
27.900000000000002,-0.08904666407649098,-32.61861697957964,16.658577962716276,0.648397503251108,0.09838245583160246,327.66134622545724,15.633205298632234,0.0,1.0,0.0,0.0,1.0,Taxi
28.0,0.0010454573214268557,18.466201035126378,16.647493827372152,0.33905929595950307,0.5283531579944784,327.52097523800944,15.079312239556074,0.0,1.0,0.0,0.0,1.0,Taxi
28.1,0.0953596551775742,34.49722121775256,16.94474008448445,0.5498060726135703,0.103782556668318,327.5895529922153,14.260346429666203,0.0,1.0,0.0,0.0,1.0,Taxi
28.200000000000003,0.08343944201227188,-16.925408262885007,16.595520994336603,0.44962861849840996,-0.6873523028710817,327.5923984949271,15.267602888463927,0.0,1.0,0.0,0.0,1.0,Taxi
28.3,-0.08358158399299809,11.110452228041169,16.24794561611116,0.21363934659466954,0.3056816569690868,327.49420474880617,15.604503843220701,0.0,1.0,0.0,0.0,1.0,Taxi
28.400000000000002,0.15091191631778011,-20.22710919787714,17.13029026927925,0.7067160774427199,0.8965918681365537,327.59172483432155,14.728651066609052,0.0,1.0,0.0,0.0,1.0,Taxi
28.5,-0.01769610397711378,9.348793233193353,15.85540428132135,0.42278868162354477,-0.8948219002355291,327.59016309691265,14.853913643041704,0.0,1.0,0.0,0.0,1.0,Taxi
28.6,-0.0368376178270313,-75.00494719057697,15.90807763970187,0.32180283492331646,0.23637137894941737,327.71958456968844,14.21242408139157,0.0,1.0,0.0,0.0,1.0,Taxi
28.700000000000003,-0.22411281963510468,-13.598082452078557,16.957498220363117,0.5517752088096028,0.4498162014443206,327.6299490739997,14.781194003904554,0.0,1.0,0.0,0.0,1.0,Taxi
28.8,-0.08568651623750646,3.40092860091143,16.97278389365665,0.44045823759130315,0.5961619325384245,327.3655675521752,15.379457778427987,0.0,1.0,0.0,0.0,1.0,Taxi
28.900000000000002,-0.019832974822474057,22.747887859540906,17.077695097315186,0.39878043643598354,-0.15692760327169714,327.6432995430198,14.119845392739908,0.0,1.0,0.0,0.0,1.0,Taxi
29.0,-0.11037338033740007,-23.188630807341223,17.298074167017106,0.3671968688458055,0.2705916986854718,327.474916875507,14.116518046996003,0.0,1.0,0.0,0.0,1.0,Taxi
29.1,-0.20162967027421252,18.821353228014107,16.436041140750007,0.23219014272106853,-0.14129561283817635,327.58714765344484,14.903839866169685,0.0,1.0,0.0,0.0,1.0,Taxi
29.200000000000003,0.07427379131759652,31.899192041742833,16.841289124208583,0.43942516245212404,0.045036818001486525,327.4622336167838,14.628996879789064,0.0,1.0,0.0,0.0,1.0,Taxi
29.3,0.04912257987131413,31.959834881914432,16.784829076418323,0.6015763389723564,-0.8907261241492584,327.8008052743262,14.199186336385635,0.0,1.0,0.0,0.0,1.0,Taxi
29.400000000000002,-0.041830495864640334,-6.507682314919251,16.428793504205384,0.47487094961040033,-0.8803805597265136,327.40442251228205,15.328460803059997,0.0,1.0,0.0,0.0,1.0,Taxi
29.5,0.0417353797430003,1.2857142056929263,16.25144334148836,0.30447658818267237,-0.6016178523690583,327.74712672821715,14.483821731000818,0.0,1.0,0.0,0.0,1.0,Taxi
29.6,0.055551150899778794,-15.146147329821224,16.291101796361335,0.3727598764103077,0.44067252951336955,327.654175806681,13.912383385747642,0.0,1.0,0.0,0.0,1.0,Taxi
29.700000000000003,-0.11756123251374642,9.17939809636431,17.52338976851576,0.5067939879923785,0.5592452213462339,327.7607199586241,15.704548754429434,0.0,1.0,0.0,0.0,1.0,Taxi
29.8,0.08763237022482188,-58.71674656172575,16.197365448094953,0.5372705732318073,0.7701124002929987,327.6951364204581,15.55555806915886,0.0,1.0,0.0,0.0,1.0,Taxi
29.900000000000002,-0.23803258190884993,47.91617878923335,16.50942528257991,0.3592313808325008,-0.16140316536601163,327.6423282976657,14.39395259966662,0.0,1.0,0.0,0.0,1.0,Taxi
30.0,0.1220196614324203,-9.818300829127743,16.631210069334067,0.23617818857212244,0.14819252655162385,327.6773823171691,14.273832522701886,0.0,1.0,0.0,0.0,1.0,Taxi
30.1,0.03854086607918315,46.40278820232263,15.420227304191508,0.4863749701052308,0.5528128065465654,327.7223306472241,14.980054845856074,0.0,1.0,0.0,0.0,1.0,Taxi
30.200000000000003,-0.006018640897236753,-24.80040744150476,16.06045905375984,0.19260903345438574,-1.6121617030577362,327.55812392911196,15.87305414870534,0.0,1.0,0.0,0.0,1.0,Taxi
30.3,-0.0019823757751034686,-21.62744135748404,16.00409714265476,0.8308525032767174,0.26345849772247143,327.55578382930366,14.243464968131084,0.0,1.0,0.0,0.0,1.0,Taxi
30.400000000000002,-0.069596340708237,7.913819910508423,16.116403760688748,0.13780936019557383,-0.2834931173206809,327.5050307100188,15.32692056932818,0.0,1.0,0.0,0.0,1.0,Taxi
30.5,0.033550458655305405,-24.85725335962972,17.28307141952549,0.3736279165344633,0.2862230403184201,327.5823803915026,14.625924904151576,0.0,1.0,0.0,0.0,1.0,Taxi
30.6,-0.12626864257325202,34.99586023165249,16.98507007262038,0.3071380313212265,-0.2957777884295541,327.7370983779888,14.464438797653845,0.0,1.0,0.0,0.0,1.0,Taxi
30.700000000000003,0.10538296045002554,-3.776949394419539,16.635405767912847,0.4854058365946657,-0.21104526641218768,327.7785863111643,13.912939554810922,0.0,1.0,0.0,0.0,1.0,Taxi
30.8,0.014665711683207778,51.37566332860505,16.84170773043792,0.3993930192820404,0.4950841901357686,327.58488122150743,14.080616648798179,0.0,1.0,0.0,0.0,1.0,Taxi
30.900000000000002,0.13060967406977328,9.533566213936044,17.338714230235748,0.41467546188027393,0.4040894887434242,327.75712063208005,13.604672104240493,0.0,1.0,0.0,0.0,1.0,Taxi
31.0,0.1530507915197058,-41.222910668249725,15.799741585279937,0.2403155934122038,-0.08918124583442284,327.65878878246235,14.1239956992348,0.0,1.0,0.0,0.0,1.0,Taxi
31.1,-0.19144884165804082,-45.49526366269049,16.635069694623866,0.28861083745960747,0.4139367641078554,327.6007884282335,14.259446590853264,0.0,1.0,0.0,0.0,1.0,Taxi
31.200000000000003,-0.09686664424367922,-20.790900743271944,16.218148847768575,0.4352183913652522,0.2960405170051376,327.4553602837375,15.529365747869715,0.0,1.0,0.0,0.0,1.0,Taxi
31.3,0.04909628780334607,51.41576744215558,16.552634360986854,0.5415188590051592,-1.0032731822711902,327.7095024420785,15.42043217981581,0.0,1.0,0.0,0.0,1.0,Taxi
31.400000000000002,0.06562999555273707,-8.256678739254937,16.280977194374547,0.20470036201861816,-0.2766403242424302,327.42955306884573,14.895750022775086,0.0,1.0,0.0,0.0,1.0,Taxi
31.5,-0.13815003793995387,34.056199699357016,17.07453659432713,0.40046480209860497,0.7109016697059399,327.71947213794874,14.805884130366659,0.0,1.0,0.0,0.0,1.0,Taxi
31.6,0.21937728630013115,-14.063296250400148,17.087157953158897,0.2707575195769627,0.20625478789715088,327.60935304006944,15.326223305334063,0.0,1.0,0.0,0.0,1.0,Taxi
31.700000000000003,-0.004686485699263628,27.162165214910104,16.895204770064325,0.522374703354576,-0.02800303353579186,327.5802010993191,14.122739957777707,0.0,1.0,0.0,0.0,1.0,Taxi
31.8,-0.002339211865403331,-22.25947238189696,16.997748619109267,0.08985359439082147,0.13523243737614615,327.7422510384878,14.861723605982817,0.0,1.0,0.0,0.0,1.0,Taxi
31.900000000000002,0.10807992439064636,6.825936238092062,16.174279126976536,0.2762638023814446,-1.143109533140211,327.6797976536991,14.226050155537543,0.0,1.0,0.0,0.0,1.0,Taxi
32.0,0.029443195491196672,20.278966341449117,17.226657326398897,0.3373272976367219,-0.009638416016672492,327.5121879480889,15.05622608914313,0.0,1.0,0.0,0.0,1.0,Taxi
32.1,0.09905561984184225,-7.767326352412687,16.151832098582446,0.6266895283436084,1.0294982385614497,327.76733143492675,14.953753348703632,0.0,1.0,0.0,0.0,1.0,Taxi
32.2,0.06924329262858292,-38.44042435368812,16.222644238355358,0.4983971942289604,0.12199401380913003,327.55260344139447,15.075001539970414,0.0,1.0,0.0,0.0,1.0,Taxi
32.300000000000004,-0.16275892627724395,-43.825152633902256,15.843108258082886,0.19510070228851356,0.08556654750195292,327.632101949849,14.73312526420808,0.0,1.0,0.0,0.0,1.0,Taxi
32.4,-0.120070143327669,0.15457815145208542,17.654896306753333,0.4422674298859344,0.025164085807633896,327.5583076954083,15.41911713240433,0.0,1.0,0.0,0.0,1.0,Taxi
32.5,0.07001618338584335,-19.6032473558782,15.9636352008468,0.3575888440364271,0.07909763856298356,327.8363776987345,15.412987316067703,0.0,1.0,0.0,0.0,1.0,Taxi
32.6,-0.26077516305663495,19.572020731106747,16.643559104900763,0.24252122999800657,-0.7381704344306272,327.4511612285095,16.007763662225756,0.0,1.0,0.0,0.0,1.0,Taxi
32.7,-0.02221003967213529,-48.73948788112606,16.894936179842674,0.6479032190483597,0.09506940780889475,327.45031488111715,14.250028840792735,0.0,1.0,0.0,0.0,1.0,Taxi
32.800000000000004,-0.173681256019787,25.298920354158184,16.918656305739947,0.30711348178772274,-0.2963975452740064,327.5654130881587,15.116950920741916,0.0,1.0,0.0,0.0,1.0,Taxi
32.9,-0.13428056128584406,-31.169926422681538,16.607880096607925,0.3825965644249912,0.48642959365445265,327.7328137294933,14.052847085599897,0.0,1.0,0.0,0.0,1.0,Taxi
33.0,-0.17805967178554297,4.034746961389995,16.52042334534853,0.5200122923169764,0.7937673673765545,327.8957211831291,15.49949253377154,0.0,1.0,0.0,0.0,1.0,Taxi
33.1,-0.15350752121283703,14.073162066819863,15.74319369179393,0.5543347146729337,-0.3504464903904417,327.69886518335136,15.46200000718462,0.0,1.0,0.0,0.0,1.0,Taxi
33.2,-0.06391475095174474,43.192847972113945,16.283877968760923,0.18944491976261021,0.5254457174388812,327.5958144502745,14.279705487692985,0.0,1.0,0.0,0.0,1.0,Taxi
33.300000000000004,0.037904568075026734,59.39891563676368,17.32002072173265,0.540360294638404,-0.09008708831948373,327.6687611558275,14.906250309647904,0.0,1.0,0.0,0.0,1.0,Taxi
33.4,0.14348705697098138,40.29365712265383,16.478806504161767,0.23666381066575592,-0.0798641857903113,327.57985220371245,15.3120740847643,0.0,1.0,0.0,0.0,1.0,Taxi
33.5,0.1375535346615244,-1.5969642476841248,15.893177866299784,0.3409675325754426,0.10107659989184314,327.55643648930777,15.711244189601334,0.0,1.0,0.0,0.0,1.0,Taxi
33.6,0.029919746836606087,29.757884824723472,16.284867191334094,0.6875486449642534,0.1253215405788443,327.63390113965056,14.274436053769127,0.0,1.0,0.0,0.0,1.0,Taxi
33.7,0.2922764810945987,-20.273020680323047,16.235254699524365,0.5559403922408804,0.40824607681948333,327.6045911242202,15.12448096455536,0.0,1.0,0.0,0.0,1.0,Taxi
33.800000000000004,0.036188431259909115,-20.164986203259193,17.324042845009274,0.24964601947238652,0.2888713208602504,327.61820436604216,14.677660683294379,0.0,1.0,0.0,0.0,1.0,Taxi
33.9,-0.07090518417968993,-105.17087516059327,16.41695351534071,0.5283416674958276,0.18515474153631156,327.6092210455088,14.850258026094279,0.0,1.0,0.0,0.0,1.0,Taxi
34.0,-0.23357789470836768,-33.3591124904263,15.795071285530305,0.5403690144272028,-0.33150149685590313,327.73520258088865,14.705429121789377,0.0,1.0,0.0,0.0,1.0,Taxi
34.1,-0.13060713119222234,-16.854926510442787,16.433937332931364,0.6590889055577129,0.1789013635920515,327.60285378333515,15.771602616325001,0.0,1.0,0.0,0.0,1.0,Taxi
34.2,-0.1551798167319038,85.01010908893441,16.766980981402764,0.532153373599778,-0.5898755678547049,327.7035414740142,13.628575890090078,0.0,1.0,0.0,0.0,1.0,Taxi
34.300000000000004,0.19147265073630443,33.53106490236194,16.113935924212385,0.16186417399016365,-0.6056367986638466,327.58974508252845,14.711287829514406,0.0,1.0,0.0,0.0,1.0,Taxi
34.4,0.03704819331958739,-12.340892596303712,16.74893995196435,0.3927108093532546,-0.06421156491955576,327.4879944211518,15.173769968262604,0.0,1.0,0.0,0.0,1.0,Taxi
34.5,-0.21688427971342233,-57.012984123763175,16.485251238405212,0.23517989267846087,-0.23701450895796303,327.5092651961131,15.781675489300824,0.0,1.0,0.0,0.0,1.0,Taxi
34.6,-0.09359226988251146,2.585974071147343,16.072243265877834,0.5377642862488875,0.40113848821570325,327.62414789369336,14.925636228493357,0.0,1.0,0.0,0.0,1.0,Taxi
34.7,0.04997806367532415,10.036278951939286,16.169024489688383,0.5880310686261792,0.14384343416319986,327.5760032765618,15.725955039385283,0.0,1.0,0.0,0.0,1.0,Taxi
34.800000000000004,-0.16670288495372587,41.877526353212005,17.00392328824848,0.5665285087396182,-0.5864764815581434,327.7421370385248,14.701200064044823,0.0,1.0,0.0,0.0,1.0,Taxi
34.9,0.11579536188354854,-41.80595814281251,17.397909089927243,0.4431849089262055,0.20411383761838897,327.58620957534185,14.83725278346161,0.0,1.0,0.0,0.0,1.0,Taxi
35.0,-0.15905172703873843,1.0946586080832865,17.42484832742746,0.4992743381196483,0.5901268467437014,327.70781443964074,14.823078391507927,0.0,1.0,0.0,0.0,1.0,Taxi
35.1,-0.16122959191330946,-3.5018863884196016,17.236058877036214,0.5553145381734954,0.1118695364089952,327.56553468678726,14.817597501345535,0.0,1.0,0.0,0.0,1.0,Taxi
35.2,0.09828592994145052,31.144737237650883,17.330405352329876,0.5776752554364968,0.6170236702642402,327.7026027604877,14.815191371639386,0.0,1.0,0.0,0.0,1.0,Taxi
