time_s,altitude_ft,vertical_speed_fpm,ias_kt,pitch_deg,roll_deg,heading_deg,throttle_pct,afterburner_on,gear_down,flaps_deg,speedbrake_pct,weight_on_wheels,label
0.0,0.11446097246397523,-32.73388336992799,12.197046073982714,0.9211700708692194,-0.31829630100028183,14.489245921552367,23.517335871633996,0.0,1.0,0.0,0.0,1.0,Taxi
0.1,0.005348027897548609,-18.01835391294516,12.911516932178657,1.290784144414088,0.16637806608377326,14.507289684533077,22.824475934876116,0.0,1.0,0.0,0.0,1.0,Taxi
0.2,0.02436920289924944,-9.947883696625693,11.58162342134198,1.0853852867506963,0.02244785311450213,14.737758463068701,24.281941634160262,0.0,1.0,0.0,0.0,1.0,Taxi
0.30000000000000004,0.06472155398084677,9.159385516931811,12.692972877034903,1.504005472404973,-0.4645660422935694,14.680095216632253,22.998690857728715,0.0,1.0,0.0,0.0,1.0,Taxi
0.4,0.05114495548220767,-32.20360136885859,11.232557667698817,1.397104518019959,0.6635576247038281,14.57440593259679,24.575501381476347,0.0,1.0,0.0,0.0,1.0,Taxi
0.5,-0.1366488039450435,6.8928235252358165,11.951361678849677,1.167742319290486,0.24715097834458194,14.25831395259354,23.488597334342053,0.0,1.0,0.0,0.0,1.0,Taxi
0.6000000000000001,0.09918567160702582,-0.5300268589775688,13.320230389640976,1.2319822429266583,-0.4651369080214864,14.578407207840996,23.70121417726159,0.0,1.0,0.0,0.0,1.0,Taxi
0.7000000000000001,0.04849482118731979,27.99662026375106,12.35962663037637,0.9934192428094986,0.08679991090000752,14.500652644477555,23.004013572356577,0.0,1.0,0.0,0.0,1.0,Taxi
0.8,0.0033342973737117533,-2.087820461948882,13.034920936033917,0.9378084664319624,-0.15905027705101593,14.481324242019355,23.306728375395277,0.0,1.0,0.0,0.0,1.0,Taxi
0.9,0.0887465692972814,29.00880832921209,13.14279059230187,1.1253190647519957,0.2106933046964985,14.521407656487668,24.046611251752864,0.0,1.0,0.0,0.0,1.0,Taxi
1.0,0.19353886283338026,1.1525181280831351,13.3323048066607,1.0724980617752171,-0.3227598866297315,14.529923510547633,23.32136741371364,0.0,1.0,0.0,0.0,1.0,Taxi
1.1,0.009096888014127445,-9.98187657869415,13.44685135999279,1.0086117284741982,-0.0926176401252338,14.527413304712866,24.059875084395827,0.0,1.0,0.0,0.0,1.0,Taxi
1.2000000000000002,0.03883718640381066,-41.50059571471551,12.990655533071303,1.3974051428956131,-0.047337315086232394,14.577101814848447,23.654130353912606,0.0,1.0,0.0,0.0,1.0,Taxi
1.3,-0.013964115740197267,-13.633223625674987,11.351251606980442,0.9381324676930635,-0.10102183027241717,14.557747537512796,23.516029402122822,0.0,1.0,0.0,0.0,1.0,Taxi
1.4000000000000001,-0.05906923011424747,-12.785339527882504,12.160104442741465,1.2895533333548033,0.6777681272184187,14.491303848155951,23.23328973478049,0.0,1.0,0.0,0.0,1.0,Taxi
1.5,-0.02508951123560186,-14.010281807953879,12.8286484452443,1.0394071404384728,-0.3535734804366695,14.497856080256838,23.185295267157287,0.0,1.0,0.0,0.0,1.0,Taxi
1.6,-0.08401552477996665,25.892734741073145,12.132099189912955,1.1042858321812727,0.3039801445377773,14.67501904459715,24.460808308192,0.0,1.0,0.0,0.0,1.0,Taxi
1.7000000000000002,0.07039444359111822,-14.28443219689476,12.567136595458921,1.3388422643876685,-0.18942596489554064,14.727516296347915,23.652224353571356,0.0,1.0,0.0,0.0,1.0,Taxi
1.8,-0.09651167222007567,-9.988821970114934,12.633478040748628,1.2816286810795745,-0.011960971999879381,14.529794185597837,24.006823361483075,0.0,1.0,0.0,0.0,1.0,Taxi
1.9000000000000001,-0.13395963463054134,-59.50164179426766,13.406533300919715,0.872292055114823,0.2041994780889122,14.46314024731413,24.51342095397685,0.0,1.0,0.0,0.0,1.0,Taxi
2.0,-0.2271137653802201,23.122135064793756,12.063177253512816,1.3119570219870669,-0.5523827542540569,14.511778186255754,23.626269390010307,0.0,1.0,0.0,0.0,1.0,Taxi
2.1,0.019099003103893075,24.390851341055647,11.8440503723447,0.8603975199023162,-0.7161947210199171,14.53942996579599,23.555597853584146,0.0,1.0,0.0,0.0,1.0,Taxi
2.2,-0.012005377925263124,77.42783240856257,12.280274807865657,1.0042060115720792,-0.14996511224249295,14.653125648979653,24.105898441874274,0.0,1.0,0.0,0.0,1.0,Taxi
2.3000000000000003,0.1600253966625927,-33.25208576582343,11.873020213337997,1.1233619485385227,0.23622893157610322,14.493066796595883,23.352705090554775,0.0,1.0,0.0,0.0,1.0,Taxi
2.4000000000000004,-0.1471614257252241,28.582082145278022,12.733704264608486,1.293784037961246,0.43657235110186665,14.655063747103668,24.22657025466387,0.0,1.0,0.0,0.0,1.0,Taxi
2.5,0.13090503280112697,-27.080339642323167,13.415790349012926,0.8246022102338949,0.4546605652969634,14.577907354318143,24.2520090145414,0.0,1.0,0.0,0.0,1.0,Taxi
2.6,0.024623698450976856,-3.9985976340652676,12.785963645360148,1.1672214826555376,-0.1929902202315906,14.58362671531654,23.72965858507292,0.0,1.0,0.0,0.0,1.0,Taxi
2.7,-0.1671544138955504,-20.535382110698905,12.139737907648238,1.1549488209486292,-0.6478788860407141,14.469249222877579,23.153477612996504,0.0,1.0,0.0,0.0,1.0,Taxi
2.8000000000000003,0.028228122247632444,-3.553719730947267,12.353787007343673,1.3273926437839205,0.8016928713755846,14.41542466862461,24.920492488171842,0.0,1.0,0.0,0.0,1.0,Taxi
2.9000000000000004,0.0068550997962405075,51.77463261532923,13.422965637659791,1.4581187255245012,0.49425382421283676,14.586612988949469,23.45533395515922,0.0,1.0,0.0,0.0,1.0,Taxi
3.0,0.09171874918109571,-21.606547851082226,12.601204896832686,1.4268053060240617,1.005797764236145,14.685834880277923,23.781315250359793,0.0,1.0,0.0,0.0,1.0,Taxi
3.1,-0.07980461700777869,-16.149281898327263,13.367699903266931,1.1801586341448507,-0.9839184198995224,14.57050553865514,24.35821114365364,0.0,1.0,0.0,0.0,1.0,Taxi
3.2,-0.07389130969539581,-3.4776382520091524,12.637166240842308,1.0266166473938327,-0.07600835018742381,14.512718601366032,23.496475828336116,0.0,1.0,0.0,0.0,1.0,Taxi
3.3000000000000003,0.07433055792104991,-11.879960191267505,12.144272358003159,1.0174000017626421,-0.3511432629763667,14.603825651053057,24.230136270932483,0.0,1.0,0.0,0.0,1.0,Taxi
3.4000000000000004,-0.13920441796411628,35.44645293712633,12.52229626828165,0.8512044729330988,0.5041636518740499,14.529364826770518,22.972680599781977,0.0,1.0,0.0,0.0,1.0,Taxi
3.5,0.10334095499023573,-29.41812504619456,12.170877441541483,1.4299807142053533,-0.4399198135901223,14.675889401052132,24.367232285591538,0.0,1.0,0.0,0.0,1.0,Taxi
3.6,-0.07276006730992299,22.058337443301994,11.211555773353563,1.3745210277308275,0.2316968960502597,14.593452737234827,24.356228603682517,0.0,1.0,0.0,0.0,1.0,Taxi
3.7,-0.028912730747606388,-32.07603894243928,12.15716999762635,0.9570547449777407,0.33385996710189275,14.43414378798326,23.373421380595698,0.0,1.0,0.0,0.0,1.0,Taxi
3.8000000000000003,-0.057039239721960726,7.466313597286074,12.93368750131627,0.7979960687413465,0.4604030941645392,14.55162713273836,23.4744592165105,0.0,1.0,0.0,0.0,1.0,Taxi
3.9000000000000004,-0.035428499323492665,2.900409454505757,11.871578899222989,1.4157803712157153,-0.18002785596896786,14.449336170600986,25.0628321641219,0.0,1.0,0.0,0.0,1.0,Taxi
4.0,-0.014410683475077655,8.230309368504178,13.691210439582395,1.087331123532837,-0.07722880262045616,14.45954087157105,24.732698430295443,0.0,1.0,0.0,0.0,1.0,Taxi
4.1000000000000005,-0.015887692879439884,-14.746063319737777,11.953983018019848,0.9701676466698022,-0.8378395561882944,14.654585323128742,24.004627330635262,0.0,1.0,0.0,0.0,1.0,Taxi
4.2,-0.1091588159221816,-2.8561561203955583,11.617290603149916,1.245873730398187,0.10906582451228547,14.509534575845692,23.51634173691179,0.0,1.0,0.0,0.0,1.0,Taxi
4.3,-0.02869146407705549,7.8619615077422225,12.29680425148487,1.0369567837885416,0.5964464623273737,14.441074385898162,23.776466758552257,0.0,1.0,0.0,0.0,1.0,Taxi
4.4,0.023422114659271187,8.393608681857666,13.485563117588017,1.327301400442417,-0.8062698739608647,14.710480983957268,24.013611100270708,0.0,1.0,0.0,0.0,1.0,Taxi
4.5,-0.06719077251289331,8.683116858810088,12.296869136167757,0.8478088288755569,0.273529978412819,14.498098849464384,23.124169627851554,0.0,1.0,0.0,0.0,1.0,Taxi
4.6000000000000005,0.014724120216994896,0.692398216463061,10.953726864669587,1.3629073790682016,0.07011181184462903,14.610216474329263,23.192113983774664,0.0,1.0,0.0,0.0,1.0,Taxi
4.7,0.02688410574158643,13.639496073378282,12.62386297458059,1.4245120591163576,0.25896153471821187,14.67641542807371,24.928752493615274,0.0,1.0,0.0,0.0,1.0,Taxi
4.800000000000001,0.0010067078539980334,11.580764562756976,11.883133761065478,1.2931288869712985,-0.5422374416600905,14.474144295189546,23.267823107589173,0.0,1.0,0.0,0.0,1.0,Taxi
4.9,0.07262794303077973,-34.00925641762118,12.678716066503654,1.3543026031206442,0.3642580454548398,14.538405724257302,23.98649433511142,0.0,1.0,0.0,0.0,1.0,Taxi
5.0,-0.1431621763465195,9.608564912979693,11.930031368987839,0.9057889140604294,0.19886209970871999,14.455007041750207,24.1385602934137,0.0,1.0,0.0,0.0,1.0,Taxi
5.1000000000000005,0.049049532418896494,-10.239764284206792,12.75850728414418,1.288676304901592,-0.010209665248767855,14.436404558686547,22.985670122301723,0.0,1.0,0.0,0.0,1.0,Taxi
5.2,0.02142912160974575,12.161679657059189,13.635167924432723,1.2259055770249494,-0.5640310441402838,14.493936942717085,23.116359861058463,0.0,1.0,0.0,0.0,1.0,Taxi
5.300000000000001,-0.08235377806122358,7.829237105973793,12.763231389808382,1.1141365296120205,0.2741478295276157,14.642772995619282,24.6223861322329,0.0,1.0,0.0,0.0,1.0,Taxi
5.4,0.08819571794876546,-43.97459575656941,11.834229683102837,1.1647189660408428,-0.15904085144477603,14.716399900932288,23.706188353994527,0.0,1.0,0.0,0.0,1.0,Taxi
5.5,-0.1984438571731013,15.0323242901139,12.653133183835244,1.207423679755883,-0.18770686794598965,14.44711828953416,24.02285260557409,0.0,1.0,0.0,0.0,1.0,Taxi
5.6000000000000005,-0.007192156610654112,-31.83373540136978,13.391775689465561,1.0718859122704345,0.11607267065850696,14.56170988003305,23.65052653386534,0.0,1.0,0.0,0.0,1.0,Taxi
5.7,-0.0709729590580835,41.35442264401723,12.077612837588115,1.148421810543895,0.07345036682405433,14.411063876793605,25.23331260508684,0.0,1.0,0.0,0.0,1.0,Taxi
5.800000000000001,0.008328256046984768,23.916023155616525,12.21686128222859,1.6049512236200703,-0.7878408216520079,14.336434182569235,23.645298599001173,0.0,1.0,0.0,0.0,1.0,Taxi
5.9,0.11238795916742846,18.487707770864716,12.03918669016101,0.9765480818144263,-0.9446707987913128,14.551376300911045,23.97460750240187,0.0,1.0,0.0,0.0,1.0,Taxi
6.0,0.02146557979624002,-7.284598777922365,12.686588973663603,0.9839222327703631,-0.5413337105594612,14.452020627961645,23.64822325112012,0.0,1.0,0.0,0.0,1.0,Taxi
6.1000000000000005,-0.028094737842627105,-49.379311386297324,12.294329464819812,1.191809578380021,-0.06310749681794438,14.519741697108543,23.799260756683434,0.0,1.0,0.0,0.0,1.0,Taxi
6.2,-0.13450859776405819,7.738224509425417,12.53521533610307,0.9579816539620211,-0.13580168677762408,14.552906625352534,24.002138849676037,0.0,1.0,0.0,0.0,1.0,Taxi
6.300000000000001,0.06015670234336708,-5.4942045010042095,11.694348893176969,1.3077237402833322,-0.31268330485630347,14.640069515608218,24.356597359095893,0.0,1.0,0.0,0.0,1.0,Taxi
6.4,-0.0555657603476482,0.4089871599372212,12.381190116090972,1.5138916987417868,-0.86546905201676,14.438125510753707,23.203043918412064,0.0,1.0,0.0,0.0,1.0,Taxi
6.5,-0.13246366196437215,-32.82687715759625,12.86083763273116,1.1470940523502147,-0.4199789141065199,14.543947070532965,23.585433805946337,0.0,1.0,0.0,0.0,1.0,Taxi
6.6000000000000005,-0.10397768344461425,19.98654348418687,13.085273166661015,1.1570473006838216,-0.2318332613356253,14.502056876511176,24.001643472596328,0.0,1.0,0.0,0.0,1.0,Taxi
6.7,0.04436695707328612,35.39960274947537,12.400346685634213,1.3345557508623718,-0.370043406045873,14.520149300324988,23.14037644658226,0.0,1.0,0.0,0.0,1.0,Taxi
6.800000000000001,0.04453435178300467,3.4139116868010198,13.56743765449106,1.1701657819079083,-0.5410147431195897,14.434162655830448,23.668398833687014,0.0,1.0,0.0,0.0,1.0,Taxi
6.9,-0.08690812501060918,-2.9994247710323045,11.533177806416747,1.4240246520158988,0.18402445943213416,14.436052095367529,24.468183156729683,0.0,1.0,0.0,0.0,1.0,Taxi
7.0,0.029369833218124555,14.285159961384556,11.58532738092841,0.8999453891751931,-0.20416667291521473,14.655575090772118,24.051899173732807,0.0,1.0,0.0,0.0,1.0,Taxi
7.1000000000000005,0.11596015158992741,19.980085450456667,12.091996272580076,1.2559250773741422,0.6247596097129832,14.425784537728589,23.76965210418676,0.0,1.0,0.0,0.0,1.0,Taxi
7.2,0.012992302241674109,-50.22040132276967,12.110306964271052,1.2826981527609702,0.4625399766600359,14.623998498965477,23.216193166976318,0.0,1.0,0.0,0.0,1.0,Taxi
7.300000000000001,-0.22173217339572382,-29.17025593442013,13.642118291275619,1.3065988992570827,-0.21460370400021325,14.335505036414531,23.412601349441477,0.0,1.0,0.0,0.0,1.0,Taxi
7.4,-0.02989112808217332,4.325060809583827,12.111039190422556,1.0260907325441773,-0.1301699772966432,14.73137460953194,24.66220494159945,0.0,1.0,0.0,0.0,1.0,Taxi
7.5,0.03461760628959319,23.498556989914928,12.664363221730644,1.250474947587568,0.056957058912712494,14.41197319979102,23.720751165193732,0.0,1.0,0.0,0.0,1.0,Taxi
7.6000000000000005,-0.10423938844614924,-33.22844096053171,13.022947590274544,1.2845860471894532,-0.21486411922611587,14.701782542307853,24.157696495059913,0.0,1.0,0.0,0.0,1.0,Taxi
7.7,-0.1960333328848319,-0.8765219095341479,13.003758040252958,0.9057188947693047,0.607630450176421,14.440474894772706,23.78423521506846,0.0,1.0,0.0,0.0,1.0,Taxi
7.800000000000001,0.030234996741922412,7.8076874982635305,12.066938553716184,1.1261290960973418,0.3025308651158918,14.639729523069036,24.667985421835972,0.0,1.0,0.0,0.0,1.0,Taxi
7.9,-0.06520095095483161,24.221135640215774,11.705092175663173,1.0677951119070315,-0.11884801274677098,14.32311459221296,23.731964996758133,0.0,1.0,0.0,0.0,1.0,Taxi
8.0,-0.07492765468375308,-38.14718403054395,11.349406968046726,0.9991608625476538,0.37081964299735276,14.649616160637208,23.656803873713944,0.0,1.0,0.0,0.0,1.0,Taxi
8.1,-0.16050092341079736,46.09890039069945,13.047491535428748,1.2874737164605596,0.026886050324633634,14.474295559717916,23.236907517645413,0.0,1.0,0.0,0.0,1.0,Taxi
8.200000000000001,0.16529355099866558,39.70224211746666,11.991195893570827,1.2746683054627632,0.9702582560152695,14.398896045749098,23.092640880939765,0.0,1.0,0.0,0.0,1.0,Taxi
8.3,0.12358355590358013,11.994154077924454,13.19468832373749,1.2224550569420496,1.3776603494988031,14.494459811485797,23.442847449224633,0.0,1.0,0.0,0.0,1.0,Taxi
8.4,-0.1005301530211751,-58.67242174113071,12.83262934816626,0.9699140204686469,-0.43258619686429295,14.511259458626512,23.43733529955986,0.0,1.0,0.0,0.0,1.0,Taxi
8.5,-0.128068557706988,-15.078216528292211,12.897158653963805,1.2023051323177074,-0.9981992200922541,14.325041949735521,23.75502220063787,0.0,1.0,0.0,0.0,1.0,Taxi
8.6,0.048192473262119125,23.38465364704471,12.131349965101581,1.3314643283072285,0.3149802700867153,14.647396921998336,24.11374930786547,0.0,1.0,0.0,0.0,1.0,Taxi
8.700000000000001,0.016393115214048428,21.092945444089228,11.942116729171056,1.358141570793474,0.04563858513336297,14.542407564585972,23.714481844450596,0.0,1.0,0.0,0.0,1.0,Taxi
8.8,-0.02260383048654188,-6.999995715991104,13.614617485054469,0.9169411494431609,0.06903532949293718,14.514676593785566,23.78441588615138,0.0,1.0,0.0,0.0,1.0,Taxi
8.9,0.013192494682163578,6.8849691991790065,12.794827035114704,1.0119134829596712,-0.3191453076912292,14.487958975207732,23.86266750674422,0.0,1.0,0.0,0.0,1.0,Taxi
9.0,0.05081796120994342,-4.502400479727339,12.954324232079799,1.323333823130749,0.2592769440190233,14.458336250124773,23.18727533281524,0.0,1.0,0.0,0.0,1.0,Taxi
9.1,-0.04511583288517862,15.382952737842563,12.470058404866569,1.0297846177014651,0.0473635196324317,14.736499992575148,23.54785363249128,0.0,1.0,0.0,0.0,1.0,Taxi
9.200000000000001,0.09010725837137634,33.38417286707181,11.990248377484003,1.0153698739727448,0.7631151947806357,14.484087758762598,24.265952014077563,0.0,1.0,0.0,0.0,1.0,Taxi
9.3,0.21773882554530244,21.18315161139471,12.990711171396011,1.0442072911727482,-0.6536425577571237,14.710967729120398,23.384669730779017,0.0,1.0,0.0,0.0,1.0,Taxi
9.4,0.06079992517179489,0.16957640806363136,12.725825164829386,0.8443838964883785,-0.6989208143170916,14.636097437867875,23.606364882845963,0.0,1.0,0.0,0.0,1.0,Taxi
9.5,0.09095514041169446,-104.34882189477048,12.128168913308741,1.0744125268294566,0.45334164532705173,14.716535988142482,23.107499937153168,0.0,1.0,0.0,0.0,1.0,Taxi
9.600000000000001,-0.3040052839285501,-51.11511260068446,12.563997337089635,1.2787099654606904,0.3322222569137045,14.525859495428278,23.848494271986475,0.0,1.0,0.0,0.0,1.0,Taxi
9.700000000000001,-0.1947756378316275,-28.779456570997908,13.345305061240573,0.9030560503395839,0.609585184865067,14.553984401706316,23.950776895963497,0.0,1.0,0.0,0.0,1.0,Taxi
9.8,-0.052942142443295176,61.25419984005492,13.17101118763875,1.2587326509513774,-0.4962237385516628,14.421757299402543,23.6926941908973,0.0,1.0,0.0,0.0,1.0,Taxi
9.9,0.0022657152717244773,71.0676972145322,12.657653081773999,1.260211021608313,0.46908601734935484,14.5731635828011,23.568632985545843,0.0,1.0,0.0,0.0,1.0,Taxi
10.0,0.16056284824103342,17.86813992981605,13.63472865396846,0.8970788939572791,0.3790578900047467,14.684895606357145,23.918641197314585,0.0,1.0,0.0,0.0,1.0,Taxi
10.100000000000001,0.03639855720578496,-6.0350967043071675,12.622455359180869,0.8821489499400273,0.010368983545496436,14.61302009000201,23.564353199133798,0.0,1.0,0.0,0.0,1.0,Taxi
10.200000000000001,-0.027909768249811458,-60.85196504397394,12.991728300902116,1.25295843191373,-0.14043065732339638,14.812510482384198,23.526699354049146,0.0,1.0,0.0,0.0,1.0,Taxi
10.3,-0.1436969769788364,-4.84767564287912,12.078593703946959,0.9973954193028808,0.3551182531495371,14.592930356223803,24.043824682219462,0.0,1.0,0.0,0.0,1.0,Taxi
10.4,0.012160178991389235,-32.08603911728361,11.937551050637063,1.3773722514410667,-0.30461834586578107,14.637879977705836,24.193776125088498,0.0,1.0,0.0,0.0,1.0,Taxi
10.5,-0.1883399638362296,11.222211896265632,13.033455089847468,1.2366026301497928,0.6383990457374541,14.598921292872546,22.977039958537222,0.0,1.0,0.0,0.0,1.0,Taxi
10.600000000000001,-0.08758591749750831,-0.018582001443128604,12.770488179121331,1.084970881443787,0.08009692231970383,14.482279862539599,23.93942810376782,0.0,1.0,0.0,0.0,1.0,Taxi
10.700000000000001,0.01206726898417354,30.934191691073604,12.594348132241063,1.3085501200887828,0.05208083787106853,14.461060886543976,23.828684289114896,0.0,1.0,0.0,0.0,1.0,Taxi
10.8,-0.03366900538086168,13.120592889024765,13.265313121590834,0.887143690530845,0.6763589686519507,14.584693428915728,23.80098702623582,0.0,1.0,0.0,0.0,1.0,Taxi
10.9,-0.02198295305238457,-7.627862733963359,12.129027396668576,0.9602173988618457,-0.09783488535595924,14.595662366980662,23.80423525249277,0.0,1.0,0.0,0.0,1.0,Taxi
11.0,-0.026072044685643336,22.132706136750127,12.438179346879984,0.9887203919586662,0.6861017005839979,14.52246906900183,23.817402843584357,0.0,1.0,0.0,0.0,1.0,Taxi
11.100000000000001,0.07699452530288886,-7.538160222313711,12.492115058521636,0.7898336580606016,-0.07151834673580072,14.57990637665307,23.433821943282137,0.0,1.0,0.0,0.0,1.0,Taxi
11.200000000000001,-0.05967375416395321,3.8108313967609697,11.84731866748691,1.3831702882262165,-0.293199152651717,14.549318824053728,24.043792100082715,0.0,1.0,0.0,0.0,1.0,Taxi
11.3,-0.007017887701838569,3.372201128736061,12.066811503276902,0.9077124651070498,0.4086123632175918,14.442587181714146,24.963213624672317,0.0,1.0,0.0,0.0,1.0,Taxi
11.4,0.09385553094656908,5.897294703144449,12.607066723384213,1.0440966977694668,-0.7957662906545668,14.607473041245612,24.365604083710746,0.0,1.0,0.0,0.0,1.0,Taxi
11.5,-0.03018728064823107,-12.38753022447817,12.319514954302228,1.1031284378785104,-0.1344307323699954,14.581752293520765,24.631529536516418,0.0,1.0,0.0,0.0,1.0,Taxi
11.600000000000001,-0.06895553882422951,-39.91678867808016,12.591697415136954,1.3605950136994136,0.06310630116999577,14.43704373683255,22.50051771079131,0.0,1.0,0.0,0.0,1.0,Taxi
11.700000000000001,-0.10572841244383178,14.918359464143123,11.432704770375233,1.1753948317673144,0.16069448050338,14.526663033506168,23.970173505330933,0.0,1.0,0.0,0.0,1.0,Taxi
11.8,0.04440451667248449,31.674401220612122,12.891936884800419,0.9612430290600223,0.0504360167526343,14.352317709816646,22.97185000244242,0.0,1.0,0.0,0.0,1.0,Taxi
11.9,0.08941646727883103,44.79513224358495,12.630616182326316,0.8458802078029063,-0.21308938081474568,14.65195096984155,22.963529232367563,0.0,1.0,0.0,0.0,1.0,Taxi
12.0,0.1182472487740929,30.534130897500187,11.961537300011923,0.8195689368060646,0.12837584911036218,14.456429969072644,23.9198615115449,0.0,1.0,0.0,0.0,1.0,Taxi
12.100000000000001,0.19707517115998535,5.655373782912818,12.959699600587815,1.0277447042337007,-0.3853209089505997,14.553318785175179,23.738229068494313,0.0,1.0,0.0,0.0,1.0,Taxi
12.200000000000001,0.11769333619339505,-25.125347154215337,12.274753678635278,1.3881176305754954,-0.6426835807697123,14.669770041792788,24.071399978430858,0.0,1.0,0.0,0.0,1.0,Taxi
12.3,-0.007379486996983863,-53.46712890295516,13.230972929450445,1.276206053033291,-0.31871620435910253,14.532371015405204,23.265794441037634,0.0,1.0,0.0,0.0,1.0,Taxi
12.4,-0.0702604733547905,-21.615046530262703,12.927713275682718,1.4489615319404252,0.08525454955358028,14.590741727189709,24.084245093761847,0.0,1.0,0.0,0.0,1.0,Taxi
12.5,0.009618103542081473,27.436312178244673,12.679519777320202,1.0220591181647942,0.13490140945848547,14.336290715669804,23.933912334402965,0.0,1.0,0.0,0.0,1.0,Taxi
12.600000000000001,0.12980207389423945,77.34206990170132,12.32971874456937,1.2410009959277815,0.015214672646988642,14.427057626017643,24.478324067114706,0.0,1.0,0.0,0.0,1.0,Taxi
12.700000000000001,0.316449876153716,-2.4592557593239803,13.047943101533862,1.3706097686774918,-0.37324435627110425,14.505370501036282,24.098468203111334,0.0,1.0,0.0,0.0,1.0,Taxi
12.8,-0.0026781752545384264,-3.2199777259103493,13.93006996495509,1.2970900277172537,-0.7604441090440468,14.7500902817348,23.54553662365947,0.0,1.0,0.0,0.0,1.0,Taxi
12.9,0.1137021852646877,-43.29168108042421,12.254700345059364,1.1726313945578326,-0.38627209860860845,14.566809085889645,23.39757054816632,0.0,1.0,0.0,0.0,1.0,Taxi
13.0,0.09999147075159492,-7.664025736088083,12.77189635849867,1.3228672340911711,0.24933600553757254,14.460975316111103,24.02809716441163,0.0,1.0,0.0,0.0,1.0,Taxi
13.100000000000001,-0.04099830393497887,-61.344179577817876,13.545319399282517,0.7842204967494859,-0.6754336541723923,14.630444671137525,24.023018523292397,0.0,1.0,0.0,0.0,1.0,Taxi
13.200000000000001,-0.1930187126244017,9.196218914961937,12.820234462832524,0.8291948842244328,-0.5921547875061252,14.539381116165714,24.28320319118374,0.0,1.0,0.0,0.0,1.0,Taxi
13.3,0.1459725653264046,-18.08713641213575,12.487232083526745,1.4136768164328273,-0.001187509761718948,14.5649074585466,23.50816182174068,0.0,1.0,0.0,0.0,1.0,Taxi
13.4,-0.13143398599565762,31.802500533527816,12.57485824243471,0.9059096847544371,0.36765401323289937,14.502160998819534,23.59298266864782,0.0,1.0,0.0,0.0,1.0,Taxi
13.5,-0.03400620995676263,-46.789276283899454,13.02590993364542,0.959956208276624,-0.29856261439126136,14.619855053195806,23.84881767308371,0.0,1.0,0.0,0.0,1.0,Taxi
13.600000000000001,-0.08797381609309268,12.774979721461618,12.555008471859653,1.3208652243704462,-0.239718345845842,14.441394193534734,23.327852040926484,0.0,1.0,0.0,0.0,1.0,Taxi
13.700000000000001,-0.06755908738834955,7.734254111246353,13.68266866289947,0.947894813644458,0.11082167603868749,14.5515022220589,23.249667763042975,0.0,1.0,0.0,0.0,1.0,Taxi
13.8,0.0046650605994691076,29.228857350098043,11.607104539533598,0.9969221151357233,0.43750271397772733,14.605601692065022,23.378670402513272,0.0,1.0,0.0,0.0,1.0,Taxi
13.9,0.05817047065739751,-3.757217903484147,12.651952181263876,1.0181638983757604,0.39761125183608675,14.605400669414792,24.19954994269437,0.0,1.0,0.0,0.0,1.0,Taxi
14.0,-0.08634517690577029,-11.592232964860917,11.330187252281762,1.1180863224749755,-0.27813173105031935,14.631024337313079,23.730667655654834,0.0,1.0,0.0,0.0,1.0,Taxi
14.100000000000001,-0.053296104224835474,9.203522979117357,12.132570908388463,0.9663124265509013,0.027120140088768386,14.598197322870533,23.738551805383157,0.0,1.0,0.0,0.0,1.0,Taxi
14.200000000000001,0.1041880855529843,18.050305811965103,13.00757861440559,1.1448025174680703,-1.070376537345969,14.39124922213648,23.07757030391061,0.0,1.0,0.0,0.0,1.0,Taxi
14.3,0.0039063521540552175,23.36426958543596,13.349798806751677,1.4052654573125523,-0.49571005021580455,14.649497742876406,23.68723067715414,0.0,1.0,0.0,0.0,1.0,Taxi
14.4,0.0635252437023443,-7.550062756150563,11.686335239889148,1.4034152997149405,0.7783622428996041,14.60738190249458,24.574927597326873,0.0,1.0,0.0,0.0,1.0,Taxi
14.5,0.06643777177223147,-31.396302146404853,12.961171202774349,1.3885329725847688,-0.488192807728327,14.397923139302293,23.90119546309581,0.0,1.0,0.0,0.0,1.0,Taxi
14.600000000000001,-0.15307515857796905,-30.38247357051768,11.614138973922362,1.0704196011677787,1.0866092927590756,14.49553597558321,23.89554307950546,0.0,1.0,0.0,0.0,1.0,Taxi
14.700000000000001,-0.0883871241502441,-43.66033461572875,11.355299444432733,1.4707147107161964,-0.5753748115370105,14.515437487284487,24.06758343040499,0.0,1.0,0.0,0.0,1.0,Taxi
14.8,-0.1518639013064123,41.457361827174935,11.00678969006685,0.8115043374291189,0.15204062952019498,14.354198199509653,24.07967190639815,0.0,1.0,0.0,0.0,1.0,Taxi
14.9,0.054211650557905625,-2.595205484104426,13.086384197937841,1.4460039102661297,0.7047683054880878,14.535128450750676,24.024986777095986,0.0,1.0,0.0,0.0,1.0,Taxi
15.0,-0.10136315157076624,38.201482554648,12.319806103881374,1.6433800053699947,-0.024947181491775237,14.673641660255782,23.616710030743505,0.0,1.0,0.0,0.0,1.0,Taxi
15.100000000000001,0.039143511466827687,-23.56073676208118,13.394927265893235,1.236120628681987,-0.278533749827597,14.512429288325563,24.85377297683436,0.0,1.0,0.0,0.0,1.0,Taxi
15.200000000000001,-0.06359203325250028,18.337347184834545,12.668115885964296,1.0215395732826784,0.5564673310923658,14.50756994785388,23.570885744843,0.0,1.0,0.0,0.0,1.0,Taxi
15.3,-0.009676415646593491,-7.561031316194943,12.903960030656249,0.805572007942628,0.481055968616104,14.462923736668358,24.065746065695,0.0,1.0,0.0,0.0,1.0,Taxi
15.4,0.0013383548858530079,24.331265121090855,11.919806667681636,1.166436774173874,-0.6410734642393543,14.51739610752304,24.740396368674908,0.0,1.0,0.0,0.0,1.0,Taxi
15.5,0.05806429235295402,-0.806649612476285,12.822072623939254,1.3608295820847598,-0.0441230395046072,14.589585433063803,24.056205412561805,0.0,1.0,0.0,0.0,1.0,Taxi
15.600000000000001,-0.013709663708974897,0.8855482989511619,12.210292329015704,1.1062268904619108,-0.024844115879307696,14.624244440829159,24.294132580990112,0.0,1.0,0.0,0.0,1.0,Taxi
15.700000000000001,0.0057660963806088344,-3.5486747191293646,12.049810409018463,0.9311427836196559,0.04039428646065452,14.351411072756548,24.386266980742118,0.0,1.0,0.0,0.0,1.0,Taxi
15.8,0.0403209187573072,-13.588543627734765,12.419595638891488,0.7565305148827433,0.0007992447941005511,14.499117708631502,23.547411575515174,0.0,1.0,0.0,0.0,1.0,Taxi
15.9,-0.08165238184764871,14.674097385482591,13.294717610601005,1.3427835502416743,0.610282439146137,14.596345454510072,23.744563229259754,0.0,1.0,0.0,0.0,1.0,Taxi
16.0,0.0791365833080218,-8.631149099801148,12.282308175891217,1.0589030609096572,0.4176580149280282,14.354636706077486,24.479856844398153,0.0,1.0,0.0,0.0,1.0,Taxi
16.1,-0.002834826741698531,29.003283036616747,13.318246940078273,1.2573444848723676,-0.9158809560552964,14.570123984399572,23.503633093797703,0.0,1.0,0.0,0.0,1.0,Taxi
16.2,0.06336403333543503,-28.33480745697938,12.31699482064166,1.175769483694771,-0.5164363420124426,14.424431255307809,23.394384192179615,0.0,1.0,0.0,0.0,1.0,Taxi
16.3,-0.06253745397687509,7.687818892589694,13.213733848059547,1.3635524067649507,-0.3925588415307727,14.473361080297082,23.693009381423494,0.0,1.0,0.0,0.0,1.0,Taxi
16.400000000000002,0.035604267721249964,-23.735974246047533,11.622549486299695,0.8217983197359577,0.1783347920066159,14.547682744638166,23.059793666231524,0.0,1.0,0.0,0.0,1.0,Taxi
16.5,-0.0553158378948026,-0.43889758500962134,13.049007864227518,1.1151980521466234,-0.688767056407088,14.546114359468902,23.56880727740028,0.0,1.0,0.0,0.0,1.0,Taxi
16.6,-0.06473194190192316,-7.0313004928950775,12.764648038801198,0.997620330689549,0.06912705319123522,14.60037971727155,23.641015604588567,0.0,1.0,0.0,0.0,1.0,Taxi
16.7,0.00044776525677460975,-16.836737189215327,12.23187260402112,1.1960618731961492,0.5770762311951754,14.617452324954456,23.751975504053874,0.0,1.0,0.0,0.0,1.0,Taxi
16.8,-0.13949952384087919,9.321229085480397,12.316209324090282,1.1929970442633773,-0.07394291899032009,14.528896500181531,24.148382230924646,0.0,1.0,0.0,0.0,1.0,Taxi
16.900000000000002,-0.018125796474521113,10.391696855096674,12.587028550654603,1.0730058045575699,-0.5714461981608283,14.33517236212407,23.778546164779087,0.0,1.0,0.0,0.0,1.0,Taxi
17.0,0.052406249532258024,39.31456363121839,12.79106570756959,1.0642009379131998,0.44699369230086083,14.505907500508727,22.781075741691293,0.0,1.0,0.0,0.0,1.0,Taxi
17.1,0.05707329431521281,29.828445052952855,12.257982156039418,1.3220020902396734,-0.10604134937230517,14.344505149727297,24.485751890186542,0.0,1.0,0.0,0.0,1.0,Taxi
17.2,0.1310164287902432,-25.150182058515977,12.032069271920392,0.7701195757789636,0.03830994700070729,14.52720013780936,23.12371127763597,0.0,1.0,0.0,0.0,1.0,Taxi
17.3,-0.07334466076032185,-17.930438687551998,11.598883232690657,1.0945351186444856,1.012960469537683,14.47764556326075,22.6529785563919,0.0,1.0,0.0,0.0,1.0,Taxi
17.400000000000002,-0.03257889912254719,-43.82118917075908,12.734131398830986,1.3379082043561605,0.5000244556037664,14.427175628995542,23.48439230742303,0.0,1.0,0.0,0.0,1.0,Taxi
17.5,-0.08808951706355217,32.98697897339595,13.43745397559205,1.138747867806932,-0.5440472206673799,14.541056641274281,24.27536945774098,0.0,1.0,0.0,0.0,1.0,Taxi
17.6,0.0915902341066579,-3.923304834486425,12.355237090880482,0.8124660191376336,0.14461308511528867,14.39939970767233,24.48312388552784,0.0,1.0,0.0,0.0,1.0,Taxi
17.7,-0.05219542329497931,41.31898949295036,12.531116054901323,1.2620167158122455,0.9953543876462396,14.592172659360074,23.76927874868687,0.0,1.0,0.0,0.0,1.0,Taxi
17.8,0.11850543040119965,-29.800862987142594,11.920428313595819,1.2204643798273334,0.1384503918003876,14.492727833072252,23.495373603783328,0.0,1.0,0.0,0.0,1.0,Taxi
17.900000000000002,-0.05741408082905504,42.63362200240161,12.681119161996845,1.1000089760100142,0.41576944630212304,14.598966562981161,24.036471548936266,0.0,1.0,0.0,0.0,1.0,Taxi
18.0,0.16097268671702877,-12.2092370532853,12.19752670041402,1.1309362304219945,0.01528768628443618,14.502559039349421,24.090711678385347,0.0,1.0,0.0,0.0,1.0,Taxi
18.1,0.057459245134773185,16.0224417922353,12.419022423685933,1.4483482243127437,-0.48857478401392757,14.55792610031807,24.114732698042552,0.0,1.0,0.0,0.0,1.0,Taxi
18.2,0.022698128132121492,-63.787506270482375,12.113137905113602,0.7948704015126193,-0.004223594562374583,14.518042828537773,23.444684094582723,0.0,1.0,0.0,0.0,1.0,Taxi
18.3,-0.15796484463538307,-6.5516690352125835,13.435858264295955,0.9580877225097723,-0.06516709501032415,14.612809734049222,23.101083361763703,0.0,1.0,0.0,0.0,1.0,Taxi
18.400000000000002,0.024700899958710318,-16.92071926065304,11.83201854804729,1.2154818336244504,0.639320073537009,14.50027484353484,23.107235571892833,0.0,1.0,0.0,0.0,1.0,Taxi
18.5,-0.061905468171143674,30.091966951164654,12.910217503576158,1.3359772304961788,0.562204026419831,14.43736296685313,23.31297918071244,0.0,1.0,0.0,0.0,1.0,Taxi
18.6,-0.007505009879559764,25.574717779100045,13.293790719836764,1.3536161018747024,-0.053945542756312324,14.532792189252802,23.222539665838028,0.0,1.0,0.0,0.0,1.0,Taxi
18.7,0.1525744888542106,11.889523885715505,13.094739997504655,1.0528009871850097,0.2683119304364455,14.690464697122081,23.047957026718464,0.0,1.0,0.0,0.0,1.0,Taxi
18.8,-0.002457848742566096,-1.8847049160154796,12.55289641445577,0.826785440337243,0.2265988258683908,14.351310423182838,23.6981942086731,0.0,1.0,0.0,0.0,1.0,Taxi
18.900000000000002,-0.01692853445963711,-25.535855094747628,12.437881150381262,1.0776146779003546,-0.07385656566210687,14.536120546379493,23.833189902384692,0.0,1.0,0.0,0.0,1.0,Taxi
19.0,0.02489521338047252,7.690210936237496,11.997610655304124,1.2285378104146463,0.08165005080525306,14.645798503026072,23.774967945728925,0.0,1.0,0.0,0.0,1.0,Taxi
19.1,0.03599320593862144,-15.031818354556895,13.119699906305623,1.0077999175635304,0.3811673178594717,14.45371621718914,24.51561853611936,0.0,1.0,0.0,0.0,1.0,Taxi
19.200000000000003,-0.09208762623242155,11.657034934385578,13.349672308044585,1.030188836888785,0.4717823353876403,14.462286626694436,23.458296033197,0.0,1.0,0.0,0.0,1.0,Taxi
19.3,0.08318038805240045,22.81116694727233,12.668151432298298,1.0160695224519896,0.493388750999018,14.39595704293464,23.64146476461929,0.0,1.0,0.0,0.0,1.0,Taxi
19.400000000000002,0.15004904067498312,9.464431573628408,11.872594502399304,0.8856823579443309,-0.7045436366524521,14.598914788992374,24.09625214442477,0.0,1.0,0.0,0.0,1.0,Taxi
19.5,-0.04476546836427944,9.502282344764742,12.925680593712997,1.1946527609626898,-0.12813428135238975,14.422530764574049,24.49470474194551,0.0,1.0,0.0,0.0,1.0,Taxi
19.6,0.13069179977622422,-15.393763318891894,12.64457213762398,1.0017972066741598,-0.46489506830737726,14.55850087003114,24.010751502943158,0.0,1.0,0.0,0.0,1.0,Taxi
19.700000000000003,0.07308022408052371,47.70899618240401,11.797573969638803,1.2135129012546577,-0.31877126449308324,14.470505897293037,23.640697385025888,0.0,1.0,0.0,0.0,1.0,Taxi
19.8,0.19377951254774065,-40.78163383687977,12.349170038256023,1.1468383568462728,0.956049766781094,14.702402793650833,23.92583462622303,0.0,1.0,0.0,0.0,1.0,Taxi
19.900000000000002,-0.07321636940817457,-27.992505671077655,13.6241675441014,0.8733476290665374,0.5191665234774779,14.412863450291411,23.073718700473197,0.0,1.0,0.0,0.0,1.0,Taxi
20.0,-0.06688230427486452,-22.999982967538656,11.402582713046623,1.0613416143981302,0.8831479381280579,14.475993053887635,22.770985095170268,0.0,1.0,0.0,0.0,1.0,Taxi
20.1,0.07877959771004739,27.57568360554642,12.84663626930104,1.5620094373786262,-0.5330505326188135,14.511159429599786,23.000664591837065,0.0,1.0,0.0,0.0,1.0,Taxi
20.200000000000003,0.06466204861955756,0.582438025364174,12.363795134693943,1.2367285399270975,-0.0693344713681244,14.61140414878372,23.875297590545337,0.0,1.0,0.0,0.0,1.0,Taxi
20.3,-0.06397011414804364,14.938034632227001,12.167686409456783,1.2764622659389087,0.4282374551335088,14.567639887429209,23.568906563412686,0.0,1.0,0.0,0.0,1.0,Taxi
20.400000000000002,0.15346977087118244,23.466131363425347,12.066759692333637,1.310142865019313,-0.1411239889100868,14.627994050588882,24.099721590865975,0.0,1.0,0.0,0.0,1.0,Taxi
20.5,0.18199270543668433,6.21231627458918,13.117519526886376,1.2468169161986902,0.1838233899952817,14.426004808127288,23.713709262500647,0.0,1.0,0.0,0.0,1.0,Taxi
20.6,-0.03290853277509769,-50.392761108721494,12.805269872102715,0.9058641690033626,-0.8596157878469872,14.357256778847898,22.52105882860009,0.0,1.0,0.0,0.0,1.0,Taxi
20.700000000000003,-0.09849403467242501,2.0945745434608227,12.21881646748164,0.9557587492425215,-0.0988951242913474,14.571095949069502,24.04792935285136,0.0,1.0,0.0,0.0,1.0,Taxi
20.8,0.1924655781539885,18.401904067375682,12.099604372492118,1.1505448918279404,0.7387159465337503,14.482230541178808,23.37758318220219,0.0,1.0,0.0,0.0,1.0,Taxi
20.900000000000002,0.05910098756178072,8.1488203374211,11.81196521600118,1.0285267218180514,-0.3643233587943031,14.521586568655323,23.993849376790262,0.0,1.0,0.0,0.0,1.0,Taxi
21.0,-0.057749932985319524,-72.40599566933068,11.635198053612402,1.0244674362386115,-0.2065062454560687,14.535632448306274,23.705867064192024,0.0,1.0,0.0,0.0,1.0,Taxi
21.1,-0.16956440019266494,-18.581265463410872,12.876444242325261,1.028952535592423,-0.5971574828584083,14.691454890661078,24.485794561106644,0.0,1.0,0.0,0.0,1.0,Taxi
21.200000000000003,-0.033805339755273604,19.247690963612502,13.326953092196096,1.0745559446109336,-0.14230659115991234,14.421777867314404,23.181732735426806,0.0,1.0,0.0,0.0,1.0,Taxi
21.3,0.038488521832743025,34.247785725955445,12.149509321797995,0.9979200175959393,-0.13378293956222984,14.56252529045446,24.008862497425028,0.0,1.0,0.0,0.0,1.0,Taxi
21.400000000000002,0.0016745284371123066,19.624514348183432,13.339153872025907,0.9087415603960183,0.09077767082261907,14.585983557470456,24.151598127707636,0.0,1.0,0.0,0.0,1.0,Taxi
21.5,0.06431723198564357,-24.001259392187066,12.181921707521317,1.3913615169219,0.30880780673135555,14.752363088732011,23.387926390072163,0.0,1.0,0.0,0.0,1.0,Taxi
21.6,-0.08151777512819228,19.910253810025313,12.638520211420339,1.2203610738774753,0.568387997077851,14.709645823377457,23.379265888407687,0.0,1.0,0.0,0.0,1.0,Taxi
21.700000000000003,0.10122579748723892,-13.014652260815494,12.627138293466233,0.9746593977055893,-0.26626426295046773,14.594149358428808,24.854426004746788,0.0,1.0,0.0,0.0,1.0,Taxi
21.8,-0.0007560293184338598,7.8175043830231035,13.679912049333119,1.0894544899575629,-0.23699815483683281,14.634660356060806,23.855967603894502,0.0,1.0,0.0,0.0,1.0,Taxi
21.900000000000002,-0.04243025321307674,-13.068194299034054,13.476584353260524,1.0327603676102401,-0.2886819444213689,14.295742577425585,24.087130788494935,0.0,1.0,0.0,0.0,1.0,Taxi
22.0,0.03588482599206868,-38.105441922627755,12.349804100873154,1.2797021893531177,0.09950821836543278,14.448969293619257,23.5173458366571,0.0,1.0,0.0,0.0,1.0,Taxi
22.1,-0.19128323893157262,29.542239088829245,12.737967353239863,1.186489823826906,0.17524992946630255,14.732057894400782,24.13952866960703,0.0,1.0,0.0,0.0,1.0,Taxi
22.200000000000003,0.10528094223106949,-28.77573008062127,12.437905545563387,1.4676365956732984,-0.10860780544594992,14.69084007342775,24.10350431519932,0.0,1.0,0.0,0.0,1.0,Taxi
22.3,-0.10799382441103765,42.73445957151896,12.79874009132509,1.6162502317901395,0.8711154453786789,14.67257746243564,23.861195805647075,0.0,1.0,0.0,0.0,1.0,Taxi
22.400000000000002,0.022389058926022186,-48.180902697508465,12.385777786364697,1.1288885454526836,-0.058906675632524115,14.619324323901253,24.277485869628766,0.0,1.0,0.0,0.0,1.0,Taxi
22.5,-0.1356235712564728,38.69853682945551,12.247363537266072,1.084710370918279,0.29150596701929216,14.52460792018411,23.965703396575652,0.0,1.0,0.0,0.0,1.0,Taxi
22.6,0.08549885973623994,-58.634627887165244,12.601770860080775,1.51767822622325,-0.36482403529876034,14.394236160089008,23.23431835460518,0.0,1.0,0.0,0.0,1.0,Taxi
22.700000000000003,-0.270784080509804,58.50459180251365,12.169708193667448,0.7419087917323648,0.15191817584592235,14.678058447214823,23.51504650841727,0.0,1.0,0.0,0.0,1.0,Taxi
22.8,0.1568993877560955,-14.213917001641732,11.204484868465308,1.269413803090221,0.5741924345802666,14.485898941758137,24.564264492273423,0.0,1.0,0.0,0.0,1.0,Taxi
22.900000000000002,0.014429274728031362,61.34821303029404,11.30557827680509,0.9488433146240005,0.2600292476509558,14.633543168972096,23.44090970560334,0.0,1.0,0.0,0.0,1.0,Taxi
23.0,0.035956984641666294,13.292800809089007,13.109759089320667,1.2451188853079638,-0.3766877608906061,14.539651940689623,23.616621686265063,0.0,1.0,0.0,0.0,1.0,Taxi
23.1,0.22336339180154058,28.426569176022976,12.371024154921106,1.0135812761683665,0.1902500353823587,14.406011605052981,24.11524496988103,0.0,1.0,0.0,0.0,1.0,Taxi
23.200000000000003,0.15656212060814628,0.36657915995310003,12.964344832048294,0.8382574875242311,0.7954410010012681,14.559402037733548,24.44551686402045,0.0,1.0,0.0,0.0,1.0,Taxi
23.3,0.03778988044143184,-30.572121148986657,13.03151983396545,1.414978628286972,0.49630233553341313,14.455611770622397,22.55519967842961,0.0,1.0,0.0,0.0,1.0,Taxi
23.400000000000002,0.07050278605660729,-66.46092661376946,12.316913163508083,1.0711597938110784,0.0033128157905371195,14.38223750251484,24.257990810411183,0.0,1.0,0.0,0.0,1.0,Taxi
23.5,-0.17574251246070102,-4.376077625930638,13.066648072015571,0.8605504941301765,0.19383675991374483,14.545897625888244,24.226494585675496,0.0,1.0,0.0,0.0,1.0,Taxi
23.6,0.015909492311778618,-14.768222809023243,13.030086584489936,1.1448862075053616,0.3579651868841652,14.427246763642472,23.981433400601336,0.0,1.0,0.0,0.0,1.0,Taxi
23.700000000000003,-0.0033383279885089625,50.684067414629304,12.763209690235067,1.2181421634347573,0.13814221256227138,14.679446501813686,23.747908232264454,0.0,1.0,0.0,0.0,1.0,Taxi
23.8,0.07767782461244542,-2.3240835083044806,13.161821139048442,1.168372691515176,0.06181478049262783,14.422608442591809,23.988056427762476,0.0,1.0,0.0,0.0,1.0,Taxi
23.900000000000002,0.004289074770256207,1.4025995144682464,12.744399815069306,1.2140296015084175,0.38989904122060565,14.506839270123578,23.18521501567742,0.0,1.0,0.0,0.0,1.0,Taxi
24.0,0.0036746695838322644,1.5430162191419612,12.899302304320177,1.2270088375955917,0.2138306180130713,14.555825996368867,24.112895370573796,0.0,1.0,0.0,0.0,1.0,Taxi
24.1,0.08539290570815522,20.828267065662917,12.215163283188085,0.8868927447014158,-1.03842641006531,14.594920300210731,24.17529811590902,0.0,1.0,0.0,0.0,1.0,Taxi
24.200000000000003,0.10843041009857078,1.3219700412384914,11.719357979547706,1.201251948711856,0.08933538965090126,14.513120446619496,23.125029912868285,0.0,1.0,0.0,0.0,1.0,Taxi
24.3,0.0102845197900247,-21.10730291540152,12.05146961682363,1.2361087200841507,-0.4302931314247212,14.397485541618039,23.790487425656387,0.0,1.0,0.0,0.0,1.0,Taxi
24.400000000000002,-0.020143608868852404,-19.70130639308277,12.420466352640556,1.1605329531888964,-0.26014968128132565,14.453973702583198,23.818464679405796,0.0,1.0,0.0,0.0,1.0,Taxi
24.5,0.009923878133156892,-24.34805562307294,13.088546583064979,1.2939489461271978,-0.044660614582458104,14.534323633495205,23.732786389254937,0.0,1.0,0.0,0.0,1.0,Taxi
24.6,-0.11145575832534003,-13.758112844379605,12.533758803880927,1.0024518682291683,0.5285781093111505,14.535046820139712,23.50490669748634,0.0,1.0,0.0,0.0,1.0,Taxi
24.700000000000003,-0.08893417309075047,16.73743578972505,12.578696633408285,1.127557135065601,0.6409753627114252,14.377937669035191,23.372377404671695,0.0,1.0,0.0,0.0,1.0,Taxi
24.8,0.09361105708178215,-10.247994598023629,12.875398462813461,1.178347771512553,0.2864739111391763,14.462665603275354,24.288696718355876,0.0,1.0,0.0,0.0,1.0,Taxi
24.900000000000002,-0.16269573131545814,20.757277657844124,13.675591823268393,1.36810312084627,0.3410108479541933,14.38522483737205,24.079604502421613,0.0,1.0,0.0,0.0,1.0,Taxi
25.0,0.014852215198470187,-33.62896385904101,12.274888121375916,1.6049410345911808,-0.033583314075546225,14.587271591740148,23.679358203853422,0.0,1.0,0.0,0.0,1.0,Taxi
25.1,-0.07453376221342288,9.884197078036758,13.477217607693744,1.2407840758307507,-0.5491323948015657,14.395987012866328,23.61676354440746,0.0,1.0,0.0,0.0,1.0,Taxi
25.200000000000003,-0.11327474592527437,-23.82256383669166,12.551413109355662,1.0272013052726,0.16562415911556905,14.596461927692872,23.657454349710566,0.0,1.0,0.0,0.0,1.0,Taxi
25.3,-0.10426060398498814,32.02832861068416,12.50706646829534,1.4414772330019943,0.7262886785098179,14.696397894686072,23.57136526055421,0.0,1.0,0.0,0.0,1.0,Taxi
25.400000000000002,0.08560788083999792,66.12512919517017,13.806060365692144,1.117850267098897,0.15062066379350478,14.315593761596972,23.628921022557012,0.0,1.0,0.0,0.0,1.0,Taxi
25.5,0.2173509000505765,-19.384780670948583,13.014937463808678,1.2847332022787161,-0.38165876679529837,14.490417370667956,23.27312723656369,0.0,1.0,0.0,0.0,1.0,Taxi
25.6,-0.20118450733973106,-1.5426281078966515,12.876052504644264,0.967477374845424,-0.5033435748460175,14.43720980887531,24.308776491834745,0.0,1.0,0.0,0.0,1.0,Taxi
25.700000000000003,0.07789474030051469,-24.68390716364647,12.789562744195386,0.9463539407959238,0.5423707969192101,14.508858794125445,23.47584421066772,0.0,1.0,0.0,0.0,1.0,Taxi
25.8,0.09393136423234417,75.20171349452279,12.34123268488214,1.033697987587439,-0.28693742102703607,14.655581131484155,23.8463475210678,0.0,1.0,0.0,0.0,1.0,Taxi
25.900000000000002,0.17482406013288287,-27.314495323867607,12.021520426278327,0.86701610947104,-0.4483929900572362,14.62581343490865,23.533320733606818,0.0,1.0,0.0,0.0,1.0,Taxi
26.0,-0.05867773631882334,-23.015545143410563,12.070214230290807,1.2123001142780572,-0.4379167905615738,14.514005555777544,23.394561860959033,0.0,1.0,0.0,0.0,1.0,Taxi
26.1,-0.021146361484708623,-56.43991527354411,12.495472307641204,1.3058155671165166,-1.2855752830646747,14.462805590147468,23.661861918262343,0.0,1.0,0.0,0.0,1.0,Taxi
26.200000000000003,-0.10737551623483765,-13.418886246670409,13.151292276652018,1.2743527124514122,0.21448767440889593,14.414118756064738,24.37871705416125,0.0,1.0,0.0,0.0,1.0,Taxi
26.3,-0.12577216755217535,1.2458792376078212,12.601400046092062,1.044640037095711,-0.18701580718607927,14.583037101704178,24.58553378976494,0.0,1.0,0.0,0.0,1.0,Taxi
26.400000000000002,-0.01491696529666948,-2.2224765597824145,11.169368099012086,1.1971834590873673,0.050278284020184305,14.590960746471012,23.723617780394232,0.0,1.0,0.0,0.0,1.0,Taxi
26.5,-0.1184878990337497,-6.861446973900104,12.348698301805928,0.906942694511422,0.11920483728222359,14.656996566733653,24.012379946054615,0.0,1.0,0.0,0.0,1.0,Taxi
26.6,-0.16007940242167584,2.047393999611515,11.602961926138635,1.137745483286726,-0.42585928753785285,14.519582203443179,23.49834663192243,0.0,1.0,0.0,0.0,1.0,Taxi
26.700000000000003,-0.004679995298611887,26.62898884731145,12.022668722265108,0.9256939905245645,0.4018544492338163,14.485219215993311,23.075873470606446,0.0,1.0,0.0,0.0,1.0,Taxi
26.8,0.014657045202807563,-1.6109652276171194,13.953085751237692,1.386728855903274,0.2740019142027769,14.505234614007634,23.696461957794305,0.0,1.0,0.0,0.0,1.0,Taxi
26.900000000000002,-0.16813422855976143,-2.8144877702919993,11.418151759999454,1.2774775844791801,0.27737356931368135,14.51103576439391,23.443415618486302,0.0,1.0,0.0,0.0,1.0,Taxi
27.0,-0.018752434150071818,11.482165977004504,12.792312203136314,1.4196174949828173,-0.7532239480561141,14.753099839224149,23.07844178590691,0.0,1.0,0.0,0.0,1.0,Taxi
27.1,0.07206787508783015,9.764854500734714,13.679196534024117,1.1092840025861475,0.30432216545227003,14.58852314644514,23.3086050028751,0.0,1.0,0.0,0.0,1.0,Taxi
27.200000000000003,-0.11930995605608781,22.967982082185685,12.063342316426095,1.1153627125841568,-0.9194120164205197,14.508432226253092,23.601745203702617,0.0,1.0,0.0,0.0,1.0,Taxi
27.3,0.09608747626085663,-3.121004366958308,12.194134208926345,1.212095441203172,-0.12593812948904504,14.674194907388198,24.48037142990594,0.0,1.0,0.0,0.0,1.0,Taxi
27.400000000000002,0.056462853253038625,-8.022275140657001,12.976556565080305,0.8852497328224724,0.16179580632926652,14.430038460774142,23.561616385941647,0.0,1.0,0.0,0.0,1.0,Taxi
27.5,-0.1594213317593728,-21.647106676198064,11.84203094761431,1.5548521278448495,0.3141694712435801,14.57440781760954,23.400892532016456,0.0,1.0,0.0,0.0,1.0,Taxi
27.6,-0.012148057120133655,1.16887009008569,12.208115348181483,1.0771224102399013,0.747487799806316,14.579604819108908,23.71267000183189,0.0,1.0,0.0,0.0,1.0,Taxi
27.700000000000003,0.06230720370346711,23.437777723564313,12.521263112625277,1.271279778235798,-0.4139027609253357,14.672551830043005,23.5868039263026,0.0,1.0,0.0,0.0,1.0,Taxi
27.8,-0.042232443141551196,2.5191888948087637,13.147513764591197,0.7578906261590127,0.03148834067395004,14.51010948250729,23.430335790940905,0.0,1.0,0.0,0.0,1.0,Taxi
27.900000000000002,0.00044788735391022307,5.090949340310641,13.221867150094981,1.2663522444248492,-0.2568325691997718,14.679923005388844,24.22711023483673,0.0,1.0,0.0,0.0,1.0,Taxi
28.0,0.08776195040502038,-4.407031527484989,13.111584555070177,1.1994626436533262,0.16517738480735158,14.553576834588,23.826473152999736,0.0,1.0,0.0,0.0,1.0,Taxi
28.1,-0.06426760077897607,37.99081687046975,12.962654161083721,1.1913458996719288,-0.3153084122691826,14.660937085487319,24.729830315638107,0.0,1.0,0.0,0.0,1.0,Taxi
28.200000000000003,0.190401971706259,-32.532217419778014,12.808249645017776,1.4430128104414157,-0.4932424844818909,14.506640494406952,22.799256758547973,0.0,1.0,0.0,0.0,1.0,Taxi
28.3,-0.07489913669386963,32.974212485464214,13.439324644362644,1.3382975748266506,-0.4069371401589034,14.448376584926791,23.642727834357803,0.0,1.0,0.0,0.0,1.0,Taxi
28.400000000000002,0.10060346164834509,-28.683967264254804,12.527209079125493,1.0753256789886358,0.24603313734647256,14.488279756679674,24.440058479612908,0.0,1.0,0.0,0.0,1.0,Taxi
28.5,0.04698213538498508,-8.429928979369953,12.428639834358698,1.3744330754772849,-0.9323769711903893,14.6259464339999,24.55127046269511,0.0,1.0,0.0,0.0,1.0,Taxi
28.6,-0.11704878159071935,-36.9262288573139,12.2158323187355,1.0699566319428286,0.5943801517597588,14.51462602338978,24.315113913717646,0.0,1.0,0.0,0.0,1.0,Taxi
28.700000000000003,-0.0840276826382244,-15.652199167682719,13.338037061946329,1.1143523383777045,-0.12344780982886724,14.503994669321003,22.982975632726795,0.0,1.0,0.0,0.0,1.0,Taxi
28.8,-0.03127886045342849,35.43656704101229,13.070648102238136,1.3181083996163299,-0.8090580576910946,14.55645718126135,24.401489739996,0.0,1.0,0.0,0.0,1.0,Taxi
28.900000000000002,0.060134053614342146,-3.3935266519299554,12.918117393360857,1.229816253595913,0.10910181599099801,14.542872384209659,23.388375801986367,0.0,1.0,0.0,0.0,1.0,Taxi
29.0,-0.10099531589787414,-7.552669793253448,12.644804853614234,0.9612818753769514,0.17393894682490238,14.630081367313892,23.51507540931748,0.0,1.0,0.0,0.0,1.0,Taxi
29.1,-0.0690422094196957,2.165957168663894,12.757032898425429,1.1560924344648826,0.9520361302707824,14.529709995700898,23.863163988657274,0.0,1.0,0.0,0.0,1.0,Taxi
29.200000000000003,0.07096383945766166,-3.2376941181205816,11.930348324144727,1.087559713936522,-0.06204615362556201,14.742662802589962,23.19933303759012,0.0,1.0,0.0,0.0,1.0,Taxi
29.3,-0.117183786488477,4.793590298840535,12.224932423245207,1.2533628526985081,0.7344440833403431,14.424299363716614,24.14194409693898,0.0,1.0,0.0,0.0,1.0,Taxi
29.400000000000002,-0.04507425792549298,-27.932698368844044,11.818863964680205,1.5056174597965684,0.5036298253560453,14.461299850723776,23.339314418372066,0.0,1.0,0.0,0.0,1.0,Taxi
29.5,-0.06869965238655852,25.03024519839415,12.994326894088664,1.316445519335712,0.3518880146983044,14.489429803579924,23.33728782486351,0.0,1.0,0.0,0.0,1.0,Taxi
29.6,0.007967439503493805,-16.985308050724505,13.016697426553373,1.0155994097502574,0.18015130174589453,14.563153307773973,23.80831737688487,0.0,1.0,0.0,0.0,1.0,Taxi
29.700000000000003,-0.13000079817911547,28.13994935896756,11.700078338837193,0.7084224865252162,-0.3619066161704456,14.49424877061665,24.14573629563192,0.0,1.0,0.0,0.0,1.0,Taxi
29.8,0.0720000944082793,-3.6976359880140635,13.529140983814386,1.2208013589831173,-0.6334148209068042,14.726099733077945,24.075943711317734,0.0,1.0,0.0,0.0,1.0,Taxi
29.900000000000002,-0.010520740436576491,-3.4132894553747946,13.238791274369085,1.0998714207887732,0.21860406461628587,14.53015515736115,24.289820892124684,0.0,1.0,0.0,0.0,1.0,Taxi
30.0,-0.14706724545598943,-45.315589034284024,12.71047021145051,1.2720009256765645,-0.20035314665934767,14.592221219777798,23.64427443432452,0.0,1.0,0.0,0.0,1.0,Taxi
30.1,-0.1545778507631408,0.17366102738804537,12.414945805369282,1.0123036397655263,0.8487862605388973,14.583414588230255,23.85547279216742,0.0,1.0,0.0,0.0,1.0,Taxi
30.200000000000003,-0.009652435299636226,10.259482208441556,11.958547943131965,0.9876736305092848,0.13412123229173797,14.611462853390151,24.263547157713273,0.0,1.0,0.0,0.0,1.0,Taxi
30.3,-0.0957698344137816,32.307398520370576,13.041730988676969,1.2096456846904649,0.7514081238963451,14.475660774301673,22.960932197223528,0.0,1.0,0.0,0.0,1.0,Taxi
30.400000000000002,0.006959141838712112,4.653545682949699,12.568371358459348,1.2682852379908203,-0.23716445093686045,14.568431044772865,24.401931587529422,0.0,1.0,0.0,0.0,1.0,Taxi
30.5,0.013615293115112318,75.69677705283804,12.457754946231658,1.341988467426439,-0.44421100677019537,14.597698014178263,23.741588272239646,0.0,1.0,0.0,0.0,1.0,Taxi
30.6,0.2827140508504086,-9.955455405696455,12.311939983071964,1.1311791313731054,0.7557370844814489,14.46077264544175,23.75519381377108,0.0,1.0,0.0,0.0,1.0,Taxi
30.700000000000003,-0.04281813518977012,-7.150471379525658,12.472482121350028,1.2525798696935933,0.3386927212080795,14.583870981952089,23.777854250394977,0.0,1.0,0.0,0.0,1.0,Taxi
30.8,-0.02213706378251592,-34.018558389327374,12.418750256047748,0.6821502811548189,-0.8969134928004375,14.296111295034166,24.771942104266266,0.0,1.0,0.0,0.0,1.0,Taxi
30.900000000000002,0.11262125890377178,7.17921496726206,13.202055603707564,1.5116599585278723,-0.02107041444415826,14.621269240257675,23.371368957617403,0.0,1.0,0.0,0.0,1.0,Taxi
31.0,-0.006922060353459814,23.692479406508284,12.59016590708103,1.2076071220456062,-0.46061759106512296,14.600113295058577,23.070989516353144,0.0,1.0,0.0,0.0,1.0,Taxi
31.1,0.09632533325002551,-36.60520200777766,12.485632224202204,0.9251211931070769,-0.05698094458482883,14.519146024004272,24.271860675228933,0.0,1.0,0.0,0.0,1.0,Taxi
31.200000000000003,-0.07040475113511653,20.646346399167356,14.12178855721813,1.4352303625253582,-0.5517114086012501,14.531094255435335,22.77280848939804,0.0,1.0,0.0,0.0,1.0,Taxi
31.3,0.09630967164237698,-50.11227397540433,13.478778305425111,1.473761051837367,0.22933322984666,14.470590938273858,24.22829676396897,0.0,1.0,0.0,0.0,1.0,Taxi
31.400000000000002,-0.15423603662699614,11.889592317074692,12.935016134276628,1.2402976009630988,-0.10631421966673149,14.4266487456282,24.143189861541735,0.0,1.0,0.0,0.0,1.0,Taxi
31.5,-0.010956789549743039,-24.15371011624896,12.373503756901778,1.572441941289868,-0.020560332313827444,14.397700715632311,24.37300021899109,0.0,1.0,0.0,0.0,1.0,Taxi
31.6,-0.024458878938867775,45.83802956868967,13.208439660307457,1.2544414640980537,0.12935124320230376,14.39690677315599,24.68188683723528,0.0,1.0,0.0,0.0,1.0,Taxi
31.700000000000003,0.07495411121645225,-25.896450001570045,11.738060652520183,1.5599905781233514,-0.7581803475327424,14.475597065362308,23.65329380833822,0.0,1.0,0.0,0.0,1.0,Taxi
31.8,-0.1404390395575932,-15.403355730802701,11.589776271698026,1.0640434151100973,-0.7970613434439187,14.4078273760299,23.34116976211508,0.0,1.0,0.0,0.0,1.0,Taxi
31.900000000000002,-0.10147565759288123,2.6339382246562857,13.199228522649324,1.1521882624552442,-0.7177323749202729,14.479918443417489,24.540303283570132,0.0,1.0,0.0,0.0,1.0,Taxi
32.0,0.08812380233973373,33.19340810131249,12.835787684728887,0.8542215228123218,0.3090912236880134,14.487370877518913,23.361471580639385,0.0,1.0,0.0,0.0,1.0,Taxi
32.1,0.025528000948969287,39.996694770928876,12.716029538388462,1.026717013867118,0.07337581888396515,14.470732666155357,24.337157646847395,0.0,1.0,0.0,0.0,1.0,Taxi
32.2,0.09850781626176319,-31.092628146453062,11.880887138841477,1.23729051816037,0.4057022218244846,14.595586867657119,23.5279804439665,0.0,1.0,0.0,0.0,1.0,Taxi
32.300000000000004,-0.06733933839253152,-27.64133621027908,12.391591752803098,0.9119511748361799,0.6112523947806431,14.505316362786346,24.13124113452844,0.0,1.0,0.0,0.0,1.0,Taxi
32.4,-0.11267868010242604,-33.61071015805212,12.247760054178357,0.9066476050599765,-0.1770985443610582,14.558645275441222,22.988111488024316,0.0,1.0,0.0,0.0,1.0,Taxi
32.5,-0.06954573452849735,40.67951978144009,13.533007500708134,0.8848393787045039,-0.40400673643898183,14.671455846297988,23.89098274155166,0.0,1.0,0.0,0.0,1.0,Taxi
32.6,0.136058260514669,23.887557215929736,13.079284592677759,0.8428392052628112,-0.4709481343455669,14.476798987395,24.25804318478957,0.0,1.0,0.0,0.0,1.0,Taxi
32.7,0.006759105977222679,25.007256090115877,12.607849017557719,1.243584556278536,-0.9941878020722019,14.49876775440157,24.14108560612156,0.0,1.0,0.0,0.0,1.0,Taxi
32.800000000000004,0.05549054592208208,-57.45228141558518,12.857254320146268,1.309608603757541,0.3166529297853843,14.539779389364071,22.90101987069441,0.0,1.0,0.0,0.0,1.0,Taxi
32.9,-0.15120314656325687,-10.359851959618068,12.773646137327804,1.322594774045251,-0.09977346911808048,14.539062450465394,22.998697561714135,0.0,1.0,0.0,0.0,1.0,Taxi
33.0,-0.04504015382086765,-8.595365067679042,13.176012480343948,1.1347138879692855,-0.20841056108957037,14.495611339868958,23.66597873981782,0.0,1.0,0.0,0.0,1.0,Taxi
33.1,0.012513720583686869,79.6595235606759,11.891309225726053,1.3394390259514741,0.40266974257364707,14.542491337610272,22.89886545017522,0.0,1.0,0.0,0.0,1.0,Taxi
33.2,0.24709447124012263,32.03220422374479,13.048100004313929,0.8700086645052534,-0.3135333791099527,14.306860117918347,23.980432070686728,0.0,1.0,0.0,0.0,1.0,Taxi
33.300000000000004,0.11512086729785631,-6.85810066210647,12.548661108681538,1.43222882670551,-0.4183310027318341,14.379852087736424,23.497808230616908,0.0,1.0,0.0,0.0,1.0,Taxi
33.4,-0.021776782726845495,-29.85540096053271,12.532464374484393,1.013260123103771,0.04282813939733589,14.690877238723886,23.888284690686508,0.0,1.0,0.0,0.0,1.0,Taxi
33.5,0.09781746643745907,-30.18417499912613,12.36810268207417,1.1663179568281803,-0.8865798485349636,14.453747803715544,24.59257494018793,0.0,1.0,0.0,0.0,1.0,Taxi
33.6,-0.035800007697774354,24.23059751711521,11.129636700747577,1.1618324107445117,0.5371484443229098,14.639809772462854,24.90198904728663,0.0,1.0,0.0,0.0,1.0,Taxi
33.7,0.09937620485873057,1.1074573517288597,13.284819049871695,1.3939418444473082,0.09023400661239386,14.49707542632558,24.20842130213452,0.0,1.0,0.0,0.0,1.0,Taxi
33.800000000000004,0.10335475319610339,49.28537081133965,13.189373987200426,0.9011065932835989,0.14217021531174517,14.38359552574883,24.61086637644212,0.0,1.0,0.0,0.0,1.0,Taxi
33.9,0.21062684635892392,-11.970331651456311,12.042597147328683,1.3183098690063582,-0.6742896646744717,14.633571540813705,23.389323753748272,0.0,1.0,0.0,0.0,1.0,Taxi
34.0,0.039524546601449065,-64.35683565726164,12.396886780697697,1.0198202555731226,0.1368246175980742,14.556430798183897,23.935859015258607,0.0,1.0,0.0,0.0,1.0,Taxi
34.1,-0.21842942509020477,-52.56332727427891,12.450680194978576,1.4429161822324574,-0.07212426997728133,14.518989219670857,24.108085320351528,0.0,1.0,0.0,0.0,1.0,Taxi
34.2,-0.05218979001247052,-15.437141404119146,11.970150351790622,0.9807226611429273,0.20893220749237484,14.355409438562504,23.05314651904334,0.0,1.0,0.0,0.0,1.0,Taxi
34.300000000000004,-0.037661160419146605,51.10497200172738,12.832582088435842,1.073470447871056,-0.15614774184187674,14.539785136323644,23.37068848949436,0.0,1.0,0.0,0.0,1.0,Taxi
34.4,0.03709543491843214,-6.067945274868961,12.826099745761223,1.030857026672963,0.4690666158404192,14.44410915965733,23.876010394534855,0.0,1.0,0.0,0.0,1.0,Taxi
34.5,-0.08252951638681534,-30.422097704580832,11.101792391733854,1.415031356245303,0.19250016148737592,14.34703429349338,24.180086636041665,0.0,1.0,0.0,0.0,1.0,Taxi
34.6,-0.18977164894205079,7.011830854761475,11.531490433832097,1.5331487376483803,0.3656317526347545,14.560367464482624,23.159151722958047,0.0,1.0,0.0,0.0,1.0,Taxi
34.7,0.0721545891922395,25.408422704825096,12.725007882126585,1.1305686164816642,0.12604800580332684,14.502579121574797,23.319950634811924,0.0,1.0,0.0,0.0,1.0,Taxi
34.800000000000004,0.04451259713731012,13.864956108024208,12.996382300437537,1.5616438626534728,-0.702543305191395,14.662713082849223,23.80941241969067,0.0,1.0,0.0,0.0,1.0,Taxi
34.9,-0.12044686840192971,-32.55900681542684,11.83893763773638,1.2373090315343986,0.3740941934541419,14.430968142424263,23.699839507074955,0.0,1.0,0.0,0.0,1.0,Taxi
35.0,-0.09064044488489467,-9.505730298780106,13.08583773638192,1.2454450874665353,0.0770883784276247,14.274463700496256,23.308201926930877,0.0,1.0,0.0,0.0,1.0,Taxi
35.1,-0.0030160543565903725,9.76571057688242,12.954286225819825,1.5852086361065636,-0.47327722919067755,14.554530643370526,23.858118940721592,0.0,1.0,0.0,0.0,1.0,Taxi
35.2,-0.07161831551751761,75.464591934041,13.082139063250658,1.2648268393837576,0.08438981271467891,14.535917932417192,23.536483701761682,0.0,1.0,0.0,0.0,1.0,Taxi
