time_s,altitude_ft,vertical_speed_fpm,ias_kt,pitch_deg,roll_deg,heading_deg,throttle_pct,afterburner_on,gear_down,flaps_deg,speedbrake_pct,weight_on_wheels,label
0.0,-1.6281362594783244,-503.86359633968647,154.44044089664072,1.3615433950293088,-3.5602327210994362,301.8501902327474,38.45893478418828,0.0,1.0,10.544824546114747,9.245514160469616,0.0,Landing
0.1,-3.3076815806106126,-667.0783265034202,152.80571606374804,1.2100846615818255,-3.567175032186936,302.363348953285,38.29538644492982,0.0,1.0,10.544824546114747,9.245514160469616,0.0,Landing
0.2,-4.963527891995425,-999.9032028745656,154.20327893541798,1.4896534665572543,-3.5360953662995382,302.105728403307,38.59076269031395,0.0,1.0,10.544824546114747,9.245514160469616,0.0,Landing
0.30000000000000004,-6.627652273851153,-982.0928165168507,152.71808166979665,1.2724637291035732,-3.6394848191089504,301.9753333900587,37.97280913186282,0.0,1.0,10.544824546114747,9.245514160469616,0.0,Landing
0.4,-8.218145663194866,-992.1192852059085,152.54665119884663,1.403250663253559,-3.97242464449595,302.11050403895126,38.31514226417063,0.0,1.0,10.544824546114747,9.245514160469616,0.0,Landing
0.5,-9.924124318024967,-985.622709751231,154.79884937489982,1.5428401852879432,-4.116582743086136,301.8995701088028,38.41999959468438,0.0,1.0,10.544824546114747,9.245514160469616,0.0,Landing
0.6000000000000001,-11.555765822607308,-1013.2632240248689,154.50260064402016,1.48136413233913,-3.1828447554330803,301.99023203867114,38.46016422967039,0.0,1.0,10.544824546114747,9.245514160469616,0.0,Landing
0.7000000000000001,-13.28446178331921,-1015.507850291899,153.1820377722005,1.446904498529819,-3.5115563365885545,302.20091129771185,38.112282332571766,0.0,1.0,10.544824546114747,9.245514160469616,0.0,Landing
0.8,-15.001663569484462,-1029.1860841050204,155.57198754474322,1.0750743671084066,-3.235490912870083,302.13708865221884,38.75085637151242,0.0,1.0,10.544824546114747,9.245514160469616,0.0,Landing
0.9,-16.70169624313241,-995.3448946734237,152.8486357552392,1.3462634948619294,-3.719088608129765,302.4486921441983,38.45562311033306,0.0,1.0,10.544824546114747,9.245514160469616,0.0,Landing
1.0,-18.26118625668633,-976.6786685990792,154.2493236851785,1.1291190988378055,-3.523305429640157,302.15666962942714,38.6152494050088,0.0,1.0,10.544824546114747,9.245514160469616,0.0,Landing
1.1,-19.885056912479858,-968.5781295493967,152.30707393284285,1.208196292628803,-3.835711487723233,302.0533174638574,37.952706671551404,0.0,1.0,10.544824546114747,9.245514160469616,0.0,Landing
1.2000000000000002,-21.544586890879394,-985.3984828317194,153.37010012890872,1.1700196125113047,-3.807140459504345,302.26967457054616,38.44036050769239,0.0,1.0,10.544824546114747,9.245514160469616,0.0,Landing
1.3,-23.188178670844927,-993.0403245602924,153.82902698681275,1.4575505165792093,-3.4176409179917284,302.0132500916135,38.52363983725295,0.0,1.0,10.544824546114747,9.245514160469616,0.0,Landing
1.4000000000000001,-24.85025853528132,-986.788935191737,155.06890462361673,1.073203216541946,-3.723254437010259,302.2498213702455,38.058875547967325,0.0,1.0,10.544824546114747,9.245514160469616,0.0,Landing
1.5,-26.47853156683808,-999.3236598257781,153.20493801526575,1.6242188067966854,-3.621818225170064,302.28818117154253,38.392995170032805,0.0,1.0,10.544824546114747,9.245514160469616,0.0,Landing
1.6,-28.184796969973817,-1006.717818076126,152.7204131678823,1.2420381600500612,-3.23310550975995,302.1293896245385,37.987019227009085,0.0,1.0,10.544824546114747,9.245514160469616,0.0,Landing
1.7000000000000002,-29.88384762566195,-982.8570027667553,154.06925406551832,1.1796019248510659,-3.320368816921719,302.2378667113735,38.65793221924381,0.0,1.0,10.544824546114747,9.245514160469616,0.0,Landing
1.8,-31.392816580671855,-991.6054038761844,153.97627502805096,1.4536748474079888,-3.6731756457004656,302.2389333113275,38.26226335713354,0.0,1.0,10.544824546114747,9.245514160469616,0.0,Landing
1.9000000000000001,-33.14282398935474,-978.5843071744921,152.85257472367203,1.2999751188717314,-3.419980739073751,302.23104550950075,38.02466313203647,0.0,1.0,10.544824546114747,9.245514160469616,0.0,Landing
2.0,-34.77676916153441,-1014.0822690761667,154.56346534438063,1.4371516181206911,-3.9208742873202884,302.1736280893224,38.37931267278273,0.0,1.0,10.544824546114747,9.245514160469616,0.0,Landing
2.1,-36.46322792605269,-978.5404233303851,154.22779058606034,1.2588877582304974,-3.6403613080705255,302.321242870932,37.99049934029863,0.0,1.0,10.544824546114747,9.245514160469616,0.0,Landing
2.2,-38.035526106006664,-991.1649340094542,152.95963531873622,1.2775368112450103,-3.366481138253578,302.16255130066975,38.3008325858082,0.0,1.0,10.544824546114747,9.245514160469616,0.0,Landing
2.3000000000000003,-39.73259383158168,-984.3050435495684,152.94158896115584,1.203713618648976,-3.6000163309612274,302.26306918553075,38.34323585605728,0.0,1.0,10.544824546114747,9.245514160469616,0.0,Landing
2.4000000000000004,-41.38475314380053,-1005.3526069022964,153.83388896480574,1.5971202793573718,-3.5414598607995513,302.0066554149637,37.983756325873784,0.0,1.0,10.544824546114747,9.245514160469616,0.0,Landing
2.5,-43.062289140518146,-1002.4102725470215,153.86598135424464,1.1331456346256086,-3.5916279689233437,302.31583508733183,38.239188743845126,0.0,1.0,10.544824546114747,9.245514160469616,0.0,Landing
2.6,-44.74464519431679,-1000.8725147832238,153.0666361764249,1.380782392099113,-3.6707777907599146,302.3426167149927,38.59965295546435,0.0,1.0,10.544824546114747,9.245514160469616,0.0,Landing
2.7,-46.38911571771665,-987.8213495435602,154.08794132814438,1.4084719297628163,-3.5957693896565655,302.2449047318271,37.91662557261562,0.0,1.0,10.544824546114747,9.245514160469616,0.0,Landing
2.8000000000000003,-48.00139588823595,-964.8481376244191,153.2745170536209,1.5645415820687447,-3.8656888603691604,301.9846189648117,38.64439546047355,0.0,1.0,10.544824546114747,9.245514160469616,0.0,Landing
2.9000000000000004,-49.568885882438884,-956.0446291635643,154.39106455997717,0.9520203461377411,-4.000427739387731,301.8092303489734,37.99785857315894,0.0,1.0,10.544824546114747,9.245514160469616,0.0,Landing
3.0,-51.16933886353447,-963.7191090468847,153.03921198908196,1.5678315163050909,-3.5158652601651323,302.28186260950804,38.591788514089785,0.0,1.0,10.544824546114747,9.245514160469616,0.0,Landing
3.1,-52.81999143347037,-977.735881170814,152.70923687312657,1.1641202565335635,-3.976456152023799,302.1213817156163,37.82760063651969,0.0,1.0,10.544824546114747,9.245514160469616,0.0,Landing
3.2,-54.457565288292955,-993.0530613319505,155.17596744164882,1.747986818283528,-4.022773744295788,302.09825346512196,38.365319245424054,0.0,1.0,10.544824546114747,9.245514160469616,0.0,Landing
3.3000000000000003,-56.13460417019422,-987.0102515694199,152.39932000379406,1.2948828119446802,-3.9996110197195023,302.4122048518716,37.82460888758534,0.0,1.0,10.544824546114747,9.245514160469616,0.0,Landing
3.4000000000000004,-57.75504269131747,-980.6540570421148,152.43880137392534,1.4706020914348699,-3.670469828061777,302.08043291416334,38.52144839443135,0.0,1.0,10.544824546114747,9.245514160469616,0.0,Landing
3.5,-59.36083557350353,-976.6947855084424,153.57111983620888,1.4175231216249347,-3.8030349966854993,302.56316517115886,37.666031568984664,0.0,1.0,10.544824546114747,9.245514160469616,0.0,Landing
3.6,-61.018078097736435,-975.242258651862,153.96482605316285,1.3364003438656877,-3.8145117613778696,301.9622207371599,38.48579934892453,0.0,1.0,10.544824546114747,9.245514160469616,0.0,Landing
3.7,-62.63125398457678,-979.6585087141849,152.63761682233647,0.9825886377432158,-3.854520306104331,302.1926154584485,38.5310081942903,0.0,1.0,10.544824546114747,9.245514160469616,0.0,Landing
3.8000000000000003,-64.25912811707445,-982.3947795577823,154.2300570953548,1.3460531387750683,-3.4756690410821274,302.139974825031,38.623628499295144,0.0,1.0,10.544824546114747,9.245514160469616,0.0,Landing
3.9000000000000004,-65.93005199552535,-998.8216871998887,153.60255358127574,1.5152814115895097,-3.3538177655640617,302.5311839733573,38.67747907019249,0.0,1.0,10.544824546114747,9.245514160469616,0.0,Landing
4.0,-67.62536242057622,-1001.6610864863424,153.36029536377796,1.2127091449477105,-3.6926533821101737,301.865691636224,38.30590385487033,0.0,1.0,10.544824546114747,9.245514160469616,0.0,Landing
4.1000000000000005,-69.26743354950617,-982.4251185297327,154.4947195981514,1.767042348324698,-3.6019066857244524,301.96967779911654,38.74460828206199,0.0,1.0,10.544824546114747,9.245514160469616,0.0,Landing
4.2,-70.84217758817401,-974.228480963967,154.07260197797493,1.1786850421330444,-3.63403259121475,302.3340662466036,38.06834252005524,0.0,1.0,10.544824546114747,9.245514160469616,0.0,Landing
4.3,-72.49650482539606,-985.508273934849,153.54638493466246,1.2018198762586048,-3.801462115557812,302.04403698681335,38.384147716387574,0.0,1.0,10.544824546114747,9.245514160469616,0.0,Landing
4.4,-74.19497491918041,-1008.8530751113581,154.3237060876783,1.0531452136890187,-3.744741885170498,302.17478684676405,38.9928361545803,0.0,1.0,10.544824546114747,9.245514160469616,0.0,Landing
4.5,-75.8864429637308,-995.5347308142735,153.207382276201,1.5008186570770783,-3.7007781026187017,301.94539650331444,38.75438631772236,0.0,1.0,10.544824546114747,9.245514160469616,0.0,Landing
4.6000000000000005,-77.47417847946743,-1002.881549345534,151.19334606224095,1.175369797436404,-3.895745170772684,302.18619051986934,38.10439312850451,0.0,1.0,10.544824546114747,9.245514160469616,0.0,Landing
4.7,-79.20938266590808,-985.9848435596376,151.9626715570771,1.2362764174241183,-4.003115581641221,302.26990054552357,37.76896505146643,0.0,1.0,10.544824546114747,9.245514160469616,0.0,Landing
4.800000000000001,-80.81636718152899,-995.3245635629542,154.23046595299874,1.184691857129906,-3.6849920258685733,301.99598379707083,38.41950725801724,0.0,1.0,10.544824546114747,9.245514160469616,0.0,Landing
4.9,-82.4508012972822,-968.2833842407717,154.98213129952467,1.169737452416626,-3.4260806383473694,302.3954030204626,38.37178840973694,0.0,1.0,10.544824546114747,9.245514160469616,0.0,Landing
5.0,-84.05079958711194,-956.0589664427398,154.66981574299805,1.5029056205339544,-4.050351655725115,302.3558432149878,37.89785927987301,0.0,1.0,10.544824546114747,9.245514160469616,0.0,Landing
5.1000000000000005,-85.59666201374269,-958.324913057274,152.86655861487006,1.3235040262723285,-3.6550751242062502,302.39517073117577,38.24309275136275,0.0,1.0,10.544824546114747,9.245514160469616,0.0,Landing
5.2,-87.24242586256857,-955.8269799728379,151.97865961409283,1.6278675829530609,-3.766944638919268,302.37444256776826,38.74084452476409,0.0,1.0,10.544824546114747,9.245514160469616,0.0,Landing
5.300000000000001,-88.82993448697613,-982.9594020825738,153.78833334657742,1.0965855809544929,-3.551661604955184,302.24912107609566,38.59303921367702,0.0,1.0,10.544824546114747,9.245514160469616,0.0,Landing
5.4,-90.51145902415556,-974.7047904732995,153.43326381412052,1.0996929943566176,-3.7645941079048644,302.517692754712,37.9801191210493,0.0,1.0,10.544824546114747,9.245514160469616,0.0,Landing
5.5,-92.11594981493506,-976.2773897602729,152.99818697408028,1.541519599464284,-3.3503497615578106,302.4595693291358,38.213454496852364,0.0,1.0,10.544824546114747,9.245514160469616,0.0,Landing
5.6000000000000005,-93.71132143577749,-963.196169598686,154.6058813696798,1.4321852399285095,-3.6071488422807527,302.11878528813247,37.876644243762456,0.0,1.0,10.544824546114747,9.245514160469616,0.0,Landing
5.7,-95.32743987214899,-979.8137133147833,152.7261297068728,1.5455116445966222,-3.900642886046168,302.23338397106,38.842994229717505,0.0,1.0,10.544824546114747,9.245514160469616,0.0,Landing
5.800000000000001,-97.01501838150898,-973.9094989322666,153.34493635439088,1.5746535169727887,-4.0358543676410195,302.3893595396397,38.210949366612475,0.0,1.0,10.544824546114747,9.245514160469616,0.0,Landing
5.9,-98.58086893043883,-966.6652187402207,153.24694013743294,1.2535001073863001,-3.3965151486658396,302.2685460170094,38.5791780698112,0.0,1.0,10.544824546114747,9.245514160469616,0.0,Landing
6.0,-100.16076596585009,-969.2850495753618,153.48535792698584,1.3091511276865053,-3.954620467671015,302.1594490277703,38.3339108114382,0.0,1.0,10.544824546114747,9.245514160469616,0.0,Landing
6.1000000000000005,-101.86144362938579,-957.5701651740331,155.57393020634066,1.3362910440591995,-3.8424249648073334,302.15096187432937,38.28442282274935,0.0,1.0,10.544824546114747,9.245514160469616,0.0,Landing
6.2,-103.36871975630899,-948.4341136053359,153.24429356827972,1.4315647671595058,-3.892917824213373,301.94313754043105,38.521827228104954,0.0,1.0,10.544824546114747,9.245514160469616,0.0,Landing
6.300000000000001,-104.90293653387677,-920.1021761099297,153.33664713710633,1.4810347385767932,-3.118175819301945,302.3133401958406,38.69896083911729,0.0,1.0,10.544824546114747,9.245514160469616,0.0,Landing
6.4,-106.46195450993544,-938.8786223843681,153.6979157766992,1.4147832601043804,-3.9583188719249875,302.3893496045689,38.3055457571195,0.0,1.0,10.544824546114747,9.245514160469616,0.0,Landing
6.5,-108.06311286823083,-961.439314010434,153.74470425045993,1.394100708281399,-3.5240700517659835,302.2021037089248,39.29308245652521,0.0,1.0,10.544824546114747,9.245514160469616,0.0,Landing
6.6000000000000005,-109.71013310392894,-984.4734729706033,153.29128364945598,1.436027334294203,-3.751255177523418,302.5091679831536,38.048088267520356,0.0,1.0,10.544824546114747,9.245514160469616,0.0,Landing
6.7,-111.38432187478845,-990.6566924974953,153.71926706609008,1.4684993132078283,-3.7025548189234487,302.06653863512247,38.31252512174942,0.0,1.0,10.544824546114747,9.245514160469616,0.0,Landing
6.800000000000001,-113.01639633071831,-988.9786935666534,153.20064737539712,1.7380606853327902,-3.516960933649798,301.9643146800822,38.66229321929531,0.0,1.0,10.544824546114747,9.245514160469616,0.0,Landing
6.9,-114.6550265717622,-991.2630319079595,153.92794624232354,1.2197291772447183,-3.553620630133021,302.0918371800517,38.67357623633151,0.0,1.0,10.544824546114747,9.245514160469616,0.0,Landing
7.0,-116.34063703432825,-984.426950631277,154.63870382838164,1.477977650724811,-3.9885971821356994,302.37979201288977,38.44642921247941,0.0,1.0,10.544824546114747,9.245514160469616,0.0,Landing
7.1000000000000005,-117.9385310838747,-968.3680862812139,152.2285668280814,1.4679662963747702,-3.9638709924717808,302.1533643976625,38.05827558644925,0.0,1.0,10.544824546114747,9.245514160469616,0.0,Landing
7.2,-119.49686700316828,-946.8563606299625,154.1979382994778,1.406004490383531,-3.736028653643833,302.40257701111614,38.75338216506373,0.0,1.0,10.544824546114747,9.245514160469616,0.0,Landing
7.300000000000001,-121.07491883747807,-942.3370837741173,153.21110374225847,1.4519208237170267,-3.376151494419389,302.2356375969749,37.6184608423587,0.0,1.0,10.544824546114747,9.245514160469616,0.0,Landing
7.4,-122.65021650274528,-944.8819384152785,152.14963846284857,1.015667123824782,-4.0136275652322,302.23130478514645,38.36351823182137,0.0,1.0,10.544824546114747,9.245514160469616,0.0,Landing
7.5,-124.22127669524467,-969.2435302334361,153.78876477362417,1.4091580431844841,-3.731065524861097,302.3852804339962,38.237588087602425,0.0,1.0,10.544824546114747,9.245514160469616,0.0,Landing
7.6000000000000005,-125.92113648864525,-973.0758730705078,153.48284307093238,1.6452523314346377,-3.247458472905294,302.26441749414255,38.56731151740607,0.0,1.0,10.544824546114747,9.245514160469616,0.0,Landing
7.7,-127.51559586809782,-977.3289871261994,152.26618499472121,1.3773007856268886,-3.9634189851581976,302.04704803255845,38.66194032436348,0.0,1.0,10.544824546114747,9.245514160469616,0.0,Landing
7.800000000000001,-129.10792163087567,-954.7893958249716,154.9284633313912,1.3019229406909845,-3.1317759706468093,302.22290013145266,39.06385193513432,0.0,1.0,10.544824546114747,9.245514160469616,0.0,Landing
7.9,-130.6950834677701,-958.1325266745239,153.23034089729245,1.8162700726269037,-3.97723326087737,302.2530862239171,38.116861099578074,0.0,1.0,10.544824546114747,9.245514160469616,0.0,Landing
8.0,-132.30625850147044,-963.3052744559564,153.06159961955808,1.3732673025382092,-3.7875542203256582,302.4632123199017,38.73485807847327,0.0,1.0,10.544824546114747,9.245514160469616,0.0,Landing
8.1,-133.92444800315545,-953.736952025065,151.78543460490977,1.2085151544544854,-3.552947670248578,302.1185562808869,38.374827102793724,0.0,1.0,10.544824546114747,9.245514160469616,0.0,Landing
8.200000000000001,-135.46376822789543,-951.7200491461211,153.5120787810376,1.4803896661869311,-3.4660316312985,302.1141419285773,38.24634076081467,0.0,1.0,10.544824546114747,9.245514160469616,0.0,Landing
8.3,-137.06485874720104,-929.670016586391,154.26976684090442,1.1451011070755577,-3.3047062519457895,302.1732762284248,38.25187617525125,0.0,1.0,10.544824546114747,9.245514160469616,0.0,Landing
8.4,-138.5727980860874,-924.49963165472,154.04073526983876,1.3130397169711925,-3.4664186720892367,302.0234939182553,38.229615534549694,0.0,1.0,10.544824546114747,9.245514160469616,0.0,Landing
8.5,-140.08626638616903,-913.8443036503872,154.37696229048606,0.9920939433032145,-3.5621033088853786,302.0740452016761,38.04475218115613,0.0,1.0,10.544824546114747,9.245514160469616,0.0,Landing
8.6,-141.63408026545298,-951.442423085598,154.38574858652825,1.7142494396819612,-3.572622155169903,302.24750817379095,38.8011787614632,0.0,1.0,10.544824546114747,9.245514160469616,0.0,Landing
8.700000000000001,-143.3300102015154,-949.2742814884309,152.15122623683303,1.476173305130667,-3.745526777713308,302.4171700080849,38.62702306660796,0.0,1.0,10.544824546114747,9.245514160469616,0.0,Landing
8.8,-144.83263779361118,-965.3761872593406,155.85464024850376,1.5830387071890288,-3.629399878758506,302.2537827743522,38.32184504468954,0.0,1.0,10.544824546114747,9.245514160469616,0.0,Landing
8.9,-146.46096120174968,-950.0753061048613,152.55743560973303,1.2223868285219786,-3.7862814293251015,302.055285420754,38.706857948911804,0.0,1.0,10.544824546114747,9.245514160469616,0.0,Landing
9.0,-148.0803867320397,-956.2539943267383,153.40048586171548,1.4185561717258872,-3.5509693096235972,302.1389280619485,38.06986221390265,0.0,1.0,10.544824546114747,9.245514160469616,0.0,Landing
9.1,-149.61390776524487,-939.0496371910389,153.2137104285422,1.485511361590722,-3.7677045101878655,302.1340037986254,38.083134414436,0.0,1.0,10.544824546114747,9.245514160469616,0.0,Landing
9.200000000000001,-151.15620938770488,-941.2485638330736,153.25301433379008,1.2813213573405855,-3.6768623854994,302.36983252927826,38.88385118074053,0.0,1.0,10.544824546114747,9.245514160469616,0.0,Landing
9.3,-152.78662955120507,-950.6037847554863,154.45250266114178,1.0934247289613344,-3.1165470648141764,302.2109357003461,38.432472670469785,0.0,1.0,10.544824546114747,9.245514160469616,0.0,Landing
9.4,-154.3669266890223,-960.84609370277,153.005301744787,1.2674382739850212,-3.3736566241362094,302.0323699526932,38.52974564923021,0.0,1.0,10.544824546114747,9.245514160469616,0.0,Landing
9.5,-155.96043985621873,-970.2265906133448,153.13560720826635,1.5651216634077798,-3.5736648754429514,302.43230951335704,38.314120376487146,0.0,1.0,10.544824546114747,9.245514160469616,0.0,Landing
9.600000000000001,-157.6377625042718,-977.0911912713814,152.8099146918243,1.0385462276066642,-3.7778522204056046,302.0634157019541,38.10651226523321,0.0,1.0,10.544824546114747,9.245514160469616,0.0,Landing
9.700000000000001,-159.2523826453792,-994.3289466211412,153.3920001560657,1.3245842949083941,-3.8572266282200465,302.37847637993195,38.5292661150132,0.0,1.0,10.544824546114747,9.245514160469616,0.0,Landing
9.8,-160.93208458932443,-984.1982443960945,153.75501112822073,1.463693672939883,-3.5233318983054804,301.9996361882479,38.63043740246991,0.0,1.0,10.544824546114747,9.245514160469616,0.0,Landing
9.9,-162.55875372625226,-981.9598301101337,152.24715197595407,1.0338639153686644,-3.404131001392954,302.18148332072553,38.48441934360245,0.0,1.0,10.544824546114747,9.245514160469616,0.0,Landing
10.0,-164.16218179592988,-955.1272797822036,153.38147890522487,1.6719679640875147,-3.8421143806276308,302.10536145131664,38.333954991541894,0.0,1.0,10.544824546114747,9.245514160469616,0.0,Landing
10.100000000000001,-165.70772098823545,-947.536507583669,152.43423446704887,1.6632221416940998,-3.8249031705027168,302.2177455016497,37.9726116388639,0.0,1.0,10.544824546114747,9.245514160469616,0.0,Landing
10.200000000000001,-167.2964362641706,-961.4520553156866,154.511714421324,1.3061300469357764,-3.662643207920684,302.11118778532045,38.57756127974492,0.0,1.0,10.544824546114747,9.245514160469616,0.0,Landing
10.3,-168.96944207250831,-965.340600436059,155.51288332901242,1.2963909677947565,-3.7190533065625897,302.26218044078905,38.020003771697304,0.0,1.0,10.544824546114747,9.245514160469616,0.0,Landing
10.4,-170.53442399041575,-968.0765211570019,155.346948403702,1.3200458676609486,-3.959952048199646,302.3559316993857,38.645995979282056,0.0,1.0,10.544824546114747,9.245514160469616,0.0,Landing
10.5,-172.13681886995562,-938.9082410493926,154.7672350194238,1.4646519348038776,-3.7508714912543875,302.37318190747374,38.22681392078272,0.0,1.0,10.544824546114747,9.245514160469616,0.0,Landing
10.600000000000001,-173.66398327775528,-953.617169286298,153.19791900640135,1.2348123686701662,-3.680706540952138,302.3225351087359,38.12714307183483,0.0,1.0,10.544824546114747,9.245514160469616,0.0,Landing
10.700000000000001,-175.30250983684724,-958.3993548618481,151.8251291662489,1.2714179489896484,-3.56823087960779,302.2661681506745,38.224740581906104,0.0,1.0,10.544824546114747,9.245514160469616,0.0,Landing
10.8,-176.92881564426486,-981.0492589431078,154.25338837940004,1.1006142842997841,-3.9430786678370877,302.0782142840326,38.796707853801735,0.0,1.0,10.544824546114747,9.245514160469616,0.0,Landing
10.9,-178.56922957247082,-968.1061856783799,153.30277229789633,1.6538061733291238,-3.745398300955962,302.13444129651475,38.153622966166694,0.0,1.0,10.544824546114747,9.245514160469616,0.0,Landing
11.0,-180.14304076523914,-985.8056529808947,153.23206730012097,1.1886072886836523,-3.7455139048772645,302.3148046482804,38.443292041600515,0.0,1.0,10.544824546114747,9.245514160469616,0.0,Landing
11.100000000000001,-181.85784390916933,-964.7322805019144,153.87105661501744,1.1892584508261874,-3.4558600803714117,302.17603972601137,38.92449999830404,0.0,1.0,10.544824546114747,9.245514160469616,0.0,Landing
11.200000000000001,-183.3928909749804,-971.7080218529303,154.4830754149892,1.8534249282381323,-3.7556739605713316,302.25934480355284,37.931907670261076,0.0,1.0,10.544824546114747,9.245514160469616,0.0,Landing
11.3,-185.0015808745038,-954.450727541132,152.08082838903195,1.281908513043933,-3.886990528494181,301.93947855880106,37.92143864317885,0.0,1.0,10.544824546114747,9.245514160469616,0.0,Landing
11.4,-186.630097546875,-960.7763668352787,154.50704943172653,1.8251230791420803,-3.884429806287106,302.35165903647066,38.34086246105489,0.0,1.0,10.544824546114747,9.245514160469616,0.0,Landing
11.5,-188.19677280915678,-946.7450271236316,155.08555853751912,1.2422936240937985,-3.5962923068156867,302.13925561238796,38.90069590991226,0.0,1.0,10.544824546114747,9.245514160469616,0.0,Landing
11.600000000000001,-189.73530601012195,-941.0201349282943,151.89043849301467,1.4436173708159599,-3.5889221625456478,301.9341003149775,38.237099279822836,0.0,1.0,10.544824546114747,9.245514160469616,0.0,Landing
11.700000000000001,-191.33519822151646,-952.1199205989092,154.4340596350434,1.9153871333020707,-3.522310922140044,302.30020227269074,38.059326396559015,0.0,1.0,10.544824546114747,9.245514160469616,0.0,Landing
11.8,-192.95737241215133,-956.1467845572452,152.98288008341535,1.7060997217882952,-3.6865304517755138,302.0437522769613,38.30897270933219,0.0,1.0,10.544824546114747,9.245514160469616,0.0,Landing
11.9,-194.51603993290817,-963.928145824167,154.6092966328141,1.442163308444135,-3.473160645068105,302.40247910234757,38.384610190774794,0.0,1.0,10.544824546114747,9.245514160469616,0.0,Landing
12.0,-196.1548389506373,-965.6275161088785,154.11348499227495,1.524386178574092,-3.5404086851453394,302.4655171863461,38.71478054558675,0.0,1.0,10.544824546114747,9.245514160469616,0.0,Landing
12.100000000000001,-197.78550999269572,-966.1356371419288,152.5729218260484,1.340817191821325,-3.7972523278443737,302.2491049884077,38.52712035978097,0.0,1.0,10.544824546114747,9.245514160469616,0.0,Landing
12.200000000000001,-199.34671811861782,-962.5396177690277,152.60253734862286,1.6121002784140743,-3.5680985380380594,302.2468778616701,37.85725430701917,0.0,1.0,10.544824546114747,9.245514160469616,0.0,Landing
12.3,-200.96753703948244,-956.9203968394845,152.82980866667734,1.4312064122399126,-3.6189088144668498,302.0981667005269,38.77476067891728,0.0,1.0,10.544824546114747,9.245514160469616,0.0,Landing
12.4,-202.57011197689314,-958.4262159598325,153.79462153566232,1.6532378159643697,-3.8197603523376804,302.15015254025,37.98979402774275,0.0,1.0,10.544824546114747,9.245514160469616,0.0,Landing
12.5,-204.13884919841698,-962.6172177817352,154.75050606604515,1.6391171623740188,-3.519659161916061,302.3058913344512,38.63519902850597,0.0,1.0,10.544824546114747,9.245514160469616,0.0,Landing
12.600000000000001,-205.7806231283911,-967.4562244325158,152.762695191647,1.5535900455300014,-3.665286839622705,302.1821999338947,38.5976409991392,0.0,1.0,10.544824546114747,9.245514160469616,0.0,Landing
12.700000000000001,-207.40739309905572,-976.3292691548031,152.7692416319631,1.610043946672991,-3.4098095421086794,302.1622779257325,37.99347157433532,0.0,1.0,10.544824546114747,9.245514160469616,0.0,Landing
12.8,-209.020495544191,-939.0997619995402,153.78580373490703,1.600434106346484,-3.7788457043450197,302.2913512931966,38.15217656119006,0.0,1.0,10.544824546114747,9.245514160469616,0.0,Landing
12.9,-210.47612193838881,-950.1275410176277,154.60960782494953,1.3599444323792924,-3.893175405934489,301.90706237996756,38.44239145763168,0.0,1.0,10.544824546114747,9.245514160469616,0.0,Landing
13.0,-212.15803080414386,-936.3871951315332,154.17764739664895,1.7676415153618092,-3.58053443443145,302.04717820061694,38.63595371024473,0.0,1.0,10.544824546114747,9.245514160469616,0.0,Landing
13.100000000000001,-213.70243151984866,-955.1841480167354,154.33349070698836,0.9414422903874751,-3.8785834166203044,302.20670827592903,38.55613378332357,0.0,1.0,10.544824546114747,9.245514160469616,0.0,Landing
13.200000000000001,-215.2520426784725,-924.4626426832156,152.6292966921493,1.5657739769275731,-4.138389960322645,302.13819233393133,38.86164565080947,0.0,1.0,10.544824546114747,9.245514160469616,0.0,Landing
13.3,-216.78034401755994,-930.0358872239427,152.9608545855848,1.788262750665609,-3.8341510279563678,302.1017781682136,38.2066244206583,0.0,1.0,10.544824546114747,9.245514160469616,0.0,Landing
13.4,-218.35261095596837,-932.3144728838712,152.97118048740782,1.6594643640461766,-4.036294717661709,302.4293847653164,38.06667486415686,0.0,1.0,10.544824546114747,9.245514160469616,0.0,Landing
13.5,-219.91361504289185,-933.8484387283928,153.17425360662065,1.223758016220114,-3.4639854305018494,302.131303153152,38.483315545157346,0.0,1.0,10.544824546114747,9.245514160469616,0.0,Landing
13.600000000000001,-221.4495862112019,-926.7286919727894,152.82159369854764,1.607048725752886,-3.1896546619901542,302.3987818357798,38.34184130989527,0.0,1.0,10.544824546114747,9.245514160469616,0.0,Landing
13.700000000000001,-222.98625441583232,-927.1871967544542,154.2659212852282,1.5196973961218403,-4.235791940243551,302.02912605096753,38.57918707299117,0.0,1.0,10.544824546114747,9.245514160469616,0.0,Landing
13.8,-224.54955102666412,-926.2574881153056,155.93397771899893,1.5211078818542847,-4.085103178957269,302.37619980204045,38.60792943470314,0.0,1.0,10.544824546114747,9.245514160469616,0.0,Landing
13.9,-226.08087365177843,-930.853172431182,154.34430136463294,1.5797264209879411,-3.814806393403761,302.15308836438885,38.15176163182478,0.0,1.0,10.544824546114747,9.245514160469616,0.0,Landing
14.0,-227.64052027798823,-933.09478103331,152.40002706991723,1.1186900839717904,-3.7284789271813223,301.9793237063934,38.51489455522081,0.0,1.0,10.544824546114747,9.245514160469616,0.0,Landing
14.100000000000001,-229.21502493183067,-928.512115624079,154.80197674030387,1.359777221055261,-3.7106898071028316,302.34734954013766,38.09994368274401,0.0,1.0,10.544824546114747,9.245514160469616,0.0,Landing
14.200000000000001,-230.72343422989883,-912.3916108719527,153.91861648388252,1.1476898809170302,-3.615897262599646,302.3022052870542,38.37114368242987,0.0,1.0,10.544824546114747,9.245514160469616,0.0,Landing
14.3,-232.202478332348,-911.9216441429444,152.1405709666245,1.390223805977434,-3.53038190828894,302.2695749768051,38.22205243950701,0.0,1.0,10.544824546114747,9.245514160469616,0.0,Landing
14.4,-233.7746331525454,-916.7218090669109,153.50155210019267,1.0618319810738441,-3.882756403175003,302.2681043016223,37.9671305869643,0.0,1.0,10.544824546114747,9.245514160469616,0.0,Landing
14.5,-235.30704327523338,-919.1932506226236,153.34509131349995,1.4853112332172491,-3.485166431122635,302.2928801782639,38.56931908025521,0.0,1.0,10.544824546114747,9.245514160469616,0.0,Landing
14.600000000000001,-236.7984445854611,-908.5125351967748,153.5974088918909,1.375139052013878,-3.375113789083469,301.8835714791078,38.42344398889441,0.0,1.0,10.544824546114747,9.245514160469616,0.0,Landing
14.700000000000001,-238.31719582852926,-924.5715873612312,154.60806467370193,1.2212737636525082,-3.562853914792282,302.2307698807997,39.13289033783188,0.0,1.0,10.544824546114747,9.245514160469616,0.0,Landing
14.8,-239.92990121203954,-942.5833807561445,153.6796772297232,1.2010129793354296,-3.719470052980821,302.33723893826823,38.68052597376215,0.0,1.0,10.544824546114747,9.245514160469616,0.0,Landing
14.9,-241.51136148924184,-967.9039231329001,152.73621093329078,1.2981627147368555,-3.5547323559093718,302.1294936137307,38.09979003258152,0.0,1.0,10.544824546114747,9.245514160469616,0.0,Landing
15.0,-243.15671544419376,-972.8330479151282,152.95291219412562,1.6545195777334454,-3.2597488863850184,302.11853984286836,37.75202493423387,0.0,1.0,10.544824546114747,9.245514160469616,0.0,Landing
15.100000000000001,-244.79406645161518,-974.2749104729796,154.86933688844314,1.254431610513945,-3.859007696151718,302.2202189062616,38.438557685473995,0.0,1.0,10.544824546114747,9.245514160469616,0.0,Landing
15.200000000000001,-246.38273604160673,-976.9917502920293,153.84667279398457,1.2728830339542077,-3.588926726060827,302.50197729464116,38.27657801655479,0.0,1.0,10.544824546114747,9.245514160469616,0.0,Landing
15.3,-248.0416741956539,-976.3729812613519,153.55641298083302,1.4199539874412692,-3.0170378636540645,302.18795095403755,38.44964573097926,0.0,1.0,10.544824546114747,9.245514160469616,0.0,Landing
15.4,-249.67593135792194,-971.0609288724186,154.4570349752746,1.2525919576557818,-3.6319337186484844,302.3190037463935,38.27782159731189,0.0,1.0,10.544824546114747,9.245514160469616,0.0,Landing
15.5,-251.23804068596883,-953.596730928001,153.47315245806433,0.9145023822849709,-3.867153300605005,302.2377942234609,38.22668951499542,0.0,1.0,10.544824546114747,9.245514160469616,0.0,Landing
15.600000000000001,-252.80965785029392,-937.2897638732696,153.89449797739897,1.2760382064176778,-3.762294970728626,302.2004854298791,38.22258528305731,0.0,1.0,10.544824546114747,9.245514160469616,0.0,Landing
15.700000000000001,-254.3623801772883,-942.6390697860428,153.75976439652382,1.5878915582491748,-3.6403778244834113,302.17877346516866,38.72800566678136,0.0,1.0,10.544824546114747,9.245514160469616,0.0,Landing
15.8,-255.95123603489904,-942.1776692787204,153.868370918097,1.5047019594197908,-3.5720341437227865,302.237523340356,38.335849035241296,0.0,1.0,10.544824546114747,9.245514160469616,0.0,Landing
15.9,-257.5205461966875,-957.1192701491441,154.1161663391728,1.0989411419711597,-3.5544755863709807,302.6329721956047,38.38014085052317,0.0,1.0,10.544824546114747,9.245514160469616,0.0,Landing
16.0,-259.147976528034,-953.2636669859188,153.3211332207919,1.4446837880681638,-3.6725521693168575,302.2961062798415,38.385305821963605,0.0,1.0,10.544824546114747,9.245514160469616,0.0,Landing
16.1,-260.71755436982863,-946.8652863711213,152.89679352201617,1.3196642319539835,-4.001710630320714,301.82761886298636,38.705810272129554,0.0,1.0,10.544824546114747,9.245514160469616,0.0,Landing
16.2,-262.2548726285431,-940.9630889560049,153.30515253771657,1.6880473344186693,-3.816547850848966,301.89952717412086,38.20491395492562,0.0,1.0,10.544824546114747,9.245514160469616,0.0,Landing
16.3,-263.85279197281403,-934.0598736367497,151.41675124190814,1.725392769977286,-3.8448893036612812,301.9629880272197,38.308525443893394,0.0,1.0,10.544824546114747,9.245514160469616,0.0,Landing
16.400000000000002,-265.3878537380124,-963.4125663127293,152.89508932615965,1.3242065730608839,-3.610761938206437,302.1874882493544,38.29304414227495,0.0,1.0,10.544824546114747,9.245514160469616,0.0,Landing
16.5,-267.0719354601068,-963.627309638855,151.6271378040153,1.5514776383291298,-3.9031486967984774,302.13705632768585,38.26217844438182,0.0,1.0,10.544824546114747,9.245514160469616,0.0,Landing
16.6,-268.6709285210083,-955.9266225017723,152.2248948566042,1.5342640887329506,-3.61652046011782,302.1143856601774,38.243757000428005,0.0,1.0,10.544824546114747,9.245514160469616,0.0,Landing
16.7,-270.16748685052124,-939.5759506497029,153.21298047707916,1.1164576705970548,-3.5159002125745076,302.18448069976944,38.63374997742557,0.0,1.0,10.544824546114747,9.245514160469616,0.0,Landing
16.8,-271.7698152133553,-937.6101713615412,151.42924213999922,1.6557251070932306,-3.744396495464364,302.2394118979064,38.16106203546051,0.0,1.0,10.544824546114747,9.245514160469616,0.0,Landing
16.900000000000002,-273.358979377816,-957.8167342557094,155.2710719303221,1.4980806622777614,-3.716750804927417,302.09976036723754,37.93027728855247,0.0,1.0,10.544824546114747,9.245514160469616,0.0,Landing
17.0,-274.9565705217998,-946.125087491896,155.4753372390252,1.5610743993035898,-3.5627770051689276,302.03859840350174,38.4007635885731,0.0,1.0,10.544824546114747,9.245514160469616,0.0,Landing
17.1,-276.50044065081477,-931.3626304744844,152.54937299774687,1.356928812332841,-3.711424790556154,302.15289966192086,38.19078240252209,0.0,1.0,10.544824546114747,9.245514160469616,0.0,Landing
17.2,-278.01579253018843,-906.6856210760648,154.23129663865905,1.4780220412281262,-3.5714092088477263,302.2737490457538,38.48776837849687,0.0,1.0,10.544824546114747,9.245514160469616,0.0,Landing
17.3,-279.4899986271801,-917.0477882291152,154.5047928612761,1.243614414212319,-3.3055033629519235,302.1835862474361,38.22092921463964,0.0,1.0,10.544824546114747,9.245514160469616,0.0,Landing
17.400000000000002,-281.08567959196034,-925.4071878637092,151.94827792006905,1.2563232023653867,-3.6634303602958656,302.03275097048777,38.10840292216726,0.0,1.0,10.544824546114747,9.245514160469616,0.0,Landing
17.5,-282.642828469507,-934.7692136169258,153.52007919681012,1.4244904795058881,-3.8790504264331056,302.18342401661516,38.238961964829976,0.0,1.0,10.544824546114747,9.245514160469616,0.0,Landing
17.6,-284.16384469526474,-930.5820528334834,152.46546419773767,1.3712855767571452,-3.8907469770806813,302.15590633171496,38.83755171077785,0.0,1.0,10.544824546114747,9.245514160469616,0.0,Landing
17.7,-285.73858985612776,-919.9596500957114,155.26986015527308,1.3472633349414758,-3.4576812419646505,302.2696600328961,38.38305521470985,0.0,1.0,10.544824546114747,9.245514160469616,0.0,Landing
17.8,-287.24262671998554,-939.0405451754418,154.75148389471158,1.3491633527382672,-4.082252140537442,302.17220820824684,37.99581564561046,0.0,1.0,10.544824546114747,9.245514160469616,0.0,Landing
17.900000000000002,-288.85904742114195,-938.6078491284138,153.03057361436097,1.0772404419254755,-3.5232063367902176,302.2265864217595,38.38471720919721,0.0,1.0,10.544824546114747,9.245514160469616,0.0,Landing
18.0,-290.43162910176983,-962.2052342061238,154.20938737697824,1.1458645529878366,-3.6511256564057293,302.1914069732695,38.54114403735788,0.0,1.0,10.544824546114747,9.245514160469616,0.0,Landing
18.1,-292.05365289101616,-948.1205340866723,153.6293849902284,0.9972736730128985,-3.350819534277473,302.2955744593735,38.61085606870504,0.0,1.0,10.544824546114747,9.245514160469616,0.0,Landing
18.2,-293.5996500915753,-938.9762813896027,151.9719699259678,1.353020358395456,-3.5550514700693165,302.0268674543063,37.813101708604954,0.0,1.0,10.544824546114747,9.245514160469616,0.0,Landing
18.3,-295.12651050871784,-921.9513156457992,153.96522642666636,1.2848388467016194,-3.8268809249345033,302.24165921359725,38.058603651696416,0.0,1.0,10.544824546114747,9.245514160469616,0.0,Landing
18.400000000000002,-296.66340946924515,-928.2938196834152,152.85202143408821,1.5567011333203142,-3.6005767775217015,302.0673002850301,38.5721603364595,0.0,1.0,10.544824546114747,9.245514160469616,0.0,Landing
18.5,-298.2411191899924,-944.8279124217038,152.61798644764065,1.1652047420026428,-3.2612895058589153,302.22554025975955,37.7177453337695,0.0,1.0,10.544824546114747,9.245514160469616,0.0,Landing
18.6,-299.85065007082636,-936.9521737600508,153.8159263970885,1.4569527894843162,-4.055514635913751,302.05096727772366,38.41014905593592,0.0,1.0,10.544824546114747,9.245514160469616,0.0,Landing
18.7,-301.3481703380454,-940.2714015426,150.3848959362247,1.4115017389318973,-3.8132556150318684,302.3492028124798,38.91984711208522,0.0,1.0,10.544824546114747,9.245514160469616,0.0,Landing
18.8,-302.9424761977054,-939.8507105773547,152.51791735964215,1.4692416083322601,-3.752778703708731,301.98915515315,38.86725539899292,0.0,1.0,10.544824546114747,9.245514160469616,0.0,Landing
18.900000000000002,-304.54990362371313,-940.8089492992531,154.34375801344598,1.5057065637350486,-3.6530452821262194,302.2293527283805,38.161610359745275,0.0,1.0,10.544824546114747,9.245514160469616,0.0,Landing
19.0,-306.0522150845417,-931.0594161912945,153.73814777394884,1.2684341253016178,-3.422937656939115,302.04118304361896,38.09108911416281,0.0,1.0,10.544824546114747,9.245514160469616,0.0,Landing
19.1,-307.59777327866186,-912.9389903767901,154.93377276430104,1.3289492467461577,-3.724373894105551,302.19033473560614,38.28544375870222,0.0,1.0,10.544824546114747,9.245514160469616,0.0,Landing
19.200000000000003,-309.1145985755971,-907.8562413076952,153.72557160393984,1.171030097144088,-3.8148764305350844,301.9988021739748,38.30202133504687,0.0,1.0,10.544824546114747,9.245514160469616,0.0,Landing
19.3,-310.59149629108015,-923.2248144598088,153.97821531273334,1.2659105581631807,-3.792628849185229,302.331110164195,38.861871536446685,0.0,1.0,10.544824546114747,9.245514160469616,0.0,Landing
19.400000000000002,-312.2138973509609,-937.2743055543197,152.8889012838728,1.1859218467832968,-3.4872585220725076,302.4497530573424,38.995271112211704,0.0,1.0,10.544824546114747,9.245514160469616,0.0,Landing
19.5,-313.8009701033687,-951.9870746889069,155.20379808867818,1.5786006152880994,-3.7313374672412603,302.26606858645926,38.64363764997965,0.0,1.0,10.544824546114747,9.245514160469616,0.0,Landing
19.6,-315.3514316645247,-947.5458642193644,153.35456553071083,1.3891710564045425,-3.6201539454636134,301.99372000981725,37.92599289902024,0.0,1.0,10.544824546114747,9.245514160469616,0.0,Landing
19.700000000000003,-316.9516266720577,-944.081347938868,152.5560354640538,1.4499272144511015,-3.4171835244867075,302.17650978822724,38.51987152579157,0.0,1.0,10.544824546114747,9.245514160469616,0.0,Landing
19.8,-318.521376843063,-949.8361207684411,151.97858884049822,1.5726465673643828,-3.9448590215414607,302.0925969933553,38.16399471690829,0.0,1.0,10.544824546114747,9.245514160469616,0.0,Landing
19.900000000000002,-320.1006122683669,-941.6468530664815,151.61984448619643,1.347130024602219,-3.468005218765409,302.1304081156933,38.40803828557495,0.0,1.0,10.544824546114747,9.245514160469616,0.0,Landing
20.0,-321.65986093739014,-935.0639810596931,153.29393706466118,0.8800391614284402,-3.790682244180706,302.0650569640054,37.96371526860962,0.0,1.0,10.544824546114747,9.245514160469616,0.0,Landing
20.1,-323.1966967483615,-923.8118505489297,154.69510485999763,1.2829349203690765,-3.596308504590217,302.34106799185554,38.08784895023191,0.0,1.0,10.544824546114747,9.245514160469616,0.0,Landing
20.200000000000003,-324.71967152111154,-918.0367230660863,154.02734922902317,1.3148535604526823,-3.768556845544212,301.9687990649993,38.597617580260035,0.0,1.0,10.544824546114747,9.245514160469616,0.0,Landing
20.3,-326.25004455272057,-914.4333191327291,154.01340685327335,1.255867323088825,-3.5352238759152828,302.3457325816614,38.5037592896043,0.0,1.0,10.544824546114747,9.245514160469616,0.0,Landing
20.400000000000002,-327.76886334402514,-914.8817428962388,153.70532511241743,1.348507530121482,-3.6469976552741503,302.16270664749436,38.517298667429166,0.0,1.0,10.544824546114747,9.245514160469616,0.0,Landing
20.5,-329.29408023559273,-927.7121809720256,153.3783176278276,1.6228649864445999,-3.540550154039138,302.18184157904216,38.48697861726567,0.0,1.0,10.544824546114747,9.245514160469616,0.0,Landing
20.6,-330.8886054575807,-948.9268699160675,152.78404723041345,1.285057083238649,-3.6004511855735375,302.5284154553826,38.150615717268664,0.0,1.0,10.544824546114747,9.245514160469616,0.0,Landing
20.700000000000003,-332.5134976936055,-952.8017054866496,153.7256278189075,1.1920006126012417,-3.6158066114110023,302.1033763448663,38.46660905274254,0.0,1.0,10.544824546114747,9.245514160469616,0.0,Landing
20.8,-334.058088763026,-962.6024280313459,152.01051565527447,1.5333587206937676,-3.7198925993101972,302.13757304384103,38.47663491632289,0.0,1.0,10.544824546114747,9.245514160469616,0.0,Landing
20.900000000000002,-335.7016175977374,-937.2970311054701,153.03582007274247,1.5382852064872954,-3.7738665674170964,302.1359264170293,38.89580557466658,0.0,1.0,10.544824546114747,9.245514160469616,0.0,Landing
21.0,-337.1999828491328,-942.0396566863133,153.14991059635588,1.6720715065254446,-3.923288974539523,302.0807432628096,38.57901324254825,0.0,1.0,10.544824546114747,9.245514160469616,0.0,Landing
21.1,-338.76828704645754,-924.8311667860662,152.70018480168383,1.5835700702170359,-4.118196648062888,302.05459074280805,38.22346367618009,0.0,1.0,10.544824546114747,9.245514160469616,0.0,Landing
21.200000000000003,-340.32577343166776,-934.2039306982656,155.29329272428083,1.6468294639321592,-3.784034293322555,302.12819468802104,38.667930180125126,0.0,1.0,10.544824546114747,9.245514160469616,0.0,Landing
21.3,-341.87100250262415,-931.1465918005524,153.31653935195774,1.627943516040011,-4.044555890656337,302.28074981453324,38.87960741320824,0.0,1.0,10.544824546114747,9.245514160469616,0.0,Landing
21.400000000000002,-343.4240200054603,-940.4940758298267,156.4584086422479,1.1810188535503554,-3.803507803005634,302.14842641872383,38.5445512782864,0.0,1.0,10.544824546114747,9.245514160469616,0.0,Landing
21.5,-345.0282438108169,-952.3008701636854,152.39356690912297,1.1995435629360585,-3.724823384156395,302.16989248419077,38.62920021649993,0.0,1.0,10.544824546114747,9.245514160469616,0.0,Landing
21.6,-346.6325068534426,-948.6417569587957,154.66940961087934,1.2734433400122924,-3.4254988493572798,302.2459410767076,38.558859656002554,0.0,1.0,10.544824546114747,9.245514160469616,0.0,Landing
21.700000000000003,-348.1672287902543,-939.6607079260548,154.4176492823873,1.0578995431148972,-3.695082329950887,302.3568765296113,38.417790741791784,0.0,1.0,10.544824546114747,9.245514160469616,0.0,Landing
21.8,-349.72654735044716,-924.7107270424976,155.01272633970754,1.0850786137309698,-3.2676027749061625,302.2773271148815,38.20520168308386,0.0,1.0,10.544824546114747,9.245514160469616,0.0,Landing
21.900000000000002,-351.25606048865507,-931.136867821192,151.8006245410615,1.3887879040750322,-3.6882655572982648,302.1014051400995,38.15697553679454,0.0,1.0,10.544824546114747,9.245514160469616,0.0,Landing
22.0,-352.82291312936024,-934.183568084211,152.94751098825256,1.6607873079072775,-3.7720097715890275,302.06268667364213,38.5008741825466,0.0,1.0,10.544824546114747,9.245514160469616,0.0,Landing
22.1,-354.3974651908682,-942.4378195694544,154.49096385988804,1.6038894955108063,-3.495439880683847,302.17096030955213,38.40415288447419,0.0,1.0,10.544824546114747,9.245514160469616,0.0,Landing
22.200000000000003,-355.96824958650234,-925.9461897576898,154.4214671956036,1.5374590667824723,-3.686219485905202,302.23440822801535,38.226341846465225,0.0,1.0,10.544824546114747,9.245514160469616,0.0,Landing
22.3,-357.4526440781487,-909.8470353235598,153.7916819922196,1.7776611386618208,-3.523360535090647,302.08299098398334,38.48124947344363,0.0,1.0,10.544824546114747,9.245514160469616,0.0,Landing
22.400000000000002,-358.946700367486,-914.041495586855,153.76970182471194,1.0681903402242494,-3.6742777862772398,302.0563628537867,38.468931400610714,0.0,1.0,10.544824546114747,9.245514160469616,0.0,Landing
22.5,-360.5384570644366,-920.2223480544831,154.00077147852534,1.3393376199897853,-3.475694271312705,302.08465579506833,38.339422885751354,0.0,1.0,10.544824546114747,9.245514160469616,0.0,Landing
22.6,-362.0537558184211,-919.8409908723534,154.34930917660546,1.4962547143584715,-3.630483831727161,302.10176520557934,38.30439571134999,0.0,1.0,10.544824546114747,9.245514160469616,0.0,Landing
22.700000000000003,-363.5459053218478,-914.2100596322166,152.93649313278002,1.3542738832896977,-3.6595979645241004,302.0963127089792,38.2872875787193,0.0,1.0,10.544824546114747,9.245514160469616,0.0,Landing
22.8,-365.1095073625977,-917.0284561549806,154.94416075856066,1.5432035575215188,-3.7660112324802824,301.98234093307406,38.74555004681489,0.0,1.0,10.544824546114747,9.245514160469616,0.0,Landing
22.900000000000002,-366.638898099196,-915.7371831881164,152.6279355934693,1.438408739849657,-3.317323160458332,302.1445404400083,38.59506398228399,0.0,1.0,10.544824546114747,9.245514160469616,0.0,Landing
23.0,-368.12459123778837,-911.7958978854972,153.0864973444068,1.4892834613254349,-3.52511134093536,302.27554746284386,38.24442399605674,0.0,1.0,10.544824546114747,9.245514160469616,0.0,Landing
23.1,-369.6684868520252,-904.22830907047,152.81209254754594,1.2786183933607547,-3.643351212117819,302.1365735984632,38.36066281127052,0.0,1.0,10.544824546114747,9.245514160469616,0.0,Landing
23.200000000000003,-371.16003964454836,-908.1044812784512,153.6663191257999,1.0259005658507332,-3.8895041424419032,302.1817231904406,38.065258908215625,0.0,1.0,10.544824546114747,9.245514160469616,0.0,Landing
23.3,-372.6651136441806,-909.7292343926028,153.23649919921996,1.2427926525243995,-3.86520794566443,302.1714187587486,38.457770731823494,0.0,1.0,10.544824546114747,9.245514160469616,0.0,Landing
23.400000000000002,-374.2171330239882,-920.3571627413226,155.17462363587293,1.1674994626514985,-3.598189109360386,302.1284367199414,38.51663116857639,0.0,1.0,10.544824546114747,9.245514160469616,0.0,Landing
23.5,-375.761825458255,-899.6125838643025,153.10236773504167,1.2192124869819003,-3.6758647767176877,302.538725219835,38.34090793421795,0.0,1.0,10.544824546114747,9.245514160469616,0.0,Landing
23.6,-377.16317656350213,-902.2191234021193,152.75325900010762,1.5078690458852968,-3.77301572697022,302.3614018348959,37.823000174661836,0.0,1.0,10.544824546114747,9.245514160469616,0.0,Landing
23.700000000000003,-378.7282286409988,-892.4182429046937,153.34148471409716,1.3752634971244366,-3.2948902260086665,302.09333352651333,38.41571207539725,0.0,1.0,10.544824546114747,9.245514160469616,0.0,Landing
23.8,-380.22391667277844,-933.3586941386557,155.45344020086515,1.455564045883942,-3.7494070702888274,302.03057366878693,38.780787732778485,0.0,1.0,10.544824546114747,9.245514160469616,0.0,Landing
23.900000000000002,-381.8299700341954,-928.249281138244,152.77193931977482,1.343251159823322,-3.499657505511223,302.26032835829983,38.86040305474751,0.0,1.0,10.544824546114747,9.245514160469616,0.0,Landing
24.0,-383.36947504669,-951.3306015301737,152.59214852709692,1.4289528998619192,-3.6898897177613112,302.33563560823904,38.83503528209984,0.0,1.0,10.544824546114747,9.245514160469616,0.0,Landing
24.1,-384.9805696804293,-941.0604361696755,155.6235987393151,1.373801591007353,-3.2431955468818376,302.0876202796351,38.0995122406741,0.0,1.0,10.544824546114747,9.245514160469616,0.0,Landing
24.200000000000003,-386.5352722150438,-939.031714411351,154.4454105367156,1.4525837311438285,-3.766330286138269,301.94664857925045,38.027247821984915,0.0,1.0,10.544824546114747,9.245514160469616,0.0,Landing
24.3,-388.06463361874677,-917.8254216547998,154.84370969396642,1.0134897667084803,-3.839732191395063,302.1423531865654,38.181636248694126,0.0,1.0,10.544824546114747,9.245514160469616,0.0,Landing
24.400000000000002,-389.5696967887033,-918.8508941700661,153.6759958895238,1.2643968622521145,-3.7854807741980694,302.19304984070186,38.7789451851557,0.0,1.0,10.544824546114747,9.245514160469616,0.0,Landing
24.5,-391.1295266858941,-915.776083759306,154.11470913542988,0.978860244346448,-3.5748143485543276,302.12980541445415,38.39945357153502,0.0,1.0,10.544824546114747,9.245514160469616,0.0,Landing
24.6,-392.6435140375433,-916.9962799757513,153.66901991605516,1.4617897125543045,-3.4999692275715315,302.48880807042633,38.33874649414831,0.0,1.0,10.544824546114747,9.245514160469616,0.0,Landing
24.700000000000003,-394.15467818858207,-904.7943315792963,152.38989728286901,1.5550223787155733,-3.613894150855351,302.0595907753154,38.69708735734879,0.0,1.0,10.544824546114747,9.245514160469616,0.0,Landing
24.8,-395.6534983437906,-916.6193185386533,154.77987600873914,1.8826432436723932,-3.3203057695365263,302.25703418814555,38.78343007631318,0.0,1.0,10.544824546114747,9.245514160469616,0.0,Landing
24.900000000000002,-397.22661063023656,-916.1555100355258,153.4648411665999,1.4649920583775486,-3.7753213100918908,302.444844853326,38.0584556016009,0.0,1.0,10.544824546114747,9.245514160469616,0.0,Landing
25.0,-398.7354557387597,-936.8347361838346,154.4780244107156,1.1160563425654535,-3.6751130594962693,302.1226762745009,38.356392084036905,0.0,1.0,10.544824546114747,9.245514160469616,0.0,Landing
25.1,-400.3376720247098,-925.7766414452362,153.66080110974252,1.2907753827813806,-3.8095501800304787,302.2438883715124,38.774957697997046,0.0,1.0,10.544824546114747,9.245514160469616,0.0,Landing
25.200000000000003,-401.85549383746275,-943.1128466448172,153.21959533135387,1.6980281522019787,-3.633041229038139,302.4573802577248,38.31110306248427,0.0,1.0,10.544824546114747,9.245514160469616,0.0,Landing
25.3,-403.4510199719838,-936.817396396134,156.44860467605247,1.1997322790518232,-3.717302356746654,302.05498986115936,38.64907030750642,0.0,1.0,10.544824546114747,9.245514160469616,0.0,Landing
25.400000000000002,-405.02175900669044,-940.2591617993039,151.93413239971264,1.2443094100717027,-3.897644308139735,301.82054333220435,38.80663565476236,0.0,1.0,10.544824546114747,9.245514160469616,0.0,Landing
25.5,-406.55678964645926,-937.1380392088213,152.42088038238472,1.1349906400883272,-3.739066004408306,302.34754284702535,38.23473992655796,0.0,1.0,10.544824546114747,9.245514160469616,0.0,Landing
25.6,-408.1367101680279,-929.6417933227417,153.84613056516076,0.9959823919244131,-3.3297070485773146,302.29056812231124,38.136557795242936,0.0,1.0,10.544824546114747,9.245514160469616,0.0,Landing
25.700000000000003,-409.66996797330415,-946.4023253283472,154.86309769699648,1.4149280987388382,-3.472061099381523,301.93181216145285,37.78095476116209,0.0,1.0,10.544824546114747,9.245514160469616,0.0,Landing
25.8,-411.288801273101,-948.0252674640155,153.67332358991396,1.587944998637449,-3.875094224104726,302.1501655645677,38.51918131746424,0.0,1.0,10.544824546114747,9.245514160469616,0.0,Landing
25.900000000000002,-412.87683650534797,-935.3333011173504,153.87045716063292,1.7287348916357574,-3.6977954895037053,302.343007944645,38.00372435362023,0.0,1.0,10.544824546114747,9.245514160469616,0.0,Landing
26.0,-414.3466344788909,-923.947425140409,154.10370159275593,1.3443518323219295,-3.3999231087373145,302.4012101269511,38.581695904185736,0.0,1.0,10.544824546114747,9.245514160469616,0.0,Landing
26.1,-415.90853839880305,-909.2650686316006,154.15783372595067,1.386714826117488,-3.417163015697623,302.2985313137043,38.235235171774114,0.0,1.0,10.544824546114747,9.245514160469616,0.0,Landing
26.200000000000003,-417.42316184850597,-912.795153759123,154.80690096935325,1.3426279713976854,-3.831081390489575,302.2565414441344,37.98954310021562,0.0,1.0,10.544824546114747,9.245514160469616,0.0,Landing
26.3,-418.9106102476865,-917.8390230797618,153.36553901459527,1.2209383866221561,-3.3924137078404204,302.43440723474873,38.399687556512156,0.0,1.0,10.544824546114747,9.245514160469616,0.0,Landing
26.400000000000002,-420.49773351420185,-918.2114422280733,153.04252708390155,1.5928198355783683,-3.47436944798995,302.06327433546915,38.383150880780335,0.0,1.0,10.544824546114747,9.245514160469616,0.0,Landing
26.5,-422.01421905964634,-912.2959563030463,153.44647563319467,1.681420717465219,-3.914102225661953,302.0883520377288,38.72955509832701,0.0,1.0,10.544824546114747,9.245514160469616,0.0,Landing
26.6,-423.47209002920175,-889.4421140417535,152.1981502004778,1.2083316173096357,-3.637456291258471,302.16894417632057,38.24974838335208,0.0,1.0,10.544824546114747,9.245514160469616,0.0,Landing
26.700000000000003,-424.9449440844106,-897.0960556973523,153.25936219923665,1.566803610282672,-3.5278790356249505,302.013074589579,38.88197160784035,0.0,1.0,10.544824546114747,9.245514160469616,0.0,Landing
26.8,-426.4996993381331,-887.270898396855,154.37152407060336,1.6415068536682689,-3.572322256299876,302.11832001525477,38.54570596558908,0.0,1.0,10.544824546114747,9.245514160469616,0.0,Landing
26.900000000000002,-427.908444521186,-908.2268626335917,153.9087314946458,1.3144070107089159,-3.2418346385964143,302.13501866827846,38.32866962217628,0.0,1.0,10.544824546114747,9.245514160469616,0.0,Landing
27.0,-429.4860783975786,-910.3933430696088,154.1611581991369,1.7721488958465592,-3.601831175587358,302.3613909445901,38.58326927669592,0.0,1.0,10.544824546114747,9.245514160469616,0.0,Landing
27.1,-431.05166605348114,-935.1924872558811,155.44196866594817,1.1901844240762665,-3.7066788218950344,302.4434223538972,38.722873272640165,0.0,1.0,10.544824546114747,9.245514160469616,0.0,Landing
27.200000000000003,-432.58440695746543,-913.724436463508,153.09906053310738,0.8768041411604286,-3.7246237931099193,302.197951605948,37.74902166337728,0.0,1.0,10.544824546114747,9.245514160469616,0.0,Landing
27.3,-434.0547005798961,-902.0846306862154,153.8613727635516,1.1093640763840418,-3.584617467253454,302.27290375053394,38.353273196083784,0.0,1.0,10.544824546114747,9.245514160469616,0.0,Landing
27.400000000000002,-435.5620892069122,-892.6140667167488,153.39227660722642,1.183767129623935,-3.7923399918309406,301.62440219068617,38.764704665283645,0.0,1.0,10.544824546114747,9.245514160469616,0.0,Landing
27.5,-437.0474772910492,-887.7512698597002,154.60506109988867,1.2494995643415685,-3.480836250474767,302.3502770443371,38.456477591711405,0.0,1.0,10.544824546114747,9.245514160469616,0.0,Landing
27.6,-438.4934569291946,-874.0078414879122,152.92364685819072,1.1693211125834084,-3.7634413435395317,302.0656889321805,38.40250883716976,0.0,1.0,10.544824546114747,9.245514160469616,0.0,Landing
27.700000000000003,-439.9321284143518,-875.759196381432,153.85616927446654,1.5531445230161798,-3.2588321807939074,302.1455971942513,38.42555730305325,0.0,1.0,10.544824546114747,9.245514160469616,0.0,Landing
27.8,-441.42627327295634,-889.1939346127856,154.52140338013473,1.8323479250558719,-3.8811937378290153,302.07946492250744,38.36013644405623,0.0,1.0,10.544824546114747,9.245514160469616,0.0,Landing
27.900000000000002,-442.93942660225855,-906.6841549764717,152.91071157037925,1.6211908586880859,-3.5568823603401567,302.18429606104667,38.34858807189304,0.0,1.0,10.544824546114747,9.245514160469616,0.0,Landing
28.0,-444.46554918923414,-919.9527083209318,153.87505603724932,1.4183360844607256,-3.7063366844236585,302.1811150454221,38.2526899526061,0.0,1.0,10.544824546114747,9.245514160469616,0.0,Landing
28.1,-446.026036814561,-926.6949948795173,153.7087476050786,1.4894264040553953,-3.156988005317076,302.12274361643904,38.229457491877,0.0,1.0,10.544824546114747,9.245514160469616,0.0,Landing
28.200000000000003,-447.57290157665614,-919.8827668659533,153.3389201595962,1.172141465771575,-3.7463137432213496,301.98327053070136,38.169166473119446,0.0,1.0,10.544824546114747,9.245514160469616,0.0,Landing
28.3,-449.0649630235639,-900.0864321144036,153.63849084466068,1.467552657840911,-3.5578613934367125,302.34023275237155,38.71686244007142,0.0,1.0,10.544824546114747,9.245514160469616,0.0,Landing
28.400000000000002,-450.526468975133,-899.9328564535972,155.25551950453814,1.7764725308593787,-3.643346293353294,302.1248247224579,38.282081323824414,0.0,1.0,10.544824546114747,9.245514160469616,0.0,Landing
28.5,-452.0725658589241,-910.5602262310867,152.7666319216282,1.0840228924446798,-4.037121141524044,302.00552148150973,38.4099451497066,0.0,1.0,10.544824546114747,9.245514160469616,0.0,Landing
28.6,-453.61776415471934,-926.7471503406341,154.54639690387063,1.4009802968005194,-3.9088873384356435,302.39076366561915,38.568115037762865,0.0,1.0,10.544824546114747,9.245514160469616,0.0,Landing
28.700000000000003,-455.1602047268362,-926.1437665814356,153.11444053257046,1.3222360949305412,-3.6932544720616542,302.1141352474899,38.15381125592772,0.0,1.0,10.544824546114747,9.245514160469616,0.0,Landing
28.8,-456.7032846918313,-916.2964572954252,154.35150869444084,1.0001612247367477,-3.709896659914887,301.8845454320697,38.47314336223853,0.0,1.0,10.544824546114747,9.245514160469616,0.0,Landing
28.900000000000002,-458.19924644119646,-910.3128686925174,153.1123161225992,1.6223314842671186,-3.4820812201852185,302.0354088695135,38.070704088978054,0.0,1.0,10.544824546114747,9.245514160469616,0.0,Landing
29.0,-459.71176907029877,-924.8881084139725,153.70477735538418,1.262766926922341,-3.448736235486488,302.198215283017,38.51074699361725,0.0,1.0,10.544824546114747,9.245514160469616,0.0,Landing
29.1,-461.32772523390116,-936.2252988453747,153.30172575497662,1.438851700382536,-3.9825243672506923,302.00724157127615,38.23859856439891,0.0,1.0,10.544824546114747,9.245514160469616,0.0,Landing
29.200000000000003,-462.88037293542334,-945.2834368190224,154.64805931126165,1.3948400778658838,-3.7780569148561614,302.1245156912919,38.6010765084909,0.0,1.0,10.544824546114747,9.245514160469616,0.0,Landing
29.3,-464.4381862543939,-926.1349758167512,151.74704493403624,1.1755228212562363,-3.6212760280310063,301.71216971866306,37.96925471924275,0.0,1.0,10.544824546114747,9.245514160469616,0.0,Landing
29.400000000000002,-465.9584001129849,-932.7548469866997,154.5238222982855,1.2963100706361934,-3.528188492668836,301.9833441571444,38.65011498146503,0.0,1.0,10.544824546114747,9.245514160469616,0.0,Landing
29.5,-467.54414717035684,-907.2560023698202,152.7349794700715,1.50090325341541,-3.658912956499557,302.18304350165386,38.21475874866412,0.0,1.0,10.544824546114747,9.245514160469616,0.0,Landing
29.6,-468.974466266243,-910.9111496113201,154.93010654351804,1.1636380279454985,-3.8317758012825434,302.2900193493198,38.798655639950475,0.0,1.0,10.544824546114747,9.245514160469616,0.0,Landing
29.700000000000003,-470.5129558610415,-901.9899750044829,153.02841868112282,1.3229699473339533,-3.895435663895732,302.41197851311404,38.51491072088756,0.0,1.0,10.544824546114747,9.245514160469616,0.0,Landing
29.8,-472.05409704537925,-925.9808689361876,155.34362500654143,1.312374760943644,-3.6794440278954013,302.22982518175604,38.426236936656444,0.0,1.0,10.544824546114747,9.245514160469616,0.0,Landing
29.900000000000002,-473.6043706109239,-906.2139828200316,152.0181324958579,1.4723177357268302,-3.845878186403894,302.329387574576,38.239681025176566,0.0,1.0,10.544824546114747,9.245514160469616,0.0,Landing
30.0,-475.0440257751417,-897.8292994874892,153.83792690324967,1.1776136933797252,-3.395372336755952,302.2558895450585,39.03625258660006,0.0,1.0,10.544824546114747,9.245514160469616,0.0,Landing
