time_s,altitude_ft,vertical_speed_fpm,ias_kt,pitch_deg,roll_deg,heading_deg,throttle_pct,afterburner_on,gear_down,flaps_deg,speedbrake_pct,weight_on_wheels,label
0.0,-1.9624758052801758,-601.5540860975417,174.9200127069945,1.729310672631321,-3.3011734241706763,336.18449742005896,32.06247395191942,0.0,1.0,17.869475172348945,18.346514921614993,0.0,Landing
0.1,-3.9676560922719815,-796.0147470784126,170.59581776597568,2.0151666142479745,-3.9687249784542926,336.21109915851866,32.16352407254735,0.0,1.0,17.869475172348945,18.346514921614993,0.0,Landing
0.2,-5.942549540672238,-1177.6553491745542,173.58068480110012,1.4686900658083162,-3.197360842532745,336.5113815746761,31.49297719874573,0.0,1.0,17.869475172348945,18.346514921614993,0.0,Landing
0.30000000000000004,-7.850752551152946,-1159.4398236899076,171.17361297740422,1.8287843919937645,-3.0196208436906233,336.36852208337336,31.987261756876904,0.0,1.0,17.869475172348945,18.346514921614993,0.0,Landing
0.4,-9.76485521072152,-1155.4323762742324,172.79427697741755,1.8551503404588372,-2.931900843871788,336.538060723665,32.19024369040912,0.0,1.0,17.869475172348945,18.346514921614993,0.0,Landing
0.5,-11.7197114220434,-1159.8471192886802,172.16130629906408,1.5364044195069178,-3.423185562804922,336.48469452301174,32.493597578438504,0.0,1.0,17.869475172348945,18.346514921614993,0.0,Landing
0.6000000000000001,-13.649988147596348,-1181.744853578214,171.51575642182885,1.9099469880069182,-3.338861417420816,336.3352407226864,32.090132139362034,0.0,1.0,17.869475172348945,18.346514921614993,0.0,Landing
0.7000000000000001,-15.673579478612588,-1173.1006118223925,172.93725077230837,1.3788461011071345,-3.107365290135739,336.3260112882899,32.10540764269981,0.0,1.0,17.869475172348945,18.346514921614993,0.0,Landing
0.8,-17.58521448115536,-1196.370048783565,172.10337072963316,1.3159476618086037,-3.097083887136846,336.49771553038124,31.999155172412117,0.0,1.0,17.869475172348945,18.346514921614993,0.0,Landing
0.9,-19.631838391514172,-1185.21834808586,172.4918981777203,1.6722749784493542,-3.4055210876978066,336.4231764342053,31.70360906621643,0.0,1.0,17.869475172348945,18.346514921614993,0.0,Landing
1.0,-21.599671219041888,-1193.8110051887925,171.58682822515826,1.3138336877783363,-3.4595672132455233,336.4667676115107,31.75851907854511,0.0,1.0,17.869475172348945,18.346514921614993,0.0,Landing
1.1,-23.554269507099324,-1183.2850969484489,171.6560049553419,1.7990433368419758,-3.1900106928853855,336.37262367063386,31.661271735199545,0.0,1.0,17.869475172348945,18.346514921614993,0.0,Landing
1.2000000000000002,-25.548263876256417,-1169.4624035756897,172.3048502427196,1.4491058543075672,-2.9292603793111684,336.45926412068457,32.01792936692263,0.0,1.0,17.869475172348945,18.346514921614993,0.0,Landing
1.3,-27.446983236920335,-1150.760778527797,172.89510425450592,1.8883142242003526,-3.0533480849987646,336.2308882392863,31.814261818600915,0.0,1.0,17.869475172348945,18.346514921614993,0.0,Landing
1.4000000000000001,-29.30807339973831,-1158.9203612825067,170.14626915664465,1.2015359225896152,-3.2568398971471546,336.24580749647475,31.89625378767573,0.0,1.0,17.869475172348945,18.346514921614993,0.0,Landing
1.5,-31.34286568266895,-1183.495171988745,173.79583103746674,1.713522019622756,-3.3586150486739275,336.27004919139756,32.16625735966326,0.0,1.0,17.869475172348945,18.346514921614993,0.0,Landing
1.6,-33.36445909686406,-1213.6298114736214,172.79368756808043,1.602402649698663,-3.477703297082372,336.33049707219334,31.53491705793092,0.0,1.0,17.869475172348945,18.346514921614993,0.0,Landing
1.7000000000000002,-35.376222457106415,-1191.0385942316025,172.30992865963645,1.6450050926383795,-2.92765140498316,336.40390271382284,31.968527472220227,0.0,1.0,17.869475172348945,18.346514921614993,0.0,Landing
1.8,-37.29805865382696,-1176.7862753417419,172.17132428310967,1.7600170831447992,-3.1113133997211078,336.5145191790814,32.51585298104818,0.0,1.0,17.869475172348945,18.346514921614993,0.0,Landing
1.9000000000000001,-39.24839047357277,-1160.0204896341127,173.16215421378675,1.83260246840168,-3.146415296784254,336.46235261271477,31.26957218275982,0.0,1.0,17.869475172348945,18.346514921614993,0.0,Landing
2.0,-41.17632490527698,-1169.1811544340126,172.79676298868083,1.6393925094122606,-2.959970605363215,336.15396530857447,31.863269009714042,0.0,1.0,17.869475172348945,18.346514921614993,0.0,Landing
2.1,-43.14396442599703,-1149.2221706565488,172.41974923472398,1.6912523477628842,-3.388996349413969,336.3616848664608,31.785857047440444,0.0,1.0,17.869475172348945,18.346514921614993,0.0,Landing
2.2,-44.99450132685551,-1174.4346453680353,171.340464960399,1.555025975770047,-3.414026322463837,336.2167688848382,32.37030358838523,0.0,1.0,17.869475172348945,18.346514921614993,0.0,Landing
2.3000000000000003,-47.04849813211715,-1177.6342415194774,173.66643344600172,1.5545800241597592,-3.5201755742670784,336.25593279368513,32.388806565590436,0.0,1.0,17.869475172348945,18.346514921614993,0.0,Landing
2.4000000000000004,-49.032135633594415,-1201.1655088992952,171.67665652351693,1.8254331712684773,-3.011920073497675,336.2068492817383,31.78811610269735,0.0,1.0,17.869475172348945,18.346514921614993,0.0,Landing
2.5,-51.00032887135199,-1177.8076568671609,173.3226390458408,1.4207419030801538,-3.4297815034599446,336.0485676457881,32.21459577383277,0.0,1.0,17.869475172348945,18.346514921614993,0.0,Landing
2.6,-52.93753641645296,-1156.610729154464,172.90995940945444,1.6677485449569938,-3.1153135315822644,336.393586603813,31.929340969184846,0.0,1.0,17.869475172348945,18.346514921614993,0.0,Landing
2.7,-54.815189279366734,-1163.4249081889905,170.997718865805,1.870484716845107,-3.495852728575414,336.34720245628023,31.734054335004775,0.0,1.0,17.869475172348945,18.346514921614993,0.0,Landing
2.8000000000000003,-56.81745341229694,-1197.2504044921636,173.05725537367496,1.551223735071063,-3.226814204815057,336.38215508289613,32.0129294840683,0.0,1.0,17.869475172348945,18.346514921614993,0.0,Landing
2.9000000000000004,-58.923788438913775,-1215.384456127157,171.9891734035105,1.9714524426851299,-3.3747389074494394,336.4896342584549,31.888558120101262,0.0,1.0,17.869475172348945,18.346514921614993,0.0,Landing
3.0,-60.89211156000252,-1203.6004203538312,174.34336128652345,1.579652632370676,-3.291292515626679,336.4131323954714,31.819137966263785,0.0,1.0,17.869475172348945,18.346514921614993,0.0,Landing
3.1,-62.8354555140661,-1181.2248377417175,173.3991101314637,1.7304031182312927,-3.3149684456456385,336.4295730696085,31.60278030837967,0.0,1.0,17.869475172348945,18.346514921614993,0.0,Landing
3.2,-64.82991262762236,-1201.0068243699436,172.82307110899683,1.4984482333444036,-3.4745374326937686,336.0571947148951,31.591667503073676,0.0,1.0,17.869475172348945,18.346514921614993,0.0,Landing
3.3000000000000003,-66.89714568185224,-1194.108316401878,173.1742782268248,1.537313249281187,-3.1023849785050315,336.3710919222318,31.675567241995672,0.0,1.0,17.869475172348945,18.346514921614993,0.0,Landing
3.4000000000000004,-68.80599709607549,-1183.9242885577307,171.629989009402,1.43604120493279,-3.410905680833348,336.3431111097668,31.720585358073627,0.0,1.0,17.869475172348945,18.346514921614993,0.0,Landing
3.5,-70.74953407041102,-1141.4140262623844,172.86533644995953,1.385522114883896,-3.322214964437803,336.39386955676105,31.784261021988833,0.0,1.0,17.869475172348945,18.346514921614993,0.0,Landing
3.6,-72.60421581316416,-1145.0551251519612,174.57809147476266,1.718464873530936,-3.315152910650034,336.34637065058314,31.809131594222237,0.0,1.0,17.869475172348945,18.346514921614993,0.0,Landing
3.7,-74.5312727218353,-1157.0135138513251,174.35953813760776,1.8579017304943433,-2.9367998207112485,336.33546169460215,31.974360663892103,0.0,1.0,17.869475172348945,18.346514921614993,0.0,Landing
3.8000000000000003,-76.53460163966764,-1171.880183186798,171.2639327229399,1.9504675240441944,-3.4932087357418093,336.3410930899263,31.965566491878185,0.0,1.0,17.869475172348945,18.346514921614993,0.0,Landing
3.9000000000000004,-78.46361672909815,-1177.639005207712,172.99574566881967,1.5158708940375196,-3.5170677228369738,336.6069407217642,31.990443887586647,0.0,1.0,17.869475172348945,18.346514921614993,0.0,Landing
4.0,-80.41946774787385,-1176.385510509621,171.93109445238898,1.8687599823285057,-3.2317351619582166,336.4728681803949,31.779166737953844,0.0,1.0,17.869475172348945,18.346514921614993,0.0,Landing
4.1000000000000005,-82.41652919221575,-1166.3511172333356,173.57324199193286,1.3791197155383008,-3.448445597404002,336.39443011473736,31.885997658166335,0.0,1.0,17.869475172348945,18.346514921614993,0.0,Landing
4.2,-84.29537231526483,-1177.6304692061585,172.06371408254225,2.0058180439257725,-3.2967853342136344,336.46310859023185,32.20299793375342,0.0,1.0,17.869475172348945,18.346514921614993,0.0,Landing
4.3,-86.30762009390465,-1159.5161173079275,173.41827054438963,1.4906119421585868,-3.1194835780766237,336.35154855710675,31.214677726154108,0.0,1.0,17.869475172348945,18.346514921614993,0.0,Landing
4.4,-88.21410977875539,-1169.2928529818885,173.133045445341,1.7197554256327492,-3.0185866183393277,336.38208614644896,32.109081794801135,0.0,1.0,17.869475172348945,18.346514921614993,0.0,Landing
4.5,-90.14183658017427,-1138.130479878467,172.09535168695052,1.5819299666273197,-3.222563277695069,336.61085099163336,32.031179248173856,0.0,1.0,17.869475172348945,18.346514921614993,0.0,Landing
4.6000000000000005,-91.99827249329698,-1156.5175930597918,171.67251014177106,1.7444245698025802,-3.456345741623895,336.47968576893027,32.100847664127116,0.0,1.0,17.869475172348945,18.346514921614993,0.0,Landing
4.7,-93.99669774405434,-1157.3809312156754,172.02291196449642,1.693450315073371,-3.382680748584397,336.4250717374663,32.09543367549133,0.0,1.0,17.869475172348945,18.346514921614993,0.0,Landing
4.800000000000001,-95.92874123625265,-1188.1181500005994,172.45655514575387,1.5255886329154675,-3.1019183966689297,336.2857210124457,32.231102368280744,0.0,1.0,17.869475172348945,18.346514921614993,0.0,Landing
4.9,-97.93886324329998,-1199.5792672306977,172.17475326615437,1.9227470644259346,-2.889804180926557,336.28348647188125,32.02716372138836,0.0,1.0,17.869475172348945,18.346514921614993,0.0,Landing
5.0,-99.99459408020783,-1208.6959877784777,171.55326467072976,1.5528206259298838,-3.259661400983089,336.2025108636211,31.518828217110066,0.0,1.0,17.869475172348945,18.346514921614993,0.0,Landing
5.1000000000000005,-101.97222117514504,-1205.9392047269912,171.34011843608542,2.063610177950944,-3.233785055818159,335.9737114525667,32.03461865870035,0.0,1.0,17.869475172348945,18.346514921614993,0.0,Landing
5.2,-103.96855926693493,-1178.894597362046,171.53400548156458,1.785481687925032,-3.4960384863225418,336.2230020112447,31.605010253424094,0.0,1.0,17.869475172348945,18.346514921614993,0.0,Landing
5.300000000000001,-105.88906706701806,-1171.4232806143143,171.7554754144222,1.466769071359284,-3.3044182818252015,336.38645237828405,31.935581149875738,0.0,1.0,17.869475172348945,18.346514921614993,0.0,Landing
5.4,-107.82933757821661,-1146.051380628927,171.290464059876,1.6699020811997953,-3.4738913659416815,336.56121903731673,32.09520248473658,0.0,1.0,17.869475172348945,18.346514921614993,0.0,Landing
5.5,-109.69881617007957,-1144.956906350336,172.8894606664161,1.5958729505599474,-3.0373356180576527,336.2352349048442,31.570834640474214,0.0,1.0,17.869475172348945,18.346514921614993,0.0,Landing
5.6000000000000005,-111.61385159876974,-1134.6309182532536,171.1023901627507,1.5475466655982308,-3.1314891764064434,336.25974862806856,31.476925055416206,0.0,1.0,17.869475172348945,18.346514921614993,0.0,Landing
5.7,-113.50249216948288,-1155.624665246802,173.4959506145689,1.3153467130507468,-3.2347046008210785,336.6887716801025,31.53644145646968,0.0,1.0,17.869475172348945,18.346514921614993,0.0,Landing
5.800000000000001,-115.47693949631358,-1175.2332294601617,172.1883097125614,1.8878897674640784,-3.3572177420893174,335.9578363514977,31.678960760789032,0.0,1.0,17.869475172348945,18.346514921614993,0.0,Landing
5.9,-117.49001774607055,-1179.2302105377246,172.04186752930156,1.4994219256914285,-3.380272630248948,336.1976284290125,32.076496646140065,0.0,1.0,17.869475172348945,18.346514921614993,0.0,Landing
6.0,-119.3986432221715,-1183.4206638244666,172.36935710370014,1.7837025515912464,-3.238022159885967,336.4067494941489,32.25335852731209,0.0,1.0,17.869475172348945,18.346514921614993,0.0,Landing
6.1000000000000005,-121.39404281543591,-1167.7715388619758,171.8680966921544,1.6611566986243143,-3.228481349813008,336.54747142299357,31.73310085304403,0.0,1.0,17.869475172348945,18.346514921614993,0.0,Landing
6.2,-123.32887544038043,-1167.2676804112712,172.57548344849573,1.6295479063471183,-3.108311350057962,336.425032550723,31.887061481359133,0.0,1.0,17.869475172348945,18.346514921614993,0.0,Landing
6.300000000000001,-125.23498162422786,-1151.8872832394577,172.6672723615845,1.0665979938885415,-3.078538698927453,336.34514502265677,31.958496848672183,0.0,1.0,17.869475172348945,18.346514921614993,0.0,Landing
6.4,-127.1534792316332,-1160.7575139610644,172.7903299445439,1.9159675886165182,-3.426831528324756,336.3595081056801,32.106667175045956,0.0,1.0,17.869475172348945,18.346514921614993,0.0,Landing
6.5,-129.13266301018575,-1166.0074821198293,171.16516549499138,1.8189535551378146,-3.1998909108306015,336.5021182937876,31.169713398562838,0.0,1.0,17.869475172348945,18.346514921614993,0.0,Landing
6.6000000000000005,-131.065019034827,-1159.8204412517446,173.11423920130284,1.9288656916473288,-3.2851376247233617,336.2317471473059,32.03823116288047,0.0,1.0,17.869475172348945,18.346514921614993,0.0,Landing
6.7,-132.95258143789192,-1133.3788481680642,172.109953115398,1.859986454288487,-3.4363639696176804,336.3965641954625,31.71524193139991,0.0,1.0,17.869475172348945,18.346514921614993,0.0,Landing
6.800000000000001,-134.79955725102607,-1130.6119801287366,173.7178234811756,1.7313175445332951,-3.465327694376613,336.54049716012446,31.646777934183696,0.0,1.0,17.869475172348945,18.346514921614993,0.0,Landing
6.9,-136.7180789354707,-1129.5401851760062,172.706134140899,1.5162847009694855,-3.4319668210397,336.1992125452259,31.830319067325327,0.0,1.0,17.869475172348945,18.346514921614993,0.0,Landing
7.0,-138.60028236377195,-1133.981534941654,174.25792842597005,1.822991380074641,-3.460329738979363,336.29980615854026,31.675365534879976,0.0,1.0,17.869475172348945,18.346514921614993,0.0,Landing
7.1000000000000005,-140.46946492573434,-1123.8484275650192,171.75582556048823,1.4066895750386665,-3.194169858751343,336.2537510144972,31.708071183892542,0.0,1.0,17.869475172348945,18.346514921614993,0.0,Landing
7.2,-142.33732107329578,-1147.3052374812369,172.6600034696509,1.8163079224454002,-3.5159565649667934,336.10736575988653,31.653905314721314,0.0,1.0,17.869475172348945,18.346514921614993,0.0,Landing
7.300000000000001,-144.33680855117814,-1174.9066737745068,172.86596005341963,1.7387519418211546,-3.3853307175945,336.2249553461777,32.19596701506536,0.0,1.0,17.869475172348945,18.346514921614993,0.0,Landing
7.4,-146.34399829460688,-1190.567445910068,174.24903038819153,1.5249256273759881,-3.363027741049675,336.3753462916193,32.095641740997486,0.0,1.0,17.869475172348945,18.346514921614993,0.0,Landing
7.5,-148.29015830284612,-1165.1158448278693,172.9367540578283,1.8620974210135754,-2.8875515036139605,336.5089775767775,32.12441913954416,0.0,1.0,17.869475172348945,18.346514921614993,0.0,Landing
7.6000000000000005,-150.16238777531748,-1157.926870563557,171.79860746713643,1.362546538409017,-3.266237178087929,336.2008640904161,31.87161572834258,0.0,1.0,17.869475172348945,18.346514921614993,0.0,Landing
7.7,-152.13363264742466,-1141.957778047464,171.43491559158204,1.893812424567882,-3.2283171045676724,336.0956506660798,32.20382513034171,0.0,1.0,17.869475172348945,18.346514921614993,0.0,Landing
7.800000000000001,-153.99994719308344,-1150.9939196612322,172.95051490348737,1.4618969072182804,-3.4085215575035273,336.1969081415609,31.371748272151343,0.0,1.0,17.869475172348945,18.346514921614993,0.0,Landing
7.9,-155.91735737362364,-1120.6407741803216,172.67831952249054,1.7382772774977804,-3.4565303370367113,336.2368230366401,32.03277165490688,0.0,1.0,17.869475172348945,18.346514921614993,0.0,Landing
8.0,-157.73683651832627,-1130.428332571171,172.3564729347253,1.7358396548418065,-3.3938424434063954,336.4742831642768,32.447545351991266,0.0,1.0,17.869475172348945,18.346514921614993,0.0,Landing
8.1,-159.6520888559393,-1120.2538906260202,171.32425887545338,1.813080464605873,-2.754553845898868,336.2138062682594,31.915177439124736,0.0,1.0,17.869475172348945,18.346514921614993,0.0,Landing
8.200000000000001,-161.51862682675375,-1132.7111642629063,172.24098870814427,2.1741286425333755,-3.433824059267262,336.5685703652629,31.681191214416774,0.0,1.0,17.869475172348945,18.346514921614993,0.0,Landing
8.3,-163.4003923396408,-1124.4056666258757,175.16194428640637,1.6822365087134548,-3.4140044997726973,336.51339948439113,31.73979244453914,0.0,1.0,17.869475172348945,18.346514921614993,0.0,Landing
8.4,-165.27411718906868,-1128.2307601750972,173.6528703513313,1.657366893948791,-3.3254826857377435,336.10260658994,31.607577225775337,0.0,1.0,17.869475172348945,18.346514921614993,0.0,Landing
8.5,-167.15978062762923,-1134.7404263875092,173.86909044704922,1.4673838370121395,-3.388098546866834,336.3503155015592,32.527422282294246,0.0,1.0,17.869475172348945,18.346514921614993,0.0,Landing
8.6,-169.07409447157835,-1153.0205601664875,172.97801971010512,1.386950781818546,-3.2413242495170342,336.16951233359123,31.772299752746306,0.0,1.0,17.869475172348945,18.346514921614993,0.0,Landing
8.700000000000001,-171.0392199899011,-1169.0100576093585,171.97884013424496,1.6795664852486925,-3.0748980077115924,336.32634146548196,31.634621676733524,0.0,1.0,17.869475172348945,18.346514921614993,0.0,Landing
8.8,-173.00483091567602,-1175.5534838076414,171.87818871992525,1.7407048775609177,-3.495147778325117,336.2319302391086,32.04614592909409,0.0,1.0,17.869475172348945,18.346514921614993,0.0,Landing
8.9,-174.95186189061656,-1167.8709889157744,172.59217712942603,1.6800399984733272,-3.0245324214273834,336.29291887895556,32.38207471581367,0.0,1.0,17.869475172348945,18.346514921614993,0.0,Landing
9.0,-176.87857493447999,-1149.987015496373,171.1921742330278,1.8226537758439136,-3.302638966365936,336.3086753600717,32.26725017422719,0.0,1.0,17.869475172348945,18.346514921614993,0.0,Landing
9.1,-178.7547659931579,-1160.5523839487205,173.0657783424652,1.7684717683497335,-3.6605041833590053,336.3244459157428,31.966498548712906,0.0,1.0,17.869475172348945,18.346514921614993,0.0,Landing
9.200000000000001,-180.75462381036016,-1157.647466598695,174.01316288913978,1.97697263057421,-3.3403955476504836,336.32931704754833,31.90930772109055,0.0,1.0,17.869475172348945,18.346514921614993,0.0,Landing
9.3,-182.66681226747346,-1162.3289220713218,173.961738699888,1.4690586621359576,-3.172465661225844,336.3630274165523,31.804028575997933,0.0,1.0,17.869475172348945,18.346514921614993,0.0,Landing
9.4,-184.5664106035145,-1145.592499879399,171.69054699258817,1.9783919516105561,-3.5267006331332382,336.10955408853215,31.789785381730926,0.0,1.0,17.869475172348945,18.346514921614993,0.0,Landing
9.5,-186.48258630975715,-1145.6045841602418,172.89742958845838,1.6183127221488933,-3.477623978898002,336.24293506469576,31.491258690575066,0.0,1.0,17.869475172348945,18.346514921614993,0.0,Landing
9.600000000000001,-188.39483518827467,-1146.590918662207,172.1311302140793,1.693082783256847,-3.1152009915981336,336.4531302405393,32.32788079080018,0.0,1.0,17.869475172348945,18.346514921614993,0.0,Landing
9.700000000000001,-190.29936519682553,-1149.0136843416565,173.440449343706,1.8481638989189546,-3.0476101234838042,336.51831010064154,31.869181988213338,0.0,1.0,17.869475172348945,18.346514921614993,0.0,Landing
9.8,-192.22765473146544,-1140.015241512009,170.7832728984233,1.6701395055509138,-3.103125770145356,336.3637939960379,32.217642890307296,0.0,1.0,17.869475172348945,18.346514921614993,0.0,Landing
9.9,-194.0949113958347,-1136.6984024428007,172.2417886727855,1.829278674658781,-3.274234948435302,336.22679294404315,32.02377839217646,0.0,1.0,17.869475172348945,18.346514921614993,0.0,Landing
10.0,-195.98285720903954,-1131.770183564174,171.81387389788904,1.7635120940103735,-3.146619545555751,336.3739214844402,31.99877445270407,0.0,1.0,17.869475172348945,18.346514921614993,0.0,Landing
10.100000000000001,-197.8865056492863,-1154.1451807096166,172.50342131449867,1.7507762747468198,-3.3713650219562634,336.06035031994384,32.131549884308534,0.0,1.0,17.869475172348945,18.346514921614993,0.0,Landing
10.200000000000001,-199.8656372993828,-1159.143857285278,173.04116221789553,1.5047360316243543,-3.251522206028577,336.17245139112106,32.309567408739525,0.0,1.0,17.869475172348945,18.346514921614993,0.0,Landing
10.3,-201.77857649546593,-1155.2606605828203,172.58743464645497,1.6136559643667678,-3.208102665980252,336.07180211557966,31.77635472905661,0.0,1.0,17.869475172348945,18.346514921614993,0.0,Landing
10.4,-203.6628089522004,-1134.5006296075894,172.65243498749234,1.6671358892944554,-2.9841760184098667,336.1490207088366,32.03398973096067,0.0,1.0,17.869475172348945,18.346514921614993,0.0,Landing
10.5,-205.53814044742074,-1126.0534649454542,173.3892031018387,1.756689955868472,-3.139145506308185,336.193370722561,32.13969587944667,0.0,1.0,17.869475172348945,18.346514921614993,0.0,Landing
10.600000000000001,-207.4088438201932,-1119.3353948116624,171.32386732103686,1.9176319622233466,-3.19141214553728,336.36368257368076,32.28701823299102,0.0,1.0,17.869475172348945,18.346514921614993,0.0,Landing
10.700000000000001,-209.25948592625872,-1140.0026934113498,171.98617452959368,1.7494068240796723,-3.10204725353459,336.31989782328833,32.13121585336403,0.0,1.0,17.869475172348945,18.346514921614993,0.0,Landing
10.8,-211.2381539144775,-1155.0721614872657,171.47536139869317,1.6605615932310496,-3.2688416933139246,336.3755161970753,31.774748493070874,0.0,1.0,17.869475172348945,18.346514921614993,0.0,Landing
10.9,-213.18420462762953,-1180.292893218342,173.73297190783785,1.6324112416815366,-3.2312365334189384,336.36340396886385,31.922504031972316,0.0,1.0,17.869475172348945,18.346514921614993,0.0,Landing
11.0,-215.16095039235043,-1173.6905720970697,172.28789392615735,1.8355502349539077,-3.558491209641933,336.3980746529253,32.142659487520234,0.0,1.0,17.869475172348945,18.346514921614993,0.0,Landing
11.100000000000001,-217.10660677496284,-1160.3951914828883,172.97552385730242,1.553595966373119,-3.24566237848312,336.3380136190558,31.81035653548437,0.0,1.0,17.869475172348945,18.346514921614993,0.0,Landing
11.200000000000001,-218.98618058504397,-1143.3575475573095,171.96142572833918,1.7073836631086674,-3.4026889949471526,336.3978580576238,32.08234858431298,0.0,1.0,17.869475172348945,18.346514921614993,0.0,Landing
11.3,-220.87773813013698,-1133.803592112565,173.33650230631736,1.7521362805665603,-3.4390566949780417,336.12331688989093,32.380071859790085,0.0,1.0,17.869475172348945,18.346514921614993,0.0,Landing
11.4,-222.77562473552567,-1136.071227301011,172.01930109935267,1.705029459143241,-3.138853142334389,336.47991955523753,32.30459720620013,0.0,1.0,17.869475172348945,18.346514921614993,0.0,Landing
11.5,-224.66653672154902,-1143.3877133815142,173.22323997883228,1.877605601531551,-3.4553376786790304,336.2526345545035,32.10845754269725,0.0,1.0,17.869475172348945,18.346514921614993,0.0,Landing
11.600000000000001,-226.59467669704455,-1158.8904842838758,174.63610980569447,1.5424201234577741,-3.7338799109772056,336.4428064282099,32.32373584789478,0.0,1.0,17.869475172348945,18.346514921614993,0.0,Landing
11.700000000000001,-228.57007715694505,-1178.2430575349963,172.7269339637221,1.3262537417357982,-2.7625942441829654,336.2881822804726,32.39289555400144,0.0,1.0,17.869475172348945,18.346514921614993,0.0,Landing
11.8,-230.557752009224,-1168.80952186022,172.6025913425401,1.5473295781483025,-3.602733489492742,336.4668061756621,31.70807589911779,0.0,1.0,17.869475172348945,18.346514921614993,0.0,Landing
11.9,-232.43872430634565,-1175.0656922683902,171.75157116543903,1.745282926799236,-3.362436730825111,336.2242408224563,31.972930860369896,0.0,1.0,17.869475172348945,18.346514921614993,0.0,Landing
12.0,-234.445405618287,-1159.7095465295524,172.8499958572058,1.7701129183841406,-3.3296638640940683,336.3399551506873,32.010907339851784,0.0,1.0,17.869475172348945,18.346514921614993,0.0,Landing
12.100000000000001,-236.35629974187177,-1164.3512676233343,172.2205318953151,1.8703084522760598,-3.551751788472787,336.3607002847691,31.675499622310404,0.0,1.0,17.869475172348945,18.346514921614993,0.0,Landing
12.200000000000001,-238.26048064446232,-1137.0006280892767,172.45975723229589,1.4938612159848952,-3.165628635591604,335.9375312101007,32.1739340600537,0.0,1.0,17.869475172348945,18.346514921614993,0.0,Landing
12.3,-240.13040875873338,-1141.4071984185682,171.17492545035114,1.8719722640252443,-3.0782233029919768,336.2618548082853,32.00843854583997,0.0,1.0,17.869475172348945,18.346514921614993,0.0,Landing
12.4,-242.0633357339646,-1146.1372948229439,173.58131327918215,1.7277711031031147,-3.475432114778621,336.37713676448084,32.08783364459266,0.0,1.0,17.869475172348945,18.346514921614993,0.0,Landing
12.5,-243.99116711857704,-1153.6610371858274,171.75196073979893,1.4439657122563518,-3.1380187636303973,336.358631852602,32.235311319293295,0.0,1.0,17.869475172348945,18.346514921614993,0.0,Landing
12.600000000000001,-245.89871394466252,-1126.4802673472445,172.96416835322694,1.533213694205763,-3.3087913081343423,336.41274780561344,32.165717501645574,0.0,1.0,17.869475172348945,18.346514921614993,0.0,Landing
12.700000000000001,-247.69573707070083,-1102.5131101223167,172.9129118636207,2.064736563716233,-3.105588979253221,336.3509221246718,31.526463459417524,0.0,1.0,17.869475172348945,18.346514921614993,0.0,Landing
12.8,-249.50373266918862,-1101.0701014489257,172.59021428583472,2.0030547141787327,-2.9819248215785192,336.3300205875405,31.734269435650102,0.0,1.0,17.869475172348945,18.346514921614993,0.0,Landing
12.9,-251.40406445190715,-1115.410479597557,172.4959048371619,1.3187736250895188,-3.16633875939013,336.4635121517749,31.489640548411796,0.0,1.0,17.869475172348945,18.346514921614993,0.0,Landing
13.0,-253.27278946868861,-1144.2367319090465,172.0360226553922,1.8966683406879983,-3.3482966810612553,336.26081255165536,32.120842042432436,0.0,1.0,17.869475172348945,18.346514921614993,0.0,Landing
13.100000000000001,-255.22491632873385,-1138.6871199360542,173.10575890583934,1.807103326575633,-3.495531590806193,336.39178913248304,31.352322688445945,0.0,1.0,17.869475172348945,18.346514921614993,0.0,Landing
13.200000000000001,-257.0975000515874,-1155.2921197866056,173.58340517061168,1.995496287878523,-3.2068236319188537,336.2444219708814,31.640240400293692,0.0,1.0,17.869475172348945,18.346514921614993,0.0,Landing
13.3,-259.04925006762164,-1162.4264898461888,172.77187710614677,1.5512249445390958,-3.5266150504146556,336.08485839830917,32.06632806849782,0.0,1.0,17.869475172348945,18.346514921614993,0.0,Landing
13.4,-261.0370487779648,-1157.724351919967,172.03068298216922,1.5168798933493752,-3.6392430424623994,335.9977994888617,31.89046430930465,0.0,1.0,17.869475172348945,18.346514921614993,0.0,Landing
13.5,-262.88612181118725,-1142.022550053639,172.31266029113004,1.5753137505110741,-3.4325084657886897,336.310821535782,32.2807836452202,0.0,1.0,17.869475172348945,18.346514921614993,0.0,Landing
13.600000000000001,-264.75936281788984,-1113.3158353066733,172.58021139614067,1.5570983476841183,-3.5090224551139317,336.09653538881344,31.477362659165163,0.0,1.0,17.869475172348945,18.346514921614993,0.0,Landing
13.700000000000001,-266.60362795449817,-1114.3052603406204,173.2613098312861,1.575674553575619,-3.1496408601999573,336.2453357647905,31.825145622103747,0.0,1.0,17.869475172348945,18.346514921614993,0.0,Landing
13.8,-268.45764811289035,-1122.6512037585621,173.6141964751931,2.027857426704007,-3.3275912861693326,336.1527581019983,32.06474927766396,0.0,1.0,17.869475172348945,18.346514921614993,0.0,Landing
13.9,-270.37261883668265,-1134.526909489955,174.17159407503567,1.5767683162498827,-2.8973769956075337,335.99838837490165,32.09110303176199,0.0,1.0,17.869475172348945,18.346514921614993,0.0,Landing
14.0,-272.27626250194794,-1145.885653590949,172.65939242615428,1.8056069723075558,-3.1429153534837497,336.3240015489812,31.652400101576944,0.0,1.0,17.869475172348945,18.346514921614993,0.0,Landing
14.100000000000001,-274.1870763808451,-1129.2600370199011,172.50084942393516,1.4927857995870228,-3.3063947127375988,335.99430397474543,32.43077143958311,0.0,1.0,17.869475172348945,18.346514921614993,0.0,Landing
14.200000000000001,-276.01891902178215,-1130.943598909721,173.06726912541495,1.841707494411872,-2.928812364323428,336.32085679285024,32.27385158867332,0.0,1.0,17.869475172348945,18.346514921614993,0.0,Landing
14.3,-277.93098049649655,-1142.2629287097266,172.12300852875035,1.3068630976892943,-3.4131731958034055,336.5402538644191,31.79596500624696,0.0,1.0,17.869475172348945,18.346514921614993,0.0,Landing
14.4,-279.89839102439373,-1147.2493362965338,170.6907365557786,1.715727398746769,-3.101842568468445,336.3859324868429,32.13241575719183,0.0,1.0,17.869475172348945,18.346514921614993,0.0,Landing
14.5,-281.7551657032648,-1137.4778520774043,173.39957448840093,1.6000657348105307,-3.1796916629255185,336.440464831192,31.655773853365844,0.0,1.0,17.869475172348945,18.346514921614993,0.0,Landing
14.600000000000001,-283.61836975688357,-1110.6664633803803,173.96564591754452,1.771504129410624,-3.2609823595806686,336.70375211803776,31.78261487422564,0.0,1.0,17.869475172348945,18.346514921614993,0.0,Landing
14.700000000000001,-285.45172334129563,-1107.9171014940925,171.28380899696512,1.5527647331179248,-3.398514791057989,336.38038378519013,31.84390516201121,0.0,1.0,17.869475172348945,18.346514921614993,0.0,Landing
14.8,-287.2947512107353,-1104.8347369278986,173.39509433477664,1.7974007807635233,-3.2656930664706656,336.1933771568115,31.723053274476545,0.0,1.0,17.869475172348945,18.346514921614993,0.0,Landing
14.9,-289.14254344152306,-1128.2755527300537,172.33489749070583,1.568573916530287,-3.4953642737859707,336.09566378117006,32.04187954175446,0.0,1.0,17.869475172348945,18.346514921614993,0.0,Landing
15.0,-291.0931011049459,-1133.545745102731,172.74404171727625,1.5209822372967012,-3.3066243982388928,336.4505202345256,31.421598030114964,0.0,1.0,17.869475172348945,18.346514921614993,0.0,Landing
15.100000000000001,-292.96247993624894,-1169.2710178121501,171.4243851028639,1.953764472377824,-3.4748090102305746,336.1256238807289,32.16833942288936,0.0,1.0,17.869475172348945,18.346514921614993,0.0,Landing
15.200000000000001,-294.9888985305838,-1154.897109769331,173.47166758726843,1.7532626276230212,-3.336851185746952,336.30126142597305,32.420442017848224,0.0,1.0,17.869475172348945,18.346514921614993,0.0,Landing
15.3,-296.86758665379256,-1160.0513324863869,172.56676658986243,1.4835457584178444,-3.248805215979809,336.33662020837005,31.928874565122577,0.0,1.0,17.869475172348945,18.346514921614993,0.0,Landing
15.4,-298.7627365986809,-1118.8568211623647,173.0470811443741,1.822272728589489,-3.311207810143475,336.48782193147576,31.687888225691967,0.0,1.0,17.869475172348945,18.346514921614993,0.0,Landing
15.5,-300.58318263639563,-1122.2814109666615,172.4626132537154,1.6537854564621766,-3.2835144694620113,335.92902915882496,31.960190034451482,0.0,1.0,17.869475172348945,18.346514921614993,0.0,Landing
15.600000000000001,-302.47899370862586,-1110.7782332289275,173.52964580016695,1.566594235414088,-3.4467469894139406,336.32453545741373,32.50625258548909,0.0,1.0,17.869475172348945,18.346514921614993,0.0,Landing
15.700000000000001,-304.3166277648255,-1118.4121583486103,173.4355165417935,1.488456415086615,-3.2407618207032756,335.94534791648266,31.98807514023239,0.0,1.0,17.869475172348945,18.346514921614993,0.0,Landing
15.8,-306.1752434281387,-1125.0368673940557,173.024404613653,1.5500067348525652,-3.3883813520080817,336.4663962620855,32.174976689180774,0.0,1.0,17.869475172348945,18.346514921614993,0.0,Landing
15.9,-308.10417804559614,-1143.0903120284256,170.95239933622398,1.6642927075290521,-3.22574822350424,335.91255332708965,32.341573303479144,0.0,1.0,17.869475172348945,18.346514921614993,0.0,Landing
16.0,-310.03207932496764,-1152.8837996689049,173.30033082810104,1.620836439510891,-3.113991055966016,336.15490039587075,32.19337260800234,0.0,1.0,17.869475172348945,18.346514921614993,0.0,Landing
16.1,-311.9396624264832,-1129.2796474090665,172.99021059763803,1.4530453233399887,-2.9083775137781855,336.40651944633123,31.936862457602434,0.0,1.0,17.869475172348945,18.346514921614993,0.0,Landing
16.2,-313.7505762826415,-1126.94859065449,174.3469289628509,1.581871974611889,-3.34300900730299,336.4337222450183,32.08042297033671,0.0,1.0,17.869475172348945,18.346514921614993,0.0,Landing
16.3,-315.6668222782401,-1112.009927400561,171.07151994477374,1.8493197088835571,-3.236964053122472,336.46580287165557,32.09060181962751,0.0,1.0,17.869475172348945,18.346514921614993,0.0,Landing
16.400000000000002,-317.499712063486,-1109.4087285992146,174.19644586900776,1.7771789365252906,-3.4847397688512927,336.6941920700008,31.66551651208986,0.0,1.0,17.869475172348945,18.346514921614993,0.0,Landing
16.5,-319.29761992563755,-1102.501793679187,171.32528240269428,1.8199063415917094,-2.9538328660910764,336.45744830565013,31.869029526303905,0.0,1.0,17.869475172348945,18.346514921614993,0.0,Landing
16.6,-321.179331246636,-1101.2932219872482,173.35188588571194,1.345019180418725,-3.2992231704762314,336.3274581129383,31.628494421044298,0.0,1.0,17.869475172348945,18.346514921614993,0.0,Landing
16.7,-323.00617817342226,-1105.1734964939442,171.37967403496717,1.6915600923861083,-3.461840115392186,336.4026336982354,32.676544087937295,0.0,1.0,17.869475172348945,18.346514921614993,0.0,Landing
16.8,-324.82348740810727,-1115.9777582297465,173.25167657330567,1.6640050975332392,-3.3175590815037395,336.42998536965933,31.903853278455728,0.0,1.0,17.869475172348945,18.346514921614993,0.0,Landing
16.900000000000002,-326.75922003778476,-1123.758315707778,171.69260739489388,2.213912494546194,-3.253456893553302,336.29925019898974,32.17627856510526,0.0,1.0,17.869475172348945,18.346514921614993,0.0,Landing
17.0,-328.62496975196115,-1129.687168664509,172.4669906756741,1.723520431623908,-3.2395842941812405,336.18058128069924,31.502138578589296,0.0,1.0,17.869475172348945,18.346514921614993,0.0,Landing
17.1,-330.4719232514298,-1125.3086741178322,171.26348498429644,1.5643794288205115,-3.6682740174356208,336.60171365753376,31.973314456320125,0.0,1.0,17.869475172348945,18.346514921614993,0.0,Landing
17.2,-332.3857634083739,-1105.2577770411062,170.50394892896398,1.8543778001371058,-3.2349509106876715,336.4953772288753,32.039140192209445,0.0,1.0,17.869475172348945,18.346514921614993,0.0,Landing
17.3,-334.1512586371667,-1107.5342609193171,172.60614306144495,2.097553891141693,-2.7384536048344397,336.1364610138139,32.31839942318412,0.0,1.0,17.869475172348945,18.346514921614993,0.0,Landing
17.400000000000002,-336.0095945560264,-1085.1919444553573,171.9587717667426,1.9086431392348722,-3.0301310125455223,336.19147040662915,32.128240087672474,0.0,1.0,17.869475172348945,18.346514921614993,0.0,Landing
17.5,-337.8117231306507,-1109.7332763292002,173.39967941082148,1.7049468121717173,-3.00719896265504,336.19708149745406,32.18222987905252,0.0,1.0,17.869475172348945,18.346514921614993,0.0,Landing
17.6,-339.6999250188127,-1150.5156446203387,172.5555889933181,1.7724307840937068,-3.4260667673034417,336.64181816387804,31.920938099270728,0.0,1.0,17.869475172348945,18.346514921614993,0.0,Landing
17.7,-341.7621727791281,-1156.4219109848068,169.75440162419738,1.4644361085459165,-2.975288375114257,336.4442041812722,31.541625270623758,0.0,1.0,17.869475172348945,18.346514921614993,0.0,Landing
17.8,-343.59383268557474,-1162.39560134444,171.02731191031376,1.6946513563090455,-3.056443276618912,336.1825033441744,31.934501440521295,0.0,1.0,17.869475172348945,18.346514921614993,0.0,Landing
17.900000000000002,-345.5119030255349,-1122.611178576517,173.4292555805132,1.4499183578347543,-3.1146960030751125,336.5610444677409,32.36926472341047,0.0,1.0,17.869475172348945,18.346514921614993,0.0,Landing
18.0,-347.3752286720107,-1124.0683919168305,173.70967254012297,1.6019797896437622,-3.3933698940153167,336.2685264600955,31.988036644380216,0.0,1.0,17.869475172348945,18.346514921614993,0.0,Landing
18.1,-349.2141746451589,-1106.747976480915,173.29265937104256,1.5464890022152966,-3.0291803528270007,336.4695409973549,32.4230891570005,0.0,1.0,17.869475172348945,18.346514921614993,0.0,Landing
18.2,-351.04564290793945,-1102.3874706399397,174.52994289557276,1.6589895003327149,-3.0637947874466476,336.1716208816206,31.68107614057417,0.0,1.0,17.869475172348945,18.346514921614993,0.0,Landing
18.3,-352.8871660252104,-1126.5091440665856,173.02560830348014,1.69517505177422,-3.0766838057465162,336.2766106287809,32.168003552877046,0.0,1.0,17.869475172348945,18.346514921614993,0.0,Landing
18.400000000000002,-354.8467203654918,-1137.594559584693,171.86840514060884,1.547825601549363,-3.4025589232991136,336.22041574247964,32.10735623785649,0.0,1.0,17.869475172348945,18.346514921614993,0.0,Landing
18.5,-356.7336157058629,-1133.322958893541,172.2337502416962,1.7930055671588163,-3.265558326705538,336.02374335129184,32.33685839686944,0.0,1.0,17.869475172348945,18.346514921614993,0.0,Landing
18.6,-358.5537808196781,-1104.2008599858377,172.04076064673353,1.7888098853475034,-3.328489442558424,336.43965881721044,32.23635145641673,0.0,1.0,17.869475172348945,18.346514921614993,0.0,Landing
18.7,-360.367724665421,-1095.1978998186746,172.32214815352603,1.8964057819999107,-3.189828911675409,336.2982239723217,31.878140960022616,0.0,1.0,17.869475172348945,18.346514921614993,0.0,Landing
18.8,-362.2096052049563,-1085.1991190105196,171.90108212717433,1.7180031191900726,-3.276042045807194,336.3748828014093,31.712258028877265,0.0,1.0,17.869475172348945,18.346514921614993,0.0,Landing
18.900000000000002,-363.9797764147307,-1080.3907878848918,172.65634413689503,1.8270905925346062,-3.055422650020374,336.29367313131206,31.9971712054762,0.0,1.0,17.869475172348945,18.346514921614993,0.0,Landing
19.0,-365.76967860484547,-1097.7000439479639,173.4721982705152,2.0693218569935428,-3.148367570145168,336.2845316503217,31.25335706404567,0.0,1.0,17.869475172348945,18.346514921614993,0.0,Landing
19.1,-367.6981054246961,-1101.039842867874,172.6650614655596,1.744497250251076,-3.4392574877641504,336.2894353552915,32.350159559080815,0.0,1.0,17.869475172348945,18.346514921614993,0.0,Landing
19.200000000000003,-369.48497562907005,-1125.1072517145417,172.29710965966834,2.2287808281121135,-2.839670560847758,336.16043143714705,31.69746792869651,0.0,1.0,17.869475172348945,18.346514921614993,0.0,Landing
19.3,-371.3952148634182,-1111.3073053279777,171.53564857044762,1.557271727431886,-3.1740000603774003,336.28651565273026,31.860199414617703,0.0,1.0,17.869475172348945,18.346514921614993,0.0,Landing
19.400000000000002,-373.254641951336,-1123.3324017585232,172.75049781209339,1.6869741299947467,-3.1560772521595486,336.2380766621186,31.38629607223844,0.0,1.0,17.869475172348945,18.346514921614993,0.0,Landing
19.5,-375.10163763786267,-1110.247567661088,173.79772932753636,2.1765231542561376,-3.1278822954503176,336.0276739717774,32.03389413916453,0.0,1.0,17.869475172348945,18.346514921614993,0.0,Landing
19.6,-376.9464527017236,-1109.2081775151996,173.96446245287754,1.6499960853773665,-3.5012202956899827,336.38814000475975,31.81086320411558,0.0,1.0,17.869475172348945,18.346514921614993,0.0,Landing
19.700000000000003,-378.800682838912,-1093.0737327381166,172.59375302322485,1.285217115391481,-3.325161221946827,336.25846656251633,31.60572659057909,0.0,1.0,17.869475172348945,18.346514921614993,0.0,Landing
19.8,-380.56700630155325,-1101.1420046087778,172.64118264506,1.574325018861047,-2.7934108377722344,336.21183643827453,32.24480692103658,0.0,1.0,17.869475172348945,18.346514921614993,0.0,Landing
19.900000000000002,-382.4521627247675,-1105.9374414887202,171.63740245326707,1.7173648347665817,-3.3281066794971372,336.2302279342671,31.449341540535563,0.0,1.0,17.869475172348945,18.346514921614993,0.0,Landing
20.0,-384.3303700463556,-1112.7683795745384,171.5033821589403,1.8814846727749068,-3.235352433019492,336.18296999920085,32.114814126575794,0.0,1.0,17.869475172348945,18.346514921614993,0.0,Landing
20.1,-386.13084819942594,-1097.2512573302424,172.87839209961052,1.5591361753144208,-3.2617710376681055,336.25773808271003,31.696330015209664,0.0,1.0,17.869475172348945,18.346514921614993,0.0,Landing
20.200000000000003,-387.9384190114187,-1083.1711405464034,173.2062342754142,1.7205698879144968,-3.071387532695704,336.4777546353507,31.69595251022781,0.0,1.0,17.869475172348945,18.346514921614993,0.0,Landing
20.3,-389.7462257490876,-1082.6425767782894,171.39799205919962,1.5275648672979858,-3.6204328882484114,336.3999182117291,31.811464795509284,0.0,1.0,17.869475172348945,18.346514921614993,0.0,Landing
20.400000000000002,-391.5440610833174,-1092.9167555176377,172.36952268912512,1.7628485060231778,-3.235268862943068,336.2014207145322,32.5781526386843,0.0,1.0,17.869475172348945,18.346514921614993,0.0,Landing
20.5,-393.4030027890069,-1122.3793875712204,169.72523465014183,1.664173236252782,-3.286294052458901,336.22644790299853,32.575701240857526,0.0,1.0,17.869475172348945,18.346514921614993,0.0,Landing
20.6,-395.3581226869437,-1136.614492147885,172.4704521050481,1.7966500167508925,-3.2182897697809723,336.2697899685495,31.648565276810118,0.0,1.0,17.869475172348945,18.346514921614993,0.0,Landing
20.700000000000003,-397.2271335440568,-1141.873532704119,172.45260534400788,1.6329336902532625,-3.304577367192466,336.50775964782497,32.2559625381646,0.0,1.0,17.869475172348945,18.346514921614993,0.0,Landing
20.8,-399.1123704525275,-1112.1868756992399,172.59354819870305,1.7618739141201218,-3.560684695179546,336.33132715291845,31.8126911422227,0.0,1.0,17.869475172348945,18.346514921614993,0.0,Landing
20.900000000000002,-400.9190570654399,-1114.8446521199048,174.54717093720262,1.5393540406196045,-3.076425884372402,336.1085727947558,31.924874444965223,0.0,1.0,17.869475172348945,18.346514921614993,0.0,Landing
21.0,-402.80135680465634,-1109.1029354343618,171.89651050232948,2.120219764873441,-3.2250974847751888,336.4734784152665,31.46065953721612,0.0,1.0,17.869475172348945,18.346514921614993,0.0,Landing
21.1,-404.6578851296993,-1123.488575880026,171.155153547036,1.6188227714664754,-3.4200720505398863,336.33733566782973,31.981216478402327,0.0,1.0,17.869475172348945,18.346514921614993,0.0,Landing
21.200000000000003,-406.53649994484005,-1123.3081084611626,173.12744331262274,1.5989961830029953,-3.2273074301821576,336.4204861973568,31.56675610979563,0.0,1.0,17.869475172348945,18.346514921614993,0.0,Landing
21.3,-408.41789734696215,-1121.0715047593226,173.1629665110344,1.4234277977315455,-3.471854662076353,336.1894694588814,31.926129161169715,0.0,1.0,17.869475172348945,18.346514921614993,0.0,Landing
21.400000000000002,-410.2632426534959,-1091.406473762106,171.08331597282626,1.7905182654135139,-3.042820356019694,336.47236279652566,31.9775984622927,0.0,1.0,17.869475172348945,18.346514921614993,0.0,Landing
21.5,-411.9935323136506,-1091.1644046933475,171.9761208956491,1.7028797952792736,-2.967284307052558,336.2381111556472,31.635489802895794,0.0,1.0,17.869475172348945,18.346514921614993,0.0,Landing
21.6,-413.8737193704289,-1075.563934467118,171.91364749143335,1.70632861226133,-3.3416384870378835,336.27973760553687,31.476623476171437,0.0,1.0,17.869475172348945,18.346514921614993,0.0,Landing
21.700000000000003,-415.6410623258315,-1098.9425236607303,172.7622858519896,1.452495334289773,-3.4709861491327274,336.3392943286776,32.37486419475441,0.0,1.0,17.869475172348945,18.346514921614993,0.0,Landing
21.8,-417.4882449319542,-1086.3046898879816,173.16982436858547,1.710976356920026,-2.982948119561,336.20090785224465,32.29374134367076,0.0,1.0,17.869475172348945,18.346514921614993,0.0,Landing
21.900000000000002,-419.3052428198688,-1101.747706452602,174.7277300123312,1.7497148086401764,-3.347554807803298,336.35068088165417,32.06585777188735,0.0,1.0,17.869475172348945,18.346514921614993,0.0,Landing
22.0,-421.1498008580945,-1115.1347630768328,172.1884752631876,1.6836032662150868,-3.446347872721973,336.34407814774795,31.383136960464732,0.0,1.0,17.869475172348945,18.346514921614993,0.0,Landing
22.1,-423.0639187473384,-1104.408760019362,171.72039475802467,1.7577018895535317,-3.38671117472167,336.3987283846858,32.12584255707976,0.0,1.0,17.869475172348945,18.346514921614993,0.0,Landing
22.200000000000003,-424.8272866199656,-1091.4075950858773,172.06794729888608,1.570316411440968,-3.1934820458204376,336.5386101323959,31.800006206796937,0.0,1.0,17.869475172348945,18.346514921614993,0.0,Landing
22.3,-426.6068388335239,-1081.6266583707716,171.96285743240853,1.686238107391209,-3.1027132923055682,336.53462827559986,31.89251805038011,0.0,1.0,17.869475172348945,18.346514921614993,0.0,Landing
22.400000000000002,-428.47205203919225,-1066.7109592225074,172.71411448152102,1.973144419191289,-3.2913974890057833,336.33245672699786,31.897380075481625,0.0,1.0,17.869475172348945,18.346514921614993,0.0,Landing
22.5,-430.16084141607814,-1063.9256001674767,173.42362767791644,1.4882829407357443,-3.0661795562608267,336.106381230446,32.07632801226787,0.0,1.0,17.869475172348945,18.346514921614993,0.0,Landing
22.6,-431.9264668343613,-1059.588823459569,172.39894959873286,1.9356700578839772,-3.2877980662636745,336.4743583915831,31.95242104361905,0.0,1.0,17.869475172348945,18.346514921614993,0.0,Landing
22.700000000000003,-433.7699961564901,-1077.3594290830033,172.27059887290682,1.417060701535018,-3.1402378284778636,336.2226608944717,31.559257217808156,0.0,1.0,17.869475172348945,18.346514921614993,0.0,Landing
22.8,-435.54763856149316,-1077.8562837681761,173.05792309714292,1.5800998037725014,-2.9941406144162768,336.3791086575171,32.47900066629022,0.0,1.0,17.869475172348945,18.346514921614993,0.0,Landing
22.900000000000002,-437.3157482532022,-1091.6842996920536,172.46294667397055,1.8662423563111412,-3.478545498040981,336.0635867685885,31.598169174660388,0.0,1.0,17.869475172348945,18.346514921614993,0.0,Landing
23.0,-439.22841765495036,-1109.0877886651697,172.3054977475896,1.8488553219380022,-3.1333962260973705,336.23574265892375,32.449312648197555,0.0,1.0,17.869475172348945,18.346514921614993,0.0,Landing
23.1,-441.093077504819,-1140.3718107408622,172.88522981082005,1.3652650553418513,-3.185189062615557,336.20173823629057,31.79155836937492,0.0,1.0,17.869475172348945,18.346514921614993,0.0,Landing
23.200000000000003,-443.0176073069065,-1120.5476351233756,170.99846051280244,1.6370325379629262,-3.082535107330555,336.2975427986238,31.801105254213876,0.0,1.0,17.869475172348945,18.346514921614993,0.0,Landing
23.3,-444.83115583056724,-1106.8210772798352,171.33365106069283,1.6788668854653075,-3.3557219746971954,336.45856039526325,32.104756743063334,0.0,1.0,17.869475172348945,18.346514921614993,0.0,Landing
23.400000000000002,-446.6271828912182,-1084.9157815570948,171.1730449849954,1.79802184736163,-2.9064170617359695,336.3077833400887,32.114013930759064,0.0,1.0,17.869475172348945,18.346514921614993,0.0,Landing
23.5,-448.44218621469196,-1076.9889222431061,173.22356399247624,1.7501044395242942,-3.132468325949813,336.1889344253601,31.895888442353556,0.0,1.0,17.869475172348945,18.346514921614993,0.0,Landing
23.6,-450.21610044178277,-1090.0445050248095,172.298296161182,1.9205030971790074,-3.4138789757980423,336.1930928640202,31.362417911181023,0.0,1.0,17.869475172348945,18.346514921614993,0.0,Landing
23.700000000000003,-452.07740541634223,-1098.2507072217459,172.72209586316478,1.914473977532197,-3.4657158462385107,336.3686816226061,32.28684159018025,0.0,1.0,17.869475172348945,18.346514921614993,0.0,Landing
23.8,-453.9334397508007,-1098.222726531833,172.9868823553821,1.796433376745979,-3.394312935223876,336.08096188736204,31.325736914649916,0.0,1.0,17.869475172348945,18.346514921614993,0.0,Landing
23.900000000000002,-455.70721407444194,-1097.9180201085455,171.6826419605333,1.8863566597940935,-3.2024507850191024,336.43047662856293,32.03563958363543,0.0,1.0,17.869475172348945,18.346514921614993,0.0,Landing
24.0,-457.56699551688496,-1096.6098528101384,173.40218074640785,1.6486640479146222,-3.2008167709733586,336.395073849577,32.25443236645737,0.0,1.0,17.869475172348945,18.346514921614993,0.0,Landing
24.1,-459.4164890148514,-1110.0114035302568,172.63669938330003,1.8115112812428162,-3.4971362861713344,336.36859223885847,31.98656306152006,0.0,1.0,17.869475172348945,18.346514921614993,0.0,Landing
24.200000000000003,-461.2572710920932,-1102.1279069918478,172.49675281801186,1.833967167566946,-3.5338893587281177,336.29029266557745,31.567867136311854,0.0,1.0,17.869475172348945,18.346514921614993,0.0,Landing
24.3,-463.0776350518442,-1085.8521918531437,173.09631082049555,1.293367277353811,-3.360430059806982,336.24395977577285,31.77553604786901,0.0,1.0,17.869475172348945,18.346514921614993,0.0,Landing
24.400000000000002,-464.8457499741171,-1074.0023686697782,171.68600405299125,1.8777264530959548,-3.059331737652673,336.234408851392,31.56937555087695,0.0,1.0,17.869475172348945,18.346514921614993,0.0,Landing
24.5,-466.6272829354421,-1067.662251627189,172.62217421368175,1.6734848254335035,-3.5343084257163953,336.4546309412365,31.90967783583904,0.0,1.0,17.869475172348945,18.346514921614993,0.0,Landing
24.6,-468.41594630998014,-1091.9794084273349,171.5542081673549,1.685090212631357,-2.8897039706954004,336.3434237020018,31.772718393960623,0.0,1.0,17.869475172348945,18.346514921614993,0.0,Landing
24.700000000000003,-470.3056470162538,-1097.7400018298795,171.94259434976624,1.8830516287684829,-3.392124459754123,335.9545886297128,32.52861083460764,0.0,1.0,17.869475172348945,18.346514921614993,0.0,Landing
24.8,-472.1159829445915,-1108.0276371032141,172.41947574216368,1.41782849832368,-3.428220810324775,336.19578033657876,32.18207476897377,0.0,1.0,17.869475172348945,18.346514921614993,0.0,Landing
24.900000000000002,-473.9560844954962,-1107.4548728049876,173.5550085139798,1.7120769236725104,-3.3033699079219176,335.8451002758263,31.64415506950608,0.0,1.0,17.869475172348945,18.346514921614993,0.0,Landing
25.0,-475.8429213802787,-1100.0359409251814,172.18147850676442,1.6013835239329008,-3.094480695648902,336.38395559260437,31.935643368972276,0.0,1.0,17.869475172348945,18.346514921614993,0.0,Landing
25.1,-477.6161626492174,-1082.670961066799,174.28885936470905,1.9434708866164498,-3.599513716905045,336.2883878670302,31.575014497755113,0.0,1.0,17.869475172348945,18.346514921614993,0.0,Landing
25.200000000000003,-479.3694393008302,-1059.6661559688869,173.57626432433665,1.7478205587110733,-2.9891370245378943,336.14135560906016,32.0644012046448,0.0,1.0,17.869475172348945,18.346514921614993,0.0,Landing
25.3,-481.14125216012314,-1069.9463003067763,173.0030809194409,1.535392887603446,-3.073580826404295,336.35906567278334,32.179683914490454,0.0,1.0,17.869475172348945,18.346514921614993,0.0,Landing
25.400000000000002,-482.9658941507513,-1076.665640751446,172.31470894509079,1.9860019014655004,-3.2538287075147796,336.3643494983696,31.888480913298196,0.0,1.0,17.869475172348945,18.346514921614993,0.0,Landing
25.5,-484.75276750458744,-1072.1272914515566,171.9419046855243,1.4970865551900157,-3.46428744730182,336.2236737106083,31.861700529212843,0.0,1.0,17.869475172348945,18.346514921614993,0.0,Landing
25.6,-486.5018886173809,-1072.9985800043437,174.05328856561064,1.9872779547862383,-3.2190419822666847,336.2249348173855,31.839728976145018,0.0,1.0,17.869475172348945,18.346514921614993,0.0,Landing
25.700000000000003,-488.330887050773,-1084.2175122307026,171.76494574349422,1.7725417276927755,-3.306235367319279,336.3993038789872,32.38256833981016,0.0,1.0,17.869475172348945,18.346514921614993,0.0,Landing
25.8,-490.17385506574095,-1099.7106733006149,171.17898780111508,1.4267636923122713,-3.15774911560744,336.3909111411374,31.59811229715672,0.0,1.0,17.869475172348945,18.346514921614993,0.0,Landing
25.900000000000002,-492.000441983884,-1107.2388820256492,171.39508252402086,1.5053453158579653,-3.123984716641985,336.28144578585284,32.13683683588905,0.0,1.0,17.869475172348945,18.346514921614993,0.0,Landing
26.0,-493.86708146090126,-1109.0499120938944,170.94382463389329,1.8808869662133962,-3.114598986123599,336.2538581674528,31.115128344809175,0.0,1.0,17.869475172348945,18.346514921614993,0.0,Landing
26.1,-495.7191046262104,-1108.6312277829848,171.19242620134665,2.0494705994240334,-3.4775667080441584,336.22032650454935,31.893250794502254,0.0,1.0,17.869475172348945,18.346514921614993,0.0,Landing
26.200000000000003,-497.5435981227989,-1104.2639754296033,170.97829899338143,1.9320974869124685,-3.275656853963122,336.4769183135726,31.501753633208946,0.0,1.0,17.869475172348945,18.346514921614993,0.0,Landing
26.3,-499.3884013380493,-1089.417756681803,173.55290155543216,1.8089081907122222,-3.3123610751977384,336.2493825244917,32.15802234081665,0.0,1.0,17.869475172348945,18.346514921614993,0.0,Landing
26.400000000000002,-501.16619340961944,-1068.6465957503742,171.88477159116735,1.4839078488455733,-3.3842017168706824,336.3961726276484,31.87253084149591,0.0,1.0,17.869475172348945,18.346514921614993,0.0,Landing
26.5,-502.8868311015508,-1064.0626351431251,172.79545913933805,1.8985737335207593,-3.1701027346554635,336.45797327370815,32.01850512469976,0.0,1.0,17.869475172348945,18.346514921614993,0.0,Landing
26.6,-504.7087145137649,-1058.9517745074772,172.35749155234925,1.6917437517258347,-3.3506278219097054,336.12394064470925,31.86188486968025,0.0,1.0,17.869475172348945,18.346514921614993,0.0,Landing
26.700000000000003,-506.4609522821568,-1051.0898463677904,172.05010143151034,2.016590248816201,-3.2519642392147796,336.2124912712444,32.17039889579019,0.0,1.0,17.869475172348945,18.346514921614993,0.0,Landing
26.8,-508.14228033338975,-1042.651299202089,173.6004425694795,1.850963159011322,-3.411704696943684,336.128301683902,31.739459655038914,0.0,1.0,17.869475172348945,18.346514921614993,0.0,Landing
26.900000000000002,-509.92197100977535,-1054.452431488528,172.89125725408041,1.4879035848361888,-3.084979403025499,336.287565903981,31.871484860827245,0.0,1.0,17.869475172348945,18.346514921614993,0.0,Landing
27.0,-511.73321443959946,-1078.7260798989337,173.43302429799073,1.4389051767206757,-3.638324316502441,336.2377733422154,31.74752098501793,0.0,1.0,17.869475172348945,18.346514921614993,0.0,Landing
27.1,-513.5359107328844,-1101.3220947558693,173.4260546606874,1.551725880632232,-3.498121411664177,336.26130159360923,32.19207974423407,0.0,1.0,17.869475172348945,18.346514921614993,0.0,Landing
27.200000000000003,-515.4285814835547,-1089.8952538670073,173.1224568965688,1.6168868952817474,-3.015803396066248,336.1838654411679,31.65587014848165,0.0,1.0,17.869475172348945,18.346514921614993,0.0,Landing
27.3,-517.1826907089345,-1066.133549274332,172.22538519409224,1.782199484202589,-2.9218694278696287,336.1185532984242,31.431217309254492,0.0,1.0,17.869475172348945,18.346514921614993,0.0,Landing
27.400000000000002,-518.8665784792561,-1038.5065024308915,172.17380091456047,1.614439602825238,-3.240066054368291,336.4533249574324,32.08355435510909,0.0,1.0,17.869475172348945,18.346514921614993,0.0,Landing
27.5,-520.6211139957092,-1061.620969819569,173.04709252804116,1.491319274571874,-3.2617765253989255,336.4492587632184,31.416164819161693,0.0,1.0,17.869475172348945,18.346514921614993,0.0,Landing
27.6,-522.4907955580323,-1082.0323391256125,173.03400688614414,1.6259254033917638,-2.976211612595876,336.4708536422852,31.64350660483259,0.0,1.0,17.869475172348945,18.346514921614993,0.0,Landing
27.700000000000003,-524.2767401748841,-1085.8903032913304,173.0660212390669,1.735841309904948,-3.3444843154155466,336.2847178905513,31.541634297386892,0.0,1.0,17.869475172348945,18.346514921614993,0.0,Landing
27.8,-526.0505655121658,-1077.181602810606,171.6911281823353,1.5597685492826754,-2.6364078938569575,336.29339577531505,31.37756329331792,0.0,1.0,17.869475172348945,18.346514921614993,0.0,Landing
27.900000000000002,-527.8767035720854,-1065.028362591147,173.333214770648,1.8783918748453274,-2.9965539403498997,336.12712395643143,31.3797484153291,0.0,1.0,17.869475172348945,18.346514921614993,0.0,Landing
28.0,-529.6018819878399,-1076.6814383679275,173.85188737878224,2.106331291722383,-3.150569956839318,336.16164032618644,32.58915280056074,0.0,1.0,17.869475172348945,18.346514921614993,0.0,Landing
28.1,-531.4339727040054,-1068.7701328442472,171.63564312081218,1.7271241967151372,-3.290915984860103,336.19456140028865,31.620741033811512,0.0,1.0,17.869475172348945,18.346514921614993,0.0,Landing
28.200000000000003,-533.2205542363066,-1089.7399800876428,172.45233803030587,1.6961844466502984,-3.168149944783241,336.28407433762936,31.685835999781425,0.0,1.0,17.869475172348945,18.346514921614993,0.0,Landing
28.3,-535.0505818882781,-1093.4868358727044,171.97669335997568,1.5562450748687136,-3.482690959625216,336.1699185383435,31.3550480835344,0.0,1.0,17.869475172348945,18.346514921614993,0.0,Landing
28.400000000000002,-536.901406883369,-1079.016964284142,171.929495358395,1.7835346818942277,-3.4943701900548905,336.22957228930454,31.791872508340983,0.0,1.0,17.869475172348945,18.346514921614993,0.0,Landing
28.5,-538.6156390577273,-1078.4348320436038,173.60744521137642,1.7820898440925483,-3.32447452434584,336.220162680944,32.04862737320914,0.0,1.0,17.869475172348945,18.346514921614993,0.0,Landing
28.6,-540.4427560484961,-1069.1662836326032,173.36585829298753,1.745838506053499,-3.176427632317398,336.38348009047616,31.76130005200186,0.0,1.0,17.869475172348945,18.346514921614993,0.0,Landing
28.700000000000003,-542.247238301532,-1082.9839303538392,171.77583508205706,1.7370648867347565,-3.3096045677093793,336.30409968029903,31.859454693865505,0.0,1.0,17.869475172348945,18.346514921614993,0.0,Landing
28.8,-544.0305587094965,-1078.014253752599,172.92222661061143,1.6416852949420266,-3.2020652241307475,336.419040275458,31.817193747439678,0.0,1.0,17.869475172348945,18.346514921614993,0.0,Landing
28.900000000000002,-545.8328273172591,-1071.3138345402513,173.0577766305557,2.253670377416317,-3.3252635525367946,336.2572041863773,31.683497885218365,0.0,1.0,17.869475172348945,18.346514921614993,0.0,Landing
29.0,-547.6038074742332,-1096.5643822263473,171.5681274932503,1.5051251005654382,-3.4361382595650416,336.4724380735522,31.78120381022957,0.0,1.0,17.869475172348945,18.346514921614993,0.0,Landing
29.1,-549.5133806206283,-1103.372130367734,173.7938548803247,1.7182818932272768,-2.9447162379194585,336.23133424581783,32.0248504713132,0.0,1.0,17.869475172348945,18.346514921614993,0.0,Landing
29.200000000000003,-551.3496879690978,-1111.5332378654557,173.84565024098964,1.6530495851704363,-2.904511652431743,336.1404237876583,31.752570861884653,0.0,1.0,17.869475172348945,18.346514921614993,0.0,Landing
29.3,-553.1614736635605,-1074.6460920935078,170.3356207021479,1.4989199352282505,-3.3725149697044694,336.056921213231,31.550758330415697,0.0,1.0,17.869475172348945,18.346514921614993,0.0,Landing
29.400000000000002,-554.8866110810958,-1036.1377844354138,172.5019365290328,1.8696377690015131,-3.1202762134684,336.0677422580569,32.153939243336644,0.0,1.0,17.869475172348945,18.346514921614993,0.0,Landing
29.5,-556.5303768912748,-1048.2079724027471,171.59526135371192,2.142520540344216,-3.2365209301987488,336.3655131746816,32.51705419006961,0.0,1.0,17.869475172348945,18.346514921614993,0.0,Landing
29.6,-558.4025135255742,-1049.210431540746,170.6382633120973,1.9637294398393266,-3.385633436828047,336.454258508026,32.10788901618887,0.0,1.0,17.869475172348945,18.346514921614993,0.0,Landing
29.700000000000003,-560.1326632387995,-1082.4624661811413,172.66091074576883,1.76315582922541,-3.5134626987134414,336.213160085421,31.79591243717453,0.0,1.0,17.869475172348945,18.346514921614993,0.0,Landing
