time_s,altitude_ft,vertical_speed_fpm,ias_kt,pitch_deg,roll_deg,heading_deg,throttle_pct,afterburner_on,gear_down,flaps_deg,speedbrake_pct,weight_on_wheels,label
0.0,-0.02664528294022969,0.5633087350748707,10.477553846729124,-0.5126189655827504,0.5606646132031935,344.85055715618296,11.189816498369796,0.0,1.0,0.0,0.0,1.0,Taxi
0.1,-0.024767587156646786,26.40914013206199,11.688058364286606,-0.582231191019543,-0.0812974754007519,344.97369314650416,11.37246765901317,0.0,1.0,0.0,0.0,1.0,Taxi
0.2,0.10540041772008023,29.70538095371594,11.190126059365646,-0.6837737681765403,0.6124268069090163,344.7685242843112,11.968444654217432,0.0,1.0,0.0,0.0,1.0,Taxi
0.30000000000000004,0.12188162182835,-17.73221547360258,10.966630522889956,-0.6430363154794363,0.3883342239347961,345.1087135582627,10.443306846623978,0.0,1.0,0.0,0.0,1.0,Taxi
0.4,-0.1134286645246597,-38.33966851819718,11.234562589244007,-0.5819477790457457,-1.0086779849468888,344.9924121754168,11.096029095799382,0.0,1.0,0.0,0.0,1.0,Taxi
0.5,-0.08629792487090564,-21.30343629757996,11.060928350150483,-0.7038518202564376,-0.12098740995218225,344.7007491365773,10.853673326360568,0.0,1.0,0.0,0.0,1.0,Taxi
0.6000000000000001,0.015364440340450189,10.410312184517622,11.337308522736883,-0.6201608951444735,-0.21340527047536953,344.9512362828616,10.662248475552143,0.0,1.0,0.0,0.0,1.0,Taxi
0.7000000000000001,-0.06137710360207158,14.960236985225533,11.328563754648103,-0.7408912612751801,0.2722955079484894,345.0250370604572,10.19385950540497,0.0,1.0,0.0,0.0,1.0,Taxi
0.8,-0.011496739944777963,-13.770611962895115,11.194729121410484,-0.6995414803945627,-0.4402540102889415,344.9433053016778,11.400966458848968,0.0,1.0,0.0,0.0,1.0,Taxi
0.9,-0.05348861947402537,20.596353527055125,11.116462690235368,-0.7108838768480212,-0.6971285120899282,344.7806674337272,10.596778437859552,0.0,1.0,0.0,0.0,1.0,Taxi
1.0,0.04160466403320405,32.91250735588298,11.18212587841682,-0.6339006708231343,0.10443148231911105,344.7209216510189,10.530681816740788,0.0,1.0,0.0,0.0,1.0,Taxi
1.1,0.15306579683463695,-14.691058488480488,11.017394967369913,-0.9422180618599525,-1.0121450308529107,344.9192890241691,10.980225217674715,0.0,1.0,0.0,0.0,1.0,Taxi
1.2000000000000002,-0.12694391191642787,-11.226371590310388,12.276915083659782,-0.7746026884269299,0.1498291285544872,344.84937405234973,11.633198899668816,0.0,1.0,0.0,0.0,1.0,Taxi
1.3,-0.014527193918347942,0.009582115569652197,10.370290752557576,-0.5023180325056045,-0.5670475497945558,344.9185116981174,10.823297414616816,0.0,1.0,0.0,0.0,1.0,Taxi
1.4000000000000001,0.15311370741248514,23.02107699687991,10.983455603988432,-0.601313824871953,-0.17609917901633393,344.91082990892846,11.087129568915532,0.0,1.0,0.0,0.0,1.0,Taxi
1.5,-0.011838526932028307,-2.8557865843501893,11.67967780194522,-0.8863904594740546,-0.04227649903058555,344.90766202659324,10.569373977844776,0.0,1.0,0.0,0.0,1.0,Taxi
1.6,-0.028806126840098856,-50.77978581202658,10.444245343780343,-0.35253660571295603,0.0809150338297347,344.93736998858515,10.592459845450742,0.0,1.0,0.0,0.0,1.0,Taxi
1.7000000000000002,-0.10078522164764772,-11.913047651135287,10.711188235237174,-0.9851939296378587,0.6920974096145136,344.7771456131395,10.428952352014521,0.0,1.0,0.0,0.0,1.0,Taxi
1.8,-0.07140376518770468,-33.32564097605976,10.560113566454755,-0.8998283451391769,0.038770205148816496,344.93761989707104,11.477201517976155,0.0,1.0,0.0,0.0,1.0,Taxi
1.9000000000000001,-0.1954343317203976,18.367052673160757,10.84478847279736,-0.640018175699061,0.24516131161988458,344.9030091042947,10.859823689204395,0.0,1.0,0.0,0.0,1.0,Taxi
2.0,-0.008949958281843893,38.34703794947787,11.48215800781195,-0.4637657116301136,0.6600361416848578,344.89123776971655,10.162133069116816,0.0,1.0,0.0,0.0,1.0,Taxi
2.1,0.12033142455968474,29.0067673193557,11.86392886597894,-0.550311334313555,-0.39988056900801017,344.9617196749898,10.40678907279617,0.0,1.0,0.0,0.0,1.0,Taxi
2.2,-0.05040049512361904,-45.15630854353907,10.900028197574589,-0.6173408442454242,-0.5127638480336525,344.9874747695476,10.00867806401026,0.0,1.0,0.0,0.0,1.0,Taxi
2.3000000000000003,-0.23473150099953918,-37.54590806168144,10.703181231208674,-0.6274688114595748,-0.01664675953046821,344.80476761473517,10.066962784845893,0.0,1.0,0.0,0.0,1.0,Taxi
2.4000000000000004,-0.06739811574872244,41.09869303982355,11.301068875022539,-0.8457898791845099,0.15284097646127795,344.85151682276387,10.715996027324568,0.0,1.0,0.0,0.0,1.0,Taxi
2.5,0.15509297007549872,53.86636875422992,11.310583197509708,-0.933221586450696,0.3147656587827747,344.8337142379114,10.329054372070338,0.0,1.0,0.0,0.0,1.0,Taxi
2.6,0.034600342771610455,3.48232497588945,10.90854968227518,-0.44689456698208263,-0.5334959294716227,345.0260353029855,10.515153960032567,0.0,1.0,0.0,0.0,1.0,Taxi
2.7,-0.04998649086927518,-12.414234803922136,10.302346807592173,-0.9560656783847302,0.8412189978244553,344.9488214853359,11.225278037829456,0.0,1.0,0.0,0.0,1.0,Taxi
2.8000000000000003,0.09302179605588809,-12.779302211448226,11.247415975985772,-0.7242912439335353,-0.12037038124678567,345.020573416857,10.08723376437442,0.0,1.0,0.0,0.0,1.0,Taxi
2.9000000000000004,-0.02929616828563062,7.816904488067125,11.316258334901436,-0.6783321470050241,-0.37479427716115327,345.0934252203099,10.922695619054348,0.0,1.0,0.0,0.0,1.0,Taxi
3.0,-0.010901968428939516,5.192216740799566,10.640457352613765,-0.4805850453036815,-0.12762227344225674,344.99640724979577,10.407072569161317,0.0,1.0,0.0,0.0,1.0,Taxi
3.1,0.11898287975988593,19.00509964832955,11.828242665792063,-0.8242157189510131,-0.7957651721305198,344.88662536931156,10.640759577843532,0.0,1.0,0.0,0.0,1.0,Taxi
3.2,0.06572932995601716,10.95676445403763,11.290505239379495,-0.7226100514427793,-0.532076902700454,344.7952601690142,10.432101762778471,0.0,1.0,0.0,0.0,1.0,Taxi
3.3000000000000003,0.043881853841248646,-75.15137005042506,10.48270299903237,-1.0761723437537345,-0.5471828750170599,344.84484707509455,10.60778926802344,0.0,1.0,0.0,0.0,1.0,Taxi
3.4000000000000004,-0.25677397049223927,-20.38325096479254,11.172636393107066,-0.7182410696968655,0.007961045499413127,344.93071494712603,10.862416851876638,0.0,1.0,0.0,0.0,1.0,Taxi
3.5,-0.03618692486794549,-15.258142039645916,10.264383220280642,-0.6898961907648876,0.30673720633073,344.77999293809523,10.886943254353072,0.0,1.0,0.0,0.0,1.0,Taxi
3.6,-0.03240885635698087,37.76094788678679,10.748444344796908,-0.7082165551724058,-0.17261037042329086,344.9415310964647,11.452205493094159,0.0,1.0,0.0,0.0,1.0,Taxi
3.7,-0.06796923105830528,13.93771454081507,10.639305948395858,-0.7090628375464005,0.022416482597668225,345.05184191848684,9.843776950204571,0.0,1.0,0.0,0.0,1.0,Taxi
3.8000000000000003,0.033501647836129925,-13.243448094166597,11.453285295557773,-0.25794485319051313,-0.18168529759439594,344.84980316657493,11.041243907687173,0.0,1.0,0.0,0.0,1.0,Taxi
3.9000000000000004,-0.0986260968278138,2.3697396066619425,11.27819338378377,-0.7392275437051786,-0.07096311529903265,344.95603301358756,11.539912512488579,0.0,1.0,0.0,0.0,1.0,Taxi
4.0,-0.05612053302499551,-38.73294664245726,10.966645435950925,-0.6748777689817129,1.3338760004795194,344.7600899280462,10.930174330192136,0.0,1.0,0.0,0.0,1.0,Taxi
4.1000000000000005,-0.16016308537615634,30.90504268139321,10.869849537176162,-0.7764683877177745,-0.1918283605720787,344.9979354735751,10.218069051447868,0.0,1.0,0.0,0.0,1.0,Taxi
4.2,0.05589911657915228,9.384437501704033,10.84009082775806,-0.7356353286078263,-0.38122743169951323,344.7945738600049,10.87993698723102,0.0,1.0,0.0,0.0,1.0,Taxi
4.3,-0.009198345516475305,32.63254631006652,12.028599624046764,-0.8325272831927291,0.5423220899153155,344.71205506143167,10.9622247159371,0.0,1.0,0.0,0.0,1.0,Taxi
4.4,0.002999646174176348,-3.146003364331636,11.277812526743626,-0.7842839287875656,-1.085007918207165,344.84937376921766,10.646610216784838,0.0,1.0,0.0,0.0,1.0,Taxi
4.5,0.04016909975749415,1.6197074680669974,11.175027180607415,-0.6170863143421723,0.5937677656647787,344.89967490628885,10.281079520946388,0.0,1.0,0.0,0.0,1.0,Taxi
4.6000000000000005,-0.0010998081761402702,-23.67116726057873,10.5395455878526,-0.4118984713729529,-0.1484286632138143,344.8457021799986,11.296062556586143,0.0,1.0,0.0,0.0,1.0,Taxi
4.7,-0.11535619012871726,-0.33360282897942756,11.053664976329214,-0.7699946268801231,-0.7586650055467847,344.8060203332734,11.936319321619289,0.0,1.0,0.0,0.0,1.0,Taxi
4.800000000000001,0.03850108561259703,14.14537903187969,11.153311448775163,-0.4314863888323794,0.005711432823067313,344.748752454183,10.410589983397845,0.0,1.0,0.0,0.0,1.0,Taxi
4.9,0.0696270869832582,13.871062877991022,10.254064679031083,-0.38584697090301817,-0.3480664893821858,344.99411396259416,11.108913772215018,0.0,1.0,0.0,0.0,1.0,Taxi
5.0,-0.04600087573876213,10.168560328206965,11.65872605584995,-0.4560901529846912,0.43253941361158266,345.0570924865103,11.054528599733269,0.0,1.0,0.0,0.0,1.0,Taxi
5.1000000000000005,0.0893438872536319,-30.219054536083757,11.063129051197874,-0.4473156557828947,0.41875673510731404,344.91637187099195,10.15946914052145,0.0,1.0,0.0,0.0,1.0,Taxi
5.2,-0.08146818569716051,26.287447729331472,11.543706259900576,-0.9386007729847348,0.4403138830917456,344.8637593920856,10.696407857360358,0.0,1.0,0.0,0.0,1.0,Taxi
5.300000000000001,0.08543636290789529,-42.97632151630862,10.453863331896022,-0.9964925828432816,0.711846569653232,345.0513890622294,10.587926375707044,0.0,1.0,0.0,0.0,1.0,Taxi
5.4,-0.12553772032791116,19.020961451506746,11.230805974854622,-0.854348072657833,-0.41565674787468204,344.88800079495604,10.453475311656579,0.0,1.0,0.0,0.0,1.0,Taxi
5.5,0.013636621560373263,-11.3615792927845,11.316298724893803,-0.5372361796351975,0.33314788898688164,344.90420720961606,10.910823326227272,0.0,1.0,0.0,0.0,1.0,Taxi
5.6000000000000005,0.02862846644397284,57.17557854499353,10.584380871901287,-0.782566133385018,0.022504358448986694,344.8928085844623,11.05463239209516,0.0,1.0,0.0,0.0,1.0,Taxi
5.7,0.16034017239705653,0.859547701107824,11.885959787156054,-0.3154050778065932,0.0666208073373132,344.8563852248209,11.382499286260181,0.0,1.0,0.0,0.0,1.0,Taxi
5.800000000000001,0.01793436006591245,-4.036200526442273,11.652271985670302,-0.4494860942714,0.8027350344660764,344.82728519657473,10.55925723713667,0.0,1.0,0.0,0.0,1.0,Taxi
5.9,0.00844746381176154,-44.19544490682127,10.892504845020975,-0.6550582190994962,-0.03738468490846077,344.71965925861196,11.002577388924413,0.0,1.0,0.0,0.0,1.0,Taxi
6.0,-0.060637052137049785,14.776087826426695,10.957872800244461,-0.611518998260256,-0.3247899047242498,344.86737611389094,10.834201941639568,0.0,1.0,0.0,0.0,1.0,Taxi
6.1000000000000005,0.09181479919804597,-22.516991070110823,10.82265310104107,-0.6037181459053118,0.12226902454433525,345.01338088142427,10.142779309643279,0.0,1.0,0.0,0.0,1.0,Taxi
6.2,-0.10413749153879255,12.34913283659436,11.374380378357783,-0.7036194789789632,-0.47737711008238715,344.9593416635247,10.564294417356699,0.0,1.0,0.0,0.0,1.0,Taxi
6.300000000000001,0.0011086120459220857,-0.9600539400188121,10.673438555199445,-0.8921911189245599,-0.013733857196654879,344.91870312965807,11.046178633730563,0.0,1.0,0.0,0.0,1.0,Taxi
6.4,0.08701452949795196,31.54404277492276,11.64010686109288,-0.51036090439467,-0.09261192129551403,344.80469416701135,10.611167964218934,0.0,1.0,0.0,0.0,1.0,Taxi
6.5,0.053582722335821335,-19.756007949605113,11.275608959797376,-0.5258449219730751,-0.1875118466359126,344.75012971651313,10.363561092209668,0.0,1.0,0.0,0.0,1.0,Taxi
6.6000000000000005,-0.09767142770210344,-36.262788559056936,11.452521054483821,-0.7873878279679747,0.06727956958449363,344.85136819592094,11.24966231867356,0.0,1.0,0.0,0.0,1.0,Taxi
6.7,-0.09429941329733266,6.089971774717891,11.122316828514155,-0.7974952293321561,0.3270575655563165,344.93040880303306,10.281072729899515,0.0,1.0,0.0,0.0,1.0,Taxi
6.800000000000001,0.08403258120941084,1.5570788350604328,11.601877507911517,-1.0111128061110672,-0.3923712363515394,344.8898904133988,11.821849419654164,0.0,1.0,0.0,0.0,1.0,Taxi
6.9,-0.0898860335268012,61.19492426928476,11.8598148368366,-1.1367034948410506,0.5763359116833908,345.04245499572903,10.147350559551619,0.0,1.0,0.0,0.0,1.0,Taxi
7.0,0.21167520804909123,14.637689249302667,11.62252945739128,-0.9574560421655415,0.4526328576494548,344.9277274717042,11.13428006138994,0.0,1.0,0.0,0.0,1.0,Taxi
7.1000000000000005,0.15722102745592428,24.332873016543925,11.339491028253194,-0.7088633299170108,-0.11596957373286075,344.9591726622076,11.188596278474847,0.0,1.0,0.0,0.0,1.0,Taxi
7.2,0.03177833155591853,-30.116389080735605,11.164698322490937,-0.6505312232145923,-0.35504105950398435,344.8424600793933,10.701077539976467,0.0,1.0,0.0,0.0,1.0,Taxi
7.300000000000001,0.06109326264541331,-32.24882013175371,10.926570215032703,-0.6710064047976116,-0.6176578029943961,344.9687667202244,11.334153879687213,0.0,1.0,0.0,0.0,1.0,Taxi
7.4,-0.004023073202844175,-26.887645066264895,10.891192243192913,-0.43403962209439806,-0.026489481734757663,345.0181703044432,11.051647215935587,0.0,1.0,0.0,0.0,1.0,Taxi
7.5,-0.10265989377540588,-17.6655888612672,10.46360881782577,-0.7192356858979498,1.4718954265946758,344.93860077658746,10.740182911799339,0.0,1.0,0.0,0.0,1.0,Taxi
7.6000000000000005,-0.027234681660922633,-31.996787499349917,11.605507426265593,-0.7992141858288336,0.13214866511927806,344.9716401191804,11.110807272305422,0.0,1.0,0.0,0.0,1.0,Taxi
7.7,-0.16400701069959367,-4.5553920442806195,11.408858372775008,-0.47196122293385134,0.35129118396170694,344.86872750370026,10.452665890828104,0.0,1.0,0.0,0.0,1.0,Taxi
7.800000000000001,-0.1254368539968089,23.358315509763873,10.6121131777057,-0.6576038069480495,-1.1120999756803835,344.9112843021701,11.380072559255677,0.0,1.0,0.0,0.0,1.0,Taxi
7.9,0.08955689588789684,38.81307106847199,12.026380470226762,-0.7449881234908675,-0.18435320781994344,344.97777137625894,10.345089637679536,0.0,1.0,0.0,0.0,1.0,Taxi
8.0,0.030058344642766324,20.96902223173801,11.487769680930885,-0.7263885955927863,-0.15064810889378605,345.0329092873751,10.475517551728084,0.0,1.0,0.0,0.0,1.0,Taxi
8.1,-0.020591742838118807,-21.6191664721713,10.915307734992123,-0.6115505362616855,-0.961914608162181,344.86481103887195,11.0396379251658,0.0,1.0,0.0,0.0,1.0,Taxi
8.200000000000001,-0.018538936472959632,-23.05762158037378,10.716865371335459,-0.5780110377760561,-0.22673295362580634,344.7448890079561,10.09342960593289,0.0,1.0,0.0,0.0,1.0,Taxi
8.3,-0.08522976325910253,5.430829968356441,11.35430598389032,-0.5185000042356795,0.16612730493356287,344.9342455696883,11.34049813965916,0.0,1.0,0.0,0.0,1.0,Taxi
8.4,0.006562407003663443,17.48562046427673,11.022141584254795,-0.6049137166323224,-0.007670515784392926,345.0892592462576,10.659221270758321,0.0,1.0,0.0,0.0,1.0,Taxi
8.5,0.06888916584842407,34.83891916221012,11.942196834190181,-0.5999461648459001,0.8948639553161918,344.98145310148607,11.747845312703248,0.0,1.0,0.0,0.0,1.0,Taxi
8.6,0.08896483255194809,-11.183126315176024,11.229317767996239,-0.7430585272600175,0.0764115389562191,344.8686236963699,11.302803038891867,0.0,1.0,0.0,0.0,1.0,Taxi
8.700000000000001,-0.049353224572216636,-16.547442973887737,11.687158771019842,-0.8017949266742469,-0.1926432361564036,344.9990739521279,10.94434471908019,0.0,1.0,0.0,0.0,1.0,Taxi
8.8,-0.013848049021014589,-36.22710061476287,10.078661518281427,-0.49951084012432745,0.07253314258844613,344.94250321737877,11.450027232488678,0.0,1.0,0.0,0.0,1.0,Taxi
8.9,-0.09217067052186623,33.62928549571894,11.217444007934562,-0.8626535560910294,0.46290302499685493,344.8796733664408,11.015996545651737,0.0,1.0,0.0,0.0,1.0,Taxi
9.0,0.1187932029063781,9.760549509826943,11.81314785461688,-0.7724557701358657,0.43180720497573405,345.13600769265327,11.668678720291737,0.0,1.0,0.0,0.0,1.0,Taxi
9.1,0.03495469852812014,29.816326441125536,11.374035877951219,-0.8411076781968996,0.9748411670807975,344.6945014936532,10.752577796044006,0.0,1.0,0.0,0.0,1.0,Taxi
9.200000000000001,0.056910961683761474,-8.963494737884785,10.665781813104816,-0.8447393562426013,-0.45582646382766684,344.99138027683875,11.104711045400578,0.0,1.0,0.0,0.0,1.0,Taxi
9.3,0.07397572921695421,-43.049816835372894,11.067251792308257,-0.7598624783430377,-0.2701126456979578,344.80619164810673,11.003786338745648,0.0,1.0,0.0,0.0,1.0,Taxi
9.4,-0.18029438564874434,-12.56355228693325,11.38320710122472,-0.6980009395780976,-0.4458427408727884,344.98595331246656,10.648292358691734,0.0,1.0,0.0,0.0,1.0,Taxi
9.5,-0.005906799750904799,-23.041132746013417,12.214839865131369,-1.0126681952001997,0.8299853368414974,344.7837255545479,10.544018070294326,0.0,1.0,0.0,0.0,1.0,Taxi
9.600000000000001,-0.04122993451311289,48.404322585506634,10.80486658436066,-0.48676476428395565,-0.6977988258986819,344.7479552389882,10.571415472502226,0.0,1.0,0.0,0.0,1.0,Taxi
9.700000000000001,0.06172722727878887,-10.01478807904743,10.466832262851648,-0.5723485611081367,0.24327660716557747,344.8648886090682,10.8448273977702,0.0,1.0,0.0,0.0,1.0,Taxi
9.8,-0.055980740146141905,-13.703853403202658,10.365694389350947,-0.7817193813236669,0.7336028637702863,344.9349390431231,10.87171146388942,0.0,1.0,0.0,0.0,1.0,Taxi
9.9,-0.10974920152912614,-2.2529837748173662,10.39914071388676,-0.9031185434241517,-0.245622431863437,344.8792289747503,9.495950802594988,0.0,1.0,0.0,0.0,1.0,Taxi
10.0,0.050462308404702075,22.306039788440128,11.260137337877863,-0.7032364580896834,0.5828371713979694,345.0479288659112,10.167758155151928,0.0,1.0,0.0,0.0,1.0,Taxi
10.100000000000001,0.05554945879605873,-6.6763268471350585,12.870887116791716,-0.5762220763254936,-0.017069632359680256,344.98400630322567,11.181868161161585,0.0,1.0,0.0,0.0,1.0,Taxi
10.200000000000001,-0.14313083576480143,-11.250763744745859,12.264894800153357,-0.6564687701333626,-0.601262744045008,344.74758758440464,11.401121667317463,0.0,1.0,0.0,0.0,1.0,Taxi
10.3,-0.0057915103190272176,1.579120760911233,10.453032416175905,-0.6988811033378071,0.20257986170819167,344.8807691566126,10.17201872319919,0.0,1.0,0.0,0.0,1.0,Taxi
10.4,0.06344506260061489,27.039975793128594,10.33972618181323,-0.6367867159896634,-0.07901668311828264,344.8948217495972,9.537890108870899,0.0,1.0,0.0,0.0,1.0,Taxi
10.5,-0.007930956799158445,-10.105742089636388,10.134703128371305,-0.6100495499392876,0.4629460281873742,344.7638733753215,11.13305643095571,0.0,1.0,0.0,0.0,1.0,Taxi
10.600000000000001,-0.05632022076720916,-45.86301181813292,11.739208133202878,-0.6634545414145057,0.813702573015327,344.9094231301922,11.294023754462474,0.0,1.0,0.0,0.0,1.0,Taxi
10.700000000000001,-0.16586999649004971,-11.174143320233497,10.343501060303883,-0.8630911729236624,0.02748311285390761,345.1004550366954,9.797604893821903,0.0,1.0,0.0,0.0,1.0,Taxi
10.8,-0.06380167340032594,32.6410353543288,11.233320168793753,-0.32432084543812184,0.8531566943874441,344.9981720677945,10.585404315497554,0.0,1.0,0.0,0.0,1.0,Taxi
10.9,0.10688495600443484,-0.12873551920240325,10.90937913242724,-0.9800849008165637,-0.7130233486043792,344.86253040060706,10.533516444565446,0.0,1.0,0.0,0.0,1.0,Taxi
11.0,-0.16651367408606177,11.511360036727377,10.14532182918057,-0.7633769621839549,0.320608798164689,345.03214740146973,11.270524139347136,0.0,1.0,0.0,0.0,1.0,Taxi
11.100000000000001,-0.0062448732166891134,-11.383978246424542,10.338939468483652,-0.785510788231257,0.1291965290670999,344.81563094896455,11.261093989495127,0.0,1.0,0.0,0.0,1.0,Taxi
11.200000000000001,0.049965064772312065,0.5995116381220479,11.46621220781223,-0.6804913733791885,-0.026171388676933624,345.04792026691564,10.38815218058554,0.0,1.0,0.0,0.0,1.0,Taxi
11.3,-0.16351611589545148,-20.683307887652646,12.61261278821773,-0.305447611039999,0.027617663083798913,344.81304338461973,11.073384418866198,0.0,1.0,0.0,0.0,1.0,Taxi
11.4,-0.10966141265495229,16.56803162814603,12.036272141294603,-0.6338262220778048,0.31915857199162534,344.7807109320082,11.937849887055219,0.0,1.0,0.0,0.0,1.0,Taxi
11.5,0.1328052229130423,1.2657076204532132,11.045824641304922,-0.9445104425284829,-0.1267311283142832,344.92461809257725,10.596817379969757,0.0,1.0,0.0,0.0,1.0,Taxi
11.600000000000001,-0.15718757779318537,11.769743303993005,11.054490711389162,-0.6316981339461192,0.12086236536948161,344.86363334489965,10.803135244222792,0.0,1.0,0.0,0.0,1.0,Taxi
11.700000000000001,-0.05081269613498723,-50.87238600124301,11.879535938994907,-0.7515051530846825,0.12800532235775314,344.8192655897126,10.665813426695403,0.0,1.0,0.0,0.0,1.0,Taxi
11.8,-0.12155670709317275,21.824802134861898,9.989135689578077,-0.639027982030961,-0.7009898202457582,345.00620234724215,10.82691863140396,0.0,1.0,0.0,0.0,1.0,Taxi
11.9,-0.04806356711887587,13.87690667836511,10.983989831375979,-0.6259440656468619,-0.3120893736034018,344.8473562447248,11.191318845644766,0.0,1.0,0.0,0.0,1.0,Taxi
12.0,0.018571837256838333,30.316444796679406,10.477299799476372,-0.6162231889804092,0.06079762470622134,344.7302916844169,11.358382732826906,0.0,1.0,0.0,0.0,1.0,Taxi
12.100000000000001,0.0300255168902243,14.403696502276965,12.136703560471432,-0.4853105567732833,-0.04463922259544828,345.1022291156478,10.573784610090962,0.0,1.0,0.0,0.0,1.0,Taxi
12.200000000000001,0.023954915392508953,-20.39752387233292,11.214328152459055,-0.9717998962416223,-0.18862668706600114,344.67483920458403,11.066698510999709,0.0,1.0,0.0,0.0,1.0,Taxi
12.3,-0.08341578210482627,-7.256905536354684,12.150942165933515,-0.8631621683039952,0.47094429595231024,344.9660023420736,10.842369992511713,0.0,1.0,0.0,0.0,1.0,Taxi
12.4,-0.006259010791549131,-16.259640672051844,11.31273925843113,-0.6639051954996359,0.23187283587815982,344.75089711968167,10.798710960897383,0.0,1.0,0.0,0.0,1.0,Taxi
12.5,-0.05734328796775028,15.28962415271711,12.099238683001147,-1.0606783043522978,-0.8993556309735191,344.7467577858233,10.366419440272605,0.0,1.0,0.0,0.0,1.0,Taxi
12.600000000000001,-0.00696766134124073,37.565127529922314,11.27652736016593,-0.9365039627531633,0.2899757128267029,344.88953806054406,10.672080680167282,0.0,1.0,0.0,0.0,1.0,Taxi
12.700000000000001,0.18156662685806244,20.600149200767458,10.649082901461208,-0.5881987703770604,-0.21796450260819872,344.96697450219267,10.695926011411483,0.0,1.0,0.0,0.0,1.0,Taxi
12.8,0.04565745803608695,12.806950699932743,9.649900629771448,-0.6162592282787879,-0.3063590155289574,344.89677375753774,10.507710266162416,0.0,1.0,0.0,0.0,1.0,Taxi
12.9,0.05706709215842296,-48.03557939582756,11.247488898512918,-0.7014774870081317,0.045188845253307304,344.8347692732701,11.644956361125397,0.0,1.0,0.0,0.0,1.0,Taxi
13.0,-0.0586112701210754,25.162030609034574,10.873374043289521,-1.1490734569974204,-0.2184803497012681,345.08838565905955,10.32583119400835,0.0,1.0,0.0,0.0,1.0,Taxi
13.100000000000001,0.17146761108125985,-10.831750748892512,9.65730439412807,-0.6284125730243851,-0.1361607672469349,344.72128416224837,10.858455624466552,0.0,1.0,0.0,0.0,1.0,Taxi
13.200000000000001,0.0029083384139604353,22.61155208588315,11.164947506051984,-0.6344007265175847,-0.06952060802862302,345.17587978111067,11.684626478772778,0.0,1.0,0.0,0.0,1.0,Taxi
13.3,0.05444649030834038,-48.428094365285745,10.87901667194768,-0.7598521678481639,0.0139035332328247,345.1346095851617,11.510274087548025,0.0,1.0,0.0,0.0,1.0,Taxi
13.4,-0.07067286074516888,-25.075835337058482,11.211306777968886,-0.9278210634930187,0.5523630049055054,344.88074161585314,11.044367003425519,0.0,1.0,0.0,0.0,1.0,Taxi
13.5,-0.12247083827133201,-43.75270963812283,11.143727329014128,-0.5289681231053192,-0.32501223146842123,344.87013340968826,11.037567249481956,0.0,1.0,0.0,0.0,1.0,Taxi
13.600000000000001,-0.1643170578822738,16.610748142950225,11.688269682202101,-0.395825876543339,-0.18636968691831046,344.83528632112825,10.09066447460316,0.0,1.0,0.0,0.0,1.0,Taxi
13.700000000000001,0.01238087996958221,31.19128026479616,11.562721041179238,-0.8464623079353177,0.223008808156324,344.9178099673395,10.622873478619503,0.0,1.0,0.0,0.0,1.0,Taxi
13.8,0.03348556305264877,41.04525397944019,10.398789695302382,-0.666586791497553,0.3934888712290452,344.8987495536039,11.428382351242469,0.0,1.0,0.0,0.0,1.0,Taxi
13.9,0.04090921201492713,31.14721143669651,11.485742521113286,-0.6921063406370292,1.0592159747761498,345.03885415891443,9.852090118174234,0.0,1.0,0.0,0.0,1.0,Taxi
14.0,0.16811693715306475,0.9915709459262132,11.746499360001497,-0.5479335865348315,-0.8860813084692858,344.97895906469694,10.28971429997346,0.0,1.0,0.0,0.0,1.0,Taxi
14.100000000000001,0.03844341778227984,3.9372754911127568,10.933475421921509,-1.0393497815050106,0.004927077375244351,344.9684173093199,11.819676887712507,0.0,1.0,0.0,0.0,1.0,Taxi
14.200000000000001,0.06059558947049092,-22.771575241440768,11.275036395984936,-0.7944384763065545,0.8470136586286168,344.79396354057735,10.822260986292859,0.0,1.0,0.0,0.0,1.0,Taxi
14.3,0.054259060945860915,5.519072749264269,11.528124810584263,-0.8592173272564038,0.6648221249903832,344.86799910377863,10.817047606947312,0.0,1.0,0.0,0.0,1.0,Taxi
14.4,0.06603878152860117,-9.907674126895367,11.943587897692732,-0.9466809021050024,-0.05168622740386069,344.9332593407296,10.629249864547685,0.0,1.0,0.0,0.0,1.0,Taxi
14.5,0.01105721883601407,-18.198252678835726,11.5608081358292,-0.7709768381254278,0.47967568851074716,344.8932913365803,11.12446440120766,0.0,1.0,0.0,0.0,1.0,Taxi
14.600000000000001,-0.036732202448317715,19.74988321439092,10.131528201660075,-0.5567202771159614,-0.14832304997487641,344.95310032778343,9.862012484014674,0.0,1.0,0.0,0.0,1.0,Taxi
14.700000000000001,0.16478819760055574,-1.983062564102383,11.495591343771066,-0.6103829277381928,0.1346146178614453,344.9313551861019,10.73203712167346,0.0,1.0,0.0,0.0,1.0,Taxi
14.8,0.001141906015502119,2.3237104805898423,10.726615218958386,-1.0379813162637563,-0.5325423066577988,344.920849079259,11.595802388928945,0.0,1.0,0.0,0.0,1.0,Taxi
14.9,-0.025113650045368537,-47.38399083772247,12.150983415113481,-0.654249812891938,-0.10454045416382925,344.9240386545189,11.127420026052764,0.0,1.0,0.0,0.0,1.0,Taxi
15.0,-0.07213175658805664,1.4137956747940166,12.00377685810762,-0.7046827769193943,-1.1286904543577596,344.92067951703825,10.145402493627001,0.0,1.0,0.0,0.0,1.0,Taxi
15.100000000000001,0.008210884389472178,8.111744214584641,11.14573281498467,-1.04697661534097,-0.9208474173195962,344.90288434930324,10.83356066628838,0.0,1.0,0.0,0.0,1.0,Taxi
15.200000000000001,0.01544507102755465,-21.483484795068062,9.170996040363594,-0.9122084369544349,-0.34561568372293633,344.9013834490115,10.35606638462883,0.0,1.0,0.0,0.0,1.0,Taxi
15.3,-0.17954918056339697,-4.137131460172445,11.820476969663142,-0.5581221300234813,-0.3095944933978495,344.96579386158805,10.398480164837002,0.0,1.0,0.0,0.0,1.0,Taxi
15.4,-0.012474772911390063,5.389258427187066,10.890837390045052,-0.5807464682140989,0.5146375883570442,345.16894463569156,10.395299488244186,0.0,1.0,0.0,0.0,1.0,Taxi
15.5,0.04239136316348997,31.99244966646275,11.001189231885768,-0.7268623602280355,0.7123967560117866,344.9251395680176,11.615358130665875,0.0,1.0,0.0,0.0,1.0,Taxi
15.600000000000001,-0.019586932231083237,-27.152461315775827,10.84285511705567,-1.0432005121807295,-0.19941947615859665,344.91990350989704,11.175946998736238,0.0,1.0,0.0,0.0,1.0,Taxi
15.700000000000001,-0.14823707949026924,13.153443172856617,11.298547530821786,-0.7343371490388056,0.3887990150255799,344.94247466494653,12.209243386919626,0.0,1.0,0.0,0.0,1.0,Taxi
15.8,0.10815857902777302,11.058140886626227,10.671505416616332,-0.4354697006781782,-0.35080536178464256,344.9023877162183,11.148775930917711,0.0,1.0,0.0,0.0,1.0,Taxi
15.9,0.03570377220204785,9.220470232380302,11.81332924792948,-0.6791033609394077,-0.7138693203904075,344.87715791370647,9.884530079949108,0.0,1.0,0.0,0.0,1.0,Taxi
16.0,-0.10213472832836779,-23.32056458594356,11.174054207290029,-0.8033016688281541,-0.15987092855656734,344.89997964576753,11.13781796638238,0.0,1.0,0.0,0.0,1.0,Taxi
16.1,-0.008444243901944856,-9.833052010656962,10.389257127133156,-0.6804145968508715,-0.2346261164768367,344.7690542158696,10.718853746731025,0.0,1.0,0.0,0.0,1.0,Taxi
16.2,-0.01346148785123702,-12.35177823309555,11.097485043640472,-0.9199404508889863,-0.012414265442994642,344.89451108550816,10.980206848750589,0.0,1.0,0.0,0.0,1.0,Taxi
16.3,-0.1638936194938456,-6.6156957551492,11.571511507588472,-0.783112853191962,-0.1629788355438538,344.9557979442177,11.058984599713739,0.0,1.0,0.0,0.0,1.0,Taxi
16.400000000000002,-0.04152272267769092,-10.104467097889485,10.962051706234254,-0.6908116331946068,0.5702996122542152,344.76412187503456,10.995996249367836,0.0,1.0,0.0,0.0,1.0,Taxi
16.5,-0.06398382334068452,11.077167852706616,11.297509687751894,-0.7608913099262136,-0.3531321484146816,344.86869468908685,11.085984636448536,0.0,1.0,0.0,0.0,1.0,Taxi
16.6,-0.10850778023031259,42.45087106687498,11.455815362287233,-0.979724948278236,0.8126217330461355,344.79900239536244,10.490660759467433,0.0,1.0,0.0,0.0,1.0,Taxi
16.7,0.17073163265668392,33.9759589671277,10.803138118983416,-0.7384190513368949,0.04289775807814825,344.87261225789996,10.537349307365423,0.0,1.0,0.0,0.0,1.0,Taxi
16.8,0.10589597149495392,28.549467036080888,11.443789934496838,-0.6766527200876762,-0.07990351597302986,344.826769950486,11.24935221061784,0.0,1.0,0.0,0.0,1.0,Taxi
16.900000000000002,0.03423955495009181,-8.459711313955887,9.79765432698923,-0.8943746378236045,0.1710277783474514,344.79454056263853,11.095226123102416,0.0,1.0,0.0,0.0,1.0,Taxi
17.0,0.12843307608690444,-27.667274223717072,11.388998535405308,-0.5669631439296916,0.7336387885989556,344.8329357082947,11.558510971323718,0.0,1.0,0.0,0.0,1.0,Taxi
17.1,-0.03244039962363148,-12.125418655327293,11.044912306066353,-0.6760205952532479,0.41208718977112874,344.9676450357513,10.750349664478914,0.0,1.0,0.0,0.0,1.0,Taxi
17.2,-0.02638753832654471,-32.56790031917844,11.34807695038704,-0.4309593712536059,-0.20060086648951303,344.9843469567202,10.286180110646699,0.0,1.0,0.0,0.0,1.0,Taxi
17.3,-0.034406425508987815,-0.5697337670374274,11.032336698553578,-1.0081471645555162,-0.5890137744149242,344.94656440719484,10.739090011690394,0.0,1.0,0.0,0.0,1.0,Taxi
17.400000000000002,-0.03528906845881868,26.279667010797983,10.17473946468254,-0.6043469506315122,-0.15990173770561408,344.9496199448754,11.876693946154843,0.0,1.0,0.0,0.0,1.0,Taxi
17.5,0.10501079672744516,60.23761102249841,11.454639276832184,-0.8250608466636573,-0.13861819953345475,344.73520448786144,11.03583923211732,0.0,1.0,0.0,0.0,1.0,Taxi
17.6,0.2667816296035042,0.4129349496708225,10.880321002033158,-0.9170192324551149,0.03784657865966788,344.9862177220266,10.833722129219451,0.0,1.0,0.0,0.0,1.0,Taxi
17.7,-0.0332243937104646,-9.666033743236556,10.45598189774014,-0.4995880406087071,0.9091581784749445,345.08006640911526,11.243897909733857,0.0,1.0,0.0,0.0,1.0,Taxi
17.8,0.056680628011262335,-24.230753521058062,10.739428414472677,-0.5575585596456225,-0.049486494548301396,345.0064371367822,10.225332704516102,0.0,1.0,0.0,0.0,1.0,Taxi
17.900000000000002,0.14562786199821384,-20.160089215444845,11.407146487205274,-0.5865057159658777,-0.21049844013478664,344.9395232350046,10.71710322213182,0.0,1.0,0.0,0.0,1.0,Taxi
18.0,-0.13402483978768892,-34.600870238725406,11.659271716816669,-0.5647238594188118,-0.03954523694623697,344.8837255114802,10.390104890832962,0.0,1.0,0.0,0.0,1.0,Taxi
18.1,-0.1163237231823648,-31.384606643437426,11.557913067489704,-0.7092127102456822,-0.9710202474874792,344.7950783252311,10.662239101542244,0.0,1.0,0.0,0.0,1.0,Taxi
18.2,-0.011295171218973374,-4.269475261622347,11.03327751619825,-0.6307547828346187,-0.03717243465654929,345.039380786988,11.034526017448126,0.0,1.0,0.0,0.0,1.0,Taxi
18.3,-0.15537221609580074,-2.9713831067210794,10.969995479537086,-0.5324755272455526,0.2422482515260641,344.98616513992806,10.479022249202863,0.0,1.0,0.0,0.0,1.0,Taxi
18.400000000000002,-0.13118063871597027,-20.727685875427483,11.920256918102432,-0.6407491162583234,-0.29288970758815275,345.00245094245565,11.23284153062708,0.0,1.0,0.0,0.0,1.0,Taxi
18.5,-0.11493360059611087,46.835485026025005,10.08385067870899,-0.8569018417913149,-1.544391273166356,344.8732835160663,10.782292380826894,0.0,1.0,0.0,0.0,1.0,Taxi
18.6,0.07880520903432425,35.16029091787401,11.199271186329693,-0.8334460140027073,-0.1360778129007465,344.79692962062677,10.770039346926225,0.0,1.0,0.0,0.0,1.0,Taxi
18.7,0.044620815873399694,41.45404668661139,10.100993704703196,-0.6050869693788932,0.39306380625075127,344.9356238796038,10.884758093094714,0.0,1.0,0.0,0.0,1.0,Taxi
18.8,0.09233663283694603,-15.342583484899315,10.960348910330461,-0.8343905481362182,-0.753119727526539,344.9444828079371,10.764651642669854,0.0,1.0,0.0,0.0,1.0,Taxi
18.900000000000002,0.0020922916098276147,-30.594274383980686,10.951777279663576,-0.6577616237952412,0.34984507565456807,344.94721042329957,11.49730442443018,0.0,1.0,0.0,0.0,1.0,Taxi
19.0,-0.10835055604650379,-31.67196105276572,11.44865398304757,-1.0167617559189226,-0.515243893001712,344.9333912705415,10.709270201672409,0.0,1.0,0.0,0.0,1.0,Taxi
19.1,-0.06602317242688265,15.11674154786724,11.243089221328116,-0.579799704342315,0.7829173550029296,344.9029919159226,10.25219987749112,0.0,1.0,0.0,0.0,1.0,Taxi
19.200000000000003,0.07767599934916378,48.603464684071895,11.794927917545357,-0.9084217209106689,0.34929229871779516,344.91806294739104,11.028689903425802,0.0,1.0,0.0,0.0,1.0,Taxi
19.3,0.13466676737385563,13.282585429035825,11.46486877686379,-0.5818253825992508,0.8285427051116818,344.83093867031425,10.611238204944959,0.0,1.0,0.0,0.0,1.0,Taxi
19.400000000000002,0.0003897547182964352,-24.159646240883415,11.387140085297697,-0.6878661369349603,-0.7348474272248288,345.0216558705263,11.31670771551901,0.0,1.0,0.0,0.0,1.0,Taxi
19.5,-0.04312223185525337,23.49079459812369,11.384451344674616,-0.7897678042427363,-0.4116845328584843,344.9703090372859,10.854528689198954,0.0,1.0,0.0,0.0,1.0,Taxi
19.6,0.25212074036447396,-17.139813560598878,11.41466100050784,-0.6721875180055283,0.4672306882335669,344.88602901143076,10.684554696257386,0.0,1.0,0.0,0.0,1.0,Taxi
19.700000000000003,-0.0853093130846981,17.197480785670887,11.01519657428533,-0.91842584060768,0.25108918664288465,344.87178575637313,10.081390417034175,0.0,1.0,0.0,0.0,1.0,Taxi
19.8,0.04286517207310092,-51.866908140815376,10.414627490449703,-0.8110879923106995,0.5718101081224136,344.8554667808362,9.917615059382742,0.0,1.0,0.0,0.0,1.0,Taxi
19.900000000000002,-0.007213800339603018,25.164495801502795,10.629802375897606,-0.987071850631247,-0.8954053001203855,344.9523892241914,10.727881706483345,0.0,1.0,0.0,0.0,1.0,Taxi
20.0,0.040513165922815786,-7.753716355721239,11.531239928505283,-0.5956101286914348,-0.4896543339036365,344.93301288103,11.474345068736554,0.0,1.0,0.0,0.0,1.0,Taxi
20.1,0.004096590294494627,-22.98322555375563,9.966076074928132,-0.7826006062907397,-0.23172660844831056,344.944873767217,11.207777622053367,0.0,1.0,0.0,0.0,1.0,Taxi
20.200000000000003,-0.12212992810838126,-39.47500615903333,11.92625637253762,-0.804002793818001,0.04150474221714113,344.6848998130213,10.734033658124131,0.0,1.0,0.0,0.0,1.0,Taxi
20.3,-0.15686186487235093,-12.858010510728128,10.833704008677635,-0.7827455294800045,-1.0303357079399063,344.82867545103795,11.557126488117945,0.0,1.0,0.0,0.0,1.0,Taxi
20.400000000000002,-0.060193462259146104,25.069060616199163,11.23489389324088,-1.0764601445046853,0.644367029643555,344.8599737881749,9.81714535765003,0.0,1.0,0.0,0.0,1.0,Taxi
20.5,0.0032153749726144746,16.03263463276679,11.249392172182398,-0.784419367007928,0.8600029061031652,344.98127895423477,10.355194861755933,0.0,1.0,0.0,0.0,1.0,Taxi
20.6,-0.07669869170851706,-9.515759014723512,11.343647335745784,-0.5455052476371439,-0.5720558268867924,344.8847869297267,10.737108895678878,0.0,1.0,0.0,0.0,1.0,Taxi
20.700000000000003,-0.10777225733276374,-4.09799746273881,9.772330245513942,-0.9058025177598539,-0.8093632869574182,345.06970128176636,11.300096768292958,0.0,1.0,0.0,0.0,1.0,Taxi
20.8,-0.017274612341079642,58.56211615693815,11.52758164298813,-0.5439519253823217,-0.05855120689978183,345.0357253388662,11.010991873140698,0.0,1.0,0.0,0.0,1.0,Taxi
20.900000000000002,0.21611188907617362,-27.22630227661354,11.298135126245983,-0.2572834747095658,-0.3861522141073135,344.87556376618227,11.135820623643646,0.0,1.0,0.0,0.0,1.0,Taxi
21.0,-0.24390376871583155,-23.042826703799747,10.239333973035185,-0.8564397391838049,-0.754727137835101,344.9070894623543,10.641369125578365,0.0,1.0,0.0,0.0,1.0,Taxi
21.1,-0.1324887458600785,-21.10252776281062,11.855792409036718,-0.9032211064836964,0.14175620614208273,344.73618509552216,11.176364860068984,0.0,1.0,0.0,0.0,1.0,Taxi
21.200000000000003,0.11059925026212043,76.85139427230511,10.200812858163527,-0.6078175427860073,-0.48550876499414647,344.9399574383094,10.23182835265899,0.0,1.0,0.0,0.0,1.0,Taxi
21.3,0.14035320264569393,28.46093873571076,10.99815031432314,-0.6510523033053666,-0.007177696542054423,344.9465758669095,11.524445164852622,0.0,1.0,0.0,0.0,1.0,Taxi
21.400000000000002,0.009815947818475257,-0.8954265574818123,10.556083030965514,-0.5181680546623764,-0.21669641853432176,344.97948057156475,10.384196494742246,0.0,1.0,0.0,0.0,1.0,Taxi
21.5,0.1061221174747113,-46.53609224294095,10.76738118696136,-0.915446101894537,-0.09813905189944316,344.89540061051525,10.630395165660552,0.0,1.0,0.0,0.0,1.0,Taxi
21.6,-0.0923272585690109,14.78520423790144,11.814953815696718,-0.7534710637885624,0.06470126633172102,345.05820008398257,10.120697860788107,0.0,1.0,0.0,0.0,1.0,Taxi
21.700000000000003,0.08374196900798239,8.040985618028122,10.65445528977768,-0.41299997706553204,-0.7281915653148354,344.89662762629473,11.586639315307625,0.0,1.0,0.0,0.0,1.0,Taxi
21.8,0.14632704556485185,5.742495107598283,10.926522771300139,-0.8208935580740417,-0.3270128292117994,344.8011868801491,11.496480381459735,0.0,1.0,0.0,0.0,1.0,Taxi
21.900000000000002,-0.06361478303101954,-20.197808277815323,11.158226505604535,-0.4940357234695105,0.47739100312470645,344.9460115422826,10.949697953366064,0.0,1.0,0.0,0.0,1.0,Taxi
22.0,-0.01724707238109428,-19.13262032672944,11.548004994425469,-0.5959676827769264,0.4217116328899354,344.8563608348853,10.894320421714523,0.0,1.0,0.0,0.0,1.0,Taxi
22.1,0.05066394393120456,-5.5765973024351325,10.724398628901886,-0.7181386507035432,-0.24333395284936,344.9598250057986,11.011806195841041,0.0,1.0,0.0,0.0,1.0,Taxi
22.200000000000003,-0.09149776954319529,14.57163086626621,11.944457745882001,-0.9348231093471707,0.5342320959019169,344.79026904664045,10.458259332742031,0.0,1.0,0.0,0.0,1.0,Taxi
22.3,0.055611081950236646,7.7305211828808575,11.533698214926915,-0.9015061032550743,0.3114601634610701,344.8286982461484,10.516785765694303,0.0,1.0,0.0,0.0,1.0,Taxi
22.400000000000002,0.08931654984560874,38.72601502965621,10.99207843521496,-0.982207293167961,0.1105621846846723,345.0296551017226,10.829187858486522,0.0,1.0,0.0,0.0,1.0,Taxi
22.5,0.10213230560508564,9.185513323366852,10.608593893009468,-0.5891752350349798,-1.2018795760038863,344.8893380281072,10.357266040770375,0.0,1.0,0.0,0.0,1.0,Taxi
22.6,0.1015386485670708,-18.04474254747605,10.49323273646707,-0.125059277119548,0.2807129056990396,344.7724372980666,11.361459350813007,0.0,1.0,0.0,0.0,1.0,Taxi
22.700000000000003,-0.0009071628917716028,2.2330068414976694,10.673670286552978,-1.0197823711863068,-0.3700056357615077,345.0608862687013,11.280653507686287,0.0,1.0,0.0,0.0,1.0,Taxi
22.8,0.11329733981257391,-30.892797238569898,9.906030023423918,-0.9340940214264,0.296973765840601,344.94948058414457,10.54688867451074,0.0,1.0,0.0,0.0,1.0,Taxi
22.900000000000002,-0.05292533762577875,-32.90163056040465,10.244968329405213,-0.7745329552022195,0.2998661876020226,344.7831388123849,10.826312688504771,0.0,1.0,0.0,0.0,1.0,Taxi
23.0,-0.16541531569379495,-10.045332281465003,11.43789080119868,-1.0549414306780145,0.06970433797624652,345.0207617087881,10.626715873091264,0.0,1.0,0.0,0.0,1.0,Taxi
23.1,0.06307067840524883,2.778416545646872,10.990214377590743,-0.9763735139624594,0.06305782679448656,345.08548395303865,11.030519797660538,0.0,1.0,0.0,0.0,1.0,Taxi
23.200000000000003,-0.03903325489754448,23.29330113059767,11.089291955754152,-0.5200390377743025,-0.37575320456781447,345.0140858823688,11.498911516926539,0.0,1.0,0.0,0.0,1.0,Taxi
23.3,-0.04894881004080668,-5.381927810891827,11.637729584219949,-0.6377227930465977,0.2470887920105566,344.8392617247098,10.261259970752153,0.0,1.0,0.0,0.0,1.0,Taxi
23.400000000000002,0.036161039350789605,21.30773100237464,10.642665629088171,-0.7927345070299688,-0.03148543419794083,344.9034705778655,11.151953560874228,0.0,1.0,0.0,0.0,1.0,Taxi
23.5,0.06750540011432864,-28.684990201216888,11.289909504751531,-1.0258587708568032,0.30794428218898934,344.8555466035074,12.068106969104381,0.0,1.0,0.0,0.0,1.0,Taxi
23.6,-0.19237376104689122,-51.40722240133949,10.834755015391154,-0.6076668754360207,0.4055483558552401,344.89506548879194,10.593049927081527,0.0,1.0,0.0,0.0,1.0,Taxi
23.700000000000003,-0.22087507265590794,9.584580177622493,10.934964467641045,-1.0219298549919213,-0.43371561058743374,344.8390048115134,11.068192348469319,0.0,1.0,0.0,0.0,1.0,Taxi
23.8,0.11542830100244102,40.91119994426614,11.707909130965502,-0.905699972805043,-0.26985329778144523,345.0592865012545,10.537816164594219,0.0,1.0,0.0,0.0,1.0,Taxi
23.900000000000002,0.012182238674439407,48.535026270611276,11.49914871363913,-0.6766971964591122,-0.14495262896678418,344.9605363867256,10.619617858727205,0.0,1.0,0.0,0.0,1.0,Taxi
24.0,0.021800058697148343,-18.716516630903843,10.126499452957354,-0.8278278214372192,-0.031664854682027954,344.8884215268407,10.349379715432509,0.0,1.0,0.0,0.0,1.0,Taxi
24.1,0.02184571784792174,-1.9962862939983985,11.30729659298616,-0.9554724525484841,0.3410017013239473,344.82553536872183,10.292164703275864,0.0,1.0,0.0,0.0,1.0,Taxi
24.200000000000003,0.0022008072044473444,-0.8239988286242627,10.879331770065201,-0.8038134430103914,-0.616317440427679,344.9139047764047,10.508539226967265,0.0,1.0,0.0,0.0,1.0,Taxi
24.3,0.01768006455402696,-25.179160682320642,11.55658355734838,-0.5171048670220513,0.595242648910241,344.56373176320994,10.827307452107515,0.0,1.0,0.0,0.0,1.0,Taxi
24.400000000000002,-0.10405008556368155,-4.653719642329423,9.972351925859611,-1.0252472754969466,-0.0657048807185258,344.84459184911793,10.57481470236746,0.0,1.0,0.0,0.0,1.0,Taxi
24.5,-0.02106779100719984,-3.390200419109842,11.264100926070935,-0.5827181508495303,-0.1548459708487411,345.09023635324513,11.017173852489778,0.0,1.0,0.0,0.0,1.0,Taxi
24.6,0.0007290624584776747,7.101589734476138,11.02999671149453,-0.798472926259926,0.7926079451462864,344.9744368568763,10.53072464511836,0.0,1.0,0.0,0.0,1.0,Taxi
24.700000000000003,-0.06854213689130094,36.74414503100334,11.670762410946317,-0.758716401413279,-0.06077087183254371,344.81951360473704,10.246594220090854,0.0,1.0,0.0,0.0,1.0,Taxi
24.8,0.1626529341478168,0.7856830562991112,9.969501848249624,-0.9425191009122063,0.07659797473437244,344.9155577792998,11.663542726165748,0.0,1.0,0.0,0.0,1.0,Taxi
24.900000000000002,0.0046574777399731905,35.4427081032525,11.472897240266729,-0.9605873144734394,0.23915567047039582,344.93597820600814,11.479042651291016,0.0,1.0,0.0,0.0,1.0,Taxi
25.0,0.10867140362496153,-41.45103134380545,11.387006542275753,-0.6600601714317719,0.6199378402771181,344.8061381710537,10.904903278382834,0.0,1.0,0.0,0.0,1.0,Taxi
25.1,-0.044602222571210465,-8.614235734653622,11.364859056303278,-0.44111087411236233,-1.1183761418313578,344.97556128635233,11.40052261740429,0.0,1.0,0.0,0.0,1.0,Taxi
25.200000000000003,-0.03841370093329499,-22.447830319819243,11.408692285884834,-0.6246340205893859,0.9021822815904895,345.01354413084596,11.34759969230963,0.0,1.0,0.0,0.0,1.0,Taxi
25.3,-0.0035677479741347395,-0.5891396672439674,11.235349428350247,-0.7253535578262585,0.17836830179769234,344.76458588277364,10.938703388921734,0.0,1.0,0.0,0.0,1.0,Taxi
25.400000000000002,-0.04754792090743037,6.37953676849968,9.80209530238773,-0.9579666731448861,0.854007122568422,345.0389255742962,11.022390392264498,0.0,1.0,0.0,0.0,1.0,Taxi
25.5,-0.00651601709079666,-20.08009996524012,10.83034269081344,-1.1297681234868406,-0.9545431287813572,345.0165885685118,11.157125169640961,0.0,1.0,0.0,0.0,1.0,Taxi
25.6,-0.10396824780033541,35.846955643000236,10.532891756388612,-0.6019110577649605,-0.6067810933363749,344.969927757287,10.68215262958547,0.0,1.0,0.0,0.0,1.0,Taxi
25.700000000000003,0.13168685730757076,-1.1703788243651871,11.67725851466395,-0.8218125590163214,0.16452125541764132,344.7320569484732,11.25095201154399,0.0,1.0,0.0,0.0,1.0,Taxi
25.8,-0.012367911212622661,39.47234183802121,11.099528951663416,-0.796775979898834,0.193951093701134,344.8066238570316,10.276988502324052,0.0,1.0,0.0,0.0,1.0,Taxi
25.900000000000002,0.09339346138977056,-7.760330961402063,10.50516274406527,-0.2883935692788447,0.020647535031223196,344.8313934202994,10.6630309905788,0.0,1.0,0.0,0.0,1.0,Taxi
26.0,0.09288520250056037,0.009989227890339217,11.508324417949222,-0.6699103059711938,0.181927684214475,345.01500650957473,10.00176736220541,0.0,1.0,0.0,0.0,1.0,Taxi
26.1,-0.012317965073171032,-31.33983093182667,11.981744422020858,-0.8254989963082802,-0.13991107833915667,345.0301459415541,10.37849289826475,0.0,1.0,0.0,0.0,1.0,Taxi
26.200000000000003,-0.06330569326936283,5.974690169626403,11.125204855380462,-0.8757628073619589,0.5062450094432673,344.83360795399244,10.302517363507217,0.0,1.0,0.0,0.0,1.0,Taxi
26.3,0.12275865334869235,13.530512591745627,10.71841477369695,-0.7340946808913101,-0.6646348790185672,345.0383951574686,11.211417330433855,0.0,1.0,0.0,0.0,1.0,Taxi
26.400000000000002,0.05533459788555706,4.954224643998671,11.627337828995662,-0.641791640049833,0.05355876480336182,344.9775468933651,11.24729478876442,0.0,1.0,0.0,0.0,1.0,Taxi
26.5,-0.03853457004936952,-30.036382596414125,11.134200098174768,-0.5562691107048251,0.5018285833787608,344.8447871037756,10.556972240792854,0.0,1.0,0.0,0.0,1.0,Taxi
26.6,-0.027423259633378324,-6.834993785174876,9.887756731530688,-0.6606569324288593,-0.12629260607836462,344.9952926112385,10.612862570283996,0.0,1.0,0.0,0.0,1.0,Taxi
26.700000000000003,0.021159628959682635,-1.1587659162939115,10.708388967628858,-0.8497106229656103,0.10896839266929416,344.8966660168858,11.54597867239217,0.0,1.0,0.0,0.0,1.0,Taxi
26.8,-0.044328399630839135,-43.504791957202,10.810519999836487,-0.9914093283955703,-0.30402771187447636,344.99496568955556,11.31451548479175,0.0,1.0,0.0,0.0,1.0,Taxi
26.900000000000002,-0.24494721941938843,9.215989809075987,11.609619236667207,-0.37985936843707524,0.6748184808350174,344.88446591886213,11.131281921002872,0.0,1.0,0.0,0.0,1.0,Taxi
27.0,0.06723957800506243,-14.641270970778345,10.906726145498213,-0.2127059929063826,-0.1676467444228265,344.78564009050524,11.331684941586387,0.0,1.0,0.0,0.0,1.0,Taxi
27.1,-0.117534754484731,23.671953200558303,10.864529630000966,-0.508451813182256,0.4682799894147747,344.8511694731246,10.775525302087528,0.0,1.0,0.0,0.0,1.0,Taxi
27.200000000000003,-0.12658745341659702,-7.309939474496095,10.404282805292887,-0.6359952236764999,-0.1845209190920723,344.8699963855529,10.845845017225168,0.0,1.0,0.0,0.0,1.0,Taxi
27.3,0.030689880632581896,65.80900886354081,10.78507293191844,-1.184940506484066,-0.7207494196917802,344.870064141119,11.323586433440246,0.0,1.0,0.0,0.0,1.0,Taxi
27.400000000000002,0.21151028983297301,33.416428432534275,9.601250641311648,-0.5802072933532156,-0.24195728838492953,344.8857983350042,10.248786613307976,0.0,1.0,0.0,0.0,1.0,Taxi
27.5,0.04049468874607427,35.04937138809749,10.40714467293311,-0.5581374328958961,-0.013290653136254504,345.05788316940846,10.804067316100246,0.0,1.0,0.0,0.0,1.0,Taxi
27.6,0.20593673757306924,-95.23215881734752,11.039795516147331,-0.3861826244723349,-0.9548209702159628,344.8731935702249,10.722086893471769,0.0,1.0,0.0,0.0,1.0,Taxi
27.700000000000003,-0.2646505042537648,10.515945506535465,10.817947522128314,-0.6368445471398794,-0.04952381783150286,344.9923305006487,10.948151073568793,0.0,1.0,0.0,0.0,1.0,Taxi
27.8,0.09307441627875146,-25.654604435793235,11.119839583637777,-0.7780094911675743,-0.13874655584249404,344.96072737618726,11.119591908989621,0.0,1.0,0.0,0.0,1.0,Taxi
27.900000000000002,0.07766371539410294,23.327794973488427,10.652125980098322,-0.5227210072474544,0.45491086654913143,344.926434857553,11.62031547843408,0.0,1.0,0.0,0.0,1.0,Taxi
28.0,-0.14801152938632275,-27.14707924665457,11.093784412736374,-0.5696295097930797,-0.08646675524390686,344.7101504130769,10.953458332716119,0.0,1.0,0.0,0.0,1.0,Taxi
28.1,-0.042660979954521484,20.246665103368912,10.616049335663599,-0.8692546536269209,-0.8696741467860337,344.84747670570425,9.43551524837979,0.0,1.0,0.0,0.0,1.0,Taxi
28.200000000000003,0.1788970409109474,61.07732361539311,10.264358608281453,-0.6697818669056862,-0.4844668680817488,344.7748789305765,10.754399234145492,0.0,1.0,0.0,0.0,1.0,Taxi
28.3,0.15737508869064276,-39.39464856971146,11.16198736009122,-0.4947043765481587,-0.20468488616604755,345.0038854506389,10.517013815348616,0.0,1.0,0.0,0.0,1.0,Taxi
28.400000000000002,-0.23963422280307875,-81.71282001521276,11.371735788824038,-0.8363293439907646,-0.4266209949656388,345.0301300367239,11.026403672861269,0.0,1.0,0.0,0.0,1.0,Taxi
28.5,-0.22966705916511643,-51.09622256314208,10.965407002010942,-0.746872273581593,0.8021355109778823,344.923515778656,11.959512246743447,0.0,1.0,0.0,0.0,1.0,Taxi
28.6,-0.09810602412506764,23.13114777900607,10.937895888998298,-0.6629241345326329,-0.7265435628299375,344.8307254241063,11.174145258458923,0.0,1.0,0.0,0.0,1.0,Taxi
28.700000000000003,-0.12397848390804844,72.36958681045436,11.109858030740991,-0.5751598948590353,-0.35426262460253316,344.8260170151293,11.275677914641744,0.0,1.0,0.0,0.0,1.0,Taxi
28.8,0.13218087488715533,-2.255775601424176,11.368550952289064,-0.5323047289913496,-0.2784912871183084,344.9428769750617,9.410992518281493,0.0,1.0,0.0,0.0,1.0,Taxi
28.900000000000002,-0.10938490213218857,49.94375415268439,9.955425565619706,-0.5929561001392387,0.5407472048312917,344.7665808485365,10.636128866718867,0.0,1.0,0.0,0.0,1.0,Taxi
29.0,0.12574028685537345,-43.56975237753644,10.87797441682056,-0.8080314053617859,-0.9204836940702876,344.9274303457031,10.651597048178285,0.0,1.0,0.0,0.0,1.0,Taxi
29.1,-0.08566788700052688,25.263489625236677,11.451962803243806,-1.009658721481419,0.12180717132260319,344.8710592378127,10.195451002934632,0.0,1.0,0.0,0.0,1.0,Taxi
29.200000000000003,0.01693254599399476,-23.71632753180234,12.04323135291607,-0.553137663553893,0.9923335359068952,344.9503531907626,10.78085712580444,0.0,1.0,0.0,0.0,1.0,Taxi
29.3,0.007158649196361701,7.415150789222736,10.872335849294588,-1.2937239279728694,-0.022373286703534896,344.97802238028225,10.499479770184584,0.0,1.0,0.0,0.0,1.0,Taxi
29.400000000000002,-0.048592133054413254,-44.96590457925877,11.084136503200593,-0.9845000587406131,-0.11175971603498266,344.95181327096475,10.69885874621739,0.0,1.0,0.0,0.0,1.0,Taxi
29.5,-0.2078969769022992,-5.732910551037378,10.75252676399211,-0.9631762248233492,0.5466015697313544,345.059015665066,10.720381560022739,0.0,1.0,0.0,0.0,1.0,Taxi
29.6,-0.02150590355882527,-29.746614118378748,11.758629203439106,-0.700107652229791,0.43004904926295784,344.85053387154244,11.046920945665379,0.0,1.0,0.0,0.0,1.0,Taxi
29.700000000000003,-0.1973252036463071,14.579421245261097,10.997052749116536,-0.9637598047351585,0.3012047158403029,344.7484035857001,10.462648156194268,0.0,1.0,0.0,0.0,1.0,Taxi
29.8,-0.13499987067599378,29.216030727319293,11.426024118935246,-0.9089918467762861,0.13643201717298187,344.85172733636875,10.890983275735072,0.0,1.0,0.0,0.0,1.0,Taxi
29.900000000000002,0.1245742500777711,35.508938626942054,10.810261451281601,-0.6549784210465757,0.4437440712059243,345.0539018884997,11.588348819235037,0.0,1.0,0.0,0.0,1.0,Taxi
30.0,-0.019780510511596877,29.951991272734972,11.860374661141572,-0.7123801755479175,1.1429271557111418,344.95107050466527,10.202306419807188,0.0,1.0,0.0,0.0,1.0,Taxi
30.1,0.014760085687681002,-21.40438655952805,10.877883474652,-0.7271301800813857,0.3272058761212124,345.0330931192716,10.465246762309404,0.0,1.0,0.0,0.0,1.0,Taxi
30.200000000000003,0.017552317280130816,-40.90685392936721,9.853831373717393,-0.7135018633206346,0.5070162237076571,344.7070946441661,11.411401676826483,0.0,1.0,0.0,0.0,1.0,Taxi
30.3,-0.22431478015843298,-2.5743984798311508,10.058032325112109,-0.5362402519447329,-0.5483535705945207,344.8963265401692,10.47990567797527,0.0,1.0,0.0,0.0,1.0,Taxi
30.400000000000002,0.001888093288525226,17.749008548795658,10.681037400540395,-0.7361041272116057,-0.11543268319204109,345.0587027394565,10.96810386541877,0.0,1.0,0.0,0.0,1.0,Taxi
30.5,0.10629736002410906,62.079850521809924,10.614095108146525,-0.4607794199923236,0.41626053387941303,345.0516605930304,9.933224430537761,0.0,1.0,0.0,0.0,1.0,Taxi
30.6,0.08608447245061655,-25.897058607234253,10.929791342906599,-0.5647244227888943,-0.002292948535068616,344.94929005950075,10.88910550037883,0.0,1.0,0.0,0.0,1.0,Taxi
30.700000000000003,-0.1275971997476461,-27.561363819635755,11.275468891714073,-0.8387138734454597,0.5731961203308654,345.0165824666972,9.890680492162323,0.0,1.0,0.0,0.0,1.0,Taxi
30.8,-0.03150945907406977,-7.621742714769574,11.369206870492105,-1.004180864388538,-0.6219701412635994,344.8208142891749,10.882469316738076,0.0,1.0,0.0,0.0,1.0,Taxi
30.900000000000002,0.04797575887676861,55.37649722937323,11.648760151286567,-0.7788641473468432,-0.40852833358815405,344.8167120043656,11.194692829106529,0.0,1.0,0.0,0.0,1.0,Taxi
31.0,0.14928528639921995,-13.770089179763346,11.26964671331519,-1.2122745788726528,-0.36965671539394646,344.9380145416426,10.819189561593264,0.0,1.0,0.0,0.0,1.0,Taxi
31.1,-0.10035990497288659,1.8005166063303857,10.615827527956812,-0.8108072279265108,0.08052840387695366,344.7922703137267,10.945751539956177,0.0,1.0,0.0,0.0,1.0,Taxi
31.200000000000003,0.05697834190842045,-47.241988895084205,10.687808272036927,-0.5301815077429748,0.4528563566189134,345.07136424770215,10.874152396136541,0.0,1.0,0.0,0.0,1.0,Taxi
31.3,-0.0869246580762012,33.90497132876573,11.489446932997703,-0.9012511162801656,0.10173837737468192,344.93501101860943,11.001144543699247,0.0,1.0,0.0,0.0,1.0,Taxi
31.400000000000002,0.06916495167094201,41.40008228059889,11.08180328706009,-0.6740043595326592,-0.07845160205029665,344.8158836966195,9.786484907146194,0.0,1.0,0.0,0.0,1.0,Taxi
31.5,0.2639787533114148,60.69133943632581,11.354489331873857,-0.8926960424420363,-0.10122973892206305,344.85663901623025,11.222948725204025,0.0,1.0,0.0,0.0,1.0,Taxi
31.6,0.2165320391054278,-38.77777629797948,11.746119620032534,-0.7451067105480358,0.42053720608295975,344.91887630234373,11.524252240960216,0.0,1.0,0.0,0.0,1.0,Taxi
31.700000000000003,-0.12472392981895544,-34.096234773940495,10.458882465441242,-0.8008253940587103,-0.33457501537124446,344.7606309572677,10.855049763036387,0.0,1.0,0.0,0.0,1.0,Taxi
31.8,0.0934975794417123,-14.420573986122362,10.262678331415398,-0.7690253083598546,0.1565470096398946,344.96579738024866,10.64099322353258,0.0,1.0,0.0,0.0,1.0,Taxi
31.900000000000002,0.14442916917481596,46.66557925684955,10.46271579747312,-1.1658322341789238,0.27458324977505066,344.74767307943705,10.904436152180757,0.0,1.0,0.0,0.0,1.0,Taxi
32.0,0.10860396646529223,-28.751208556639906,10.10448578129782,-1.1281300409938335,0.21543203785959553,345.01265045284197,11.798951249134017,0.0,1.0,0.0,0.0,1.0,Taxi
32.1,-0.05025846334148727,-5.7292306556508095,11.054106089193015,-0.38613620198792853,-0.6185813477646959,345.0427106376021,10.677505446139564,0.0,1.0,0.0,0.0,1.0,Taxi
32.2,0.11578301589656187,-29.54887995351916,11.27976020137402,-0.801429380313365,0.22138032314859357,344.858844412904,11.434127283505294,0.0,1.0,0.0,0.0,1.0,Taxi
32.300000000000004,-0.03914043330230363,-19.317503837085127,11.345437161359996,-0.5180588165186566,0.38762787089446926,344.95937633262145,11.691896406832573,0.0,1.0,0.0,0.0,1.0,Taxi
32.4,-0.14684598252691297,-17.06132346299447,11.258743642542662,-0.6865428627985609,0.5770791263243311,344.833345109113,11.172744416087175,0.0,1.0,0.0,0.0,1.0,Taxi
32.5,0.03047639858158942,31.431326058510887,12.439527170099252,-0.4122444961308103,-0.6395347928424066,344.91077167776996,10.88584196373393,0.0,1.0,0.0,0.0,1.0,Taxi
32.6,0.1180161969902507,36.56142251380271,11.41165083627824,-0.28827830743800714,-0.8985925702773917,344.9009477516561,11.108159164713271,0.0,1.0,0.0,0.0,1.0,Taxi
32.7,0.03596113004210051,5.795400531902895,11.394445825845914,-0.8868036838474,0.23913396700426515,344.84075973928316,9.98328585532038,0.0,1.0,0.0,0.0,1.0,Taxi
32.800000000000004,0.05945340124110382,-23.53339636807515,11.673457333493618,-0.6594185316443463,0.14493084749777113,344.65147662242896,10.752578668180476,0.0,1.0,0.0,0.0,1.0,Taxi
32.9,0.00034921514987488713,-6.233729086188554,12.589608619813962,-0.9321070338814935,0.7152088990380083,345.0210681699102,10.72279645890644,0.0,1.0,0.0,0.0,1.0,Taxi
33.0,0.004792484611157664,-40.8813980445636,11.36296457795443,-0.482251660508587,-0.4356824231028765,344.90725482644916,10.975436593110107,0.0,1.0,0.0,0.0,1.0,Taxi
33.1,-0.14495358898171423,16.363471931525847,10.654126836433843,-0.8534164522054408,-0.005658777681509167,344.8090465798647,10.842499487777022,0.0,1.0,0.0,0.0,1.0,Taxi
33.2,0.08216657480750407,-13.000730513573615,11.293972228515202,-0.583649538581256,0.18577322361207782,344.9061072916784,11.368182614666235,0.0,1.0,0.0,0.0,1.0,Taxi
33.300000000000004,-0.060211167956710415,45.32554378018083,11.913011466318359,-0.7188405036102656,0.4385535811619984,344.7525114391499,11.574495590418103,0.0,1.0,0.0,0.0,1.0,Taxi
33.4,0.0816741299191899,-11.02969564939086,11.132300617861398,-0.854557521461021,0.44000475182242954,344.9229762334238,11.243123463057797,0.0,1.0,0.0,0.0,1.0,Taxi
33.5,0.027018096560549744,-5.869199685469809,11.066302937753292,-0.9260045128139607,-0.048851231498397735,345.0059153006662,11.200509526639147,0.0,1.0,0.0,0.0,1.0,Taxi
33.6,-0.08955716638405953,-38.832083913615584,10.773418473385163,-0.46974444533760806,-1.1668743404357427,344.9727546606416,11.51344647816,0.0,1.0,0.0,0.0,1.0,Taxi
33.7,-0.1124862896488881,-51.015844194356056,11.753100341302588,-0.7652665336892533,-0.42076182000220574,344.8546544795737,8.798657291243003,0.0,1.0,0.0,0.0,1.0,Taxi
33.800000000000004,-0.22806112441123064,-3.9146667892311577,10.445815753081618,-0.7313736808492333,-0.7858493433553737,345.01280563269324,11.41933658412501,0.0,1.0,0.0,0.0,1.0,Taxi
33.9,-0.10913050033021537,8.799533937397115,11.904915086220951,-0.4724094574997714,-0.6105630449965862,344.87944346045333,10.418267260428426,0.0,1.0,0.0,0.0,1.0,Taxi
34.0,-0.06848861996190259,45.71682751153087,11.50596929487697,-0.7105560125051587,0.020757774353342293,344.83140537612485,11.321629630942283,0.0,1.0,0.0,0.0,1.0,Taxi
34.1,0.0005230131464236714,23.204889016576292,10.937109783617332,-0.4276996552779783,-0.1698598585866407,345.0395438392435,11.073031694686192,0.0,1.0,0.0,0.0,1.0,Taxi
34.2,0.0068939447526660275,40.83623721735673,10.415316408265411,-0.6339564948249681,0.5421056601882057,345.0434593866257,11.293116456387402,0.0,1.0,0.0,0.0,1.0,Taxi
34.300000000000004,0.135692566124881,7.235658616837654,10.602515153682923,-0.5942510623345807,0.11118529299125829,344.98970770455344,11.26051322078385,0.0,1.0,0.0,0.0,1.0,Taxi
34.4,0.03670130623061187,8.506595685622996,10.888428953624997,-0.9282471641713073,-0.46010316128330386,344.73935241740014,10.283750762109074,0.0,1.0,0.0,0.0,1.0,Taxi
34.5,0.04942692318078095,-7.618718354842559,10.91610471930271,-0.3928298733164718,0.6320120687252956,345.05637858265004,10.937147906665404,0.0,1.0,0.0,0.0,1.0,Taxi
34.6,0.09759897435066817,-11.819698182959597,10.571931359926449,-1.1433532868744734,-0.29946888139290456,344.8296436423643,10.866701227686816,0.0,1.0,0.0,0.0,1.0,Taxi
34.7,-0.022397184684186156,9.383778313560748,11.47172200664545,-0.5064455935280817,-0.6328488433253321,344.8888927607288,10.84613666462316,0.0,1.0,0.0,0.0,1.0,Taxi
34.800000000000004,0.09634581474858465,-23.680598853250032,10.646444172805472,-0.824990566821951,-0.5686113507173796,344.9772432727726,10.100200536198942,0.0,1.0,0.0,0.0,1.0,Taxi
34.9,-0.020804019915582034,-5.733488253774375,9.38712118784212,-0.6366164948165562,0.514413397800549,344.94061987679447,10.311509282966705,0.0,1.0,0.0,0.0,1.0,Taxi
35.0,-0.051064625953058065,-37.848335790304226,11.71954401725497,-0.8090580623473677,0.2636886207190041,344.7343065190969,11.139525511812106,0.0,1.0,0.0,0.0,1.0,Taxi
