time_s,altitude_ft,vertical_speed_fpm,ias_kt,pitch_deg,roll_deg,heading_deg,throttle_pct,afterburner_on,gear_down,flaps_deg,speedbrake_pct,weight_on_wheels,label
0.0,0.08941413208395017,-45.60631940009128,15.553462731140893,0.9385190328199093,0.8042569486391978,334.59964206516963,25.009189458959145,0.0,1.0,0.0,0.0,1.0,Taxi
0.1,-0.06260693258302076,-24.3894166703235,16.483044877689853,1.0526763933586887,-0.5020447631256043,334.56557291310287,23.487471380460523,0.0,1.0,0.0,0.0,1.0,Taxi
0.2,-0.03253295126766734,-8.197936120165586,16.547975041427353,0.9308686663003026,-0.09102858010291937,334.6608363885805,24.829394030611642,0.0,1.0,0.0,0.0,1.0,Taxi
0.30000000000000004,0.04842445148312225,5.697865172091174,17.108524323235045,0.8800255237352397,-0.5603511811102629,334.7306291034371,24.48666979962445,0.0,1.0,0.0,0.0,1.0,Taxi
0.4,-0.034117606722564885,10.453898737313146,16.19006688887026,0.7891028197056599,-0.764227648602119,334.5703986436247,24.080420214679368,0.0,1.0,0.0,0.0,1.0,Taxi
0.5,0.019736542418898398,22.819573477864708,16.064011894504414,0.9568217509111879,-0.18504282132224778,334.6104894747898,24.0891290131667,0.0,1.0,0.0,0.0,1.0,Taxi
0.6000000000000001,0.16252231887244578,36.7823444769113,16.149733343223293,0.9044239619776608,0.02365778506730015,334.63153400643705,25.41599890512675,0.0,1.0,0.0,0.0,1.0,Taxi
0.7000000000000001,0.14979411566199158,-12.316312588069048,16.671119942395762,0.6207981342761567,0.37826569942265614,334.44768792124273,25.214341108509533,0.0,1.0,0.0,0.0,1.0,Taxi
0.8,-0.04184502052144686,-16.347553825519807,15.990804259381784,0.6693140268545479,0.6745031679451363,334.2642708149268,24.240898212377513,0.0,1.0,0.0,0.0,1.0,Taxi
0.9,0.08078454974484675,-19.564976951160904,16.270383668807447,0.8574405055453168,0.7058756895513212,334.3764822107711,25.017372147414576,0.0,1.0,0.0,0.0,1.0,Taxi
1.0,0.05196923090618705,10.375652997897054,17.334543481667275,1.2071472938053498,-0.5768941614173033,334.4938924190635,24.348991410236323,0.0,1.0,0.0,0.0,1.0,Taxi
1.1,0.010033244468038417,-30.277820483816726,15.704955291034077,0.8277508966136864,-0.8428213973189221,334.5696414470582,24.868618975420496,0.0,1.0,0.0,0.0,1.0,Taxi
1.2000000000000002,-0.07060455267423688,24.628674624208685,15.689364144809634,0.8271610258830819,-0.3837597054119612,334.7611820815332,24.210912178854937,0.0,1.0,0.0,0.0,1.0,Taxi
1.3,0.1751126040272305,-50.45778025927757,16.742464384251203,0.6888414445739807,0.0035506359996881555,334.5214283155524,24.660195159504806,0.0,1.0,0.0,0.0,1.0,Taxi
1.4000000000000001,-0.24225565682834943,11.327969194207308,16.759379788632945,1.0239343125724456,0.5239668624459843,334.56986171573067,24.679831806210164,0.0,1.0,0.0,0.0,1.0,Taxi
1.5,-0.013964706703200394,-73.7311279003791,15.53876260327597,0.9209609568640346,-0.3812850639030038,334.6091139310822,24.17472130134727,0.0,1.0,0.0,0.0,1.0,Taxi
1.6,-0.19354303547466503,51.14896271804995,16.85585785180893,0.7107935952977282,0.001132174707054089,334.49376538806655,24.550367302752207,0.0,1.0,0.0,0.0,1.0,Taxi
1.7000000000000002,0.013489156761900276,-6.584834496078254,16.050438545999587,0.9439938359234058,-0.5918445790208745,334.4969623763641,24.999233829975168,0.0,1.0,0.0,0.0,1.0,Taxi
1.8,-0.046888879183591664,36.38125759441201,16.722530812023923,0.6175783253705803,0.13376065890321523,334.6333025051749,24.643997066342976,0.0,1.0,0.0,0.0,1.0,Taxi
1.9000000000000001,-0.01163674750260494,9.67476148582172,15.893193510186343,0.6276314781019577,0.5256720606985099,334.4807175027431,24.523433313038566,0.0,1.0,0.0,0.0,1.0,Taxi
2.0,0.06186296419100889,-10.407362780306334,17.644326850520063,0.6288793944967157,0.08437826996632253,334.5377134519181,24.67016637348875,0.0,1.0,0.0,0.0,1.0,Taxi
2.1,-0.09892569308512333,-40.022108003692914,15.476177610000574,0.6317793722672043,0.12888430131731343,334.40571414584406,23.84238898921557,0.0,1.0,0.0,0.0,1.0,Taxi
2.2,-0.2117472875210695,-9.924785174715103,16.344369839319985,0.786823749053533,0.5218612165686217,334.627794053107,25.13026114175238,0.0,1.0,0.0,0.0,1.0,Taxi
2.3000000000000003,0.012239038317433414,42.68671595279929,15.976710522866139,0.7672627350815767,-0.4483283872225365,334.50962605351697,24.87101296547523,0.0,1.0,0.0,0.0,1.0,Taxi
2.4000000000000004,0.11450788667887313,72.9920772772537,16.415844046592447,1.0625055550344422,-0.6061083344240736,334.47122178267136,25.143753146280176,0.0,1.0,0.0,0.0,1.0,Taxi
2.5,0.15321309886519896,-5.371974401753448,15.248829787658172,0.5678862836264811,-0.35887643354899246,334.4701457563351,24.171314559000052,0.0,1.0,0.0,0.0,1.0,Taxi
2.6,-0.014620833691333823,-35.1613838885313,16.781500006150125,0.5026339267260294,0.19033165620286008,334.7295226729909,25.040530023879963,0.0,1.0,0.0,0.0,1.0,Taxi
2.7,-0.06129903276378337,-54.74371799645919,16.900013798307025,0.7889957282601195,0.8903793073715867,334.68540279990384,24.082465730624836,0.0,1.0,0.0,0.0,1.0,Taxi
2.8000000000000003,-0.12050549111709702,-5.923740349999004,16.015668433883967,0.42981655952077974,-0.17278158929808804,334.5331018805184,24.512121518535,0.0,1.0,0.0,0.0,1.0,Taxi
2.9000000000000004,-0.04423953544132886,28.98916026225663,16.9309638444489,0.8729899817471029,-0.319892135855566,334.65042028333175,24.139043820644908,0.0,1.0,0.0,0.0,1.0,Taxi
3.0,0.08364676854749976,13.492219252581895,16.12831503494186,0.8995149772675912,-0.5386287691866367,334.5352349136265,25.00685846798753,0.0,1.0,0.0,0.0,1.0,Taxi
3.1,-0.05304439485418753,1.6398608167548445,15.301191128193102,0.8631688179157574,-0.22328588838403016,334.4342455027389,24.690761107869644,0.0,1.0,0.0,0.0,1.0,Taxi
3.2,-0.03604023135755462,-8.88226430264678,16.10312542412451,0.7713837000324588,0.24308501368075466,334.73419294152825,25.23559207619274,0.0,1.0,0.0,0.0,1.0,Taxi
3.3000000000000003,0.039235447034265895,21.196684108919015,15.229809401795245,0.5175957616406863,-0.43262294492396297,334.52468827232747,24.521462595694615,0.0,1.0,0.0,0.0,1.0,Taxi
3.4000000000000004,0.05293902569040757,20.580374084749696,15.749418894625691,1.0124356689278182,1.0799877907274233,334.53039014816545,26.041543651606812,0.0,1.0,0.0,0.0,1.0,Taxi
3.5,0.06686163906619388,10.898470988171509,15.7594501344175,1.0073088768675766,-0.01958464637550078,334.4726912143883,24.559145857257995,0.0,1.0,0.0,0.0,1.0,Taxi
3.6,0.09372780197512345,1.3536290699639355,16.557488399572286,0.7567058310026441,0.3995341884678036,334.7669360358884,24.24213077265621,0.0,1.0,0.0,0.0,1.0,Taxi
3.7,0.05970717104022726,-33.66140090670917,16.00793020545345,0.8856722133114477,-0.8356316581975984,334.5566722975735,23.71119402650577,0.0,1.0,0.0,0.0,1.0,Taxi
3.8000000000000003,-0.10144536546735194,-3.9534860082037633,14.713403033112337,1.1103365193038388,-0.3837121959792068,334.57299013568615,24.023696676342556,0.0,1.0,0.0,0.0,1.0,Taxi
3.9000000000000004,0.07396037193410467,-10.519165365738084,16.94612178079477,0.9436166330608986,0.518143674630714,334.38681148407204,24.967882938775507,0.0,1.0,0.0,0.0,1.0,Taxi
4.0,0.00711134421153687,27.204741541672423,15.805389513190356,0.7136212351309332,-0.24597726375411788,334.53482773574956,23.14839293228541,0.0,1.0,0.0,0.0,1.0,Taxi
4.1000000000000005,0.03457834224101022,-4.707326543074783,15.276327309847234,0.6851023275004149,0.4484787418333307,334.54358455640204,24.048408281799382,0.0,1.0,0.0,0.0,1.0,Taxi
4.2,0.05042373921873078,-4.513504841292234,15.996761664927721,0.9931349908940341,-0.7210836786963566,334.3214581209371,24.278495908444025,0.0,1.0,0.0,0.0,1.0,Taxi
4.3,-0.015456179994924275,-2.2005311520320183,15.653907692878972,0.7151156819819485,0.2181283144508821,334.71824744147796,23.44858748094875,0.0,1.0,0.0,0.0,1.0,Taxi
4.4,0.02357568648085015,12.65761087196548,15.3606447806662,0.9638109333187675,-0.12703855436751865,334.4748398866918,24.32069843396964,0.0,1.0,0.0,0.0,1.0,Taxi
4.5,0.11371179357855819,-10.3236189317765,16.941564541194687,0.7831220803765468,-0.061840201885659564,334.62559480603625,25.617189449933615,0.0,1.0,0.0,0.0,1.0,Taxi
4.6000000000000005,-0.06707427465380675,-45.63076226265128,16.330916740470936,0.9391583325166823,-0.03575371742088073,334.63462682231716,24.274951681880072,0.0,1.0,0.0,0.0,1.0,Taxi
4.7,-0.20457812483240626,-37.02619632550073,16.815430250732405,0.7256363907631801,-0.2033937789475525,334.6991709399464,24.756750886272954,0.0,1.0,0.0,0.0,1.0,Taxi
4.800000000000001,-0.07141918804894538,7.842021092377426,17.49424623466748,0.968846209110933,0.14996354073672613,334.48960291112485,23.943187552817612,0.0,1.0,0.0,0.0,1.0,Taxi
4.9,-0.027864169191919582,57.36350364715292,17.14723063260299,0.9606258105000044,-0.757507124451374,334.61425078956995,24.726523667594435,0.0,1.0,0.0,0.0,1.0,Taxi
5.0,0.08223939340335834,20.099351822504442,15.603135947658306,0.5388543357392894,-0.14546056010788536,334.5022521929203,24.882914003840565,0.0,1.0,0.0,0.0,1.0,Taxi
5.1000000000000005,0.02907757106357682,-0.7140659678166467,16.72521261513396,1.2220564530144666,1.168170890531737,334.51546815787106,24.3262945077926,0.0,1.0,0.0,0.0,1.0,Taxi
5.2,-0.031434499031002816,-50.1781401479091,16.119927884376285,1.1133830581322854,0.08954233899138124,334.6404795506544,25.074446700043115,0.0,1.0,0.0,0.0,1.0,Taxi
5.300000000000001,-0.16865130733618713,-27.46775798095217,15.499787249630568,0.9186702177214232,-0.8899750871834465,334.26348472800487,24.073352424412533,0.0,1.0,0.0,0.0,1.0,Taxi
5.4,-0.108261218841184,10.935120583604515,15.901311954973508,0.9466781489264576,-0.01927560729681688,334.67598473333805,24.60746719537413,0.0,1.0,0.0,0.0,1.0,Taxi
5.5,0.023241103887019762,50.59816441281163,16.160533289022936,0.6906771153948764,-0.4563478481490034,334.5997559905928,25.626217614949184,0.0,1.0,0.0,0.0,1.0,Taxi
5.6000000000000005,0.08433951472787099,39.96859204921997,16.328949619186233,0.6724302256264147,-0.5959901461830113,334.46214657125836,24.56005764998221,0.0,1.0,0.0,0.0,1.0,Taxi
5.7,0.09158174140491589,-23.085440122441927,16.925988010436047,1.1664656084455467,0.33781826366757595,334.55328223603624,24.79455891266153,0.0,1.0,0.0,0.0,1.0,Taxi
5.800000000000001,-0.09218609672518986,-33.398678850872415,15.313947134340836,1.0792627428094899,0.3242898207926935,334.5313424177375,24.1876947873206,0.0,1.0,0.0,0.0,1.0,Taxi
5.9,-0.08265387952649109,-2.654286024722282,16.123917799771615,0.8922111990144102,0.18580952800644315,334.70770887155027,23.947411832617007,0.0,1.0,0.0,0.0,1.0,Taxi
6.0,0.07831031128130446,11.638013720558485,16.180048306581867,0.81057041791715,-0.7164441812739079,334.4363626257191,24.675669067772567,0.0,1.0,0.0,0.0,1.0,Taxi
6.1000000000000005,-0.033996028122397444,35.90784690920184,16.44991429990999,1.1345078161363937,0.988092403006326,334.6545597319489,24.222929074140975,0.0,1.0,0.0,0.0,1.0,Taxi
6.2,0.09688535501951809,2.429693613901179,15.385087949589723,0.715302677853103,0.3151044282245277,334.6145499585805,24.03751358066321,0.0,1.0,0.0,0.0,1.0,Taxi
6.300000000000001,0.09045877935081037,-20.709146552986777,15.90893082219494,0.8946096443291411,0.7089065679298341,334.6362478506571,24.872365613319573,0.0,1.0,0.0,0.0,1.0,Taxi
6.4,-0.13754176088733136,19.5120864119417,15.444738267757192,0.9168777545143649,-0.21282341619117484,334.4141057080012,24.698509379824074,0.0,1.0,0.0,0.0,1.0,Taxi
6.5,0.19444578707922652,-42.55970416409142,16.88413761780981,0.7027101255167789,-0.2979014412860278,334.60297153868237,24.232644212130932,0.0,1.0,0.0,0.0,1.0,Taxi
6.6000000000000005,-0.12233974146964677,-15.984013026626428,16.522306031359598,0.38890567775685647,0.16935953696169806,334.79166648045907,24.519650346112417,0.0,1.0,0.0,0.0,1.0,Taxi
6.7,-0.2174618260204635,-57.56064297549966,15.617483820998327,0.696956758032901,0.39799612996285405,334.5814061189649,25.278978596310804,0.0,1.0,0.0,0.0,1.0,Taxi
6.800000000000001,-0.09335742779827172,31.121231882108376,15.709443249970443,1.0029906644324136,-0.15390821613134006,334.6884744238889,25.421677668670124,0.0,1.0,0.0,0.0,1.0,Taxi
6.9,0.0332664179408951,16.834530542299195,15.334901829652818,0.8711529487115311,0.41551553115353174,334.4190326690898,24.28740785845025,0.0,1.0,0.0,0.0,1.0,Taxi
7.0,-0.13328917330896753,11.076397552278022,16.7423550365519,0.6248431482351788,0.02701803289225993,334.49000343246087,24.210109519329226,0.0,1.0,0.0,0.0,1.0,Taxi
7.1000000000000005,-0.03797544003688161,-2.0904595923243625,16.48336608629081,0.501135472384776,0.4592246514127366,334.5884507057267,25.07531965985861,0.0,1.0,0.0,0.0,1.0,Taxi
7.2,0.02281411997927329,46.934801934419305,16.194008361395987,0.8078936066308071,-1.2066740147816226,334.583087571163,24.574743241764978,0.0,1.0,0.0,0.0,1.0,Taxi
7.300000000000001,0.10138483636312896,26.578214606956674,16.320007382033744,0.7466756063685629,-0.2730312828763977,334.45900718522057,24.702246042703777,0.0,1.0,0.0,0.0,1.0,Taxi
7.4,0.09491563299790177,-12.344811444556733,15.768368220471809,0.7075128142784799,0.16760142788481922,334.53050159400584,24.499659827440468,0.0,1.0,0.0,0.0,1.0,Taxi
7.5,-0.03890993724351034,-44.807169856208844,17.72070378469882,0.8349906051889255,-0.0236698272763474,334.39783722913035,24.325225211772846,0.0,1.0,0.0,0.0,1.0,Taxi
7.6000000000000005,-0.12265101291791523,-18.545806142949328,17.073804938218956,0.7783204300010619,0.16176806149394918,334.640216592205,24.720439086652764,0.0,1.0,0.0,0.0,1.0,Taxi
7.7,0.002186602283155145,-4.157817020558251,16.37734828481705,0.662171704006437,-0.827596388245574,334.62274922090774,24.880828665420026,0.0,1.0,0.0,0.0,1.0,Taxi
7.800000000000001,-0.05969902234630159,59.3904395853742,15.528786422883915,0.8688625055192949,-0.4748041762496346,334.52111960546176,23.82459348158963,0.0,1.0,0.0,0.0,1.0,Taxi
7.9,0.1743011850089558,-27.191003950787252,16.53544890953565,1.045331765218203,0.47158577973657706,334.506846328185,24.648824283909523,0.0,1.0,0.0,0.0,1.0,Taxi
8.0,-0.13376841747078114,51.490656595548955,17.0609868184396,0.5846781124329896,-0.4925245414506759,334.41780370080414,25.038534676452034,0.0,1.0,0.0,0.0,1.0,Taxi
8.1,0.1977542606314432,0.9007514804375916,16.168843463260956,0.8124964556342043,0.18641650629567408,334.52269573214346,24.751936555451994,0.0,1.0,0.0,0.0,1.0,Taxi
8.200000000000001,0.17880494241114375,51.46060545292098,15.744866699809277,1.1874770660056226,0.0048561533454097045,334.3407378347297,25.348959696701513,0.0,1.0,0.0,0.0,1.0,Taxi
8.3,0.1235346097938238,-48.50315346551252,15.22925997206492,1.3826191836280568,-0.8065031400343725,334.4766100853377,23.864764095551163,0.0,1.0,0.0,0.0,1.0,Taxi
8.4,-0.0447615066961194,-24.199682857095173,14.515529549981016,0.81000969997126,0.27826444644345066,334.5149932736929,24.713069524108096,0.0,1.0,0.0,0.0,1.0,Taxi
8.5,0.057806528125667916,-27.911263914838695,16.87398453260139,0.9432120248066331,-0.1714383799085594,334.65256368187033,24.388073472420338,0.0,1.0,0.0,0.0,1.0,Taxi
8.6,-0.016021709780369677,21.020726015000026,16.238681035865067,0.9084326480522749,-0.7961379125691204,334.58499671752406,24.40449443620633,0.0,1.0,0.0,0.0,1.0,Taxi
8.700000000000001,0.06034212337888073,-1.342909983670167,16.294484323756965,0.7322861872222038,-0.036486867079373306,334.5307906212545,24.158100205889134,0.0,1.0,0.0,0.0,1.0,Taxi
8.8,0.05109197820731707,6.905908246744226,16.845052841864202,0.7553890257924689,-0.26823408838546275,334.65924345626195,25.41814699920954,0.0,1.0,0.0,0.0,1.0,Taxi
8.9,0.018507831453351435,-9.098072462921115,16.470322579174045,0.9249292308596446,0.20674412394785532,334.38961911385866,24.881314255344275,0.0,1.0,0.0,0.0,1.0,Taxi
9.0,0.014851761064275158,-3.051615776197126,16.363462144411702,0.63344389863992,-0.2300501359811926,334.38691231422433,24.675014974168604,0.0,1.0,0.0,0.0,1.0,Taxi
9.1,0.035833899326331436,3.8743161660917416,16.43505885726439,0.7191731089266975,-0.11490499494067619,334.5423529678451,23.960432142533413,0.0,1.0,0.0,0.0,1.0,Taxi
9.200000000000001,0.037879412283810136,-15.634962694831453,16.100171979625713,1.253908006759085,0.06166804267919708,334.370843099648,24.27744084724828,0.0,1.0,0.0,0.0,1.0,Taxi
9.3,-0.06332305240988213,-18.07085571549942,15.405179392451121,0.7972308112549249,-0.17725016590941686,334.6212265154833,24.920713715550946,0.0,1.0,0.0,0.0,1.0,Taxi
9.4,-0.054520379251165686,-23.005004152799,15.86102430617194,0.8598194350478607,-0.2265893379917913,334.45191418303875,24.215435663429318,0.0,1.0,0.0,0.0,1.0,Taxi
9.5,-0.07714560848018487,23.89436690644619,16.33976497377902,0.6689622989665066,0.17171997368220634,334.7474428337466,25.169580534596914,0.0,1.0,0.0,0.0,1.0,Taxi
9.600000000000001,0.05614878212234878,37.60396136921113,15.089370880504553,0.7430511821850092,-0.41793354857778553,334.43986655378353,24.884461797918576,0.0,1.0,0.0,0.0,1.0,Taxi
9.700000000000001,0.13349942759488992,1.6699700963393695,16.979005653361213,0.9391896334079226,-0.579511906656405,334.4997635840641,24.754371667384138,0.0,1.0,0.0,0.0,1.0,Taxi
9.8,-0.06879575799848808,-10.155397582338587,15.419573391697886,0.7336101112708346,0.1431855814025288,334.54946097567085,24.25320717902159,0.0,1.0,0.0,0.0,1.0,Taxi
9.9,0.005371794210655801,-4.229166674305437,16.529352702848644,0.9312608002982605,-0.40833078077078205,334.42025124085126,24.68741765203039,0.0,1.0,0.0,0.0,1.0,Taxi
10.0,0.11235359422336269,32.449927738921076,15.92178002644472,0.8466253004221632,0.4433587996800231,334.44711441482946,24.673105530365355,0.0,1.0,0.0,0.0,1.0,Taxi
10.100000000000001,0.09345388069611725,6.766082084117708,15.510531517382203,0.9911734315993755,-0.12641774104157963,334.52256666049425,24.993964817453787,0.0,1.0,0.0,0.0,1.0,Taxi
10.200000000000001,0.0392022046312443,-6.890436455177497,16.47084532268214,1.0510625753623848,0.5060258786484191,334.57538571338546,24.925299244797987,0.0,1.0,0.0,0.0,1.0,Taxi
10.3,0.07790141194747517,-0.5022952654897616,16.58417653475408,0.30865971554045923,0.2479804113901291,334.6433800121913,24.78565697500459,0.0,1.0,0.0,0.0,1.0,Taxi
10.4,0.0909424043686684,38.50384078636939,15.214421617590585,0.792838489068922,0.061212508260139485,334.58974283736814,24.525582220686953,0.0,1.0,0.0,0.0,1.0,Taxi
10.5,0.23172140856309117,17.17975610356932,16.30077269736507,0.7997747872819685,-0.22235838830290452,334.63156733662186,24.031176044733765,0.0,1.0,0.0,0.0,1.0,Taxi
10.600000000000001,0.16380019246532174,-30.797743455318408,14.240698287476484,1.0715885776180034,-0.7200936577623093,334.57354841595566,24.36601796312636,0.0,1.0,0.0,0.0,1.0,Taxi
10.700000000000001,-0.06304631290792365,-45.683115052428114,16.534780238328505,0.6434260431485959,0.43735471291935063,334.56591577128984,25.3314352577837,0.0,1.0,0.0,0.0,1.0,Taxi
10.8,0.0033058333009505746,-18.432147180968816,16.450213776247946,0.6867283417651218,0.369965434356033,334.684716893865,24.761019896332353,0.0,1.0,0.0,0.0,1.0,Taxi
10.9,0.07163945656047764,60.08220616319543,16.01088714238041,1.0187313432669969,-0.5075102002222736,334.5190045683563,25.051425403831107,0.0,1.0,0.0,0.0,1.0,Taxi
11.0,0.2373647179080535,-38.434306922648794,17.15758339271659,0.9974474303685146,-0.07322133380872412,334.5879614512244,24.337290790021022,0.0,1.0,0.0,0.0,1.0,Taxi
11.100000000000001,-0.18886570131229347,-10.231738053639353,15.499476246878741,0.514052770472495,0.23294611777478988,334.3390646725063,24.45772936395916,0.0,1.0,0.0,0.0,1.0,Taxi
11.200000000000001,0.020480766292280836,-39.64873420568306,15.831608636993721,0.6680005257848709,-0.44739466658175353,334.64111896540066,24.608324585421926,0.0,1.0,0.0,0.0,1.0,Taxi
11.3,0.03912104687963816,18.251089891022,17.78700872965888,0.6270934926202139,-0.1831928867554121,334.488794381656,24.2408578493191,0.0,1.0,0.0,0.0,1.0,Taxi
11.4,-0.09761025185718346,-11.096932831868441,15.636266532409248,1.1282308590724242,0.21452283457385854,334.585836887155,24.27482572746511,0.0,1.0,0.0,0.0,1.0,Taxi
11.5,-0.03500389786706136,-15.742824228193347,16.489943215222688,0.45031154698950093,-0.3190825409869316,334.5230565485746,24.182076786471537,0.0,1.0,0.0,0.0,1.0,Taxi
11.600000000000001,-0.03959307426132857,14.405794047137887,15.617545371600077,1.2017397322242442,0.0781331130225651,334.40933286549046,23.63069267580252,0.0,1.0,0.0,0.0,1.0,Taxi
11.700000000000001,-0.025581281621494013,8.421295808925002,16.871781674167515,0.4451344632360243,0.740610649754459,334.5811779002788,24.91676667892941,0.0,1.0,0.0,0.0,1.0,Taxi
11.8,0.0071025811775636705,37.47637418096804,15.647154016997197,0.9770294571341158,0.6370055894932097,334.50483393029833,24.671972882435444,0.0,1.0,0.0,0.0,1.0,Taxi
11.9,0.14778879664351163,-33.633001815317186,15.451482541198649,1.0171292878502083,0.09575732943648954,334.64696723014004,24.871235888726225,0.0,1.0,0.0,0.0,1.0,Taxi
12.0,-0.19374629069807991,-0.5507409417086109,15.241767407853594,0.733315027712256,0.2829905834908885,334.5230359324303,24.34688566954476,0.0,1.0,0.0,0.0,1.0,Taxi
12.100000000000001,0.004348876469020653,-55.79981991343558,16.166678576555015,0.6074395382581603,-0.7288164159215335,334.6751982287591,24.9083746256374,0.0,1.0,0.0,0.0,1.0,Taxi
12.200000000000001,-0.13121030292366623,54.03208744019158,15.257891689105309,0.7979336725755324,0.44537622176009334,334.5707697482269,25.446703695682352,0.0,1.0,0.0,0.0,1.0,Taxi
12.3,0.07641414650287796,-9.18431487002558,17.241529721422378,0.7757155921703118,-0.18247268153385307,334.5044910841683,24.95001788536652,0.0,1.0,0.0,0.0,1.0,Taxi
12.4,-0.04157269788110723,50.1595666748867,16.769624892928487,0.9166577885739371,-0.19906197526976932,334.4236322652747,23.724616275957267,0.0,1.0,0.0,0.0,1.0,Taxi
12.5,0.11958753045076725,-36.873836766172225,15.794608414063767,0.8047059562366813,0.48968619904452537,334.5313033939133,24.02319711257972,0.0,1.0,0.0,0.0,1.0,Taxi
12.600000000000001,-0.10795503732798316,-12.801157078051105,16.443789006343525,0.5792905876554143,0.28109047665709025,334.54684550280103,25.183029451252843,0.0,1.0,0.0,0.0,1.0,Taxi
12.700000000000001,-0.10557848327136277,-28.665608593418906,16.151087191591046,0.8746054433555526,-0.8794601694367694,334.59551825768676,24.30851747951304,0.0,1.0,0.0,0.0,1.0,Taxi
12.8,-0.023740512516327302,10.9420508164304,16.611544516671998,1.0640376251174621,0.006856001778673271,334.4817643095248,24.404803278205737,0.0,1.0,0.0,0.0,1.0,Taxi
12.9,-0.053244783245831206,5.7406149693622375,16.114167675727884,0.7940289340403086,-1.0078323415280634,334.4357545398086,24.43682750965788,0.0,1.0,0.0,0.0,1.0,Taxi
13.0,-0.07687540842455162,28.716267462445334,15.660505374344265,0.687897045920896,-0.5958709967568759,334.5245908170565,23.869953434854015,0.0,1.0,0.0,0.0,1.0,Taxi
13.100000000000001,0.11984082479589933,-27.415159527907687,15.733132269684516,0.6632226776701795,-1.1248799210605773,334.5883218185613,24.86675819402189,0.0,1.0,0.0,0.0,1.0,Taxi
13.200000000000001,-0.1903205808853697,-22.876186884375628,15.393680285055279,0.6042700898374717,0.15075301973954575,334.3718401849475,24.293064136417797,0.0,1.0,0.0,0.0,1.0,Taxi
13.3,-0.19125634284642984,-19.94076064773849,16.316304251390996,0.6965917287034431,-0.5118460371586008,334.60786019459624,23.984165309583098,0.0,1.0,0.0,0.0,1.0,Taxi
13.4,0.020137021557206782,54.182946658238485,16.479389726038335,0.7955667833417364,-0.0632881058333834,334.54523982672595,25.109797299558736,0.0,1.0,0.0,0.0,1.0,Taxi
13.5,0.08059415240582268,57.5004209184361,15.998053599620505,0.7931145977756742,-0.40097660817900105,334.57325461313894,23.96385663329018,0.0,1.0,0.0,0.0,1.0,Taxi
13.600000000000001,0.09624576174575057,-8.212754831266755,16.546929913846807,0.7541809544966479,0.3075262480435213,334.57988037913424,24.40842762293691,0.0,1.0,0.0,0.0,1.0,Taxi
13.700000000000001,-0.02092675259912703,-1.9345083753488623,16.320644874412046,0.8138761976789012,-0.15162586429102543,334.66603130054455,23.689901372675187,0.0,1.0,0.0,0.0,1.0,Taxi
13.8,0.07092161052907833,-13.315933843788022,17.14332941382931,0.9600936966779353,0.10427044728119896,334.53556339366367,24.726258607890596,0.0,1.0,0.0,0.0,1.0,Taxi
13.9,0.029666092526810423,22.86471391719954,16.252062229621686,1.031051754448224,-0.15394351263533346,334.6949335535762,24.63509413755923,0.0,1.0,0.0,0.0,1.0,Taxi
14.0,0.09339681698687062,-1.7705674731211072,16.310736002448632,0.7201743743910765,0.25033045059311115,334.5417191327074,24.88012044496366,0.0,1.0,0.0,0.0,1.0,Taxi
14.100000000000001,0.062068773163472736,-25.969261524010676,17.142446206656015,1.1242627496651245,0.588299957762996,334.5003397826399,24.5193130725429,0.0,1.0,0.0,0.0,1.0,Taxi
14.200000000000001,-0.10018021509324303,-46.276410399976136,17.105787851241782,0.7690934066152426,-0.6263337330219941,334.62716948601815,24.664008988459504,0.0,1.0,0.0,0.0,1.0,Taxi
14.3,-0.13798523501301016,37.338435762922096,15.608766523376973,1.0320307378961004,0.016698818056064667,334.6155863595354,24.226396837508503,0.0,1.0,0.0,0.0,1.0,Taxi
14.4,0.2487609519780831,32.41972474514609,15.89741340922828,1.0987038633818322,0.35011804647663225,334.3645186198419,24.818506317595,0.0,1.0,0.0,0.0,1.0,Taxi
14.5,0.06191840863248735,28.758376965830667,16.138237594364732,0.686083066454722,-0.5236561594959792,334.5665152587392,24.16024890589535,0.0,1.0,0.0,0.0,1.0,Taxi
14.600000000000001,0.005806649816143121,-39.95606918905427,16.485065438182716,0.7295910715091845,0.571587543342067,334.5749347870508,25.317293179067654,0.0,1.0,0.0,0.0,1.0,Taxi
14.700000000000001,0.04898060603281171,8.35875048250731,16.63759009925296,0.8100257134466503,0.4900438334685128,334.53524077806094,24.808460451243842,0.0,1.0,0.0,0.0,1.0,Taxi
14.8,0.10371216104502382,3.5577717058957865,15.500482418675354,0.862104892925579,-0.17642906111725243,334.5410042764272,24.48956546216656,0.0,1.0,0.0,0.0,1.0,Taxi
14.9,0.02359550834562198,-18.9740580912307,16.509952598075206,0.8549186096071447,0.47235480300661864,334.63202101886077,24.816012914231806,0.0,1.0,0.0,0.0,1.0,Taxi
15.0,-0.045889684423341855,21.31500826709501,16.13714514830964,0.9537420362961524,-0.2800377543538309,334.3714608141121,24.783468925914896,0.0,1.0,0.0,0.0,1.0,Taxi
15.100000000000001,0.2102872023804988,-29.03277814738077,16.66232266454338,0.76680406286359,0.31664121593030575,334.60269198659125,23.808964006472724,0.0,1.0,0.0,0.0,1.0,Taxi
15.200000000000001,-0.12156838239128187,-13.560162057670333,16.101690143632453,1.126561617547999,0.16527642888608512,334.60617309150757,25.12120209335561,0.0,1.0,0.0,0.0,1.0,Taxi
15.3,-0.11369049471169351,5.79695561182417,17.02976675059233,0.4667719891248998,-0.004070273970578147,334.5923865766483,24.84600104394098,0.0,1.0,0.0,0.0,1.0,Taxi
15.4,0.2392719804396196,36.08676217552045,15.888105553903964,0.6514405290457503,-0.8219806870263106,334.3807315055568,24.841178867323283,0.0,1.0,0.0,0.0,1.0,Taxi
15.5,0.058865428486320294,4.448493060879855,16.955828127292627,0.8634804799686223,-0.5608605818462143,334.70114450433186,24.46604855364832,0.0,1.0,0.0,0.0,1.0,Taxi
15.600000000000001,-0.09144802940729431,-56.24156355406447,15.43393594044644,0.8593495710189655,-0.07457776791482673,334.4683085374901,24.655218934206477,0.0,1.0,0.0,0.0,1.0,Taxi
15.700000000000001,-0.0419358373307028,-60.58215859434168,17.026199601125597,1.0510320181367288,-0.5299683808678557,334.4822079467182,24.30639793288716,0.0,1.0,0.0,0.0,1.0,Taxi
15.8,-0.24404536448538816,5.0378866510436024,17.98747595461452,0.705174322954618,-0.2975105764067387,334.5597888368213,25.251404106855695,0.0,1.0,0.0,0.0,1.0,Taxi
15.9,-0.06625859615207638,15.742391911595055,16.924937249652885,1.1558496264388973,0.06493804866421882,334.3727026170236,25.09390691271304,0.0,1.0,0.0,0.0,1.0,Taxi
16.0,0.0367761222272724,5.208685665031093,15.783567365239577,1.05604961991019,-0.5175458287845882,334.62320076966273,24.710719138393628,0.0,1.0,0.0,0.0,1.0,Taxi
16.1,-0.21800193616023275,38.475958577421245,16.11521337348155,0.794785234434727,1.0984300626232972,334.39978665959984,24.296441151817135,0.0,1.0,0.0,0.0,1.0,Taxi
16.2,0.1261211967350298,-11.681075381052215,15.441699828848126,0.8274228449935633,0.2163848899129224,334.4124326772064,23.501737692146325,0.0,1.0,0.0,0.0,1.0,Taxi
16.3,-0.021629254677988718,64.24646144543216,16.6804730498354,1.0816296750176848,0.38573091171558377,334.4556587876441,24.746142818275345,0.0,1.0,0.0,0.0,1.0,Taxi
16.400000000000002,0.10323037106692803,-26.244288108415216,16.01738075246637,0.7764967008051168,-0.8418818551217356,334.5967427898049,23.974517478987785,0.0,1.0,0.0,0.0,1.0,Taxi
16.5,-0.005100243807046344,27.806311067699635,16.66597837858587,1.1054084694448285,-0.2679457194388663,334.54801246076113,24.078217276549342,0.0,1.0,0.0,0.0,1.0,Taxi
16.6,0.11740230066050938,-9.708075092204057,15.317910603083423,0.8185672096740504,-0.7089145131362216,334.4351405423049,24.97383608656535,0.0,1.0,0.0,0.0,1.0,Taxi
16.7,0.054689995605907676,4.316223242217742,16.051872597177017,0.6829345590384484,-0.05083843119342186,334.5153733260071,25.204510746461093,0.0,1.0,0.0,0.0,1.0,Taxi
16.8,0.016480872404042283,-10.780574923367361,16.896041992518324,0.8886449756854043,-0.33103593212282345,334.55727635725384,25.536722752708762,0.0,1.0,0.0,0.0,1.0,Taxi
16.900000000000002,0.0634994260436725,-34.186071026636235,16.442739557892292,0.8172130638012375,0.6104741150634365,334.4331001471203,23.72854621056445,0.0,1.0,0.0,0.0,1.0,Taxi
17.0,-0.11624035952727355,-1.1733913288127695,16.495781735336134,0.626869816165708,-0.4433932956234245,334.60720215694334,25.807401176531453,0.0,1.0,0.0,0.0,1.0,Taxi
17.1,0.01061391575997838,5.26189432211007,15.96570690053722,0.7460812531576616,0.4073633431495233,334.53130507040703,24.146470526833724,0.0,1.0,0.0,0.0,1.0,Taxi
17.2,0.08980889765422279,-2.6725891477277863,16.692258712684325,0.6314306993617362,0.3047996331139178,334.46870008157134,24.803258041944183,0.0,1.0,0.0,0.0,1.0,Taxi
17.3,-0.12960330526591257,-16.544972454600536,16.640674522976717,0.8063456752911939,-0.5154467928865964,334.4652114316332,24.348727841114712,0.0,1.0,0.0,0.0,1.0,Taxi
17.400000000000002,-0.0721109465130244,-18.864998073462893,16.01357235596204,0.986570496614279,0.46666503041360446,334.45484373902264,24.609642359858107,0.0,1.0,0.0,0.0,1.0,Taxi
17.5,-0.004516092713091774,37.19971705924039,15.25006050427598,0.5931527327093578,-0.10856333174356275,334.53423839709785,25.17956413655595,0.0,1.0,0.0,0.0,1.0,Taxi
17.6,0.0563952800302893,23.72483505108022,16.007753263952015,0.6786341072533162,0.021129567198022486,334.56357762958464,24.676559583656967,0.0,1.0,0.0,0.0,1.0,Taxi
17.7,0.046513228742376594,17.38523556352542,14.583728371411537,1.1906321188828153,-0.6891065740585001,334.6630826522493,24.927062422282958,0.0,1.0,0.0,0.0,1.0,Taxi
17.8,0.08241008510453524,-27.35838156162336,15.756755829787453,0.7938748052261231,-0.3157940623317145,334.4276862376503,25.366339534477376,0.0,1.0,0.0,0.0,1.0,Taxi
17.900000000000002,-0.08039662777782758,-12.258998608155503,16.6309830327669,1.0920098779378968,0.2580434900856475,334.5216493476869,24.668270852431753,0.0,1.0,0.0,0.0,1.0,Taxi
18.0,-0.014781764298400973,-15.44062768856928,15.822586843737875,0.6618563987035235,-0.5489619772875922,334.60180047705103,24.127996505895695,0.0,1.0,0.0,0.0,1.0,Taxi
18.1,0.005206946661688763,-11.17568816458717,16.465311430798707,0.8897573487610676,0.4160538366105844,334.59356771508715,25.12442508163689,0.0,1.0,0.0,0.0,1.0,Taxi
18.2,-0.1362750686007635,14.382909245963404,16.28919590890089,0.8833514740258418,-0.22257086725160907,334.7774269571396,24.737470857850347,0.0,1.0,0.0,0.0,1.0,Taxi
18.3,0.057132781931415945,5.072728991797221,15.427821700528373,0.6172336455594922,0.6145966675782386,334.6386771673424,25.498396521837,0.0,1.0,0.0,0.0,1.0,Taxi
18.400000000000002,0.030570591620674777,40.73734376166376,15.654233354045894,1.0297924313089968,0.39789587413818883,334.6388240671513,24.62794737267425,0.0,1.0,0.0,0.0,1.0,Taxi
18.5,0.06741165020755521,-8.876790245183946,16.76973682263424,0.6439559835846784,0.0404876800221027,334.63770339195514,25.447747540647658,0.0,1.0,0.0,0.0,1.0,Taxi
18.6,0.012748830705496123,-13.653418592487979,15.85768810457346,0.9649196703201719,0.05638690457373871,334.7378307955179,24.92599123756078,0.0,1.0,0.0,0.0,1.0,Taxi
18.7,-0.03769650134176522,11.463811422333734,15.956270967888509,0.9379341001762684,0.19323754958923878,334.55106331494653,24.841006024195163,0.0,1.0,0.0,0.0,1.0,Taxi
18.8,0.12473070731922375,8.808999817298554,16.622311334270798,0.8974935672888397,-0.13725505357406007,334.54386586676355,24.77771743344137,0.0,1.0,0.0,0.0,1.0,Taxi
18.900000000000002,0.05679382979198876,-10.1966362926983,16.877996993899636,0.957460665940999,0.29192576500737866,334.5103040034139,24.329637649338874,0.0,1.0,0.0,0.0,1.0,Taxi
19.0,-0.08867968280525682,-32.61090143841389,16.03376217757488,0.5540754904286025,-0.38288133436405,334.50351767009647,24.77323502562334,0.0,1.0,0.0,0.0,1.0,Taxi
19.1,-0.03832379987284576,9.131412027311812,16.711659852313225,0.7257787792238672,0.9529562147353124,334.4806236593628,23.90428394277894,0.0,1.0,0.0,0.0,1.0,Taxi
19.200000000000003,0.10245088992854777,33.754872075504935,16.73718805214814,0.8435743596912789,-0.20535212547956797,334.81871274178366,25.11023335107763,0.0,1.0,0.0,0.0,1.0,Taxi
19.3,0.08009467757226776,-3.009041880716604,15.531832091931967,0.7953470785486176,0.35258828702511086,334.4449435302183,24.810592806745912,0.0,1.0,0.0,0.0,1.0,Taxi
19.400000000000002,-0.05336900927642886,-6.770867853387988,16.3002121803944,1.0692941505473161,0.2558620454057092,334.4666271855549,24.63351048716876,0.0,1.0,0.0,0.0,1.0,Taxi
19.5,0.06859655066160773,14.791303268873769,16.029796929559495,0.9058540806446947,-1.2323130981927797,334.5083100319707,25.37416365705341,0.0,1.0,0.0,0.0,1.0,Taxi
19.6,0.15405119391663652,41.415024756737715,15.28625438628012,0.9271721840209113,0.010601157066129376,334.5937785891397,24.54233691406929,0.0,1.0,0.0,0.0,1.0,Taxi
19.700000000000003,0.1537061145072596,-43.170998437873095,16.2673815072675,0.7926539315289529,-0.7767044934973331,334.73499802004085,24.557856264610212,0.0,1.0,0.0,0.0,1.0,Taxi
19.8,-0.14725844152775783,-20.132469534760645,16.040909540636964,0.6181941366890688,0.8928830728391175,334.6423843530381,24.412904027491777,0.0,1.0,0.0,0.0,1.0,Taxi
19.900000000000002,0.05338884624283313,-15.08270804385481,15.457005722117044,1.1663616131455634,0.05103784479014912,334.5192806483609,24.32511559572278,0.0,1.0,0.0,0.0,1.0,Taxi
20.0,0.07829257428798539,31.003329474995567,14.948485113725459,1.090851053937295,-0.5809068904211754,334.4517279881493,24.186557645405447,0.0,1.0,0.0,0.0,1.0,Taxi
20.1,0.007758205847219847,-3.186455806974403,16.00419141572998,0.3643774688522928,0.06686128323973524,334.63987970035305,24.203488091383687,0.0,1.0,0.0,0.0,1.0,Taxi
20.200000000000003,0.03745656720796097,-31.72203392696007,16.95238026599661,0.8449122594864703,0.10494759639823475,334.5320657338448,25.400353280156995,0.0,1.0,0.0,0.0,1.0,Taxi
20.3,-0.0803175953468151,-37.53327085083085,15.930268711825534,0.5292681989974926,-0.4133570616947891,334.6253493524307,24.668590770611885,0.0,1.0,0.0,0.0,1.0,Taxi
20.400000000000002,-0.17990814840693456,17.704248174570626,17.19104486709528,0.1758842346515802,0.03368100890513995,334.67944027816065,24.35097994781715,0.0,1.0,0.0,0.0,1.0,Taxi
20.5,0.12597780808081394,26.198139296124594,16.388099520512387,0.588398170895591,-0.07042774420426126,334.46598384137485,24.432934739814264,0.0,1.0,0.0,0.0,1.0,Taxi
20.6,0.0506731011338077,21.969682213581525,17.188293744436834,1.1755890116970136,-0.03106168197423479,334.4775838022665,24.91917627956952,0.0,1.0,0.0,0.0,1.0,Taxi
20.700000000000003,-0.07005973733902708,-39.26092485600204,16.196152298185023,0.5375310707533212,0.31614140945613006,334.61300872965603,25.211768974594744,0.0,1.0,0.0,0.0,1.0,Taxi
20.8,-0.07032681619919645,-1.7909778313241513,15.709477106285696,0.7835670852605677,0.4450197876761734,334.69020041759177,25.63995212019016,0.0,1.0,0.0,0.0,1.0,Taxi
20.900000000000002,0.041718211977186725,36.68319227962774,15.915973916465092,0.8873739948046028,-0.04334618184363289,334.65205667687223,25.131128152586726,0.0,1.0,0.0,0.0,1.0,Taxi
21.0,0.11335622405911142,11.474799956311037,16.343975803849116,1.3607662135786476,0.019215121289453064,334.5938088009988,25.130915010186555,0.0,1.0,0.0,0.0,1.0,Taxi
21.1,-0.012952816417641472,-13.552289756934814,16.924051595776167,1.0057441376510785,-0.3211887139642587,334.63136029527163,24.43827936009813,0.0,1.0,0.0,0.0,1.0,Taxi
21.200000000000003,-0.026043236807487533,-27.050356453708094,14.744682047839389,0.7595624092183073,0.4721495480745489,334.4132994039205,24.915329742558495,0.0,1.0,0.0,0.0,1.0,Taxi
21.3,-0.02189555820942926,-28.997479963289077,16.846277631696964,0.9221896841546496,0.671628722766296,334.69582044740696,24.1799522677084,0.0,1.0,0.0,0.0,1.0,Taxi
21.400000000000002,-0.15794021623408705,-30.234692591293964,16.089983018049633,0.9676924424714047,0.760293956692424,334.5475170298978,25.32860330364889,0.0,1.0,0.0,0.0,1.0,Taxi
21.5,-0.17721669976395754,0.9430636177903153,16.297474768895324,0.7302896566856598,-0.568931634757875,334.5770742796452,24.986875782809168,0.0,1.0,0.0,0.0,1.0,Taxi
21.6,-0.017180240120477894,40.584196842614716,15.787307033221081,0.8692085744439398,0.2150888233243317,334.5491304007942,24.717542831876763,0.0,1.0,0.0,0.0,1.0,Taxi
21.700000000000003,0.04498076797898631,78.32202147105785,16.382894044316174,0.7141969525808654,0.3875413243895707,334.49032853788106,24.584397431152887,0.0,1.0,0.0,0.0,1.0,Taxi
21.8,0.21439340759133155,-2.2119931867687987,16.798203206482583,0.9013575825300537,0.4879379405687205,334.54736633321954,24.618152213246727,0.0,1.0,0.0,0.0,1.0,Taxi
21.900000000000002,-0.028240206054322117,-4.302406379339973,17.615612466252347,0.7545480367845682,0.4537126608890646,334.37916253501885,24.254508550967667,0.0,1.0,0.0,0.0,1.0,Taxi
22.0,0.023468736082286248,-31.294683316627438,15.261063680403039,0.5652464034303123,0.5538001290848179,334.5995628746937,24.13082170160897,0.0,1.0,0.0,0.0,1.0,Taxi
22.1,0.057919991008194165,-30.768773557657514,17.200592222507822,0.8284258219861046,0.5953587735767862,334.4474998797657,24.800327473338722,0.0,1.0,0.0,0.0,1.0,Taxi
22.200000000000003,-0.18208407384260994,27.020083637553075,16.300148711353565,0.873750373435932,0.25583228053692475,334.51629128386753,24.014790699124365,0.0,1.0,0.0,0.0,1.0,Taxi
22.3,0.15856915427005142,-4.928189182725011,15.797361802490755,0.7503835734113247,-0.1730029691404755,334.3638226343958,24.80480400024691,0.0,1.0,0.0,0.0,1.0,Taxi
22.400000000000002,0.03327904509456888,49.92171654774589,15.967048252055351,0.9397516893488522,-0.8984131086926671,334.74794328022324,25.129651609706965,0.0,1.0,0.0,0.0,1.0,Taxi
22.5,0.06752450889611923,-36.66725756187768,15.540695054099924,0.5695400698367673,-0.2761252415946664,334.55312407455995,24.757067057530485,0.0,1.0,0.0,0.0,1.0,Taxi
22.6,-0.02476713353933728,7.137889526483465,15.90189271006595,0.8102852227199561,-0.27866475642633903,334.40205570283786,24.463787495616735,0.0,1.0,0.0,0.0,1.0,Taxi
22.700000000000003,0.06896849272698592,-26.409937295655507,15.801060790758525,0.8111567457711696,0.5644183629690269,334.56923004833675,25.296679583675257,0.0,1.0,0.0,0.0,1.0,Taxi
22.8,-0.06452517758215856,0.35368404055594144,16.941320343902905,0.706498838176882,0.06526119287257041,334.4703351167791,23.52401417263775,0.0,1.0,0.0,0.0,1.0,Taxi
22.900000000000002,-0.022998713336557838,-28.270899400892976,15.488375437503752,0.6502865502701242,-0.5827124063411738,334.5277761946455,24.587684384823707,0.0,1.0,0.0,0.0,1.0,Taxi
23.0,-0.07238600427747924,45.16813990038096,16.68964001513178,0.3030372866355423,0.08375000718029435,334.52756072680927,24.112042701711935,0.0,1.0,0.0,0.0,1.0,Taxi
23.1,0.16131552191974596,5.790521183226157,16.83011481712587,0.8363379459212565,0.5809841224815377,334.66236438380054,24.848987064876578,0.0,1.0,0.0,0.0,1.0,Taxi
23.200000000000003,0.005953892579572702,11.132996237030738,16.119330698047797,0.8224435155940856,0.6397494167864666,334.63647359846084,25.11400868066737,0.0,1.0,0.0,0.0,1.0,Taxi
23.3,-0.016721023092325784,-12.938246505230282,15.73644911405881,1.0920817264140499,0.06215891099228398,334.57431375588385,24.863479923709466,0.0,1.0,0.0,0.0,1.0,Taxi
23.400000000000002,0.0966242893935943,2.080777841173751,16.307018680429433,0.40547900141196985,-1.2481309790717445,334.594406201056,24.643078199152725,0.0,1.0,0.0,0.0,1.0,Taxi
23.5,0.016357781785441203,26.31104249344065,15.696817531397354,1.2619011505660545,0.007568478179261954,334.44969049231474,25.068806843615405,0.0,1.0,0.0,0.0,1.0,Taxi
23.6,0.1148341893748772,-9.408565266677188,17.106459347668203,0.9647961820112335,-0.39417907124600154,334.5275703607274,24.227331128066336,0.0,1.0,0.0,0.0,1.0,Taxi
23.700000000000003,0.049581463060208095,1.3511301216931433,16.22624800781517,1.065471586607044,-0.07027624871688319,334.7351897060753,24.16118588531998,0.0,1.0,0.0,0.0,1.0,Taxi
23.8,0.023113432393906654,7.49075832483656,16.441969827815754,0.5227544129252473,0.7831081343928243,334.41912557814067,23.658879909974416,0.0,1.0,0.0,0.0,1.0,Taxi
23.900000000000002,0.15228798099905974,8.660457457161458,17.32091569928621,0.4880288316115327,-0.7402546753785958,334.6385560173096,24.209876879119523,0.0,1.0,0.0,0.0,1.0,Taxi
24.0,0.09288375034601513,-29.23712699634949,16.244614715282818,1.0579310445350918,-0.3405415137918607,334.4281619222352,24.669859225291184,0.0,1.0,0.0,0.0,1.0,Taxi
24.1,-0.12307220258784109,-26.328942615478255,16.185345735557682,0.8171080102981094,-0.22833636662740298,334.65451131219845,23.999360926965718,0.0,1.0,0.0,0.0,1.0,Taxi
24.200000000000003,0.02064326792166822,-15.127229967653369,16.573492990948257,0.8236745572292589,-0.6926664549505571,334.4486580751477,25.00632043335755,0.0,1.0,0.0,0.0,1.0,Taxi
24.3,0.017247600507748016,9.088081158965842,16.56646990341967,0.8634448462889315,0.010830813273577078,334.4944846404803,24.282631671524054,0.0,1.0,0.0,0.0,1.0,Taxi
24.400000000000002,-0.07763179679301213,-37.90371897651208,16.42954524780551,0.9687641710760148,0.12373470126529666,334.4641879305302,24.273436473524953,0.0,1.0,0.0,0.0,1.0,Taxi
24.5,-0.16887532696089244,12.73015406101887,14.943021804242859,0.9296799855893325,0.1450500008598074,334.74637892077124,24.501720469377815,0.0,1.0,0.0,0.0,1.0,Taxi
24.6,0.0808983708128421,7.469658634078049,16.37648156103268,0.8410809597080255,0.07103255451331097,334.52700235360237,24.88074605204009,0.0,1.0,0.0,0.0,1.0,Taxi
24.700000000000003,-0.04028350362262212,51.65919308207811,16.269248442235106,0.7526956522076965,-0.38091125794004216,334.5316214457923,25.02118225998145,0.0,1.0,0.0,0.0,1.0,Taxi
24.8,0.08942063844949791,-39.12149897148638,16.56297428283384,0.9919246202201514,-0.24115665008142648,334.54601201851153,24.78696327724471,0.0,1.0,0.0,0.0,1.0,Taxi
24.900000000000002,-0.11470912404459006,-8.459735548368565,14.941773138542198,0.8460360948946584,-0.06508589924445392,334.6740769840569,24.806074215332455,0.0,1.0,0.0,0.0,1.0,Taxi
25.0,-0.0825821813644652,6.8473659855822575,16.044141158437295,1.2184576697299156,0.3853450310191189,334.6578937311624,24.323498553257807,0.0,1.0,0.0,0.0,1.0,Taxi
25.1,0.12365746837740893,22.44500605890801,16.23929229590581,0.8508728722896562,0.04738449116156121,334.6516607147548,25.216367829521484,0.0,1.0,0.0,0.0,1.0,Taxi
25.200000000000003,-0.002484093750050247,7.67309189433493,15.980150362520334,0.9276922973302087,-0.531627689595185,334.4033093095943,24.325083949319403,0.0,1.0,0.0,0.0,1.0,Taxi
25.3,-0.044216721892790786,-20.95610001234331,15.525263017491461,0.6400720010016877,0.06682967588396248,334.51718204649274,25.535169374473327,0.0,1.0,0.0,0.0,1.0,Taxi
25.400000000000002,0.01887696831569214,-16.804166872606753,16.485438711603965,1.0069171911400971,0.013632260044786976,334.5654607810162,24.450673042057407,0.0,1.0,0.0,0.0,1.0,Taxi
25.5,-0.08650492811308427,13.411946331237337,17.164588220535023,0.7453096149681221,-0.4230853565191725,334.49689734452636,24.468593470755003,0.0,1.0,0.0,0.0,1.0,Taxi
25.6,0.022843009763395615,-17.44585049648,15.890473979282973,0.7057504844166728,-1.2637189791959031,334.62959605095364,24.293200897871447,0.0,1.0,0.0,0.0,1.0,Taxi
25.700000000000003,-0.06835228416670813,26.275845204154724,16.008279127529963,0.9130529080625494,0.6955048216203816,334.53348574739437,24.09589540799992,0.0,1.0,0.0,0.0,1.0,Taxi
25.8,0.0448742979076891,-36.59853034657147,16.740432616803005,0.7701214672843966,-0.5819087510314683,334.5575847239709,25.58935298688013,0.0,1.0,0.0,0.0,1.0,Taxi
25.900000000000002,-0.160149641969462,20.048016324442496,16.36925716686594,0.834863412607029,-0.474286110273322,334.47633829623317,25.105905090658553,0.0,1.0,0.0,0.0,1.0,Taxi
26.0,0.03188779745550407,-23.414385475459103,16.454578371248704,0.748077826306508,-0.3119490422911112,334.5453046298628,24.14753014732609,0.0,1.0,0.0,0.0,1.0,Taxi
26.1,-0.07219762946960671,18.70395587296547,16.463110961805995,0.8062039505620914,-0.36147021750148994,334.41971290515653,24.862785089617958,0.0,1.0,0.0,0.0,1.0,Taxi
26.200000000000003,-0.06662986260463492,2.377500593906158,15.499303536232828,0.5664549262987437,0.4098584299354917,334.29614917026345,24.114849250172714,0.0,1.0,0.0,0.0,1.0,Taxi
26.3,0.0437753004250346,10.432905095541736,15.79242391175175,0.9259455518776549,-0.4681869300883895,334.6355643959157,24.17533113028096,0.0,1.0,0.0,0.0,1.0,Taxi
26.400000000000002,-0.02003310399189828,-20.83532004546602,16.83531716922767,0.6056056416426039,-0.06404459145184987,334.4162243264782,24.536418610924862,0.0,1.0,0.0,0.0,1.0,Taxi
26.5,-0.17080646283196527,3.3409556657696178,16.06836867709732,0.5460459909997564,0.1625220797288605,334.65274289531544,24.84389749579825,0.0,1.0,0.0,0.0,1.0,Taxi
26.6,0.06048007875388242,9.172697574570497,15.35714940020669,0.878301857794765,-0.3390435969204217,334.6328826217307,23.884378692059094,0.0,1.0,0.0,0.0,1.0,Taxi
26.700000000000003,0.025830383880953947,35.988424507648865,16.31685186597735,0.5390935222572817,0.5434996593567614,334.42683440031874,24.050947887787803,0.0,1.0,0.0,0.0,1.0,Taxi
26.8,0.009135659706278791,-43.72923955231558,16.27131029129195,0.8625236774501769,0.9580791854201061,334.5941961815997,24.706076459920162,0.0,1.0,0.0,0.0,1.0,Taxi
26.900000000000002,-0.15816611900769573,21.862007684074985,16.640682581235602,0.8684310497266288,0.1914344347299383,334.51465428595907,24.84305767876682,0.0,1.0,0.0,0.0,1.0,Taxi
27.0,0.1351404223013286,-8.402876053049619,16.483242738088126,0.5419808034922877,0.8069256081389763,334.6720856999466,24.614338963457172,0.0,1.0,0.0,0.0,1.0,Taxi
27.1,-0.032878720558969565,38.30293847552726,16.704615952233866,0.8433869150141505,-1.0155398521942136,334.5266425783499,24.506203568824986,0.0,1.0,0.0,0.0,1.0,Taxi
27.200000000000003,0.033348573369940286,1.102469719139241,15.651606534510254,0.7143825836676715,0.683231562107905,334.4882970362329,24.084419380333074,0.0,1.0,0.0,0.0,1.0,Taxi
27.3,0.14065277089702455,25.813041452370232,16.738120249450528,0.6539052203276362,-0.3845077667354887,334.5165901271316,23.820488639433698,0.0,1.0,0.0,0.0,1.0,Taxi
27.400000000000002,0.09618648670288132,-19.2974499568916,16.4919083053739,0.9562009408077243,0.5347300683931444,334.51853930771745,24.537974436564628,0.0,1.0,0.0,0.0,1.0,Taxi
27.5,-0.06313867641451797,-28.4285826266301,16.20322601493683,1.0522235970283047,0.02741763485297124,334.5449202494533,24.94243371447047,0.0,1.0,0.0,0.0,1.0,Taxi
27.6,-0.0014901422361262035,-26.612412087515043,16.350402090164206,0.5736297849755683,0.3146190370959315,334.6514692298973,24.113498019974767,0.0,1.0,0.0,0.0,1.0,Taxi
27.700000000000003,-0.036875573734694134,9.796933323877903,16.35996100338414,0.5817619372523386,0.07991949632496737,334.5017538613864,24.548742339394426,0.0,1.0,0.0,0.0,1.0,Taxi
27.8,-0.014154009795128708,-21.082472598550613,15.949583499194942,0.8946044285958181,-0.6114275731449688,334.46972988582684,24.999255592090336,0.0,1.0,0.0,0.0,1.0,Taxi
27.900000000000002,-0.10690250522887952,11.159667790485429,15.880484980408465,0.6245160359477874,-0.551247755389655,334.61754454923425,24.72333864869826,0.0,1.0,0.0,0.0,1.0,Taxi
28.0,0.01892276521773274,-15.605771198687066,17.37066131400386,0.4876562819927197,-0.12034543460807937,334.41883947211613,24.97594598746496,0.0,1.0,0.0,0.0,1.0,Taxi
28.1,-0.09218286578856431,18.466838733409904,16.276362247274633,0.8833057855434829,-0.0728348381294169,334.62463884706244,24.472121581762522,0.0,1.0,0.0,0.0,1.0,Taxi
28.200000000000003,-0.014568311561830275,-29.402132052392442,17.163796120962374,0.7083694016501465,0.46780867984123603,334.64747947908154,24.859712514923345,0.0,1.0,0.0,0.0,1.0,Taxi
28.3,-0.12808789504422977,12.473630339008304,16.33476666891386,0.8164356187133159,-0.4837561888776505,334.5947381343759,23.478452542225007,0.0,1.0,0.0,0.0,1.0,Taxi
28.400000000000002,-0.029814714093523088,-8.854440508988578,16.55576108902744,0.46290413792708845,0.6347706949516029,334.5739145202556,24.23334229718613,0.0,1.0,0.0,0.0,1.0,Taxi
28.5,-0.05884051410677346,22.63883851292792,16.839328302823276,0.8091834253313136,-0.23583037206383886,334.65047190427595,24.865388031219165,0.0,1.0,0.0,0.0,1.0,Taxi
28.6,-0.01489370247959043,16.04842269010165,15.79174893136864,0.8537362683689377,0.16882187605034701,334.67248850089527,25.49881774322864,0.0,1.0,0.0,0.0,1.0,Taxi
28.700000000000003,0.050427399356984884,23.511757317804726,15.739823159674534,1.129696039024492,-0.20157556985875447,334.54057908254845,24.804339049511615,0.0,1.0,0.0,0.0,1.0,Taxi
28.8,0.058718272482249895,5.440569501864279,16.344762966107872,0.5820613456768988,0.49005355339670376,334.4884555400721,24.451403100351193,0.0,1.0,0.0,0.0,1.0,Taxi
28.900000000000002,0.012309145029730698,-21.596200696038903,16.51557827396101,0.6513654304632724,0.3478427668318234,334.60646072043846,24.663992780846606,0.0,1.0,0.0,0.0,1.0,Taxi
29.0,-0.057553604123209895,-3.2373413029323053,17.256521216654775,0.45490164159109586,-0.6030309609106972,334.56905626699563,25.118707809676575,0.0,1.0,0.0,0.0,1.0,Taxi
29.1,0.042531565967588114,16.131809937606743,15.856879503953571,1.0961317971300328,-1.0129648961044924,334.5386421506454,24.451477371968608,0.0,1.0,0.0,0.0,1.0,Taxi
29.200000000000003,0.09296819471776416,-5.058240991839848,16.8975062757545,0.7646293501035033,0.3453914148963258,334.5998721148127,24.133206571183226,0.0,1.0,0.0,0.0,1.0,Taxi
29.3,-0.0828448090824094,-11.462275447866498,16.328090655213316,0.7801284253765921,-0.35107479333292263,334.42173769084275,25.13190638244931,0.0,1.0,0.0,0.0,1.0,Taxi
29.400000000000002,-0.014779811271744665,-20.845241037246847,16.080054155366184,1.160427588370218,0.14912985412067675,334.70057499607356,25.11088507967749,0.0,1.0,0.0,0.0,1.0,Taxi
29.5,-0.011258010468470362,45.0945259349902,15.829397453692295,1.0069348319538491,0.2849539946765604,334.48908688776396,25.263030779648282,0.0,1.0,0.0,0.0,1.0,Taxi
29.6,0.14262782059254134,17.00482744198999,17.558467841867312,0.3414157949881662,0.025525837373469928,334.45572829418245,25.447041335604037,0.0,1.0,0.0,0.0,1.0,Taxi
29.700000000000003,0.07024432593820502,18.435348747861322,15.733529180835353,0.7786898776078021,0.37546432378683003,334.6942751718715,25.420805630852207,0.0,1.0,0.0,0.0,1.0,Taxi
29.8,0.08091873327083599,-18.701051585345287,17.082448214156006,0.7548650278090763,0.21808375408520422,334.5456586432499,24.49977705296612,0.0,1.0,0.0,0.0,1.0,Taxi
29.900000000000002,0.04912256266581466,-39.25612807530888,16.280271768128454,0.8932893908026108,0.0948722943534929,334.36847267871497,24.187362181068938,0.0,1.0,0.0,0.0,1.0,Taxi
30.0,-0.12603631443833962,2.1273386237685137,16.626646712682813,0.415804358222568,0.2905559865846721,334.45633415168686,24.977042704693943,0.0,1.0,0.0,0.0,1.0,Taxi
30.1,0.09155542638967834,-11.895468327192551,15.221943746068662,0.4539449440197614,0.6005133763621009,334.49598407353676,25.15222687383228,0.0,1.0,0.0,0.0,1.0,Taxi
30.200000000000003,-0.010354778970148304,24.82778769143512,15.908522580761549,0.8404605378728507,0.4868164424189502,334.5913611033536,24.954601165537266,0.0,1.0,0.0,0.0,1.0,Taxi
30.3,-0.0018973759811642553,-22.324123058425258,16.752511405905658,0.40606656487786175,-0.4610816727893072,334.32146156210297,23.741022011366013,0.0,1.0,0.0,0.0,1.0,Taxi
30.400000000000002,-0.020065188902448173,-31.627494768297368,14.811629855156788,0.9844493550815345,-0.28324603424928474,334.37401955220923,24.533810738603492,0.0,1.0,0.0,0.0,1.0,Taxi
30.5,-0.16849225281163538,30.961623503106967,16.861808762253006,0.9972735817735634,-0.016065609706521253,334.57038415881357,25.296874684045797,0.0,1.0,0.0,0.0,1.0,Taxi
30.6,0.15291074153437031,0.4033684927235015,16.630377329702597,1.1150557868552287,-0.6906604692298082,334.48235070640214,24.632171181773522,0.0,1.0,0.0,0.0,1.0,Taxi
30.700000000000003,-0.01804834643883094,43.52174253312419,16.345551909354377,0.9436973683387035,0.8140771752476209,334.5218486892976,24.198021034189296,0.0,1.0,0.0,0.0,1.0,Taxi
30.8,0.04911645985398533,-9.202339840590733,16.92029699681298,0.6726197075442839,1.5105349413656854,334.35381794459,23.888729066452143,0.0,1.0,0.0,0.0,1.0,Taxi
30.900000000000002,0.10689904233141644,13.591993442386098,15.262732707337939,1.0305030983540933,0.3408539794492022,334.62741575351856,24.186279530853312,0.0,1.0,0.0,0.0,1.0,Taxi
31.0,0.04991162077309934,-24.408788238802114,17.204954729893995,0.8890216486738514,0.459146560826827,334.72311856744614,24.27229099354892,0.0,1.0,0.0,0.0,1.0,Taxi
31.1,-0.07292748134002545,-46.297932269170694,15.402596431841507,0.7680005374578965,-0.7094855199587938,334.5488270275922,24.35373344213158,0.0,1.0,0.0,0.0,1.0,Taxi
31.200000000000003,-0.12459061901443723,27.07001463321596,15.869654635437346,1.148539099824712,-0.04300590017995592,334.52410967676724,24.152080271184296,0.0,1.0,0.0,0.0,1.0,Taxi
31.3,0.1852616939391789,25.534066913499913,16.33859301706856,0.15959619079035614,-0.730249850260248,334.4753428342066,24.198795943887873,0.0,1.0,0.0,0.0,1.0,Taxi
31.400000000000002,0.05474285322747392,25.629084523008284,16.579827482987366,0.8836162559652131,0.3325284241414221,334.5102753027529,24.944105279115384,0.0,1.0,0.0,0.0,1.0,Taxi
31.5,0.003554803600604001,-40.53370957101709,16.258196043644602,0.6122004349873327,0.17813240890291854,334.7039821902456,24.520433550640227,0.0,1.0,0.0,0.0,1.0,Taxi
31.6,-0.017406853915906732,-7.705554574085315,15.530814896101322,1.1502081235643171,0.17291619101918945,334.58724563196904,24.728295922950405,0.0,1.0,0.0,0.0,1.0,Taxi
31.700000000000003,0.016215080357047162,19.351414055435203,16.754898747183493,0.8816649081845171,-0.28211063971358813,334.47235983639484,23.352836192759916,0.0,1.0,0.0,0.0,1.0,Taxi
31.8,0.10031187387777983,-13.26294540612345,15.631297722952798,1.0174943002960755,-0.11739104061765579,334.507881285165,24.503760917156132,0.0,1.0,0.0,0.0,1.0,Taxi
31.900000000000002,-0.08372158094652418,-11.820805582062045,16.26092533474221,0.8400689086911171,0.7443249351923495,334.6146790558687,24.543817303840548,0.0,1.0,0.0,0.0,1.0,Taxi
32.0,-0.04288894755326326,-23.456833937967488,15.343535524437947,1.1705059451631865,-0.08228244205640434,334.4817158298738,24.663854178791638,0.0,1.0,0.0,0.0,1.0,Taxi
32.1,-0.016972295812057808,27.739627907266296,16.36193620983064,0.4636808184569518,0.3507808114590843,334.6791114318819,24.94351928661645,0.0,1.0,0.0,0.0,1.0,Taxi
32.2,0.0549765585898071,-18.397240956182973,15.49842347903617,0.8074672686185498,0.4345236884512836,334.5386275040313,25.07327175639804,0.0,1.0,0.0,0.0,1.0,Taxi
32.300000000000004,-0.13487515233417832,2.0678430175439644,16.43071572334928,1.0141189322657487,-0.2735203634762993,334.4467124353623,24.41695259987107,0.0,1.0,0.0,0.0,1.0,Taxi
32.4,-0.0066330807243381905,-18.27360915898814,16.13545700801904,1.0087744059025368,0.4001491461761409,334.5778348375377,25.467951623570887,0.0,1.0,0.0,0.0,1.0,Taxi
32.5,-0.0363914872051338,50.33996623997721,16.54763265249965,0.6509481893687641,0.35834578466353406,334.51598682258043,25.40218800520549,0.0,1.0,0.0,0.0,1.0,Taxi
32.6,0.11682467886570758,34.51956173162677,15.855162201036975,0.7900876805190459,-1.0515331690790837,334.6278276319226,23.836057774256208,0.0,1.0,0.0,0.0,1.0,Taxi
32.7,0.16596472793379552,28.18425884190945,17.757125012937635,0.6412659842498534,0.04924521719722948,334.4563470423973,24.49111903617272,0.0,1.0,0.0,0.0,1.0,Taxi
32.800000000000004,0.10452980700441326,-24.364025413527546,15.529966463960234,0.7167175809138012,-0.2400544062191025,334.6050123629292,25.71362592709757,0.0,1.0,0.0,0.0,1.0,Taxi
32.9,-0.0049954482019303635,-64.3197763909218,16.208834369138618,1.0334010922028536,0.37124054113448296,334.5537876291286,24.48516818053271,0.0,1.0,0.0,0.0,1.0,Taxi
33.0,-0.1556341540208137,20.12003226034385,16.740862441754718,0.9558918972741937,-0.5482430139196086,334.56474654132,24.6971218529141,0.0,1.0,0.0,0.0,1.0,Taxi
33.1,0.20512996830613228,26.425182371061382,16.20022493799547,1.1816088604032342,-0.4580015114252876,334.48778752021383,25.04078080717097,0.0,1.0,0.0,0.0,1.0,Taxi
33.2,0.1271304636533763,-5.359240426547473,15.57736531442749,0.9774687370855708,0.4672984684800681,334.53678693049164,24.837114198594847,0.0,1.0,0.0,0.0,1.0,Taxi
33.300000000000004,-0.1824303561535513,-47.04109035917232,16.317670786357148,0.6641024847990976,0.24982765860272688,334.5200441825027,24.570943996594522,0.0,1.0,0.0,0.0,1.0,Taxi
33.4,-0.030075483489729618,-15.700979632490581,15.89431784095066,0.8997590987590309,-0.47052104087142327,334.5008444070138,24.18717355994018,0.0,1.0,0.0,0.0,1.0,Taxi
33.5,0.04862556549092309,56.125900147567876,16.292253658839474,0.4994895969291264,-0.4458318510350439,334.423211645995,24.18531983636005,0.0,1.0,0.0,0.0,1.0,Taxi
33.6,0.0981991445842878,-30.6833502579573,14.728097318428192,0.5732585103680787,-0.3290920552376318,334.43599740141894,23.97100355543503,0.0,1.0,0.0,0.0,1.0,Taxi
33.7,-0.18349223477951637,-0.8688411226703275,16.526069144111297,1.0167338615175816,-0.044699135472497944,334.61936167946806,24.88981591968964,0.0,1.0,0.0,0.0,1.0,Taxi
33.800000000000004,0.04428135987757123,29.151172892048336,15.649007066781271,1.0117286291582723,0.2402728626320527,334.5881801805825,24.313815108440544,0.0,1.0,0.0,0.0,1.0,Taxi
33.9,0.24395500904452924,21.498658153220106,14.846725563655017,0.9177402445280377,-0.30611684466486316,334.7421089471254,25.05997844666776,0.0,1.0,0.0,0.0,1.0,Taxi
34.0,-0.07599894401341617,-8.779453115530062,15.33937154253675,0.573272037352188,0.6500781070061566,334.2102529839067,24.99523887367419,0.0,1.0,0.0,0.0,1.0,Taxi
34.1,0.0003840942999206297,-34.951972996028054,15.789023282859368,1.0693768131129366,-0.48142328078501734,334.48739853333154,24.004812973672603,0.0,1.0,0.0,0.0,1.0,Taxi
34.2,0.06919514406438863,24.808060870899222,15.987780438716301,0.8506221134117432,0.9295700531633969,334.65758705499684,24.780439375057995,0.0,1.0,0.0,0.0,1.0,Taxi
34.300000000000004,0.048041360341079684,-25.97706650520131,16.60958173244112,0.6878341104812934,0.22766678593880016,334.5471305117628,23.845639556835444,0.0,1.0,0.0,0.0,1.0,Taxi
34.4,-0.1295012382260862,30.58945865423259,15.244590992386247,0.9120190335514418,0.19417630387094553,334.360280081013,24.735196363258527,0.0,1.0,0.0,0.0,1.0,Taxi
34.5,0.2221424373355514,-20.45214180482642,16.860636410343645,0.9830136178091347,-0.5226955923215107,334.58499559704137,25.46796498572795,0.0,1.0,0.0,0.0,1.0,Taxi
34.6,-0.05421934868305263,16.922152060552694,16.146847161766907,0.6814039491874366,0.7078596158718884,334.6154383193684,24.52243765949051,0.0,1.0,0.0,0.0,1.0,Taxi
34.7,-0.04489047792332293,-58.692201504837016,16.66295958155804,1.0239693854220557,-0.47836903846284806,334.5650702444533,24.148013153372023,0.0,1.0,0.0,0.0,1.0,Taxi
34.800000000000004,-0.07131857018863393,24.61864733877653,15.534030970124496,0.7404036794781201,0.015585439603397682,334.4773707860593,23.8977920782094,0.0,1.0,0.0,0.0,1.0,Taxi
34.9,0.06887388801082979,13.504318610601617,15.92474299271032,0.9011191790241199,0.26797102094498304,334.5523655092013,24.73568673153085,0.0,1.0,0.0,0.0,1.0,Taxi
35.0,0.02263111512968491,60.450412063813395,16.61423087281318,0.4012501558173749,0.6465205573856758,334.47204870341375,24.819321704789196,0.0,1.0,0.0,0.0,1.0,Taxi
35.1,0.23093349013043285,4.990732533516526,17.11302131636098,1.1187488919257826,-0.36710673658658927,334.4165032238758,24.211163108116057,0.0,1.0,0.0,0.0,1.0,Taxi
35.2,0.09382755067841217,-14.101156680640313,16.82016176062966,1.0424326190886424,-0.03843898040775012,334.58940927259357,24.827245518638648,0.0,1.0,0.0,0.0,1.0,Taxi
35.300000000000004,-0.047874668273516906,-53.16247691678737,17.003392753798785,0.575994061244405,-0.1700317976942739,334.59459968883357,23.912894197643407,0.0,1.0,0.0,0.0,1.0,Taxi
