time_s,altitude_ft,vertical_speed_fpm,ias_kt,pitch_deg,roll_deg,heading_deg,throttle_pct,afterburner_on,gear_down,flaps_deg,speedbrake_pct,weight_on_wheels,label
0.0,-0.04117590618572356,16.44146866290004,15.441512112585567,1.2705247101284982,-0.1005490678027802,266.3258279229518,23.07110395792616,0.0,1.0,0.0,0.0,1.0,Taxi
0.1,0.013628989357276572,32.61228589735655,13.508973758007086,1.2893622929432043,-1.031614275859165,266.3218502387383,22.71944709552716,0.0,1.0,0.0,0.0,1.0,Taxi
0.2,0.1218855233010592,4.780139527817407,14.577840680855402,1.5873426744772685,-1.2892015760631916,266.2709884267682,23.168398513199826,0.0,1.0,0.0,0.0,1.0,Taxi
0.30000000000000004,-0.017275208546636504,-32.074508419915254,14.926100070564418,1.4309393701615345,0.950474242634878,266.47396094727935,23.026653653627896,0.0,1.0,0.0,0.0,1.0,Taxi
0.4,-0.1467435527422997,-26.652630781879566,14.811625055348397,1.4135770905332783,-0.6764643196202214,266.4771459049896,23.140365358655814,0.0,1.0,0.0,0.0,1.0,Taxi
0.5,-0.011377630608338598,19.6158130247679,14.301977754138283,1.533353944271185,0.2143154574173815,266.3987185315922,22.291927372513413,0.0,1.0,0.0,0.0,1.0,Taxi
0.6000000000000001,0.080803856577203,18.61275770171784,14.059937403918118,1.2444154956121163,-0.6140047615100811,266.39562685538044,23.20535163834293,0.0,1.0,0.0,0.0,1.0,Taxi
0.7000000000000001,-0.05367976423371053,2.269966728376564,14.236680590076311,1.507053894531555,0.1306377921636384,266.40334414134895,22.981166498251138,0.0,1.0,0.0,0.0,1.0,Taxi
0.8,-2.779696645580585e-05,-25.67702301916161,14.695906276838386,1.133073855394851,-0.7573124218875242,266.3035352628575,24.091225831363097,0.0,1.0,0.0,0.0,1.0,Taxi
0.9,-0.04758125851860507,13.68087241192687,14.688422796523968,1.8169776017164518,0.06302897590523149,266.24654070221527,22.582078579664053,0.0,1.0,0.0,0.0,1.0,Taxi
1.0,0.014724597825923811,6.680483807300532,13.974426751227478,2.029177494070653,-0.0733464685277862,266.4455102571749,22.474502837635455,0.0,1.0,0.0,0.0,1.0,Taxi
1.1,0.033374622070046836,9.032295433818394,14.492745521436948,1.725688148473347,0.055548314105774876,266.38383763348133,23.19960925264322,0.0,1.0,0.0,0.0,1.0,Taxi
1.2000000000000002,-0.0024197813495131053,21.3767691331964,14.446398172545296,1.7270998534595328,-0.6850326004052409,266.28316156673657,23.117653065766476,0.0,1.0,0.0,0.0,1.0,Taxi
1.3,0.1216084434919058,-55.99952546088934,13.722527615920072,1.4947592667470804,-0.11421456044643487,266.2720039024225,22.27739025915512,0.0,1.0,0.0,0.0,1.0,Taxi
1.4000000000000001,-0.2466230052343998,10.797966416733422,15.898151188021389,1.4914081088112892,0.035607074907990546,266.4486809840415,23.2097448814271,0.0,1.0,0.0,0.0,1.0,Taxi
1.5,0.05157005073415403,-30.928952846915013,14.650904538821873,1.501928221301029,-0.1962666537060945,266.36704729340806,22.44088840828616,0.0,1.0,0.0,0.0,1.0,Taxi
1.6,-0.033036320742669205,88.55538808609379,13.97723679847713,2.016811641461682,-0.15215339388802018,266.4760544838582,23.350501856868398,0.0,1.0,0.0,0.0,1.0,Taxi
1.7000000000000002,0.19615393519606916,49.693875360079204,15.763338102330241,1.1147565209751253,-0.24794647288816898,266.28982813679227,22.32617238119749,0.0,1.0,0.0,0.0,1.0,Taxi
1.8,0.30003942753455004,-1.445919750838082,13.507073128701432,1.580802824513254,-0.22029022317272945,266.4202895674382,23.647019186789514,0.0,1.0,0.0,0.0,1.0,Taxi
1.9000000000000001,-0.040265919496859634,-38.3530025881447,14.387174892127005,1.808098465661231,0.4303664816668372,266.4232823939976,23.00565488425488,0.0,1.0,0.0,0.0,1.0,Taxi
2.0,0.004388922255345689,-70.30108068508822,14.550890491933547,1.5777342201617908,0.7826360434912648,266.4838541613517,22.110254598023033,0.0,1.0,0.0,0.0,1.0,Taxi
2.1,-0.05146597589089113,-1.155545087696695,14.56003654397398,1.4570371646899323,0.049229984764271616,266.1853178305165,22.512472080694053,0.0,1.0,0.0,0.0,1.0,Taxi
2.2,-0.04604364493534312,-15.754782638280778,14.28931255673087,1.707261726261169,-0.6603682125510113,266.2741306836904,22.774059597318626,0.0,1.0,0.0,0.0,1.0,Taxi
2.3000000000000003,-0.0743849909360582,35.21190448943231,14.426091291324713,1.222366830886931,-0.046022839057069165,266.28819497917743,22.553311143948438,0.0,1.0,0.0,0.0,1.0,Taxi
2.4000000000000004,0.12459354655627045,17.2411266776986,14.87493534936751,2.026380785774272,-0.2825271201068871,266.4174536521218,22.8984809085959,0.0,1.0,0.0,0.0,1.0,Taxi
2.5,0.040161988453149895,5.0190459644606635,13.622629379024199,1.4988417339466864,-0.6440481321234234,266.2513364517895,23.200830537819176,0.0,1.0,0.0,0.0,1.0,Taxi
2.6,-0.04928976111375488,-52.507792540594494,14.789314652619266,1.6023363373322905,0.38945990995439456,266.405339053312,22.53273360133389,0.0,1.0,0.0,0.0,1.0,Taxi
2.7,-0.13794541614670203,-0.20847841951967894,13.550365425387632,1.7148415913861292,-0.1432198073853736,266.2449693237361,23.206782455973297,0.0,1.0,0.0,0.0,1.0,Taxi
2.8000000000000003,0.039119596355551484,10.295684184342532,14.898152375362216,1.2042968161115732,-0.3960936627207894,266.2573117566553,23.316074060929246,0.0,1.0,0.0,0.0,1.0,Taxi
2.9000000000000004,0.0021886598079577523,23.116599119563386,14.355178637684139,1.6583934445125357,0.9566884614582513,266.377086427314,23.434278857483466,0.0,1.0,0.0,0.0,1.0,Taxi
3.0,-0.022362420548885126,-0.21749916255544358,14.959515987808693,1.1315578305924074,-0.6019412119488459,266.079788349929,22.30494190704497,0.0,1.0,0.0,0.0,1.0,Taxi
3.1,0.03803210054277425,30.975009238603764,14.455682829051847,1.3093617242710138,-0.02847384682641244,266.4596759233083,23.049673791824127,0.0,1.0,0.0,0.0,1.0,Taxi
3.2,0.15706370600097658,-12.901027151534345,14.730752057408646,1.6952777057009902,0.9154612311143073,266.20543367925836,22.588889722436498,0.0,1.0,0.0,0.0,1.0,Taxi
3.3000000000000003,-0.08686755630655688,-6.399742700720218,14.866941953809185,1.3125876610002556,0.11961907422546939,266.19848609270025,22.66016535845138,0.0,1.0,0.0,0.0,1.0,Taxi
3.4000000000000004,0.006033387039173148,-32.76402179204654,14.369334177124534,1.7237176449227563,0.3988451231160666,266.4091603235912,23.001097676900603,0.0,1.0,0.0,0.0,1.0,Taxi
3.5,-0.006756402959256139,24.275561488766545,15.10757783082303,1.3245894271324652,-0.5853464677090059,266.2633583767897,23.001815482755998,0.0,1.0,0.0,0.0,1.0,Taxi
3.6,0.03451025113727583,16.834718698333795,13.947255460879985,1.4801848501296397,0.9811026076275756,266.42385069392435,22.098314876410324,0.0,1.0,0.0,0.0,1.0,Taxi
3.7,0.09020698053084211,56.14352421267526,12.966744701329588,1.442140709132901,-0.02422153955934112,266.3479594339027,22.702035931609654,0.0,1.0,0.0,0.0,1.0,Taxi
3.8000000000000003,0.27396121810412016,21.05832611971226,14.206180308210897,1.922077555910428,0.4532491704345223,266.46215806521377,22.629636915697994,0.0,1.0,0.0,0.0,1.0,Taxi
3.9000000000000004,0.13980188173583716,-28.753787917715186,14.498312241979113,1.6105365989253937,0.31104086388828917,266.50748399286283,22.947153405264135,0.0,1.0,0.0,0.0,1.0,Taxi
4.0,-0.053561959057733824,-92.44545663885908,14.781765740312535,1.6734312400991223,0.21939798372329603,266.2806386161808,23.210766107534084,0.0,1.0,0.0,0.0,1.0,Taxi
4.1000000000000005,-0.1882660650901753,-61.80186956493887,14.093055134788948,1.5417809831404647,-0.6491981621176248,266.3723539354846,23.095818717072863,0.0,1.0,0.0,0.0,1.0,Taxi
4.2,-0.16920746608885717,-4.743051166667961,14.672339069572473,1.498939806681184,0.08651873311216829,266.3384453936451,22.75411893706335,0.0,1.0,0.0,0.0,1.0,Taxi
4.3,-0.07727721489107364,48.9825123440713,14.530409906259138,1.7590807232442134,-0.7195810383291518,266.26972087289835,22.369867817751036,0.0,1.0,0.0,0.0,1.0,Taxi
4.4,0.05664649663018121,47.77465872850834,14.70164083368003,1.3464410292234033,-0.3707040891197689,266.45381335288903,23.021399060076565,0.0,1.0,0.0,0.0,1.0,Taxi
4.5,0.06966582755368454,34.83136212810563,13.48368520535398,1.7478478674401552,0.5465878297648882,266.5168881889675,23.028787488388385,0.0,1.0,0.0,0.0,1.0,Taxi
4.6000000000000005,0.09687959574945454,-22.235755872770024,14.643399081493854,1.8259796443710228,-0.2980926838854484,266.3320527250746,22.65357694326199,0.0,1.0,0.0,0.0,1.0,Taxi
4.7,-0.054532282733668926,-38.45949748588959,13.679338961598589,1.7274990668842425,0.6502961858446582,266.33927089178337,21.807668562946123,0.0,1.0,0.0,0.0,1.0,Taxi
4.800000000000001,-0.12263165987576348,-21.7301314674687,14.310374647030947,1.3128733559428276,-0.082448832884969,266.40253349165414,22.70266532691091,0.0,1.0,0.0,0.0,1.0,Taxi
4.9,-0.011771061587888938,-6.4608189182754785,14.41910213798438,1.3207218805412537,-0.07118766212520676,266.3764640330129,21.957920851566335,0.0,1.0,0.0,0.0,1.0,Taxi
5.0,-0.08683637732504632,25.959176883134358,14.246903139429453,1.715624448141172,-0.5203373290676896,266.0917050191408,22.257604790237377,0.0,1.0,0.0,0.0,1.0,Taxi
5.1000000000000005,0.007164224539908315,1.4696955087792292,14.564614036111488,1.268205856821551,0.8536725489639513,266.1954565276527,23.333637058720086,0.0,1.0,0.0,0.0,1.0,Taxi
5.2,-0.004422584043992794,29.62835859812617,13.829405905131793,1.2360544546747896,0.39759435971077695,266.2648558641895,22.521060958887308,0.0,1.0,0.0,0.0,1.0,Taxi
5.300000000000001,0.061305415665584534,-22.704556318080403,14.909001187080166,1.6376274219612317,-0.22444316287202223,266.33997517380885,22.571812121905783,0.0,1.0,0.0,0.0,1.0,Taxi
5.4,-0.10635855705049371,-5.563105963709762,13.953139059078723,1.4909688513829373,-0.11260654127021336,266.4201823335975,22.581713116751278,0.0,1.0,0.0,0.0,1.0,Taxi
5.5,-0.03223811386254162,-26.07959456352346,14.912262729669983,1.7810154658928568,-1.0802034238794795,266.24469976120463,23.65176188674498,0.0,1.0,0.0,0.0,1.0,Taxi
5.6000000000000005,-0.0690925571520328,61.56126198618841,14.85157928409668,1.4686067507171991,-0.057763580228821935,266.4727614566051,22.990814929987366,0.0,1.0,0.0,0.0,1.0,Taxi
5.7,0.20144775288044833,3.094594439409216,15.111824784214052,1.6343239206882523,0.8305648235924975,266.4013646946868,22.422066002482218,0.0,1.0,0.0,0.0,1.0,Taxi
5.800000000000001,-0.01676514166549557,9.833874890118201,13.942052761013251,1.727487483562332,-0.12468926346445575,266.36958760045366,23.125213901503056,0.0,1.0,0.0,0.0,1.0,Taxi
5.9,-0.01992318270144183,-36.566028317102614,14.712470453640826,1.7632560930137413,0.33557007170367126,266.46340632882163,22.516025450660468,0.0,1.0,0.0,0.0,1.0,Taxi
6.0,0.018617611294935214,2.711089549671215,14.324382210835184,1.3513857547581638,0.4751159781391822,266.322735766636,23.8857993513412,0.0,1.0,0.0,0.0,1.0,Taxi
6.1000000000000005,-0.0032096939171395015,17.293133202513413,14.010798182288646,1.5877708196584148,0.16020574077956568,266.3418474309083,22.40467180426219,0.0,1.0,0.0,0.0,1.0,Taxi
6.2,0.06654248331112522,-2.8705421118603276,14.654178797444851,1.785946394641134,0.31916538949388434,266.35086765831113,23.322235124577304,0.0,1.0,0.0,0.0,1.0,Taxi
6.300000000000001,0.004264900735633568,-3.907044318845841,13.529670787211655,2.1426970041140074,0.6673120567459165,266.10891676451615,23.36373652407542,0.0,1.0,0.0,0.0,1.0,Taxi
6.4,-0.022744915511368716,-15.959678078145203,13.78807844814633,1.850911776518501,-0.9663023297627577,266.2838285169371,22.81220470921874,0.0,1.0,0.0,0.0,1.0,Taxi
6.5,-0.013255907079600799,3.8110921078866036,13.092289123340956,1.3811700743453983,1.1221105566114296,266.2814676783439,23.30723079425239,0.0,1.0,0.0,0.0,1.0,Taxi
6.6000000000000005,0.023320361275066575,50.696169455626595,15.400196334957062,1.073210516940896,0.13913811603262125,266.1582045543014,22.980975639256283,0.0,1.0,0.0,0.0,1.0,Taxi
6.7,0.2307359317667642,27.238412345377053,13.747991587079454,1.4308874507973774,-0.05620541835290036,266.38986098132125,22.82486225124901,0.0,1.0,0.0,0.0,1.0,Taxi
6.800000000000001,0.12293615464728443,-29.41492937805624,13.923270425612278,1.4445813139440509,0.11533912216178051,266.3730759595866,22.69261501590119,0.0,1.0,0.0,0.0,1.0,Taxi
6.9,-0.12375428561521468,-41.05389637835321,14.848140669386138,1.296086178266596,-0.3021316601925532,266.27151798847694,22.368163855737954,0.0,1.0,0.0,0.0,1.0,Taxi
7.0,0.02546644987499812,11.778828538840528,14.039143912784786,1.257051170841191,0.8077878838844604,266.5291392998836,22.872248929078978,0.0,1.0,0.0,0.0,1.0,Taxi
7.1000000000000005,0.181830297341487,33.90120721045153,13.514954358439951,1.744602531612348,0.4164760260182941,266.5292142684402,23.802118817883354,0.0,1.0,0.0,0.0,1.0,Taxi
7.2,0.04575175043704293,-21.888690852704382,13.86909285517023,1.88663343852532,0.19249713978384908,266.399457094303,23.392087516300155,0.0,1.0,0.0,0.0,1.0,Taxi
7.300000000000001,-0.0839770043885238,-31.166448836626614,15.308667385866752,1.6018125289556842,0.3588366382304826,266.48487064721724,23.528794386687146,0.0,1.0,0.0,0.0,1.0,Taxi
7.4,0.025998053158353896,40.13864855191918,14.258170304048491,1.5840245285679,-0.4740566927633116,266.461791406085,22.959210990262676,0.0,1.0,0.0,0.0,1.0,Taxi
7.5,0.24644499319663882,-2.873968744226545,14.421588416744356,1.1268080940976963,-0.43983395366054434,266.47642171583357,22.74976195425465,0.0,1.0,0.0,0.0,1.0,Taxi
7.6000000000000005,-0.09834684810965649,-15.954794342441582,14.467847922470582,1.4266940076474912,0.19229984084490706,266.53466084408706,21.92892421991376,0.0,1.0,0.0,0.0,1.0,Taxi
7.7,-0.05377591855385401,-60.210783453721916,14.015030102422916,1.5385155137238349,0.6777759400429137,266.1530664478214,23.0049571144573,0.0,1.0,0.0,0.0,1.0,Taxi
7.800000000000001,-0.054608924071970745,8.683867451118738,14.320742476044973,1.8836174060091713,-0.37349237612932723,266.26957134512986,23.10502927209491,0.0,1.0,0.0,0.0,1.0,Taxi
7.9,-0.054927510854062826,6.09881307748048,14.670364555087458,1.6186097109719313,0.00531306076486029,266.4196288529207,22.661690639890296,0.0,1.0,0.0,0.0,1.0,Taxi
8.0,-0.023281853166451635,3.480933075975075,13.40893555563212,1.4109473439273048,0.1663878116556706,266.43402352371913,22.438961695242305,0.0,1.0,0.0,0.0,1.0,Taxi
8.1,-0.0372042586920954,21.480671566314395,14.188929586776265,1.7817843271302216,0.5070316433912051,266.2640110037602,22.3830034572958,0.0,1.0,0.0,0.0,1.0,Taxi
8.200000000000001,0.05247584697750912,-10.72269278859909,13.634875340575174,1.9776035461654147,0.17944714902676975,266.173589059394,22.87258610921504,0.0,1.0,0.0,0.0,1.0,Taxi
8.3,-0.07689531710944711,-13.941857541566648,15.009298725005586,1.5154139910413011,0.4153613515300472,266.1465304294968,23.0091154478964,0.0,1.0,0.0,0.0,1.0,Taxi
8.4,-0.10691354639992867,34.16126525629888,14.414785628760734,1.4886934502751283,0.5773154687019636,266.5168424284848,22.60494597898248,0.0,1.0,0.0,0.0,1.0,Taxi
8.5,0.22328217325900346,26.985307310081385,13.32359719617894,1.649002905076751,0.6190419538373944,266.4902406651579,23.125391367003918,0.0,1.0,0.0,0.0,1.0,Taxi
8.6,0.058031219440959785,54.27795984641534,13.979637748972264,1.4899897363098824,0.2831775767200904,266.33581145433766,23.008010482647236,0.0,1.0,0.0,0.0,1.0,Taxi
8.700000000000001,0.16447625283214795,-43.68622052691406,14.37797031146681,1.6703359111414509,-0.5279731027646126,266.4186311908013,23.04828919028166,0.0,1.0,0.0,0.0,1.0,Taxi
8.8,0.004851070624433078,6.958251044560003,13.845585790472585,1.404551014902281,0.4738512756147227,266.32460317739117,24.544336062231764,0.0,1.0,0.0,0.0,1.0,Taxi
8.9,0.09282247466375974,-23.122091181381066,14.43720067299622,1.3853815350195355,0.06375338506133973,266.3198178994637,22.972650750833317,0.0,1.0,0.0,0.0,1.0,Taxi
9.0,0.04886579692524256,23.976107460498095,15.830472081453582,1.4533406356176644,0.6528408265423148,266.49656548234077,23.24384892476752,0.0,1.0,0.0,0.0,1.0,Taxi
9.1,0.12473160792692349,-6.258172193821065,14.51288646556687,1.6645094948029162,0.6838457269571286,266.2966018303583,22.906204641028197,0.0,1.0,0.0,0.0,1.0,Taxi
9.200000000000001,0.06153161369465437,19.64224217556415,13.72424141873504,1.420193918770753,-0.10149626717267733,266.53656160757623,22.92518784964901,0.0,1.0,0.0,0.0,1.0,Taxi
9.3,0.14707700780306326,-4.797816340272565,13.711494180512473,1.6066522985325522,-0.809786358356756,266.3817298783506,22.352295429048226,0.0,1.0,0.0,0.0,1.0,Taxi
9.4,0.10074252622556064,-6.697748934076916,14.775128585782518,1.3870283080757866,0.43948139820725257,266.209286675597,22.96621008337236,0.0,1.0,0.0,0.0,1.0,Taxi
9.5,0.028042869024269747,-60.72190923878935,14.223555997379979,1.215062147526683,0.19223440213329993,266.2133330607852,23.090691451613978,0.0,1.0,0.0,0.0,1.0,Taxi
9.600000000000001,-0.15653253839088355,-24.981148267491832,13.656421745206554,1.6473037830179,-0.5193465349739536,266.48452236210164,22.442517978260522,0.0,1.0,0.0,0.0,1.0,Taxi
9.700000000000001,-0.024163215111898534,-1.8028408481590514,14.151742600030168,1.5101946152126868,0.6608185067211961,266.4967311660189,22.649289719828616,0.0,1.0,0.0,0.0,1.0,Taxi
9.8,0.019028664783474467,28.339301765683928,15.242033594509948,1.855678446194505,-0.5099038847094437,266.2275837560302,22.985111431765418,0.0,1.0,0.0,0.0,1.0,Taxi
9.9,-0.014836029562463935,-7.438584675626816,15.350505178641427,1.4167523103683917,-0.27692743729709973,266.26166222309166,22.938703515184756,0.0,1.0,0.0,0.0,1.0,Taxi
10.0,-0.06135613849003266,9.124169342655449,14.017049091047573,1.732895385428799,0.049555161830167956,266.3668087230501,22.856031168300166,0.0,1.0,0.0,0.0,1.0,Taxi
10.100000000000001,0.06464951149675166,31.048684522456625,13.871984394204144,1.295725799461247,-0.07893323602979123,266.4444129126865,23.04777805149664,0.0,1.0,0.0,0.0,1.0,Taxi
10.200000000000001,0.14040739304981914,50.510872960183825,14.454275820947755,1.2603809353308837,0.4067823876309326,266.4594628871296,23.918373966676512,0.0,1.0,0.0,0.0,1.0,Taxi
10.3,0.19119822631088637,22.06157482902697,13.971812211270262,1.5030202625992228,-0.44479760074792607,266.3801833525889,23.443587740271568,0.0,1.0,0.0,0.0,1.0,Taxi
10.4,0.17495738564188645,-38.26191966682474,14.240475979762762,1.4119334638891239,0.41652309381866603,266.33267424254313,21.686340256624494,0.0,1.0,0.0,0.0,1.0,Taxi
10.5,-0.050902205284304614,-75.40635560589247,14.75188764246222,1.8416674683378829,-0.49143480564637665,266.3532019603674,23.192725670283547,0.0,1.0,0.0,0.0,1.0,Taxi
10.600000000000001,-0.18583355171857607,-70.23188514904503,14.0289373052017,1.3017041532461853,0.44327010049123045,266.4341716625065,23.006100132613984,0.0,1.0,0.0,0.0,1.0,Taxi
10.700000000000001,-0.17620204010333873,5.760141163196025,13.378409913494139,1.5664721415335021,-0.37932574617439074,266.3687603602158,23.493421431851527,0.0,1.0,0.0,0.0,1.0,Taxi
10.8,-0.022101499468324584,46.56767575494371,14.269675271025655,1.4322226986122624,0.917965252611072,266.43788130745725,21.629083825286248,0.0,1.0,0.0,0.0,1.0,Taxi
10.9,0.047004827056142395,17.04712566955656,14.891604591133593,1.6946570088073016,-0.9561835677572981,266.3676743534022,22.68580842072588,0.0,1.0,0.0,0.0,1.0,Taxi
11.0,-0.090966411755556,11.696170884778724,14.230447696239304,1.391633849382039,-0.41214593009486516,266.40502610273825,22.11837748244705,0.0,1.0,0.0,0.0,1.0,Taxi
11.100000000000001,0.03637935495556899,16.948011536826296,15.573528069368287,1.3534799717420547,0.7605036657139849,266.5385873321583,23.093964304229168,0.0,1.0,0.0,0.0,1.0,Taxi
11.200000000000001,0.13174488474027382,-11.388031207351219,14.302776190915871,1.1691824731820635,0.09111307397679903,266.2517262688018,23.09918617461331,0.0,1.0,0.0,0.0,1.0,Taxi
11.3,-0.14790656779231212,-35.943061902124455,15.202420007264378,1.7007446565102815,0.317902649234643,266.32224160446344,23.213312073280544,0.0,1.0,0.0,0.0,1.0,Taxi
11.4,-0.14333595455505332,5.522174316500042,14.461838150547528,1.512043253785482,-0.15939265742407555,266.48616929497143,22.286563437470594,0.0,1.0,0.0,0.0,1.0,Taxi
11.5,0.15935575632277396,41.12072316232652,14.033809585366411,1.5619007802501175,-1.0146618466276964,266.4710562815552,22.577709546470807,0.0,1.0,0.0,0.0,1.0,Taxi
11.600000000000001,0.05769704801932041,32.61674048414994,14.95477904863696,1.6519446484100841,0.7636500497661574,266.22439949728425,22.684022657201098,0.0,1.0,0.0,0.0,1.0,Taxi
11.700000000000001,0.019747747865696344,-37.85825291820708,12.182011314209765,1.3291404678055128,-0.37546087517438925,266.363144326642,22.463209008613777,0.0,1.0,0.0,0.0,1.0,Taxi
11.8,-0.029935508268261454,-9.352465653174205,15.172737859987302,1.1858850222593484,0.1217005293062219,266.55763733046274,22.754751131746257,0.0,1.0,0.0,0.0,1.0,Taxi
11.9,0.010934719753449361,-9.039116666447272,14.302669695916052,1.3216977231542093,-0.8411136768878393,266.39809500680576,22.861487500776,0.0,1.0,0.0,0.0,1.0,Taxi
12.0,-0.025447835466540045,18.906660583021363,14.50611059210982,1.5087006867312611,0.48190169468556365,266.3665870131506,22.83075569484732,0.0,1.0,0.0,0.0,1.0,Taxi
12.100000000000001,0.06459779464684533,8.52694995276023,14.861516852319134,1.4099453937552593,0.2384313966289852,266.3598574636218,22.370411978093752,0.0,1.0,0.0,0.0,1.0,Taxi
12.200000000000001,0.05356946951725048,12.204747359381512,13.600074743410886,1.434919960528155,0.12263255808950761,266.3790317007978,22.860149090718505,0.0,1.0,0.0,0.0,1.0,Taxi
12.3,0.035575901330367476,6.443723201794723,14.727816910828562,1.302638500815514,-0.18886372739646806,266.29421504402194,23.774252060806067,0.0,1.0,0.0,0.0,1.0,Taxi
12.4,0.0968164106558189,-4.311865589881854,14.956988127335691,1.6915636683405322,-0.14345930916566926,266.4390341332794,22.65430488140475,0.0,1.0,0.0,0.0,1.0,Taxi
12.5,0.032010141567841176,-9.291114090543614,13.70584907037422,1.5618471158559772,1.4178104542887866,266.2753312522682,23.665879468223732,0.0,1.0,0.0,0.0,1.0,Taxi
12.600000000000001,-0.010879669122350624,-20.930907071862887,13.354183704736057,1.4284767314760665,-0.04863832112616942,266.3788850565336,22.947169000907405,0.0,1.0,0.0,0.0,1.0,Taxi
12.700000000000001,-0.007838124703495555,16.9077453143413,15.286191131110659,1.2348637112176777,0.2689400834736598,266.4265302717249,22.474435824233975,0.0,1.0,0.0,0.0,1.0,Taxi
12.8,0.11654886813954764,22.863010213570856,14.437288442817941,1.27340811054215,-0.30353260573237895,266.3845604937245,22.37566657350777,0.0,1.0,0.0,0.0,1.0,Taxi
12.9,0.1034353819455036,4.891621734539716,13.923259712968969,1.2373292272760743,0.5162164216033237,266.3957121055132,22.982312571876836,0.0,1.0,0.0,0.0,1.0,Taxi
13.0,0.016619983969202983,-40.47365024017714,15.184820449832243,1.2797723337727296,-0.18773785261843046,266.4388508963125,22.66287840644161,0.0,1.0,0.0,0.0,1.0,Taxi
13.100000000000001,-0.08581938306133813,-55.082186596425224,14.112907730491516,1.1291469731901558,0.31353456905170546,266.3392262612008,22.746934572368765,0.0,1.0,0.0,0.0,1.0,Taxi
13.200000000000001,-0.17197555103662254,17.1204722171933,14.451339458116301,1.7263164148979906,0.35181648231875556,266.3589466096229,22.387084252957674,0.0,1.0,0.0,0.0,1.0,Taxi
13.3,0.10222234505516946,-1.566677066629983,14.403453198205908,1.4657672671776478,0.49679594934431154,266.30494533944534,22.384684786479298,0.0,1.0,0.0,0.0,1.0,Taxi
13.4,-0.09365276839448805,16.115318386565583,14.575319663871941,2.005938791145559,0.9791079172883707,266.30174790590115,22.865020059406838,0.0,1.0,0.0,0.0,1.0,Taxi
13.5,-0.09139895910379463,-27.116458633147882,15.202601524927237,1.3424903189440336,0.6526999025540156,266.3180552072861,22.032967101505307,0.0,1.0,0.0,0.0,1.0,Taxi
13.600000000000001,-0.03335994811056996,-25.218220631520353,14.538640629646451,1.7532926226144412,0.018329446226234586,266.3715687020366,22.69569411628553,0.0,1.0,0.0,0.0,1.0,Taxi
13.700000000000001,-0.21974387155208985,12.055799134299098,15.276201734604246,1.429532588114054,-0.0005796191419646105,266.38238753827363,23.809694049649007,0.0,1.0,0.0,0.0,1.0,Taxi
13.8,-0.031119963432299155,25.155956363294592,14.186093893935247,1.5816621997915823,0.4398365827438818,266.4337418728861,23.303214448490543,0.0,1.0,0.0,0.0,1.0,Taxi
13.9,0.09241983370590297,53.751604303517546,14.03473740814886,1.5434260407485008,0.22601023441934548,266.3907248243322,23.06135915762921,0.0,1.0,0.0,0.0,1.0,Taxi
14.0,0.04901414996549783,14.49513904683478,15.223728434792145,1.2724563632163282,-0.4169918956409931,266.2996676364885,23.546988428641814,0.0,1.0,0.0,0.0,1.0,Taxi
14.100000000000001,0.0413557318018747,-27.657907670630895,14.261999419822812,1.6024858861229423,0.12227785320644677,266.38572328829014,22.33628194079681,0.0,1.0,0.0,0.0,1.0,Taxi
14.200000000000001,-0.04586970464725154,10.00231507149549,14.408225820296792,1.7585801863482384,0.2189327941354043,266.4644794719111,21.983547953762212,0.0,1.0,0.0,0.0,1.0,Taxi
14.3,0.09902572532297527,6.4576924593596745,14.305103036809625,1.3757595235024098,0.7806719287229918,266.22355923216,23.081429914027954,0.0,1.0,0.0,0.0,1.0,Taxi
14.4,0.07364419409867307,-22.38536350698188,14.258493821876888,1.9194341188066755,0.4639661893305014,266.33138697965774,22.45033219092172,0.0,1.0,0.0,0.0,1.0,Taxi
14.5,-0.15779652218216092,-7.232132109506646,14.892660369449423,1.27688166071945,0.08460311038878954,266.3775828649452,22.789999878363265,0.0,1.0,0.0,0.0,1.0,Taxi
14.600000000000001,0.06286506477544201,-59.80105257476424,14.042524111541749,1.5163306311038733,0.34873677608264864,266.23196256692097,22.659611787770302,0.0,1.0,0.0,0.0,1.0,Taxi
14.700000000000001,-0.22536106877514817,23.648268175978377,15.649202076090647,1.777100645641633,0.945272313083001,266.498295307709,22.820615109291932,0.0,1.0,0.0,0.0,1.0,Taxi
14.8,-0.03955518130226906,0.4542252684189047,14.439120295797425,1.4713832497707273,0.4316788544030969,266.4937446493625,21.695764868355283,0.0,1.0,0.0,0.0,1.0,Taxi
14.9,0.06513619111753653,63.28878686217439,15.268056949941553,1.4548102441735187,-0.0661449029883729,266.318040805837,22.51836989178601,0.0,1.0,0.0,0.0,1.0,Taxi
15.0,0.09108286553572376,-19.3193582628946,14.121045516611556,1.1452369916479506,0.24110483352296178,266.1817907637501,22.272021862650334,0.0,1.0,0.0,0.0,1.0,Taxi
15.100000000000001,-0.1361519726167421,-23.654022833773666,14.473262826274665,1.7361618682059574,-1.1448038080180527,266.2283511823209,23.07291928330887,0.0,1.0,0.0,0.0,1.0,Taxi
15.200000000000001,-0.05313392305133189,5.582760538467052,13.804372088717095,1.5078807584659208,-0.46658144577173594,266.4337709217418,23.087676629052016,0.0,1.0,0.0,0.0,1.0,Taxi
15.3,0.11899666822805893,40.83906110803384,14.37244228585037,1.6982019300010833,-0.6968208573621439,266.33523008557063,22.859492297363953,0.0,1.0,0.0,0.0,1.0,Taxi
15.4,0.06804333292342706,24.557123874433902,13.931527057949964,1.3402241912686068,-0.11369548865297704,266.5409082259648,23.358906557397,0.0,1.0,0.0,0.0,1.0,Taxi
15.5,0.0696516963208376,23.72768807074614,14.075983874382683,1.5882018133957236,-0.31037723475277446,266.38576347959156,23.065842805509487,0.0,1.0,0.0,0.0,1.0,Taxi
15.600000000000001,0.23763510858178957,-24.21282448187632,13.410074227100269,1.9615887795250804,-0.5157212389359838,266.13570958852563,24.11922551416582,0.0,1.0,0.0,0.0,1.0,Taxi
15.700000000000001,-0.05302078948595457,12.439704571065533,15.127873233385925,1.1938490351985327,0.6731794705621686,266.46492288468687,22.793670799085376,0.0,1.0,0.0,0.0,1.0,Taxi
15.8,0.1318502191761652,-50.517057867310946,14.892508775110207,1.7859023956695466,-0.16571085602691238,266.4228740276186,23.22015626948831,0.0,1.0,0.0,0.0,1.0,Taxi
15.9,-0.014950180754765192,12.024166906244412,14.344413379855892,1.7212570571492471,0.5538287653400361,266.2161792738341,23.03283200403947,0.0,1.0,0.0,0.0,1.0,Taxi
16.0,0.007100045045267441,-6.396599636060306,14.789120557765273,1.8336733051826652,1.277666148109973,266.38650922871693,22.95698864813438,0.0,1.0,0.0,0.0,1.0,Taxi
16.1,0.09986722099586365,16.567327297787028,13.32314511343251,1.5167767050457113,-0.037047023145404215,266.49087041394296,23.199564163858337,0.0,1.0,0.0,0.0,1.0,Taxi
16.2,0.06788645573416989,-19.242282691164224,14.539809991219322,1.3935985810757325,-0.7378555934614945,266.3122947107446,22.776355825039627,0.0,1.0,0.0,0.0,1.0,Taxi
16.3,-0.08911136841055373,-28.351699255653774,13.94088102113346,1.45291241042332,-0.07509970424598866,266.31876324376947,24.010207496436575,0.0,1.0,0.0,0.0,1.0,Taxi
16.400000000000002,-0.04189127528240526,-11.632963215578195,15.487497447730787,1.2076341263748596,0.3180494778293313,266.44805144880104,22.703259310314085,0.0,1.0,0.0,0.0,1.0,Taxi
16.5,0.009721639656278855,15.540506777483523,14.948006919804948,1.4719983912223187,0.1128542735394695,266.32340658501084,23.55161098382071,0.0,1.0,0.0,0.0,1.0,Taxi
16.6,-0.011408834523136159,40.84709361754938,13.627350717554055,1.5937232329742947,0.6001627281566492,266.29105463835276,23.631324727592464,0.0,1.0,0.0,0.0,1.0,Taxi
16.7,0.16234419280534162,30.885838934520702,13.732693982575823,1.4109870211308213,0.3378304831690725,266.2408491271244,22.228297375419963,0.0,1.0,0.0,0.0,1.0,Taxi
16.8,0.1641508343288823,0.28750698539950764,13.0460178899307,1.3296505182971203,-0.13452492533771568,266.3420561677858,22.76363661565436,0.0,1.0,0.0,0.0,1.0,Taxi
16.900000000000002,-0.009971299596138685,9.725712385494424,13.322813364779806,1.8896694175486275,-0.1323166058410453,266.44590620345616,22.543529088723304,0.0,1.0,0.0,0.0,1.0,Taxi
17.0,0.21097275473281366,-47.4476489354165,13.506915571993883,1.8916039410596428,0.47378676828656474,266.36493928913603,22.84153859217202,0.0,1.0,0.0,0.0,1.0,Taxi
17.1,-0.0730874103482003,-56.34369922139035,13.081065257805104,1.529934129987436,0.41994226061929596,266.50797993762114,23.490052532093475,0.0,1.0,0.0,0.0,1.0,Taxi
17.2,-0.29168979570309056,-25.167360637880744,15.043098477787593,1.5479098185229423,0.5245804583659532,266.4166279552596,22.574252031570808,0.0,1.0,0.0,0.0,1.0,Taxi
17.3,0.08513595154340993,15.638984211536156,14.701712398531084,1.563123827811042,-0.7088862374125608,266.5577651547569,22.4562210882161,0.0,1.0,0.0,0.0,1.0,Taxi
17.400000000000002,0.005107510709480452,46.8782057473843,14.272082954919725,1.3383688339968947,0.2834089964669074,266.2434554934674,22.63542437534628,0.0,1.0,0.0,0.0,1.0,Taxi
17.5,-0.05729876696616909,-38.57868133352818,14.277740911858553,1.4266179787374937,-0.13939318241398269,266.1606839518629,23.43349164912879,0.0,1.0,0.0,0.0,1.0,Taxi
17.6,-0.10775745512423103,8.095424095542711,15.373062371697552,1.5992844307749552,0.5520340037013904,266.43217684899946,23.510414556868362,0.0,1.0,0.0,0.0,1.0,Taxi
17.7,0.04558463118719392,36.632958442566796,13.882030972633634,1.4684484388310226,0.0660833579319966,266.34578970999144,22.4272264398758,0.0,1.0,0.0,0.0,1.0,Taxi
17.8,0.12586602524666482,-10.07093822911682,13.99546301292275,1.6478140264691459,0.28247740632527213,266.31640031912843,22.861692946211498,0.0,1.0,0.0,0.0,1.0,Taxi
17.900000000000002,-0.15811214626981518,28.379886218020413,15.05942162108131,1.5822007611880828,0.6763259809437385,266.36513220076904,23.682884530295528,0.0,1.0,0.0,0.0,1.0,Taxi
18.0,0.18748406227729597,-11.466869095392694,14.520094443782526,1.6532243504794262,0.33660856748527246,266.42031299897053,22.604160162111285,0.0,1.0,0.0,0.0,1.0,Taxi
18.1,0.06853167976970137,20.159702697288115,14.948298706278056,1.5644706852153822,0.23780112190970037,266.44175149595935,22.38511337862765,0.0,1.0,0.0,0.0,1.0,Taxi
18.2,-0.05731363278337456,-39.32281792162907,13.385760458626965,1.7111825420415347,0.38123497559872893,266.38797267575023,23.049688516600355,0.0,1.0,0.0,0.0,1.0,Taxi
18.3,-0.009130027330849373,6.085097308504487,13.859455471006477,1.8675272400976501,-0.5741311224131915,266.44676627592503,21.88042878365845,0.0,1.0,0.0,0.0,1.0,Taxi
18.400000000000002,0.09895716631222377,-9.628243220233353,14.621567998385762,1.444863200887447,0.013522959652422777,266.42744032489554,22.334682855324797,0.0,1.0,0.0,0.0,1.0,Taxi
18.5,-0.10545484888454132,-14.71808145634634,14.065580827494099,1.2323205460314834,-0.8635955436550972,266.47748129893967,23.613986596078757,0.0,1.0,0.0,0.0,1.0,Taxi
18.6,-0.08272043461258105,-47.98258441147298,14.021835685445453,1.4865754830695799,-0.41596681883185177,266.3610727990339,21.531549902377773,0.0,1.0,0.0,0.0,1.0,Taxi
18.7,-0.1409557557451411,48.71525460186086,15.181332250063829,1.776190682418564,-0.7091658652097727,266.3425529397623,23.614353631257373,0.0,1.0,0.0,0.0,1.0,Taxi
18.8,0.13812142412476297,13.772862081008489,14.64735041640325,1.5812272111542816,-0.03396503999953207,266.4230390440407,22.87529766084943,0.0,1.0,0.0,0.0,1.0,Taxi
18.900000000000002,-0.013856124207538685,55.099276923789546,14.126518648178036,1.5996169964351499,-0.19023915230563873,266.23472082714216,22.884224645433743,0.0,1.0,0.0,0.0,1.0,Taxi
19.0,0.13454062887380655,-42.696937763658894,13.906068833186023,1.6148531952377958,0.15906946399620212,266.5595473292849,22.37059237036463,0.0,1.0,0.0,0.0,1.0,Taxi
19.1,-0.07536326469353156,4.102031943471741,13.856812545562061,1.694457869875337,0.7889514857460584,266.3084552929704,22.34187867811699,0.0,1.0,0.0,0.0,1.0,Taxi
19.200000000000003,0.0066540355098199866,2.0869478531506993,14.580597974408116,1.4919097590090387,0.5390144920407621,266.36587582087486,21.985702797723427,0.0,1.0,0.0,0.0,1.0,Taxi
19.3,0.14497536813956002,9.23663825224387,14.60779179453203,1.5429773035476033,0.9539482861049314,266.21332878908686,22.920575351225292,0.0,1.0,0.0,0.0,1.0,Taxi
19.400000000000002,-0.02918007343231225,28.3622215176914,14.235009419439413,1.4949851700311552,-0.17896828365884443,266.24316458203543,23.486368244155194,0.0,1.0,0.0,0.0,1.0,Taxi
19.5,0.14846514309827694,-33.01107094057937,14.658479076430176,1.6664458434352571,-0.04881670240847836,266.4905853023155,22.996926953247204,0.0,1.0,0.0,0.0,1.0,Taxi
19.6,-0.02007998656333687,17.280842833061957,15.2475957716104,1.9837346634690756,-0.34425421773094184,266.43856153200886,22.494713993816145,0.0,1.0,0.0,0.0,1.0,Taxi
19.700000000000003,0.05722414073299753,-53.09196339698573,14.84709648102411,1.5787978586654483,0.2695568494646125,266.4681333862735,22.565775817008202,0.0,1.0,0.0,0.0,1.0,Taxi
19.8,-0.11699467388665175,-1.9063884162867026,13.772740626297113,1.6548125429997724,0.08035785495877026,266.2303917415459,23.29177727338157,0.0,1.0,0.0,0.0,1.0,Taxi
19.900000000000002,-0.029611928644770413,46.53741932048359,15.074379257900105,1.5734114165720465,0.778827375807764,266.29861430329083,23.327727228475194,0.0,1.0,0.0,0.0,1.0,Taxi
20.0,0.28991123733541546,13.6664866491676,13.253979203269171,1.575544465260607,-0.31008488776642534,266.52858044887853,22.194070767260733,0.0,1.0,0.0,0.0,1.0,Taxi
20.1,-0.04866224064081378,21.38191738460849,13.276427678478935,1.6688950710836747,-0.16918496687606657,266.36195934628256,22.48488909671982,0.0,1.0,0.0,0.0,1.0,Taxi
20.200000000000003,0.07729765827827195,-79.66708308893848,14.591240487988191,1.3516820770993914,1.2573237979751535,266.26448614295487,23.2811178425295,0.0,1.0,0.0,0.0,1.0,Taxi
20.3,-0.10842417810927703,9.56769767163533,13.8842007001506,1.1806629762167151,-0.8032752140804174,266.41161747663955,22.57552363053061,0.0,1.0,0.0,0.0,1.0,Taxi
20.400000000000002,-0.0008237522826371919,11.921679791302282,14.642218707072091,1.3091482867943431,-0.17101357022696767,266.3350478501361,21.59659714812527,0.0,1.0,0.0,0.0,1.0,Taxi
20.5,0.1369060572347833,21.317508459677025,14.264156205874635,1.3804210627811018,1.3064187199134538,266.21487382026,22.68624183975956,0.0,1.0,0.0,0.0,1.0,Taxi
20.6,-0.0018366358108919463,4.460289899040184,14.65616712441658,1.6414872191347392,-0.28200057585481964,266.3622845487755,22.843473640828165,0.0,1.0,0.0,0.0,1.0,Taxi
20.700000000000003,0.02147769721256368,-37.292806973298205,14.729708565150107,1.3427235934710269,0.16159880910661215,266.3422770087186,22.371085226956954,0.0,1.0,0.0,0.0,1.0,Taxi
20.8,-0.04955797763170774,-36.09050744045751,12.623957915508672,1.6940771544220348,-0.687513736260018,266.3270964812575,23.01350648194703,0.0,1.0,0.0,0.0,1.0,Taxi
20.900000000000002,-0.18228917301317948,-3.6964786537926435,14.015613560577117,1.4067079143390049,-0.39436938274289524,266.3442472496623,23.963613650641133,0.0,1.0,0.0,0.0,1.0,Taxi
21.0,0.0029953039436004473,4.026511258657348,14.815712610005408,1.5989872221773846,-0.46452188398178434,266.2761085262083,22.542474557034403,0.0,1.0,0.0,0.0,1.0,Taxi
21.1,-0.029425421338421028,43.89681030406853,14.207272269944763,1.419895297339618,0.5538848974846197,266.3921749141589,22.74796110856437,0.0,1.0,0.0,0.0,1.0,Taxi
21.200000000000003,0.03719487850716314,-55.18831535824855,14.848377043802023,1.7454513069191693,-0.45946102899262015,266.54065288092715,22.751934234989108,0.0,1.0,0.0,0.0,1.0,Taxi
21.3,-0.27294627284764233,4.364768406851671,14.174367367979405,1.7780003614712014,-0.3113263553175987,266.2984435626138,22.392131285374045,0.0,1.0,0.0,0.0,1.0,Taxi
21.400000000000002,-0.007601579304162726,-21.56695713462014,13.235255085707024,1.6704928387102036,-0.3483717714575146,266.3773801589141,22.396208631461878,0.0,1.0,0.0,0.0,1.0,Taxi
21.5,-0.07063990716593761,39.21030756122413,14.583111085933336,1.456154141626699,0.21316860215662076,266.3231664643472,23.585210914331427,0.0,1.0,0.0,0.0,1.0,Taxi
21.6,-0.07689473504152168,5.159334124746278,14.113569266604966,1.5972863401564776,0.6807143086554932,266.36230111645,22.607448677679677,0.0,1.0,0.0,0.0,1.0,Taxi
21.700000000000003,0.018195091319568694,25.503452508769143,13.344091845803908,1.761987108584054,-0.39989005339978295,266.34038978862395,22.403945794384846,0.0,1.0,0.0,0.0,1.0,Taxi
21.8,0.05687735537790814,18.614752914952476,14.838271730549884,1.4946328362782166,-0.11156878406444982,266.4720720555938,23.140393537444172,0.0,1.0,0.0,0.0,1.0,Taxi
21.900000000000002,0.016179029533240737,-28.568335862065734,14.647069470316618,1.4035037321228556,0.5463446381355607,266.33786324922175,23.40357113626568,0.0,1.0,0.0,0.0,1.0,Taxi
22.0,-0.12464658799075992,-13.967969611913224,13.714832883830606,1.1101338590850816,-0.29336004074019806,266.40302298533675,22.49455124423773,0.0,1.0,0.0,0.0,1.0,Taxi
22.1,-0.01296249268165793,33.816032030186044,13.323068460349164,1.5913692736120375,-0.04583374717022831,266.41456934030475,23.46663040711521,0.0,1.0,0.0,0.0,1.0,Taxi
22.200000000000003,0.185259189684171,46.72977961574637,15.059110608222957,1.609718336763271,-0.37353376689290063,266.3460409867864,22.82519340704865,0.0,1.0,0.0,0.0,1.0,Taxi
22.3,0.10900231008797195,-25.315171815733336,14.874859720835365,1.5333171145945057,0.08344683407350528,266.3358558956196,23.40820031226115,0.0,1.0,0.0,0.0,1.0,Taxi
22.400000000000002,-0.13953835176032456,-31.529101968070602,14.19828094852211,1.4689569067881378,-0.40137652678530866,266.3336292688796,23.342306276526394,0.0,1.0,0.0,0.0,1.0,Taxi
22.5,0.027613679843818063,-25.6341478867233,13.96348040423953,1.466222638814458,0.20170562484221108,266.2163846602497,22.639653761726766,0.0,1.0,0.0,0.0,1.0,Taxi
22.6,-0.019168429345644514,25.462357902186525,14.15428349587499,1.5171370290298105,-1.3730250962074555,266.2565844381361,22.276522707845842,0.0,1.0,0.0,0.0,1.0,Taxi
22.700000000000003,-0.012226562249391903,-17.02447170275007,14.222877661679279,1.6899531717478522,-0.18274925861471505,266.5716382184346,22.606684521903137,0.0,1.0,0.0,0.0,1.0,Taxi
22.8,-0.05750867866993225,-4.587634117418221,15.22177762656262,1.500205244053556,0.5885746759040211,266.194090901394,22.201015907203512,0.0,1.0,0.0,0.0,1.0,Taxi
22.900000000000002,-0.04210659993273558,0.34102501923018264,14.973992173871329,1.8509032628304085,1.1552878184180655,266.3024960888016,23.4470801422211,0.0,1.0,0.0,0.0,1.0,Taxi
23.0,-0.01052143715324095,14.347524701089336,14.05526962208686,1.8279806661833824,0.163595305427357,266.42505095842876,23.06028672159988,0.0,1.0,0.0,0.0,1.0,Taxi
23.1,0.014228944835514463,-2.2528412194552394,13.037740724484285,1.3706139454813493,-0.04755305705486341,266.3136166493116,22.243390677104163,0.0,1.0,0.0,0.0,1.0,Taxi
23.200000000000003,-0.05337080603001174,15.330440249300922,15.366293795671965,1.8150018597363293,-0.15171001642097584,266.40797225491656,23.07272839689207,0.0,1.0,0.0,0.0,1.0,Taxi
23.3,0.06613076409326371,26.847824426638766,13.461654014620827,1.7381476731073655,0.15180644659432366,266.33334694195526,22.03462924357642,0.0,1.0,0.0,0.0,1.0,Taxi
23.400000000000002,0.14846806696870835,16.81933193515353,13.196563415647123,1.6609036534545254,0.011677318984688274,266.5160876070811,22.41285638910957,0.0,1.0,0.0,0.0,1.0,Taxi
23.5,0.030725853645755988,6.2041446589902876,14.488600273036202,1.3381342390234687,-0.4582641639521237,266.17487856197044,23.097303989916696,0.0,1.0,0.0,0.0,1.0,Taxi
23.6,0.09715148738821518,-59.292590785435834,14.730852263966783,1.6164692582659936,-0.20640579504123224,266.3480001508319,22.705970441079455,0.0,1.0,0.0,0.0,1.0,Taxi
23.700000000000003,-0.14799488695847082,10.617019709513698,14.634680637383267,1.871502204304526,0.4494237956130288,266.4285973004254,23.113207277080708,0.0,1.0,0.0,0.0,1.0,Taxi
23.8,0.08381095219332446,-3.204973975775568,13.649606648883486,1.444823923264693,-0.01942537427074627,266.4564957773631,21.763223189478733,0.0,1.0,0.0,0.0,1.0,Taxi
23.900000000000002,0.08112661750933732,18.741888333185894,14.793403029590843,1.7315247060116656,0.5321323776651825,266.40285598033665,23.816956055267738,0.0,1.0,0.0,0.0,1.0,Taxi
24.0,-0.054285445292541416,-26.777087302048574,14.884762830414296,1.5132079805573615,0.8359738758784437,266.43842629783046,22.673429125044095,0.0,1.0,0.0,0.0,1.0,Taxi
24.1,-0.050074484316918466,-12.431914442651454,13.962165479687048,1.3409249643571153,-0.7706805935021566,266.36954326752925,22.5077626053715,0.0,1.0,0.0,0.0,1.0,Taxi
24.200000000000003,0.018967045296080003,-28.091257681447974,13.361275467513746,1.5682389498805571,1.0347499840665084,266.4384424588417,23.20911771247539,0.0,1.0,0.0,0.0,1.0,Taxi
24.3,-0.19474173369978132,4.741377270160679,14.008369071781821,1.6726137745614902,-0.4713482806511986,266.55712290578504,22.00300902243228,0.0,1.0,0.0,0.0,1.0,Taxi
24.400000000000002,-0.026367597966115097,-10.10886850660849,14.405368319779802,1.6115424827067157,-0.4985568197883703,266.3025616607953,22.09424031435328,0.0,1.0,0.0,0.0,1.0,Taxi
24.5,-0.031577297236962475,44.267443886390204,14.30858123000644,1.611269438943712,0.13648749862173012,266.4207123398203,23.40865300754935,0.0,1.0,0.0,0.0,1.0,Taxi
24.6,0.026595485732169688,11.856546578573022,13.069161610651948,1.6797168255131962,-0.006115035088074458,266.3080875057253,23.568343177429444,0.0,1.0,0.0,0.0,1.0,Taxi
24.700000000000003,0.03291513492674998,13.961913745876226,12.902140099083093,1.6610175475663447,0.0213847831237499,266.29321704102495,22.976864544557905,0.0,1.0,0.0,0.0,1.0,Taxi
24.8,0.038232271492418625,-45.7368214946436,13.851103250970986,1.4948291508632223,0.5022400447787568,266.2622651822096,23.117504661155408,0.0,1.0,0.0,0.0,1.0,Taxi
24.900000000000002,-0.20208862174104836,-11.955380444013898,14.299869580852597,1.438166352961923,0.0076067315569807,266.41202434804063,22.219630188128875,0.0,1.0,0.0,0.0,1.0,Taxi
25.0,-0.02686176729331958,-16.499272419586685,15.125144950793995,1.394354186481988,0.5806652169693575,266.3849265303886,21.91694224506963,0.0,1.0,0.0,0.0,1.0,Taxi
25.1,-0.04426409060551486,61.9816579147413,13.201091785307495,1.6037488060153997,-0.15545841796415183,266.3702029658788,22.919638926668448,0.0,1.0,0.0,0.0,1.0,Taxi
25.200000000000003,0.10781966783265806,2.350757495218095,13.319088164893932,1.4179273275446571,0.11497011451668858,266.5178741927741,23.496738795075697,0.0,1.0,0.0,0.0,1.0,Taxi
25.3,-0.015107979817229132,37.31450879850112,14.403978935788112,1.6926399407865818,0.06810908309542202,266.477279538969,22.60506476038195,0.0,1.0,0.0,0.0,1.0,Taxi
25.400000000000002,0.14230845338699072,-12.888392539812363,14.865607767457723,1.3301843170223546,0.4676141875233718,266.3222449129305,22.763849463098207,0.0,1.0,0.0,0.0,1.0,Taxi
25.5,0.043377705133596206,-12.179275432833753,14.488590171470134,1.4956039778427992,-0.289811820955943,266.06019838694147,23.630203602507876,0.0,1.0,0.0,0.0,1.0,Taxi
25.6,-0.07600435698139796,-10.730305546964521,13.601005342338077,1.65120030143882,-0.1659620025003933,266.25412350321244,23.1958281842536,0.0,1.0,0.0,0.0,1.0,Taxi
25.700000000000003,0.08865692565216811,2.4792850375191073,14.537985714008544,1.5535654775121082,-0.3098540230367202,266.3532829192392,22.615502118353078,0.0,1.0,0.0,0.0,1.0,Taxi
25.8,0.05577413032119171,1.5912843940103727,14.10074246655528,1.2454365800432157,-0.06953166468768288,266.4029959739157,23.433289001082166,0.0,1.0,0.0,0.0,1.0,Taxi
25.900000000000002,-0.06804793501134611,-59.09590402745522,15.31017940112195,1.4582568850511972,-0.033782625782616794,266.36276589243676,22.3566787431597,0.0,1.0,0.0,0.0,1.0,Taxi
26.0,-0.20682259448510806,-23.065623364100365,15.164629082099493,1.9314190470106238,-0.4414592265880356,266.42525346473553,23.15138670583719,0.0,1.0,0.0,0.0,1.0,Taxi
26.1,-0.05955398649931019,59.85528001132667,13.715135393248197,1.3875267985427444,0.11975642930330119,266.5686688948383,22.511256279442843,0.0,1.0,0.0,0.0,1.0,Taxi
26.200000000000003,0.23122846504528716,13.719641945446654,15.715139006986318,1.774198407751482,-0.14691152694662094,266.4872531645249,22.780583390859633,0.0,1.0,0.0,0.0,1.0,Taxi
26.3,-0.13822438475787488,-7.522229661791588,13.990970049967158,1.6211015648143718,0.30374966329572683,266.31285363453935,22.53588398367242,0.0,1.0,0.0,0.0,1.0,Taxi
26.400000000000002,-0.09716513480826816,-46.68249332732396,13.461171106441952,1.6710269796799928,0.6721946654483517,266.2394164413563,23.318030382436866,0.0,1.0,0.0,0.0,1.0,Taxi
26.5,-0.00218400159133268,17.81838572291814,14.106861919907399,1.451518581132875,0.544353111480215,266.31641328136016,22.86381800455075,0.0,1.0,0.0,0.0,1.0,Taxi
26.6,-0.04913245614328418,2.7598566044129895,13.345850714642308,1.6180973483202443,0.41500004810604163,266.19215101529267,22.295382203231025,0.0,1.0,0.0,0.0,1.0,Taxi
26.700000000000003,-0.08336585178620322,25.606261370391014,14.76990740127497,1.597005120381947,-0.8499821198952063,266.2227411051506,21.99324365287106,0.0,1.0,0.0,0.0,1.0,Taxi
26.8,0.12584730526062235,5.859366090852461,14.0441847425523,1.7023510130242072,-0.521751198592631,266.39935036099564,21.826644792421828,0.0,1.0,0.0,0.0,1.0,Taxi
26.900000000000002,-0.019835625689021915,4.963815281559395,15.01821107065396,1.3789840854808513,0.07197385260406185,266.3460084277799,22.742837512961923,0.0,1.0,0.0,0.0,1.0,Taxi
27.0,-0.05854677537840628,-51.30517749468672,13.97901282533837,1.2526028772542526,-0.358335994223278,266.3119420348902,22.858953614684154,0.0,1.0,0.0,0.0,1.0,Taxi
27.1,-0.13067858221281123,-28.672067640272914,13.76123953865438,1.6346106140327694,-0.5356981502436292,266.462113258213,22.598162744344137,0.0,1.0,0.0,0.0,1.0,Taxi
27.200000000000003,-0.1631959638903865,-13.510815297723674,13.410137136731633,1.2498570610014725,0.23205720282850595,266.5013411007062,23.248683661879824,0.0,1.0,0.0,0.0,1.0,Taxi
27.3,-0.12610085186702466,9.007332281325882,14.944231480169728,1.2881299819781684,0.7329648175415099,266.4704283911742,22.166365478791597,0.0,1.0,0.0,0.0,1.0,Taxi
27.400000000000002,-0.08564192080618184,17.532954505614946,14.114438149179783,1.5353943527547356,0.9297066931954429,266.4005033132768,22.74941059520168,0.0,1.0,0.0,0.0,1.0,Taxi
27.5,-0.07553119136231178,26.477446019094703,14.605713001947057,1.89934382391389,-0.24666316273886907,266.33532204048595,24.205140961819247,0.0,1.0,0.0,0.0,1.0,Taxi
27.6,0.0062863782284488315,7.4827486703055515,14.227557038749799,1.4245510013054217,0.8083392212000423,266.53284775929717,21.635714634724007,0.0,1.0,0.0,0.0,1.0,Taxi
27.700000000000003,-0.048228177454654124,-28.12103006135195,14.379556783659357,1.6817737086649533,-0.39156238984683905,266.33991983885244,22.349129400310584,0.0,1.0,0.0,0.0,1.0,Taxi
27.8,-0.21613634166907159,3.8206707069940555,14.0654171069921,1.2477493925135994,1.044337225584613,266.50448427728793,21.99505922994465,0.0,1.0,0.0,0.0,1.0,Taxi
27.900000000000002,0.025389731763419045,3.670097515578147,14.389864135439554,1.7490018136968444,-0.3344638024101813,266.43420160554274,23.44186955797437,0.0,1.0,0.0,0.0,1.0,Taxi
28.0,-0.02987768987676344,51.53310778637897,14.619060782695293,1.6628104608526537,0.030291749702893823,266.36014630319164,22.35553080088063,0.0,1.0,0.0,0.0,1.0,Taxi
28.1,0.04152919726282324,-35.504280506330325,14.527285128543337,1.416945171925373,-0.224807069838642,266.62411279420826,23.504045910195643,0.0,1.0,0.0,0.0,1.0,Taxi
28.200000000000003,-0.15213167076823256,11.83744180329984,15.04655992654344,1.2836789877808783,0.19403916496962015,266.46452931019894,22.48720832930374,0.0,1.0,0.0,0.0,1.0,Taxi
28.3,0.029309519139735785,-1.5894738549765837,13.43354551456006,1.5235520956119044,-0.4069988871249371,266.2127679698351,23.04244845392556,0.0,1.0,0.0,0.0,1.0,Taxi
28.400000000000002,0.03358182798794034,17.151862669714188,15.0589361712093,1.4825514109988494,0.0785568090561832,266.1030531539998,23.345322094524008,0.0,1.0,0.0,0.0,1.0,Taxi
28.5,-0.0663723574196616,9.676086284411229,13.614564678156272,1.5500985991919356,0.08468664083496953,266.47937921065216,22.7894059854374,0.0,1.0,0.0,0.0,1.0,Taxi
28.6,0.07768995056179193,-24.707511181727217,14.43655774023689,1.5360725773541237,-0.5869922053776607,266.43510877797075,22.715801440626915,0.0,1.0,0.0,0.0,1.0,Taxi
28.700000000000003,-0.08995572792069578,31.58466156183373,14.299498657686522,1.3427502404541676,0.0078103525065565445,266.48461405843136,23.342753187106844,0.0,1.0,0.0,0.0,1.0,Taxi
28.8,0.09155095038950702,-26.48385583586976,15.262409277171487,1.4285042240610142,0.10175802390010005,266.5193737439937,22.423426987765325,0.0,1.0,0.0,0.0,1.0,Taxi
28.900000000000002,-0.05472932861755689,34.79429623686769,14.438129163143685,1.4770561845327543,0.7664553686351777,266.20362702518514,22.915867070320882,0.0,1.0,0.0,0.0,1.0,Taxi
29.0,0.08401575326364265,-20.58178813377165,13.814292382611047,1.299927018269828,-0.20002317205539516,266.31276410232,24.385451911936862,0.0,1.0,0.0,0.0,1.0,Taxi
29.1,-0.011357990279351233,35.06784123636745,15.891954279286649,1.1427584810066065,-0.8817445632857365,266.2033028702215,22.710279842791287,0.0,1.0,0.0,0.0,1.0,Taxi
29.200000000000003,0.12060987756428035,-23.205612216101617,13.614620927516379,1.7576837200701099,-1.0833221881375537,266.4457783425365,22.669596154413167,0.0,1.0,0.0,0.0,1.0,Taxi
29.3,-0.03201230781686543,18.17210576095938,15.098802605304078,1.41328613996937,0.4160550858567747,266.4194841201154,22.605660929179976,0.0,1.0,0.0,0.0,1.0,Taxi
29.400000000000002,0.07950253852544566,-60.76556272344169,14.708862207774008,1.7332321405715285,-0.3667516794597181,266.42548117482556,22.657986923932086,0.0,1.0,0.0,0.0,1.0,Taxi
29.5,-0.1832179360529281,-4.361308612573073,14.23477872846726,1.7769603550052255,-0.020808579479002276,266.2815716326286,22.456625049355978,0.0,1.0,0.0,0.0,1.0,Taxi
29.6,-0.053818850879730755,-32.30778860702005,14.523015872724686,1.4825386895719508,-0.012728958055612185,266.3212578480443,24.185049160143326,0.0,1.0,0.0,0.0,1.0,Taxi
29.700000000000003,-0.08203640450965455,17.616166736602832,14.384185398563194,1.744004410521415,-0.1854680671539239,266.27054823107983,22.94821275836064,0.0,1.0,0.0,0.0,1.0,Taxi
29.8,-0.09513710236991392,34.38521664168623,14.569079022867095,1.4351392348055005,1.1546615967228997,266.3160395415946,22.62045549775273,0.0,1.0,0.0,0.0,1.0,Taxi
29.900000000000002,0.11810723232870042,27.658442092330546,13.952575034766346,2.010360860806319,0.5051076911457969,266.5071910149244,22.644713704041838,0.0,1.0,0.0,0.0,1.0,Taxi
30.0,0.05625580595199823,37.72659709798113,15.352242222923117,1.6726701510676758,0.6139201551039152,266.41664480768895,22.257890581227826,0.0,1.0,0.0,0.0,1.0,Taxi
30.1,0.09349588311999175,-12.362468488928698,15.358556255845095,1.4900316185162004,-0.07282352613629371,266.3689058780835,22.54419875978097,0.0,1.0,0.0,0.0,1.0,Taxi
30.200000000000003,0.056294889884056946,-14.890712908960124,13.913669005015342,1.682101502503425,-0.7320716832823208,266.430305684,22.28494916177179,0.0,1.0,0.0,0.0,1.0,Taxi
30.3,-0.018197758592802357,-22.338728342558827,14.910652599778572,1.4975749219531134,0.33134066812499857,266.48858507680575,22.677611280216098,0.0,1.0,0.0,0.0,1.0,Taxi
30.400000000000002,-0.018197758592802357,-14.898529695371868,19.814183976117118,0.26486512393432315,-0.6029909037401245,266.48858507680575,90.90417177550005,1.0,1.0,9.40212245746205,0.0,1.0,Takeoff
30.500000000000004,-0.018197758592802357,0.0,19.73556126043138,0.26486512393432315,-0.6029909037401245,266.48858507680575,91.0384673973208,1.0,1.0,9.40212245746205,0.0,1.0,Takeoff
30.6,-0.018197758592802357,0.0,20.775443174714326,0.26486512393432315,-0.6029909037401245,266.48858507680575,91.07027834817121,1.0,1.0,9.40212245746205,0.0,1.0,Takeoff
30.700000000000003,-0.018197758592802357,0.0,21.028551331411826,0.26486512393432315,-0.6029909037401245,266.48858507680575,90.77674809704008,1.0,1.0,9.40212245746205,0.0,1.0,Takeoff
30.8,-0.018197758592802357,0.0,20.650563072453348,0.26486512393432315,-0.6029909037401245,266.48858507680575,90.56251932370267,1.0,1.0,9.40212245746205,0.0,1.0,Takeoff
30.900000000000002,-0.018197758592802357,0.0,23.539842507504332,0.26486512393432315,-0.6029909037401245,266.48858507680575,90.6054572524566,1.0,1.0,9.40212245746205,0.0,1.0,Takeoff
31.000000000000004,-0.018197758592802357,0.0,23.405567333998285,0.26486512393432315,-0.6029909037401245,266.48858507680575,91.0590631785849,1.0,1.0,9.40212245746205,0.0,1.0,Takeoff
31.1,-0.018197758592802357,0.0,22.149677856787054,0.26486512393432315,-0.6029909037401245,266.48858507680575,91.30458266968547,1.0,1.0,9.40212245746205,0.0,1.0,Takeoff
31.200000000000003,-0.018197758592802357,0.0,23.367173031082483,0.26486512393432315,-0.6029909037401245,266.48858507680575,91.36304507955266,1.0,1.0,9.40212245746205,0.0,1.0,Takeoff
31.3,-0.018197758592802357,0.0,24.389278331922238,0.26486512393432315,-0.6029909037401245,266.48858507680575,91.18248932160883,1.0,1.0,9.40212245746205,0.0,1.0,Takeoff
31.400000000000002,-0.018197758592802357,0.0,25.964739726724535,0.26486512393432315,-0.6029909037401245,266.48858507680575,90.3401939384383,1.0,1.0,9.40212245746205,0.0,1.0,Takeoff
31.500000000000004,-0.018197758592802357,0.0,26.305998400293095,0.26486512393432315,-0.6029909037401245,266.48858507680575,91.69478894900172,1.0,1.0,9.40212245746205,0.0,1.0,Takeoff
31.6,-0.018197758592802357,0.0,26.392855120143835,0.26486512393432315,-0.6029909037401245,266.48858507680575,90.98933758911818,1.0,1.0,9.40212245746205,0.0,1.0,Takeoff
31.700000000000003,-0.018197758592802357,0.0,28.227601596278014,0.26486512393432315,-0.6029909037401245,266.48858507680575,91.14704780176217,1.0,1.0,9.40212245746205,0.0,1.0,Takeoff
31.8,-0.018197758592802357,0.0,28.271892784585294,0.26486512393432315,-0.6029909037401245,266.48858507680575,90.69650527739938,1.0,1.0,9.40212245746205,0.0,1.0,Takeoff
31.900000000000002,-0.018197758592802357,0.0,28.016482080464623,0.26486512393432315,-0.6029909037401245,266.48858507680575,90.55633806623113,1.0,1.0,9.40212245746205,0.0,1.0,Takeoff
32.0,-0.018197758592802357,0.0,31.09551965750732,0.26486512393432315,-0.6029909037401245,266.48858507680575,91.51815477414111,1.0,1.0,9.40212245746205,0.0,1.0,Takeoff
32.1,-0.018197758592802357,0.0,30.160038375224644,0.26486512393432315,-0.6029909037401245,266.48858507680575,90.77101664950175,1.0,1.0,9.40212245746205,0.0,1.0,Takeoff
32.2,-0.018197758592802357,0.0,31.61693760727947,0.26486512393432315,-0.6029909037401245,266.48858507680575,91.06849916466336,1.0,1.0,9.40212245746205,0.0,1.0,Takeoff
32.300000000000004,-0.018197758592802357,0.0,31.53003352667159,0.26486512393432315,-0.6029909037401245,266.48858507680575,90.55248924430656,1.0,1.0,9.40212245746205,0.0,1.0,Takeoff
32.400000000000006,-0.018197758592802357,0.0,31.584419578787116,0.26486512393432315,-0.6029909037401245,266.48858507680575,91.37773962599292,1.0,1.0,9.40212245746205,0.0,1.0,Takeoff
32.5,-0.018197758592802357,0.0,31.78281821012551,0.26486512393432315,-0.6029909037401245,266.48858507680575,91.04949109619741,1.0,1.0,9.40212245746205,0.0,1.0,Takeoff
32.6,-0.018197758592802357,0.0,33.740495124503276,0.26486512393432315,-0.6029909037401245,266.48858507680575,91.49084949471816,1.0,1.0,9.40212245746205,0.0,1.0,Takeoff
32.7,-0.018197758592802357,0.0,33.081388193196744,0.26486512393432315,-0.6029909037401245,266.48858507680575,90.98535699553794,1.0,1.0,9.40212245746205,0.0,1.0,Takeoff
32.800000000000004,-0.018197758592802357,0.0,34.65704684209907,0.26486512393432315,-0.6029909037401245,266.48858507680575,91.54199382549024,1.0,1.0,9.40212245746205,0.0,1.0,Takeoff
32.900000000000006,-0.018197758592802357,0.0,36.202282159798635,0.26486512393432315,-0.6029909037401245,266.48858507680575,90.93390043567047,1.0,1.0,9.40212245746205,0.0,1.0,Takeoff
33.0,-0.018197758592802357,0.0,36.293637743139676,0.26486512393432315,-0.6029909037401245,266.48858507680575,91.23478978848617,1.0,1.0,9.40212245746205,0.0,1.0,Takeoff
33.1,-0.018197758592802357,0.0,37.22748493330705,0.26486512393432315,-0.6029909037401245,266.48858507680575,90.76035623024147,1.0,1.0,9.40212245746205,0.0,1.0,Takeoff
33.2,-0.018197758592802357,0.0,37.03721868199037,0.26486512393432315,-0.6029909037401245,266.48858507680575,90.49201289153031,1.0,1.0,9.40212245746205,0.0,1.0,Takeoff
33.300000000000004,-0.018197758592802357,0.0,37.97239462836744,0.26486512393432315,-0.6029909037401245,266.48858507680575,91.26880414223338,1.0,1.0,9.40212245746205,0.0,1.0,Takeoff
33.400000000000006,-0.018197758592802357,0.0,39.13939842158174,0.26486512393432315,-0.6029909037401245,266.48858507680575,90.82705412859484,1.0,1.0,9.40212245746205,0.0,1.0,Takeoff
33.5,-0.018197758592802357,0.0,39.86166384909221,0.26486512393432315,-0.6029909037401245,266.48858507680575,90.82712306883145,1.0,1.0,9.40212245746205,0.0,1.0,Takeoff
33.6,-0.018197758592802357,0.0,40.82130850208885,0.26486512393432315,-0.6029909037401245,266.48858507680575,91.3778085777503,1.0,1.0,9.40212245746205,0.0,1.0,Takeoff
33.7,-0.018197758592802357,0.0,40.95152042405815,0.26486512393432315,-0.6029909037401245,266.48858507680575,91.45604305424342,1.0,1.0,9.40212245746205,0.0,1.0,Takeoff
33.800000000000004,-0.018197758592802357,0.0,40.17776934882685,0.26486512393432315,-0.6029909037401245,266.48858507680575,90.64938930881057,1.0,1.0,9.40212245746205,0.0,1.0,Takeoff
33.900000000000006,-0.018197758592802357,0.0,43.26342908127179,0.26486512393432315,-0.6029909037401245,266.48858507680575,90.36661072196888,1.0,1.0,9.40212245746205,0.0,1.0,Takeoff
34.0,-0.018197758592802357,0.0,43.4607380252896,0.26486512393432315,-0.6029909037401245,266.48858507680575,90.49299521393289,1.0,1.0,9.40212245746205,0.0,1.0,Takeoff
34.1,-0.018197758592802357,0.0,45.320729423843716,0.26486512393432315,-0.6029909037401245,266.48858507680575,90.3622365283925,1.0,1.0,9.40212245746205,0.0,1.0,Takeoff
34.2,-0.018197758592802357,0.0,44.23276439610232,0.26486512393432315,-0.6029909037401245,266.48858507680575,90.59342001766781,1.0,1.0,9.40212245746205,0.0,1.0,Takeoff
34.300000000000004,-0.018197758592802357,0.0,44.43971629596041,0.26486512393432315,-0.6029909037401245,266.48858507680575,91.7381383207758,1.0,1.0,9.40212245746205,0.0,1.0,Takeoff
34.400000000000006,-0.018197758592802357,0.0,46.13215847561818,0.26486512393432315,-0.6029909037401245,266.48858507680575,89.90942064639786,1.0,1.0,9.40212245746205,0.0,1.0,Takeoff
34.5,-0.018197758592802357,0.0,47.1664873661769,0.26486512393432315,-0.6029909037401245,266.48858507680575,91.14293244148982,1.0,1.0,9.40212245746205,0.0,1.0,Takeoff
34.6,-0.018197758592802357,0.0,47.938574942757256,0.26486512393432315,-0.6029909037401245,266.48858507680575,90.67086132747639,1.0,1.0,9.40212245746205,0.0,1.0,Takeoff
34.7,-0.018197758592802357,0.0,47.25882608763773,0.26486512393432315,-0.6029909037401245,266.48858507680575,91.16938073764751,1.0,1.0,9.40212245746205,0.0,1.0,Takeoff
34.800000000000004,-0.018197758592802357,0.0,49.46993863375851,0.26486512393432315,-0.6029909037401245,266.48858507680575,91.61273447126979,1.0,1.0,9.40212245746205,0.0,1.0,Takeoff
34.900000000000006,-0.018197758592802357,0.0,48.978214076383914,0.26486512393432315,-0.6029909037401245,266.48858507680575,90.53210021922492,1.0,1.0,9.40212245746205,0.0,1.0,Takeoff
35.0,-0.018197758592802357,0.0,50.87821295790398,0.26486512393432315,-0.6029909037401245,266.48858507680575,91.50196648361712,1.0,1.0,9.40212245746205,0.0,1.0,Takeoff
35.1,-0.018197758592802357,0.0,50.32642684904649,0.26486512393432315,-0.6029909037401245,266.48858507680575,90.92126917015734,1.0,1.0,9.40212245746205,0.0,1.0,Takeoff
35.2,-0.018197758592802357,0.0,49.968767651918164,0.26486512393432315,-0.6029909037401245,266.48858507680575,90.70328646425651,1.0,1.0,9.40212245746205,0.0,1.0,Takeoff
