time_s,altitude_ft,vertical_speed_fpm,ias_kt,pitch_deg,roll_deg,heading_deg,throttle_pct,afterburner_on,gear_down,flaps_deg,speedbrake_pct,weight_on_wheels,label
0.0,0.07833225804117465,-6.871125817647079,10.026153029906414,2.0684280230383605,0.23032711484375665,127.26851674019258,17.48425095534294,0.0,1.0,0.0,0.0,1.0,Taxi
0.1,0.055428505315684384,-40.24231568007482,10.414345909830024,2.172395578672485,0.254051758658186,127.31256146271335,17.752432265586034,0.0,1.0,0.0,0.0,1.0,Taxi
0.2,-0.12287932035919946,-9.882266907161616,9.85723491286589,2.0368137174845753,0.7136922203340361,127.28973700556713,17.354559816879373,0.0,1.0,0.0,0.0,1.0,Taxi
0.30000000000000004,0.02892092350536655,-15.553935731047652,10.641525149983574,2.113636656309673,-0.24703766487016926,127.32109704164856,18.18370349379934,0.0,1.0,0.0,0.0,1.0,Taxi
0.4,-0.022341173339553884,40.60450818893281,9.704660987617864,1.5202660467712126,-0.270988009831999,127.29527415135925,17.588812507541554,0.0,1.0,0.0,0.0,1.0,Taxi
0.5,0.08014322058546458,31.086392914858795,10.046326098427564,1.9203315253624307,-0.0558360610631371,127.34777204833966,17.49343964651266,0.0,1.0,0.0,0.0,1.0,Taxi
0.6000000000000001,0.18435288807966055,-24.51995437588525,10.32709604042467,1.960057925327762,0.05816144590665292,127.32323822877265,17.761847562239478,0.0,1.0,0.0,0.0,1.0,Taxi
0.7000000000000001,-0.14494094521898013,-28.739669386925602,9.147098093573035,1.709445736357646,0.29261393268710206,127.35931753159463,18.457426901707358,0.0,1.0,0.0,0.0,1.0,Taxi
0.8,-0.06355512634916344,-44.563569579001374,9.928359054818868,1.9747530544900933,0.45321819486718823,127.2607788896812,16.840471374381682,0.0,1.0,0.0,0.0,1.0,Taxi
0.9,-0.0384649598153463,44.901634659863134,10.493702902132272,1.9799827196345134,0.7391606433396445,127.28338137203752,17.18916880941305,0.0,1.0,0.0,0.0,1.0,Taxi
1.0,0.07956722808033558,7.7996402936310885,9.623337448224731,2.0316968515523195,-0.17800201044779407,127.39474348300018,18.292131601619158,0.0,1.0,0.0,0.0,1.0,Taxi
1.1,-0.024556924881007993,5.699805605941229,10.99582003250862,2.221728366541355,-0.0821967919698864,127.32102410336728,17.390891215540368,0.0,1.0,0.0,0.0,1.0,Taxi
1.2000000000000002,-0.009965931785640151,-3.66214529734795,9.628914133949463,2.2541900195471705,0.055889296276142766,127.43016062246227,16.862375544702328,0.0,1.0,0.0,0.0,1.0,Taxi
1.3,0.06125650159359583,51.67061808947284,9.079375595287146,2.026994194660269,-0.2095202975989872,127.35218311687908,17.969373923838784,0.0,1.0,0.0,0.0,1.0,Taxi
1.4000000000000001,0.23379616556635618,56.054275410807435,10.190995077743045,1.8439361481809682,-0.3211141244217977,127.1583063153139,17.572179932079376,0.0,1.0,0.0,0.0,1.0,Taxi
1.5,0.270305445268397,-43.916961362767495,10.576186964522055,1.8143718001453681,0.037647063147664854,127.20821289954387,17.26196560300122,0.0,1.0,0.0,0.0,1.0,Taxi
1.6,-0.15832830522024166,-71.90404182833052,11.097514790859968,2.0007206729016707,-0.6539813993913042,127.29464848566658,17.78941507308809,0.0,1.0,0.0,0.0,1.0,Taxi
1.7000000000000002,-0.12572404357529643,-73.9148910105465,11.701068790608446,1.7335613897558158,-0.00947486425839485,127.30352465415757,17.801839322671825,0.0,1.0,0.0,0.0,1.0,Taxi
1.8,-0.09926900978433552,46.26803298144754,10.728084238021866,2.242887432066518,-0.8203232550483929,127.16559704689166,17.815419893855264,0.0,1.0,0.0,0.0,1.0,Taxi
1.9000000000000001,0.07301185968699607,15.714417846007805,8.908017934785322,1.9108272188037134,0.14931569576963946,127.19472203799444,17.556130503609513,0.0,1.0,0.0,0.0,1.0,Taxi
2.0,-0.04715195434525743,20.646946905578087,9.910969455105624,1.743994812960006,-0.006324861080512149,127.51872262960433,17.360460151299005,0.0,1.0,0.0,0.0,1.0,Taxi
2.1,0.003965724743554901,3.213005416822097,9.975897774808814,2.0170484062009324,0.8755344312886039,127.40383382912557,17.797483088356824,0.0,1.0,0.0,0.0,1.0,Taxi
2.2,0.08907688677110653,-6.006400960930914,10.136195351277484,2.065971672044209,0.09489472650077307,127.32763592225223,16.573324725919832,0.0,1.0,0.0,0.0,1.0,Taxi
2.3000000000000003,-0.077183959149912,5.482334804396565,10.2685817594698,2.145357332537646,-0.28835433970576047,127.28643299017301,18.116336414500957,0.0,1.0,0.0,0.0,1.0,Taxi
2.4000000000000004,0.03137739876553772,-48.82461646582433,10.714841221207069,1.6975895500038816,-0.6119155568596417,127.25992611312438,17.599997119489075,0.0,1.0,0.0,0.0,1.0,Taxi
2.5,-0.15504619555801508,3.492842261831941,10.195663760202114,1.818298594827452,0.6731009635266364,127.18052308818659,18.13352277517952,0.0,1.0,0.0,0.0,1.0,Taxi
2.6,-0.059719747840752284,2.4306109080990956,9.829710715159656,1.825114728403912,0.3269440164488948,127.37618812649566,17.08153693900552,0.0,1.0,0.0,0.0,1.0,Taxi
2.7,0.043530453306033196,35.585029992272105,8.986528109877618,1.5304713566889445,-0.5762660259314377,127.1130011710996,18.015935847986604,0.0,1.0,0.0,0.0,1.0,Taxi
2.8000000000000003,0.02287895440334543,-19.507280004031266,8.559175161962386,2.06204807952354,0.3900896619318173,127.48760555573114,18.30259707922862,0.0,1.0,0.0,0.0,1.0,Taxi
2.9000000000000004,-0.15725614786090863,-25.015584565728222,9.446370545712997,2.05621700728554,0.4056205492107483,127.37099747575223,17.071897798507123,0.0,1.0,0.0,0.0,1.0,Taxi
3.0,-0.08154746952260794,16.771154065616354,9.777713165858296,2.2565989740738317,0.15429855346584354,127.2284577721964,17.78550328043135,0.0,1.0,0.0,0.0,1.0,Taxi
3.1,0.1067347247314272,-0.9256898801865816,9.715252025086498,2.017494582672018,0.4190628643460174,127.27987061030518,17.03410589175495,0.0,1.0,0.0,0.0,1.0,Taxi
3.2,-0.16188459726184157,3.867883699364976,10.920061852210106,2.029448793921108,-0.3181047545641853,127.27048687888447,17.000641543259114,0.0,1.0,0.0,0.0,1.0,Taxi
3.3000000000000003,-0.062208051025783084,-8.060704618695175,10.122559394535262,2.1729149019982157,-0.8025023036185994,127.27086875138082,18.059016772004195,0.0,1.0,0.0,0.0,1.0,Taxi
3.4000000000000004,0.06643120163795128,19.13535764388571,9.957786324495752,1.981421567802538,0.1715678980318096,127.32689021981025,17.081694496434924,0.0,1.0,0.0,0.0,1.0,Taxi
3.5,-0.06620780904241305,25.861666117346093,8.781715870579632,1.8534439790523063,-0.020714298150324103,127.22360570271212,18.027586137747335,0.0,1.0,0.0,0.0,1.0,Taxi
3.6,0.06710027956094737,-25.05279360466275,10.456742843194789,2.1115297135487663,0.26140500345814893,127.22290647250628,18.002046879307258,0.0,1.0,0.0,0.0,1.0,Taxi
3.7,-0.05883276638536246,9.329773217871407,10.596592442020855,1.7820168222969333,0.34210084720477524,127.20416653445932,17.293756868862516,0.0,1.0,0.0,0.0,1.0,Taxi
3.8000000000000003,-0.019558942953056005,-31.505279858838424,9.730411837077426,2.107668776990852,0.3272238380268015,127.3136766152133,17.196946580763047,0.0,1.0,0.0,0.0,1.0,Taxi
3.9000000000000004,-0.09042611973324476,9.353693801885989,8.98830150953862,1.8658722800576628,0.33459859634611977,127.12651176727263,17.353211079870253,0.0,1.0,0.0,0.0,1.0,Taxi
4.0,-0.012064297375932509,-19.292173946435103,9.962926357124763,1.8797482997931934,-0.6722673630797831,127.3737960047427,17.838158725185426,0.0,1.0,0.0,0.0,1.0,Taxi
4.1000000000000005,-0.11601981268523152,30.880957501943083,10.828271993795239,2.3722327218912405,-0.35522844498878364,127.24627074133593,17.383260475271285,0.0,1.0,0.0,0.0,1.0,Taxi
4.2,0.06397866777647067,11.448985871363925,10.099166946996434,2.095695284039125,0.3181215003083058,127.30554407473011,17.572161467846506,0.0,1.0,0.0,0.0,1.0,Taxi
4.3,0.04518063198088713,24.231068761161314,9.539382391881778,1.9788311256542457,-0.28509356997022556,127.23653127634321,17.084696828186818,0.0,1.0,0.0,0.0,1.0,Taxi
4.4,0.00513553112057508,-20.669567558039375,10.632228641473665,2.0176791334938033,0.05708140836658441,127.46244991434241,18.53651166173358,0.0,1.0,0.0,0.0,1.0,Taxi
4.5,-0.039369170013726196,-20.86620504353454,9.350532370034694,1.8421175543496784,-0.04455283702592676,127.39895772987501,17.525608099787767,0.0,1.0,0.0,0.0,1.0,Taxi
4.6000000000000005,-0.05915039323678553,41.189243415908955,9.447627059585495,1.7478857001792707,0.5295087009309649,127.35921744250004,17.442780077551674,0.0,1.0,0.0,0.0,1.0,Taxi
4.7,0.21108174820011993,-4.744004521813916,10.018027778718603,2.053694136932472,0.19550111114928603,127.20133717084616,17.018688907043742,0.0,1.0,0.0,0.0,1.0,Taxi
4.800000000000001,-0.0630891926227957,26.75158518577726,9.59405241773377,1.938794048899658,-0.007332405723304069,127.19975388421722,17.902949718830882,0.0,1.0,0.0,0.0,1.0,Taxi
4.9,0.07460753269210084,-53.2278238525584,9.488127960422178,1.817090932830597,0.4431384133066623,127.2020992709846,17.49437857579406,0.0,1.0,0.0,0.0,1.0,Taxi
5.0,-0.05505737106267207,7.226652744688226,10.339582342907802,2.07458862296632,-0.009918955423156938,127.47857243203578,18.08033676064329,0.0,1.0,0.0,0.0,1.0,Taxi
5.1000000000000005,-0.026955928899354553,-3.015956444206831,10.029967311954298,2.0204244147764028,0.24831290546541496,127.21951747822743,17.127470102186685,0.0,1.0,0.0,0.0,1.0,Taxi
5.2,0.059527750471066704,30.48631159410174,10.32047559164677,2.068312817767891,0.22516293191414014,127.45890598588346,17.173434565252855,0.0,1.0,0.0,0.0,1.0,Taxi
5.300000000000001,0.09737418690783665,32.15655864828826,9.581897766801772,1.9543434864765703,-0.10325885209820787,127.37283226054416,17.394203567075543,0.0,1.0,0.0,0.0,1.0,Taxi
5.4,0.13382686434208677,5.109078127279133,10.554902032551341,2.010183003520417,0.26211278438385643,127.37086079780812,18.07994393816703,0.0,1.0,0.0,0.0,1.0,Taxi
5.5,0.08507314110746239,-47.77953063476702,10.70753398886764,2.1613654477703523,0.5795137150269127,127.42030326331815,18.09316552489598,0.0,1.0,0.0,0.0,1.0,Taxi
5.6000000000000005,-0.14152346626599846,-34.89444998195687,11.066966229450923,1.9217048388985902,0.49962533352084965,127.56102901272925,16.680900224348804,0.0,1.0,0.0,0.0,1.0,Taxi
5.7,-0.0406453855676976,6.451686383501216,11.045430100238955,1.8011722887154877,-0.07322189978864571,127.3645757323427,18.318073930905978,0.0,1.0,0.0,0.0,1.0,Taxi
5.800000000000001,0.1173315730249685,48.791506424990644,10.800883046969235,2.040775996884741,0.8008848997929652,127.33765379703732,17.454181597995376,0.0,1.0,0.0,0.0,1.0,Taxi
5.9,0.10243406585895481,2.2135273808743015,9.767922847259609,1.6265104009177487,-0.4422849214914515,127.50311064253583,17.762104275201843,0.0,1.0,0.0,0.0,1.0,Taxi
6.0,-0.02957774866332601,21.35398928139549,10.432458802399093,1.5021784155588231,0.4708130832199995,127.34173264207573,17.48304762544689,0.0,1.0,0.0,0.0,1.0,Taxi
6.1000000000000005,0.224101519431946,-50.508098471255344,10.81626425993191,2.2400587666241836,0.9191776301703245,127.41094446867396,18.043440185764535,0.0,1.0,0.0,0.0,1.0,Taxi
6.2,-0.1501064264973218,-51.17494672320279,10.087105800160145,1.5705816832354835,0.2086554416435848,127.30629758361704,17.367035688691423,0.0,1.0,0.0,0.0,1.0,Taxi
6.300000000000001,-0.2854524822793399,1.8909999060740195,9.900551729666208,2.0312589571403272,-0.6110685448646841,127.15302787457296,17.270321443930197,0.0,1.0,0.0,0.0,1.0,Taxi
6.4,0.2335565189623161,44.813803654410854,10.351511731249309,2.0077690037862266,-0.3596270587278881,127.43062127904551,17.711120889089546,0.0,1.0,0.0,0.0,1.0,Taxi
6.5,0.0739625917747325,93.22185363778713,8.96884738743977,1.7864528216981852,-0.13310551095196188,127.35179125738995,17.432301153963387,0.0,1.0,0.0,0.0,1.0,Taxi
6.6000000000000005,0.1806567859095958,-6.9215148688511645,9.586939792332936,1.7132245157755135,-0.2131123420646274,127.3475655771091,17.027260240365926,0.0,1.0,0.0,0.0,1.0,Taxi
6.7,0.19894894461806029,-26.18559596889808,9.465360130484697,1.7571058470127574,0.26116430997363105,127.45832843855612,17.626525233427685,0.0,1.0,0.0,0.0,1.0,Taxi
6.800000000000001,-0.056965388069757886,-40.27284734644826,9.671952208610769,1.8903807356971662,-0.913429446551747,127.42122152365192,17.90007483825608,0.0,1.0,0.0,0.0,1.0,Taxi
6.9,-0.020707450822645492,-36.956503426069936,9.666128519256135,1.9320505881192491,-0.08276142720569717,127.32553670833516,18.284277083578324,0.0,1.0,0.0,0.0,1.0,Taxi
7.0,0.014166427487710626,11.68051111597238,10.088227142721943,1.8405690014710674,0.8352918822507449,127.23105467995998,17.60886194530882,0.0,1.0,0.0,0.0,1.0,Taxi
7.1000000000000005,0.001437167510104009,16.53588326728787,9.403198013267403,1.4964651497552348,0.21523284892839734,127.23095176460106,16.903543039742086,0.0,1.0,0.0,0.0,1.0,Taxi
7.2,0.06197196551379385,-37.047314003218666,9.737988372120924,1.994663832160348,0.6035347224951939,127.28175201234649,17.841491100676947,0.0,1.0,0.0,0.0,1.0,Taxi
7.300000000000001,-0.1710701425283827,-0.9431692316061296,10.032359007491555,1.9404872929668173,-0.6498242520862327,127.20989901984376,18.052659674653,0.0,1.0,0.0,0.0,1.0,Taxi
7.4,-0.003278678647926651,-1.5289384307759473,9.77526415491099,1.7570263419412586,0.9096569264539713,127.2413746701003,18.320773361313478,0.0,1.0,0.0,0.0,1.0,Taxi
7.5,0.0543272733599141,44.54230655859931,9.91747435765621,2.1438846580989055,-0.1919208239642006,127.44857117767697,17.848374042619053,0.0,1.0,0.0,0.0,1.0,Taxi
7.6000000000000005,0.05164139026461378,-15.08754392289867,9.859995097281617,1.7090052627025243,-0.07112209485356498,127.43584018791438,17.75853403693036,0.0,1.0,0.0,0.0,1.0,Taxi
7.7,-0.07871639826242001,18.737141329783565,10.467515599914563,1.9179014142701398,0.291488559482714,127.40964135878079,18.379610743419587,0.0,1.0,0.0,0.0,1.0,Taxi
7.800000000000001,0.14801298000883192,-13.742516250627565,9.739184750126201,2.1621353536051715,0.34276171173709785,127.45613730635489,17.306156561424554,0.0,1.0,0.0,0.0,1.0,Taxi
7.9,-0.01707119098852402,4.5128395107471535,9.622424891958714,1.9286143465973824,0.2519796722397089,127.2040909286008,17.82529154145537,0.0,1.0,0.0,0.0,1.0,Taxi
8.0,-0.05615220070868421,-45.181861534945675,8.463922216825518,1.985678923340621,0.5177695322493568,127.23420982548248,17.937298759797343,0.0,1.0,0.0,0.0,1.0,Taxi
8.1,-0.0778963276658964,-10.863296134581653,10.002487394907485,2.0996592652103088,-1.201331823236652,127.26559719823274,17.132810259302055,0.0,1.0,0.0,0.0,1.0,Taxi
8.200000000000001,-0.07138767166143227,6.672272055431715,9.104912304920862,2.2533117894369425,-0.003207032458998744,127.12056079077831,17.344507902771063,0.0,1.0,0.0,0.0,1.0,Taxi
8.3,-0.022790840431525627,-7.483077708297022,10.796264756506554,1.8713526845943147,0.7751260821247201,127.21976048241697,17.848434545784464,0.0,1.0,0.0,0.0,1.0,Taxi
8.4,-0.11531171620738148,35.27829645686941,9.619058088871954,1.6598168653851646,0.04783148446634425,127.32755832934998,16.68437497910826,0.0,1.0,0.0,0.0,1.0,Taxi
8.5,0.10500381062291482,13.66605145328503,9.285144912971745,1.5424367257652585,-0.141299743223207,127.19331624938917,17.9249758390396,0.0,1.0,0.0,0.0,1.0,Taxi
8.6,0.04553941683489956,20.732809479195282,10.54899821134489,1.737835174614336,0.0015422835326349632,127.31690697221995,19.210639200304495,0.0,1.0,0.0,0.0,1.0,Taxi
8.700000000000001,-0.011647668811405061,-34.347041586753015,9.264783920139573,1.56964901839138,0.059178012820798286,127.38090493059394,17.346208821347957,0.0,1.0,0.0,0.0,1.0,Taxi
8.8,-0.06673139731085022,-37.156727508330825,9.565734445372678,1.8232289493939455,-0.0795128241747213,127.2913230883886,17.760447489951908,0.0,1.0,0.0,0.0,1.0,Taxi
8.9,-0.14024422070675455,-9.939893636303156,9.401028237718263,1.9482619440942262,0.5152837901000055,127.30760737703417,16.719766451847416,0.0,1.0,0.0,0.0,1.0,Taxi
9.0,-0.061347136992920825,-1.0309070255015997,11.112897771472419,1.7730100725773363,-0.44963677872198404,127.47134551376473,17.05512943488916,0.0,1.0,0.0,0.0,1.0,Taxi
9.1,-0.07188593243835821,43.15534407943284,9.763087082966921,1.8648031797748255,0.4732323575996148,127.3632755167962,18.330966577007146,0.0,1.0,0.0,0.0,1.0,Taxi
9.200000000000001,0.07553249969040965,27.560565692544575,10.254655174768171,1.947654126960133,0.07496586204835823,127.34503825061665,17.90930833510369,0.0,1.0,0.0,0.0,1.0,Taxi
9.3,0.07645569146980208,-20.3964693117511,10.172420047077063,2.4094189142232327,-0.09963184082022326,127.29471519437635,17.836260194328368,0.0,1.0,0.0,0.0,1.0,Taxi
9.4,-0.17386827899711366,2.878984972174654,10.397900781158453,1.7851316314552463,-0.20759523207930938,127.41277828322632,17.507142441302612,0.0,1.0,0.0,0.0,1.0,Taxi
9.5,0.08992742455128293,-9.275408573531891,9.461203840011128,1.617802189491214,-0.10176018090359482,127.58628905795854,17.864339634881166,0.0,1.0,0.0,0.0,1.0,Taxi
9.600000000000001,0.030078648602142672,37.06683751132821,9.032778282826254,2.1355451124983285,0.3735662916199426,127.39717809119554,17.97431993436272,0.0,1.0,0.0,0.0,1.0,Taxi
9.700000000000001,0.011465908559527414,-23.581767905355083,11.083180702977776,1.9103256791867032,0.37544295818560197,127.34214147942828,17.48361002683182,0.0,1.0,0.0,0.0,1.0,Taxi
9.8,-0.027981414975492443,19.793608161890447,11.137628080626156,1.9566539461933559,0.46418336816087863,127.31432857158097,17.377711228037487,0.0,1.0,0.0,0.0,1.0,Taxi
9.9,0.12904668941159497,-14.062287889387003,9.953302270449193,1.675098158098283,-0.40547267692123307,127.38115584322202,17.168179542026756,0.0,1.0,0.0,0.0,1.0,Taxi
10.0,-0.05884553088740754,35.88458062709764,10.049416153432716,2.233391313048545,-0.6096956019332846,127.4788336138991,18.720075239426393,0.0,1.0,0.0,0.0,1.0,Taxi
10.100000000000001,0.15144148815999584,-15.547468655560882,9.850176608118932,1.8644746578057754,0.1118793130644876,127.36422353581997,17.47299393432979,0.0,1.0,0.0,0.0,1.0,Taxi
10.200000000000001,0.05130934613379062,-8.569686158076166,11.033423878881187,1.8879387808413766,-0.3651060291716999,127.33829042731873,17.41198328131356,0.0,1.0,0.0,0.0,1.0,Taxi
10.3,-0.10169396167778832,-76.43530313175127,9.078108435986028,1.5078685791800153,-0.0870959752418148,127.31801922161287,17.65539883137733,0.0,1.0,0.0,0.0,1.0,Taxi
10.4,-0.23073502749876051,-5.979353672462177,9.89862185888876,1.9403452507571504,-0.19813915720870817,127.282410742531,17.523981095635147,0.0,1.0,0.0,0.0,1.0,Taxi
10.5,0.021412577771479785,35.47221332695939,10.306802107569796,1.965349700197733,-0.1860231391468843,127.22034116397128,17.238027618975387,0.0,1.0,0.0,0.0,1.0,Taxi
10.600000000000001,0.07566710495700871,79.87688204093449,10.172673458829445,1.9154711731513598,0.2359658315943839,127.45769141428747,16.660447272769016,0.0,1.0,0.0,0.0,1.0,Taxi
10.700000000000001,0.168649382705912,-31.957716415373472,9.711662025356034,1.6469402864372555,-0.09037254855007922,127.09260211023877,18.18355597956328,0.0,1.0,0.0,0.0,1.0,Taxi
10.8,-0.13837600430538752,-36.7637808774837,10.174390462253234,1.905983732564966,0.050198819818364944,127.25195893475728,17.231571546360097,0.0,1.0,0.0,0.0,1.0,Taxi
10.9,-0.10815179943040974,-37.89844273790852,9.606060176953529,1.8589943978431211,-1.6145437687496655,127.30869389055579,17.735164837651414,0.0,1.0,0.0,0.0,1.0,Taxi
11.0,-0.02084283098363054,20.421545035472338,10.162848770348985,1.744796543144583,-0.5675929932312741,127.22265523551971,17.967167849222818,0.0,1.0,0.0,0.0,1.0,Taxi
11.100000000000001,-0.03626827912802577,34.186128440215306,10.456417138882399,2.148299822794773,0.20201655055161954,127.24432771971806,17.411971015320745,0.0,1.0,0.0,0.0,1.0,Taxi
11.200000000000001,0.06277884277066687,50.10231996445029,10.09652346274899,1.9847184592627696,-0.729850123090919,127.24245947417717,17.56357068614488,0.0,1.0,0.0,0.0,1.0,Taxi
11.3,0.22966876883862095,13.338862378012436,10.195073707604273,2.1764674084922953,-0.4999716135040009,127.2734512085438,18.362417225604823,0.0,1.0,0.0,0.0,1.0,Taxi
11.4,0.03042603276203644,31.73290449255028,9.477622683888708,2.3937532965837134,-0.6345557074401734,127.26130559771957,18.458117584854254,0.0,1.0,0.0,0.0,1.0,Taxi
11.5,0.2214433652334183,-4.475009283502798,10.47333260860155,2.1062999951712293,-0.19458792029049804,127.4495779258682,17.084222355024774,0.0,1.0,0.0,0.0,1.0,Taxi
11.600000000000001,0.20729372242110694,-26.845104792667627,9.270030909546449,1.9292996225295402,-0.678357308127216,127.41114080801822,17.50636602706648,0.0,1.0,0.0,0.0,1.0,Taxi
11.700000000000001,-0.10379949120130164,-50.40218605664818,11.10586219157468,1.9353538683975504,0.044194945980005215,127.288769880919,18.012582788474653,0.0,1.0,0.0,0.0,1.0,Taxi
11.8,-0.030567565049822526,-70.47547895798573,10.534387586130453,2.0732050164516695,-0.9700453807249856,127.25759097820134,16.9359152789844,0.0,1.0,0.0,0.0,1.0,Taxi
11.9,-0.14508367236882164,52.54395269436423,11.94119699867818,1.8089452262115822,0.8227035231406893,127.29592692103063,18.3137009185405,0.0,1.0,0.0,0.0,1.0,Taxi
12.0,0.15892027227051952,-6.253610733678329,10.431733001308963,2.181711732986163,0.5460723302747752,127.31826344433586,17.35516896580142,0.0,1.0,0.0,0.0,1.0,Taxi
12.100000000000001,-0.06183561871821417,37.38998013691931,10.396464192772912,1.5930883392398583,0.25959570552283645,127.35292202389718,17.389614582675716,0.0,1.0,0.0,0.0,1.0,Taxi
12.200000000000001,0.04186622831577494,-27.425208616334302,9.937099424529775,1.9568259693231609,-0.4348015528229413,127.36983327279569,17.239251137117098,0.0,1.0,0.0,0.0,1.0,Taxi
12.3,0.02179422918884803,8.825271390320365,8.898116648227601,2.051958164538281,-0.0016970907505949283,127.20058999054777,17.501389805421507,0.0,1.0,0.0,0.0,1.0,Taxi
12.4,-0.017709261766612288,18.28722255628747,10.50758011318282,1.627027300985909,-0.5458805347351643,127.40174895212942,17.413649327782956,0.0,1.0,0.0,0.0,1.0,Taxi
12.5,0.13330234109721237,-3.3272634514181476,10.009443795126188,1.6658470742374067,0.05836315424176233,127.21682255723715,18.0332965349698,0.0,1.0,0.0,0.0,1.0,Taxi
12.600000000000001,0.005157911931757364,20.13774123742331,10.148473167673352,1.9734285631107933,-0.6618202204667913,127.46245720103218,16.755966504874092,0.0,1.0,0.0,0.0,1.0,Taxi
12.700000000000001,0.08297944442050431,-39.520155478152255,9.938459978282104,2.0087946137524186,0.3985762380689754,127.30865091170216,17.861927932045056,0.0,1.0,0.0,0.0,1.0,Taxi
12.8,-0.06429843629354885,-6.044723955088334,9.186399778166482,2.1735169222360744,-0.1129412655001456,127.10792043496235,16.772048600306267,0.0,1.0,0.0,0.0,1.0,Taxi
12.9,-0.02506570784368426,-31.5707958157129,10.3015623980272,1.8760027807048691,-0.23124725772814123,127.23866830939687,17.3190718361321,0.0,1.0,0.0,0.0,1.0,Taxi
13.0,-0.07487453465806014,40.92427933933028,9.549092043162902,1.9942857521730655,1.5116897523153134,127.20387973242657,17.539865481705288,0.0,1.0,0.0,0.0,1.0,Taxi
13.100000000000001,0.1403229604031026,-7.760103871299331,9.504219428744825,2.0978296410752484,-0.44486098653473655,127.48682956351388,17.441930657395094,0.0,1.0,0.0,0.0,1.0,Taxi
13.200000000000001,-0.06386622720018088,0.04807059714711374,10.616697916488754,2.1699660279894664,-0.8786603351759285,127.267533325013,17.239865959519335,0.0,1.0,0.0,0.0,1.0,Taxi
13.3,-0.07463418167232454,-10.821787619964189,9.594416291276572,1.982635504718757,-0.721707847318369,127.14768509375585,18.213588839902286,0.0,1.0,0.0,0.0,1.0,Taxi
13.4,0.08621402230328169,-44.269913947647666,11.04099203111885,1.5432686087701377,0.5679721255524458,127.36729189201623,17.851030668262382,0.0,1.0,0.0,0.0,1.0,Taxi
13.5,-0.2852157969384192,21.53606723152232,11.130247553255428,1.9886308478352681,-0.7917190900816817,127.35941466756793,17.595183187319478,0.0,1.0,0.0,0.0,1.0,Taxi
13.600000000000001,0.03304615448528706,13.285647882183932,10.367088868792067,1.7022667758657701,0.23375803988339952,127.2766598887033,16.6823039018492,0.0,1.0,0.0,0.0,1.0,Taxi
13.700000000000001,0.15264226171420137,46.582217823578354,10.176423798272605,1.9148733533941529,-0.049550969817041636,127.23649818408944,18.047725853823717,0.0,1.0,0.0,0.0,1.0,Taxi
13.8,-0.052304707820527374,-10.108585560048306,10.370266173747723,1.6303951402804127,-0.47924932927317926,127.38547998837498,17.57594768523668,0.0,1.0,0.0,0.0,1.0,Taxi
13.9,-0.017496773314954413,-21.44576255038166,9.782533870562336,1.9110226909616301,0.0985978859151126,127.2333132145356,17.107820445267258,0.0,1.0,0.0,0.0,1.0,Taxi
14.0,0.04541344896229314,4.1259700058844375,9.763660637858685,1.8386543131140698,0.11413483666948966,127.46607473468049,17.74443306307285,0.0,1.0,0.0,0.0,1.0,Taxi
14.100000000000001,-0.03167485779110514,0.8687037396109959,10.157041389945263,2.0907601179904187,-0.12479852120317063,127.37204010861353,17.31761249238852,0.0,1.0,0.0,0.0,1.0,Taxi
14.200000000000001,-0.013153254616899394,6.994643529906583,10.622568424029609,2.1569553713086522,-0.5941607952075846,127.31149035214128,18.070975309107855,0.0,1.0,0.0,0.0,1.0,Taxi
14.3,0.0803866666118261,5.158406988048256,9.106160384751416,2.0488531170371256,-0.5018155709777093,127.20553736794074,17.249099786927125,0.0,1.0,0.0,0.0,1.0,Taxi
14.4,-0.0058828228508638,-4.027160836164727,8.59541434734028,1.9358509123073495,-0.6814025725944474,127.56225500073037,17.147460009670546,0.0,1.0,0.0,0.0,1.0,Taxi
14.5,-0.03328905879772297,-6.178787461790438,9.504663940786694,2.155748298679222,0.1105348422474798,127.2709317642715,17.077298882153553,0.0,1.0,0.0,0.0,1.0,Taxi
14.600000000000001,0.04949272930287397,-1.4381400609070145,10.310170980438194,1.5490260127960016,-0.2689215312865547,127.25377330684466,17.105081120977363,0.0,1.0,0.0,0.0,1.0,Taxi
14.700000000000001,-0.013073523155398815,-17.403801526199285,11.02904765653478,2.1360600030603165,-0.14742131410168885,127.35592295050446,18.029926687448697,0.0,1.0,0.0,0.0,1.0,Taxi
14.8,-0.12030806642871933,19.760457688172437,9.474568927410083,1.5703032537443513,0.6859116774549359,127.28517019854013,17.707866281709208,0.0,1.0,0.0,0.0,1.0,Taxi
14.9,0.1482950177437362,12.601872260815043,9.921533161456887,1.8097763681734924,-0.08055687237091248,127.37465518545048,17.69913745788034,0.0,1.0,0.0,0.0,1.0,Taxi
15.0,0.049935838148676456,8.722386628662369,10.2492305366154,1.7273366187136836,0.5822418135124677,127.53616777785459,17.873732529080343,0.0,1.0,0.0,0.0,1.0,Taxi
15.100000000000001,-0.07669613328540743,-31.09137295820158,10.616303899254738,1.9686469787017913,0.3494742615838142,127.56777449657824,17.389572017915516,0.0,1.0,0.0,0.0,1.0,Taxi
15.200000000000001,-0.007161847047271664,-13.650329988025133,9.792829046057152,2.526745779062958,0.14451916237878076,127.33694676462488,16.823154527418627,0.0,1.0,0.0,0.0,1.0,Taxi
15.3,-0.018315811791449164,17.986582686664566,10.590496235951488,1.8759170612329503,-0.23011204115681264,127.47343551178034,17.67589430060621,0.0,1.0,0.0,0.0,1.0,Taxi
15.4,0.013236780147915437,8.841387196041808,8.813136749264098,1.9790030453490464,0.7008827606168302,127.37030755412013,17.82977853444428,0.0,1.0,0.0,0.0,1.0,Taxi
15.5,0.03704508893293742,-3.05091179520335,9.886611039392903,1.7831371534687288,-0.5169761318167595,127.43612366364653,17.994177225962396,0.0,1.0,0.0,0.0,1.0,Taxi
15.600000000000001,-0.03357037076746588,26.484143681120973,10.16091165155021,1.6595360627488482,-0.08894949269368177,127.45261753635486,17.533687726698318,0.0,1.0,0.0,0.0,1.0,Taxi
15.700000000000001,0.14565749855352034,-50.61117179089007,10.925041750875861,1.8371174797161047,0.715098313569101,127.22899609473342,16.82140627025851,0.0,1.0,0.0,0.0,1.0,Taxi
15.8,-0.21601077002151292,-13.977853773506112,9.799739145427184,2.1271280528107694,-0.6918121781809358,127.03352565777709,17.99942249529266,0.0,1.0,0.0,0.0,1.0,Taxi
15.9,-0.10345963963499644,-27.70751781861225,9.84837430273829,2.0749012599173993,1.2770910741621975,127.31148207573045,17.398524450189385,0.0,1.0,0.0,0.0,1.0,Taxi
16.0,0.007119909460459087,34.97875067292229,10.708604754716944,1.820057149581888,-0.7840328632236567,127.2342404267971,17.0507976366704,0.0,1.0,0.0,0.0,1.0,Taxi
16.1,-0.04111701665690143,18.416579380327423,10.912040644226629,2.229933617490148,1.0584699045520385,127.30732374878716,16.703804855427368,0.0,1.0,0.0,0.0,1.0,Taxi
16.2,-0.011376742733359247,-22.705578023221324,9.706629186762779,1.8295222566272773,-0.45335805734388707,127.26460790004404,17.57143493306463,0.0,1.0,0.0,0.0,1.0,Taxi
16.3,-0.1064079806556475,-35.53863975355794,9.260296973250856,1.7661796748934666,-0.060780056637030115,127.38393886415088,17.72782269426298,0.0,1.0,0.0,0.0,1.0,Taxi
16.400000000000002,-0.21881021542469106,21.876359315597693,10.433770018751144,1.9471088806240162,1.618864990457482,127.23703752655791,17.6149920919815,0.0,1.0,0.0,0.0,1.0,Taxi
16.5,0.09800505384462932,44.08216969522516,9.823131672459,2.085631509834816,-0.5994454604307413,127.26024910346825,17.905063282423033,0.0,1.0,0.0,0.0,1.0,Taxi
16.6,0.11400286782047844,39.61145975626445,9.945609548209887,2.02650923208927,-0.3943457998400865,127.29045862906457,18.08319532619155,0.0,1.0,0.0,0.0,1.0,Taxi
16.7,-0.02075291664336869,0.16853412760459227,9.668027947835098,2.1139272781258818,-0.5594882545690394,127.37235864289784,17.158067674458778,0.0,1.0,0.0,0.0,1.0,Taxi
16.8,0.09884772448265233,-14.672555453244113,10.749648263543166,1.9382206581601231,0.010376976640859714,127.39585297649938,17.57606399849907,0.0,1.0,0.0,0.0,1.0,Taxi
16.900000000000002,0.040640090554257935,-11.206524592394159,9.74558063105861,1.9736977877505901,0.2758154938292123,127.33855116573238,18.086419734387636,0.0,1.0,0.0,0.0,1.0,Taxi
17.0,-0.07678553960533943,-44.228728324470175,9.636930909017506,2.0387720861668686,-0.053883931057835,127.30879029560458,17.225057441121123,0.0,1.0,0.0,0.0,1.0,Taxi
17.1,-0.12229591713969848,18.564848226819908,9.834005168105033,2.07020555913963,0.880993167386296,127.41163804434734,17.469019200117206,0.0,1.0,0.0,0.0,1.0,Taxi
17.2,0.13346433168835758,-3.3204861486204513,10.046548239777133,1.8021810352316368,-0.13542050754076523,127.38111915499968,17.45420649053207,0.0,1.0,0.0,0.0,1.0,Taxi
17.3,-0.0933879703484416,7.269486395491697,10.125046306486237,1.885416793123986,-0.553569268997358,127.45488510215114,17.945879157406306,0.0,1.0,0.0,0.0,1.0,Taxi
17.400000000000002,-0.08594848516223991,-27.54022577507257,10.916451233272282,2.0410749656104756,0.3477607231325833,127.3062773301088,18.144253715695914,0.0,1.0,0.0,0.0,1.0,Taxi
17.5,-0.00423679718700522,-1.8080034070808229,10.699791323994221,1.8953596440659686,0.5497241819587281,127.17310865949071,17.110918029595467,0.0,1.0,0.0,0.0,1.0,Taxi
17.6,-0.10242798738384565,27.855107130261413,10.426006709471919,1.9249209400640277,-0.14843705346246314,127.37049849108195,17.2575826003995,0.0,1.0,0.0,0.0,1.0,Taxi
17.7,0.05332705048906721,-13.506823047687751,10.985462513857131,2.1311486731869413,-0.4974027800170506,127.40192086896968,17.704452234229837,0.0,1.0,0.0,0.0,1.0,Taxi
17.8,-0.07177091242544391,50.6469624714336,9.920982474162717,1.8056469626042595,0.05651174656822637,127.48457746103554,16.527684229607054,0.0,1.0,0.0,0.0,1.0,Taxi
17.900000000000002,0.15080682497332243,-17.92115998171137,9.859001546123713,1.8300738302692234,0.206256464687487,127.2217121073482,17.638592042355047,0.0,1.0,0.0,0.0,1.0,Taxi
18.0,-0.03627874941948959,39.71031580780657,10.298446416234636,1.9024727111492674,0.0929531619512168,127.26989715586734,17.13356353763641,0.0,1.0,0.0,0.0,1.0,Taxi
18.1,0.12678066661358903,-69.47069939144973,9.364640443302184,1.7692162235881697,0.1902081628774713,127.29731533933057,17.393908410051004,0.0,1.0,0.0,0.0,1.0,Taxi
18.2,-0.1965466719839261,4.558335287889008,11.381824602199416,1.9327540264701883,0.32524374757603297,127.34784216850028,17.412086173497375,0.0,1.0,0.0,0.0,1.0,Taxi
18.3,-0.013487072980044444,10.02687212412537,11.141097918283544,2.144419806576376,-0.5014594216295905,127.27208370190107,17.907686047833078,0.0,1.0,0.0,0.0,1.0,Taxi
18.400000000000002,0.17691502723421595,37.2999589536608,10.646803909801767,1.9678358988665925,0.06315220635395687,127.28534544504754,18.81370049640382,0.0,1.0,0.0,0.0,1.0,Taxi
18.5,-0.010046877215622108,-36.425789595663765,11.42707008646024,2.1624864127521533,-0.4406235639509488,127.34737461462328,17.44149347190947,0.0,1.0,0.0,0.0,1.0,Taxi
18.6,-0.19561602095836325,-28.83053192511709,10.890060204012794,1.9689572741297618,-0.13256718861528033,127.4810009134535,18.09569150223984,0.0,1.0,0.0,0.0,1.0,Taxi
18.7,0.032762367608630556,-19.999466946226562,10.42524988777028,2.0396258902453046,0.26641265238141026,127.4845026910038,17.131821298680492,0.0,1.0,0.0,0.0,1.0,Taxi
18.8,-0.11004421194675483,47.40406231109987,9.98278093562156,1.7910973360713507,0.021177865045618093,127.44627580210499,17.473883396808482,0.0,1.0,0.0,0.0,1.0,Taxi
18.900000000000002,0.04140429059713622,-1.0138168034487105,9.894851748076716,1.767098805406234,-1.621372875500687,127.23572903729121,17.372831700462875,0.0,1.0,0.0,0.0,1.0,Taxi
19.0,0.027693283591387053,10.538786702983812,10.699218583113307,1.906007091377637,-0.7517562041617813,127.22688115921483,17.912158153199258,0.0,1.0,0.0,0.0,1.0,Taxi
19.1,-0.05735027843183574,-15.73413862242181,10.644996044729787,2.175757617329221,0.7834197973324237,127.31018923844726,17.427323335866763,0.0,1.0,0.0,0.0,1.0,Taxi
19.200000000000003,-0.037266402514972784,39.12367441348092,10.087161637475695,1.8182299235435155,0.8024943322697338,127.2838081542356,17.504084834847756,0.0,1.0,0.0,0.0,1.0,Taxi
19.3,0.2233116556587917,37.32941150932382,9.592687703834752,1.9992733863740206,-0.19772884880684438,127.35749954212537,17.708336530025225,0.0,1.0,0.0,0.0,1.0,Taxi
19.400000000000002,0.1292967791147834,41.252201495410276,10.193813607771181,1.9042313683842427,-0.15170830839015945,127.10338862875756,16.871145091489918,0.0,1.0,0.0,0.0,1.0,Taxi
19.5,0.16899460496207866,-30.733425338116092,10.492018877060223,1.835851101732131,0.6073610811776593,127.1740142644087,17.976847334753653,0.0,1.0,0.0,0.0,1.0,Taxi
19.6,0.0696445289682113,-15.95059195453689,9.533586155643585,2.0849129754929723,-0.028837684245477946,127.31200455611008,16.57360746150159,0.0,1.0,0.0,0.0,1.0,Taxi
19.700000000000003,0.049543819342099005,-14.939874945750711,10.522525773055166,1.9742575817538048,0.11680293626917178,127.2924280482166,16.90016176634833,0.0,1.0,0.0,0.0,1.0,Taxi
19.8,0.09429523023332514,6.020054204635379,10.466676997094496,2.304602106873431,-0.0044305757672888435,127.09719974484267,16.695062894172267,0.0,1.0,0.0,0.0,1.0,Taxi
19.900000000000002,0.09974479999138824,-8.835188976595498,9.827769624952257,1.7693147458665557,0.06331354597586,127.44936227219699,17.451641849563245,0.0,1.0,0.0,0.0,1.0,Taxi
20.0,0.005367874459121551,-31.070511323963217,9.886808905529907,1.3932811499666902,-1.273408228331807,127.07850251077582,18.45938719781832,0.0,1.0,0.0,0.0,1.0,Taxi
20.1,-0.06105732638649091,21.380767418056223,10.241366022576704,1.6872318585373185,-0.13863294568934179,127.28064543962523,17.329884858213763,0.0,1.0,0.0,0.0,1.0,Taxi
20.200000000000003,0.20664863708166942,-10.65180618529837,10.356042182478179,2.0686031054237435,-0.5190415419055187,127.25262482143523,18.33364110344923,0.0,1.0,0.0,0.0,1.0,Taxi
20.3,-0.04789115646737023,28.650025384320827,9.562478298511364,1.6598636082559826,0.42082881053996174,127.32660509760274,18.20817358660678,0.0,1.0,0.0,0.0,1.0,Taxi
20.400000000000002,0.08219280053511328,-27.951237714874413,9.397347315772368,2.0232422521593043,-1.4757643676117782,127.29933109378237,17.521970807214565,0.0,1.0,0.0,0.0,1.0,Taxi
20.5,0.06689244850729739,-10.133526794460872,10.673193485415828,1.7334205010793395,0.03239389890692291,127.267604563796,17.87777746832449,0.0,1.0,0.0,0.0,1.0,Taxi
20.6,-0.09855879043967457,-28.652398264987113,11.219294194559762,2.0836899497809607,0.3679245749659968,127.32263297068812,17.501520261859483,0.0,1.0,0.0,0.0,1.0,Taxi
20.700000000000003,-0.06106919078982224,2.024889319731509,9.910101278668288,2.015297522725364,0.44709853067014177,127.62768549118255,17.62940699438166,0.0,1.0,0.0,0.0,1.0,Taxi
20.8,0.07701689510595497,20.267611085448724,9.860889379467636,1.759746032715924,-0.22615891441472472,127.40972413901278,17.369649039904672,0.0,1.0,0.0,0.0,1.0,Taxi
20.900000000000002,0.0027792649875691107,-10.721127057335233,10.441282327730725,2.211097897565212,0.05194988503687431,127.38862564474766,17.056184086290948,0.0,1.0,0.0,0.0,1.0,Taxi
21.0,-0.11467482607649836,-30.471239176678406,10.131034430747329,1.892390861502818,0.11391399515220176,127.2449290380469,16.74188547560305,0.0,1.0,0.0,0.0,1.0,Taxi
21.1,-0.075339300777437,11.088948830819533,9.283428866001696,1.8951533276468644,0.1567132112954286,127.32248218880028,17.58852205995073,0.0,1.0,0.0,0.0,1.0,Taxi
21.200000000000003,0.058224009141666845,22.870358013451735,10.103402853631007,2.288474413511657,0.27071985549542704,127.4166584856531,17.649538688142112,0.0,1.0,0.0,0.0,1.0,Taxi
21.3,-0.0003230360092396044,20.127452959718205,9.956627222944558,1.5602597453478122,-1.1119788218799855,127.0167372307331,17.647189834754908,0.0,1.0,0.0,0.0,1.0,Taxi
21.400000000000002,0.0252979640211541,17.509002963698954,9.204525248454969,2.2024210027006452,-0.17270258404968405,127.2250459783196,16.779866396218846,0.0,1.0,0.0,0.0,1.0,Taxi
21.5,0.14576902396016167,21.956545503491867,10.412575666751785,1.716396478903838,0.2414830843665755,127.24120846316379,17.45511966172732,0.0,1.0,0.0,0.0,1.0,Taxi
21.6,0.10945969150821976,12.398786430892129,11.199037978624279,1.538809196445083,-0.171130123689975,127.24215417504621,17.02034578320061,0.0,1.0,0.0,0.0,1.0,Taxi
21.700000000000003,0.08729189617561478,-61.28147154807984,10.423610613398505,2.2678111534631196,-0.4517345898477462,127.3682578115089,16.861641395012608,0.0,1.0,0.0,0.0,1.0,Taxi
21.8,-0.1606383337802375,-19.411426824599772,8.975415820704534,1.6343865627892187,0.104161918347302,127.36607661257744,17.079693002135393,0.0,1.0,0.0,0.0,1.0,Taxi
21.900000000000002,0.012402557385220933,-33.65963357191072,10.64049103086057,1.7731459222998656,0.46593143071138476,127.40588302264604,17.63875857165852,0.0,1.0,0.0,0.0,1.0,Taxi
22.0,-0.0810062716839388,30.434222608086543,10.216491754405792,2.054536889998194,-0.5988366521677573,127.17306598733035,17.130093051823465,0.0,1.0,0.0,0.0,1.0,Taxi
22.1,-0.008467220739804755,-2.7940965340163313,10.084470962041559,1.8581101450800723,0.03181463773627606,127.2567019844447,17.846236244776577,0.0,1.0,0.0,0.0,1.0,Taxi
22.200000000000003,-0.0015679252848607005,24.04470605584052,9.729593998791508,1.8398982407419986,-0.4135575906749728,127.3998340626257,17.52897687974192,0.0,1.0,0.0,0.0,1.0,Taxi
22.3,0.03921725859526384,31.604918429971388,9.790709008410852,2.029670870681216,0.021617710264911265,127.43771254234713,17.138805111644455,0.0,1.0,0.0,0.0,1.0,Taxi
22.400000000000002,0.1495573714100522,3.0999555310467124,9.287143725223428,2.229037754336289,0.8719504355026036,127.29647881033816,16.79693963375427,0.0,1.0,0.0,0.0,1.0,Taxi
22.5,0.013931852370372888,22.531069674215228,10.452903381805143,1.9648510684110927,-0.33847584824749416,127.40076446233036,17.485288827095488,0.0,1.0,0.0,0.0,1.0,Taxi
22.6,0.15187260696634,-11.262710286196699,9.896394904028663,1.8768377495852397,0.07694511178833212,127.26153035899529,18.016842377905377,0.0,1.0,0.0,0.0,1.0,Taxi
22.700000000000003,0.09324381997906878,-15.199567910558239,9.79734998006093,1.678081611258903,0.7260640842531475,127.21897135597732,16.838821505172948,0.0,1.0,0.0,0.0,1.0,Taxi
22.8,-0.06206598718241823,-25.510901107181766,9.656574575404607,1.8901285930896405,0.2780862647281449,127.29982363773115,17.956283516566184,0.0,1.0,0.0,0.0,1.0,Taxi
22.900000000000002,0.024318101430431227,-19.31374208393225,11.204861472413596,1.751277178403976,0.18552804528111105,127.3495039585357,17.903057487116776,0.0,1.0,0.0,0.0,1.0,Taxi
23.0,-0.003324890440592427,-8.542868945208733,10.77824204860351,2.127983820063408,0.6059313644293869,127.46534175308443,18.24250920394359,0.0,1.0,0.0,0.0,1.0,Taxi
23.1,-0.10478033190846184,-14.35591531175931,10.52566248299266,1.6169982900922706,0.7393591076459259,127.41146977856795,18.184099093545907,0.0,1.0,0.0,0.0,1.0,Taxi
23.200000000000003,-0.04746147512836526,6.7027090707148815,9.572952409174777,1.8096601041937967,-0.3018279694659501,127.29769404314425,18.169840478686684,0.0,1.0,0.0,0.0,1.0,Taxi
23.3,0.030188654912982033,16.847955232442104,11.035062661481087,2.1028092532227647,0.31007001597498524,127.34265191212035,17.883299316105024,0.0,1.0,0.0,0.0,1.0,Taxi
23.400000000000002,-0.020540555746251285,15.46343946419441,9.98108452912283,1.8366921947058998,-0.46705945726221815,127.28885341848581,16.665690467359177,0.0,1.0,0.0,0.0,1.0,Taxi
23.5,0.029855722192606838,20.230188764208247,10.535219309980604,2.060722530645037,0.018839909040616998,127.1950761924407,17.683872677714255,0.0,1.0,0.0,0.0,1.0,Taxi
23.6,0.13133959873402332,-3.542198037771508,9.198656931537865,2.088649927274678,-1.0561798777762452,127.47851118526808,17.43254036900431,0.0,1.0,0.0,0.0,1.0,Taxi
23.700000000000003,-0.038251545935108794,-9.977702066089854,10.364140747960208,1.7823200204124827,-0.2013314816034002,127.07677841611223,18.590746250691673,0.0,1.0,0.0,0.0,1.0,Taxi
23.8,-0.020032788137842393,-79.31703911601925,10.384622513236213,2.1549308698704084,0.4450344032834691,127.24487162997633,17.510858852052987,0.0,1.0,0.0,0.0,1.0,Taxi
23.900000000000002,-0.2652455968460729,-8.418312762042058,9.752481212966,2.1507435359397546,-0.6949692037807977,127.39304872020233,17.857245199513365,0.0,1.0,0.0,0.0,1.0,Taxi
24.0,-0.08034310974531905,21.92437073879022,9.285206369282951,2.2672106046750313,-1.036449361965893,127.22576783089619,17.391926613590712,0.0,1.0,0.0,0.0,1.0,Taxi
24.1,0.08958906555610874,23.25498594093733,10.511356250437416,1.8165759383587456,-0.1382109206231832,127.27224838325446,18.144166353561015,0.0,1.0,0.0,0.0,1.0,Taxi
24.200000000000003,-0.14897066714138618,-0.49550036529951785,10.478480052164633,1.9025906733211602,0.6008046740618449,127.15849134157827,18.02184980771258,0.0,1.0,0.0,0.0,1.0,Taxi
24.3,-0.08282061157181658,6.320513133346016,9.25931069989418,2.0472585748430565,0.4619321177309363,127.4491000670235,17.401288409561865,0.0,1.0,0.0,0.0,1.0,Taxi
24.400000000000002,0.12119163122283888,28.314903033949022,9.628916871168574,2.398066136630746,-0.4844166379797372,127.38785722835843,17.597498661699813,0.0,1.0,0.0,0.0,1.0,Taxi
24.5,-0.0073961519716410065,-19.04473589784821,10.996019705603704,2.5014507993129538,-0.04335550116455997,127.37343808658272,17.104892219720245,0.0,1.0,0.0,0.0,1.0,Taxi
24.6,-0.17804429106105757,-8.526669881341812,9.601071390281513,1.9236055580432851,-0.1272502929271908,127.34527552654436,18.009835376832413,0.0,1.0,0.0,0.0,1.0,Taxi
24.700000000000003,0.0785582818161299,-22.26741167841726,9.839101952807965,2.2561082755858974,1.006361415937744,127.29773388567145,18.350070154548245,0.0,1.0,0.0,0.0,1.0,Taxi
24.8,-0.11873321036372726,45.7840641412462,10.018977508801823,1.8895703962111101,-0.4729986901960451,127.34222068130418,17.85484679822831,0.0,1.0,0.0,0.0,1.0,Taxi
24.900000000000002,0.05087602964517346,-24.516788524227067,9.248205119192365,2.2353874074764457,-0.1146597003271166,127.1289921767559,17.946207416741725,0.0,1.0,0.0,0.0,1.0,Taxi
25.0,-0.04402566080500539,6.000212352467428,11.017084591386364,1.8703911906098607,-0.33622921101434833,127.32003383432607,17.5435783516734,0.0,1.0,0.0,0.0,1.0,Taxi
25.1,-0.08873214860139006,25.99956199318215,10.869341560614833,1.7327318526679485,0.27147073570230373,127.29977236605572,17.3866684070472,0.0,1.0,0.0,0.0,1.0,Taxi
25.200000000000003,0.18087383961108425,5.260318471177158,10.017303656082882,1.9725378469058266,0.25256978639809863,127.23737665852855,17.474954505083428,0.0,1.0,0.0,0.0,1.0,Taxi
25.3,-0.017724068449119564,17.26046046632634,8.805617117503044,1.517261086511311,0.4426728729210231,127.3854954972204,17.066259959769972,0.0,1.0,0.0,0.0,1.0,Taxi
25.400000000000002,-0.002429846269758313,-56.801717207959136,10.168202226432093,1.5668996646540314,-1.012783067916561,127.2592488235374,17.21837929682875,0.0,1.0,0.0,0.0,1.0,Taxi
25.5,-0.10313474642871137,-0.7239122011762428,10.455553808589897,1.9893689511545958,-0.272138317429361,127.12199259448658,17.644009754703944,0.0,1.0,0.0,0.0,1.0,Taxi
25.6,-0.021343629455000738,-14.090252401692899,9.863574651775389,1.876568579074506,0.026505572427569315,127.44480866685655,17.19863707563421,0.0,1.0,0.0,0.0,1.0,Taxi
25.700000000000003,-0.07288110827822276,39.79372279640475,10.846650180437802,1.9947689195252314,0.19238383901804038,127.35177449823118,16.70867966301127,0.0,1.0,0.0,0.0,1.0,Taxi
25.8,0.09583386755331244,-12.934247056190992,10.495096067243068,1.8436010313468258,-0.687010044317443,127.36659810797039,17.344691342793382,0.0,1.0,0.0,0.0,1.0,Taxi
25.900000000000002,-0.08601486473595561,21.553094368521386,9.693927471401016,2.34368789913879,0.2602432418554424,127.23576006639564,17.151769631634274,0.0,1.0,0.0,0.0,1.0,Taxi
26.0,0.03488436356438424,-4.70360414570484,8.976696853975334,2.123683028131822,-0.770954586659481,127.37655785627021,17.19722394420999,0.0,1.0,0.0,0.0,1.0,Taxi
26.1,0.0723158468247883,20.144621715578797,10.96171793226569,1.6883073983089232,-0.21027116538835627,127.35720915240142,17.0006613597837,0.0,1.0,0.0,0.0,1.0,Taxi
26.200000000000003,0.014708243841938399,-21.64238443063694,9.395601299764246,2.073320165443059,0.09903886230223605,127.3450557163718,16.13327764371376,0.0,1.0,0.0,0.0,1.0,Taxi
26.3,-0.07332755858880045,-11.265997659850278,10.028315867047601,1.8558512066321506,-0.3200316096396344,127.22893901708755,17.383266004615372,0.0,1.0,0.0,0.0,1.0,Taxi
26.400000000000002,0.01598585852553692,-38.38315025083701,10.203721961570922,2.3395897965374206,0.6908807554608878,127.20754978244531,17.44872882626484,0.0,1.0,0.0,0.0,1.0,Taxi
26.5,-0.17720750741224667,33.999368496532895,10.5375679992439,1.9091368139121294,0.031380238926448076,127.27350687501246,18.621034561704164,0.0,1.0,0.0,0.0,1.0,Taxi
26.6,0.09666928389386402,-9.096364090523315,10.600409758727466,1.8816571755914453,0.07992095765899407,127.33046214465907,17.432374373918524,0.0,1.0,0.0,0.0,1.0,Taxi
26.700000000000003,-0.029495961927079647,42.929324350586,9.934392725106322,1.8414342721762291,-0.31124638312376607,127.27175492899471,17.02030999858097,0.0,1.0,0.0,0.0,1.0,Taxi
26.8,0.03743911434068335,-10.928780606110928,9.79316535053131,1.9932532691308202,0.0207974245977005,127.26831525341481,16.50856789953771,0.0,1.0,0.0,0.0,1.0,Taxi
26.900000000000002,0.04202538086330937,-10.305497883270453,9.794882423711014,1.9409654287749771,0.39413129579180367,127.43491945063988,17.53436226537021,0.0,1.0,0.0,0.0,1.0,Taxi
27.0,-0.0810234513434319,-17.071601603709826,9.828739895438158,1.9771302172536755,0.00818797232659494,127.48962991489441,17.77605427786175,0.0,1.0,0.0,0.0,1.0,Taxi
27.1,-0.04791889367786577,-31.005062606767186,10.857651046207584,1.8982019319455554,-0.2639883452660785,127.13886988848066,17.56379258605906,0.0,1.0,0.0,0.0,1.0,Taxi
27.200000000000003,-0.11299993217052656,33.725845239116346,9.511195323604442,2.1281957956556705,-0.24062168736985198,127.3651285342089,16.775037961899553,0.0,1.0,0.0,0.0,1.0,Taxi
27.3,0.0876057748521498,-34.87456576470538,9.351380203135781,1.6537835779188117,0.018687504163121288,127.34266704017779,16.4455114898298,0.0,1.0,0.0,0.0,1.0,Taxi
27.400000000000002,-0.2222917225013927,63.662544118737095,10.141748057214201,1.9111906924790834,0.6956972596757445,127.26060884396463,17.146423117844677,0.0,1.0,0.0,0.0,1.0,Taxi
27.5,0.2053127884231589,-5.280317776566818,10.57062511365453,2.0088872023340625,0.3106142536737243,127.48428588049075,18.521983031914537,0.0,1.0,0.0,0.0,1.0,Taxi
27.6,0.061204185969315685,71.16762667268993,9.258652880149162,1.4396249095265035,0.7801739535684582,127.34406866738993,16.47397271832578,0.0,1.0,0.0,0.0,1.0,Taxi
27.700000000000003,0.13354641086205696,-44.05153826781389,10.636017544295333,1.7235788411176118,-0.47272334023100643,127.35241387342717,17.53849320176455,0.0,1.0,0.0,0.0,1.0,Taxi
27.8,-0.014944902915910586,-37.1003865660363,10.788655255940707,1.6365005624955644,0.0556663791802901,127.34292002574699,17.360164399135993,0.0,1.0,0.0,0.0,1.0,Taxi
27.900000000000002,-0.12429774686086587,-32.45159284743655,10.563778937780125,2.3331994583188345,-0.27015841531764057,127.27694330796749,17.35444303506805,0.0,1.0,0.0,0.0,1.0,Taxi
28.0,-0.028711553375125848,11.781649581407288,10.167159836546466,2.2334821151520354,-1.4453775995340927,127.32672043811021,17.14826662767656,0.0,1.0,0.0,0.0,1.0,Taxi
28.1,0.043963344991125836,42.86267299584721,10.677926700755814,2.331464370646895,-0.2791339209998779,127.47995935849582,17.241725882121706,0.0,1.0,0.0,0.0,1.0,Taxi
28.200000000000003,0.09001561811837017,-0.1891791410391145,10.395311786614831,2.2707777960193045,0.1880961387456016,127.23618929065469,17.12217667429683,0.0,1.0,0.0,0.0,1.0,Taxi
28.3,-0.029657449080321436,-27.331491184997407,9.313674780433404,1.7921220822260342,0.16686916009683142,127.54391176223908,18.01531474551672,0.0,1.0,0.0,0.0,1.0,Taxi
28.400000000000002,-0.09269411093386122,22.63618157357153,9.738734961705585,1.6320493142814156,0.9174060338887444,127.22529929383279,17.261894610027422,0.0,1.0,0.0,0.0,1.0,Taxi
28.5,0.20319652598622776,25.13069090784869,10.363581216249564,2.0868603296766564,0.02476661173942759,127.31527958644108,17.21470542137022,0.0,1.0,0.0,0.0,1.0,Taxi
28.6,0.09599600545892199,27.39446508340013,10.83155455148641,1.731670833778645,-0.17524336722185657,127.2700028458026,17.441319487965714,0.0,1.0,0.0,0.0,1.0,Taxi
28.700000000000003,0.04427821448313938,-29.658742071097148,9.300511897536849,2.0082722761062453,0.6967561758896057,127.27572529327495,17.340061395611272,0.0,1.0,0.0,0.0,1.0,Taxi
28.8,0.05490281563074201,22.278376306956257,10.585873989096589,1.7579935403556168,0.2779156713600064,127.3077788394362,16.66456298215393,0.0,1.0,0.0,0.0,1.0,Taxi
28.900000000000002,0.20738788699370325,-22.59991981978716,9.392230982481031,2.1301944838138764,0.45300992472519125,127.19308154435345,16.857864058605895,0.0,1.0,0.0,0.0,1.0,Taxi
29.0,-0.06872138461579645,-19.960629303598015,10.935686938345913,2.1629410673278353,-0.40313236882147924,127.32176461102853,17.046743233432338,0.0,1.0,0.0,0.0,1.0,Taxi
29.1,-0.04490033088724808,-43.70671688379495,10.414376392058548,1.9829823673064848,0.6213938194232426,127.38337556099833,17.291772032547488,0.0,1.0,0.0,0.0,1.0,Taxi
29.200000000000003,-0.011145697425271486,20.288564634795666,10.024510734504112,2.060920608906429,-0.7522120660933811,127.32360797929977,17.705227964669575,0.0,1.0,0.0,0.0,1.0,Taxi
29.3,0.03272143855818185,42.076533612634485,9.615598999394297,1.4838904157436985,0.5038902923414104,127.3499250778882,16.78537446716272,0.0,1.0,0.0,0.0,1.0,Taxi
29.400000000000002,0.16548233717592434,-17.999831942137693,10.044709797585357,2.3047269959289673,-0.626557292095401,127.04612605748281,17.507176766254574,0.0,1.0,0.0,0.0,1.0,Taxi
29.5,-0.10114485713595994,11.88720944421469,10.960165606396846,1.750777623371685,0.4968775238791988,127.44229400453969,17.120568092598894,0.0,1.0,0.0,0.0,1.0,Taxi
29.6,0.09215748577925534,-54.149120584701244,10.15142560800613,1.7193662874783209,0.42068990774440723,127.25118037470065,16.859654838452844,0.0,1.0,0.0,0.0,1.0,Taxi
29.700000000000003,-0.10526326574758185,9.509068990438514,10.205191598895068,1.9824906596443592,0.8329125851457078,127.43083666768854,18.071771137148392,0.0,1.0,0.0,0.0,1.0,Taxi
29.8,-0.05359951218376738,-23.634204453388943,10.481892853151676,1.9474853470493914,-0.5871919288622385,127.36759084750588,17.60644388355471,0.0,1.0,0.0,0.0,1.0,Taxi
29.900000000000002,-0.026013536487689393,37.88935840951898,9.713098065683536,1.9472082924755574,-0.0944445966909236,127.29793929830765,16.369897827296445,0.0,1.0,0.0,0.0,1.0,Taxi
30.0,0.08418352630001304,7.0715921398996615,9.624420928361033,1.7409452369910015,-0.2383787181289468,127.16997896063026,18.32379463445569,0.0,1.0,0.0,0.0,1.0,Taxi
30.1,-0.018241551484269054,4.615524755586937,9.758006750821963,1.9876226167382771,0.5823287010440265,127.1474662325424,17.89171720255026,0.0,1.0,0.0,0.0,1.0,Taxi
30.200000000000003,-0.002935912709754705,15.681073082735486,10.04185796841896,1.838472281552571,-0.2339200159537498,127.32083650554995,18.107367740326957,0.0,1.0,0.0,0.0,1.0,Taxi
30.3,0.16258889171369045,28.552576612533027,9.979933443140666,1.8622445234105627,0.3058052688006684,127.2173509718013,18.146537919648495,0.0,1.0,0.0,0.0,1.0,Taxi
30.400000000000002,0.1245213315783961,14.34503619068061,9.917970041626473,1.6491725103217545,0.3994278419894642,127.2588325575856,16.858187600619225,0.0,1.0,0.0,0.0,1.0,Taxi
30.5,0.06878926824364832,-35.39316429984782,10.429809695675562,2.1826168126284267,-0.09272456391215235,127.36042981581306,17.566688497730546,0.0,1.0,0.0,0.0,1.0,Taxi
30.6,-0.014376929785548623,-51.81724938259875,10.888851815567499,1.982855634613669,-0.005713908006044941,127.57254005021377,17.99916661864275,0.0,1.0,0.0,0.0,1.0,Taxi
30.700000000000003,-0.13456491533459766,-21.45977482132116,10.797636572995767,2.022391466350471,0.1574494148452399,127.34041563381686,17.620404873777066,0.0,1.0,0.0,0.0,1.0,Taxi
30.8,-0.03850960586295748,43.67002748888866,10.17723906694873,2.2921746895925246,-0.38512985729087734,127.41575446900998,17.63446175339942,0.0,1.0,0.0,0.0,1.0,Taxi
30.900000000000002,0.20397320765889468,60.51181060658744,10.298701958205701,2.066927741476429,-0.21116445384968355,127.30251991075642,16.963086892396955,0.0,1.0,0.0,0.0,1.0,Taxi
31.0,0.16799413769833954,12.29439359028864,10.046725045572494,1.9747304203854612,-0.2865699603439372,127.17347237515332,17.515915757360148,0.0,1.0,0.0,0.0,1.0,Taxi
31.1,0.022962362088485705,-55.63399456484358,11.073891095301809,1.7544136471564526,0.03298736919442884,127.25406309625544,17.20950861144809,0.0,1.0,0.0,0.0,1.0,Taxi
31.200000000000003,-0.07419676516532323,-58.5954473785902,10.250279776937212,2.0464753516201055,0.30428517499518465,127.27832797174426,17.252858378914777,0.0,1.0,0.0,0.0,1.0,Taxi
31.3,-0.12498309919461151,-19.473804444192115,10.921204526195007,1.9611516604021302,-0.20868869863886336,127.40905030820358,17.161541199760304,0.0,1.0,0.0,0.0,1.0,Taxi
31.400000000000002,-0.07440666013247488,5.542347802291857,10.291008427076662,2.36656087992809,-0.3033321495336432,127.26327073448255,16.83550119476906,0.0,1.0,0.0,0.0,1.0,Taxi
31.5,-0.046485026153863934,54.90390165166391,10.58224420107014,1.7118064312115298,0.07213748574409518,127.18765082518303,17.620822036660776,0.0,1.0,0.0,0.0,1.0,Taxi
31.6,0.14953640906370802,19.648841661972764,10.379414743140803,2.067946392762869,-1.0264018700645692,127.33813118671583,17.62955998970898,0.0,1.0,0.0,0.0,1.0,Taxi
31.700000000000003,0.023837548177388902,25.038860971849648,10.217974279163192,1.9486352256126056,-0.4387839002861141,127.40236081746133,17.46536603001249,0.0,1.0,0.0,0.0,1.0,Taxi
31.8,0.07870927870538429,-20.232083878267286,10.049100361550556,1.9450154541234297,0.3940706830628812,127.18282683752813,18.14273500797742,0.0,1.0,0.0,0.0,1.0,Taxi
31.900000000000002,0.04837598967237158,-5.269569620224466,10.016764959368281,1.7782142841165873,-0.353633803026487,127.38358852937705,17.162575315980327,0.0,1.0,0.0,0.0,1.0,Taxi
32.0,-0.0025102999237334328,7.147233305722601,10.132173277668715,2.062384997602512,0.04220234416824973,127.34017854899992,18.09203576558646,0.0,1.0,0.0,0.0,1.0,Taxi
32.1,0.1144454452339973,-27.97326827357391,10.208561773779728,2.1976348674304127,0.8003921847829883,127.33337706186205,17.301130857850787,0.0,1.0,0.0,0.0,1.0,Taxi
32.2,-0.09149035169549798,13.12034809895706,11.257489661885172,1.7393323689480151,-0.5239111915931243,127.30007581445454,16.728577520614415,0.0,1.0,0.0,0.0,1.0,Taxi
32.300000000000004,0.06309144057105186,-67.38819937303352,8.906113529213272,2.0748934700180985,-0.05211300277121555,127.22324645239718,17.340824144089186,0.0,1.0,0.0,0.0,1.0,Taxi
32.4,-0.2224955516311703,23.223442309251165,10.130041349443475,1.815442085041028,-0.2041359563938737,127.29507132367189,17.25554755712519,0.0,1.0,0.0,0.0,1.0,Taxi
32.5,0.024626859850757802,1.9706645102997153,10.081431212360751,2.0750730171449234,0.48974728060947936,127.19445719965933,17.338335323790673,0.0,1.0,0.0,0.0,1.0,Taxi
32.6,0.07294476312255037,29.976899248004045,9.23501366212503,2.008479991710781,-0.061114285909189936,127.46947043223554,18.01707578307845,0.0,1.0,0.0,0.0,1.0,Taxi
32.7,-0.07261105539115009,17.531656214007523,10.374303253514338,2.0045396011082293,0.1279423846128934,127.46321306905475,18.850764064339856,0.0,1.0,0.0,0.0,1.0,Taxi
32.800000000000004,0.11228514092079539,-16.77347667789959,9.65063629673201,1.9830518427229125,-0.728357591681408,127.28032052846049,17.37990298733576,0.0,1.0,0.0,0.0,1.0,Taxi
32.9,-0.010922620266947597,31.724998077576114,10.111433585420905,2.1499962413569547,-0.335214515985553,127.49944499289359,17.97802341703764,0.0,1.0,0.0,0.0,1.0,Taxi
33.0,0.08601393499673045,-46.3663591300165,10.014529381509307,1.7012592204207369,0.12335571082815175,127.48549311033304,17.002770588352664,0.0,1.0,0.0,0.0,1.0,Taxi
33.1,-0.11954665472928712,-9.271434489992027,10.03456791862905,1.7341573332701046,-0.4903822116342055,127.13856581406009,17.4394356466838,0.0,1.0,0.0,0.0,1.0,Taxi
33.2,-0.05727979271690773,-18.90681137650412,9.801662471341238,2.016964341662308,-0.33978182611664626,127.33105256264355,17.250409170256418,0.0,1.0,0.0,0.0,1.0,Taxi
33.300000000000004,-0.008520121885790159,13.098680312737423,10.238610408662515,1.9533647757270638,0.05764578280759448,127.243953950302,16.799501695135767,0.0,1.0,0.0,0.0,1.0,Taxi
33.4,-0.054053253165599974,1.5525105538319453,9.635836605081744,2.012145135923405,-0.2053772142314238,127.39500990567689,17.93718556436967,0.0,1.0,0.0,0.0,1.0,Taxi
33.5,-0.04951723994774798,2.7923017423464658,9.524756954756931,1.6944294865922847,0.20793097917561867,127.23547130549548,18.36794869174655,0.0,1.0,0.0,0.0,1.0,Taxi
33.6,0.005441386825942198,41.907242311875905,10.127088914730095,1.8251905884500772,0.005675824401295653,127.35947400756731,17.601752083303115,0.0,1.0,0.0,0.0,1.0,Taxi
33.7,0.15548295839377954,18.715122056984125,10.539872468237187,1.9221021637844375,0.48787393621661573,127.33110205573036,17.287725758884523,0.0,1.0,0.0,0.0,1.0,Taxi
33.800000000000004,0.044058370337172664,-0.3700458837918508,10.713752702879836,1.8220518917353994,-0.9639340233483996,127.44153746518373,17.80582135220963,0.0,1.0,0.0,0.0,1.0,Taxi
33.9,0.0035911574069829536,-41.566375876753185,10.141057833129382,2.065954896323188,-0.4616308116086872,127.30592952786924,17.450689038586926,0.0,1.0,0.0,0.0,1.0,Taxi
34.0,-0.05234892098998635,25.428990372047554,10.593478413364451,1.8878008086224245,-0.2011054362945837,127.46196641392834,17.11190079654129,0.0,1.0,0.0,0.0,1.0,Taxi
34.1,0.17120332219741047,-17.38744690522388,10.194815440273656,1.750631162176873,0.4371333173511084,127.26321524472638,17.117565002721182,0.0,1.0,0.0,0.0,1.0,Taxi
34.2,-0.08334607711913646,-2.0592525980310143,11.515307569869469,1.6653846874445057,-0.1496174094894002,127.1664290408064,17.253439842597842,0.0,1.0,0.0,0.0,1.0,Taxi
34.300000000000004,-0.06264518398014145,-11.318038659623445,10.78848424071092,1.8878790948406976,0.26941736756221196,127.23895787226138,17.651983434496607,0.0,1.0,0.0,0.0,1.0,Taxi
34.4,0.11461312889929323,-6.030072379748361,9.766660559856195,2.127871592515893,1.2289123300171787,127.26306138686851,17.20955373759807,0.0,1.0,0.0,0.0,1.0,Taxi
34.5,-0.11349643901787823,-7.1232060708608635,9.721797325896713,2.122938965208133,-0.12562484221107734,127.4815785995334,17.051922844364707,0.0,1.0,0.0,0.0,1.0,Taxi
34.6,-0.09826121433444573,-9.411641796983153,9.825349851107543,2.0949351478828784,-0.19781139986609114,127.26017535142478,17.672369652433897,0.0,1.0,0.0,0.0,1.0,Taxi
34.7,0.06755491991437752,32.05813441186195,10.683705300272202,2.2802012402890655,0.351357420051986,127.24935403577496,17.619960691914947,0.0,1.0,0.0,0.0,1.0,Taxi
34.800000000000004,0.046794233041431585,-21.399948166319252,11.102453555843443,1.5889354696047937,0.5024247738919385,127.31748228762058,17.800845931612745,0.0,1.0,0.0,0.0,1.0,Taxi
34.9,-0.20526095516604193,-30.273765183895858,10.421463465550852,1.8696118765444858,0.743827788720803,127.27351551822812,17.577830447481688,0.0,1.0,0.0,0.0,1.0,Taxi
35.0,-0.0838139060051017,-16.7490180474373,11.106324264074606,1.6771802859060247,-0.6330341807941219,127.34840356993203,17.240982079157494,0.0,1.0,0.0,0.0,1.0,Taxi
35.1,-0.03695085719575485,12.607234899461071,10.481167339794881,2.01796063304655,0.44083613040123537,127.3821162089244,16.649173451153676,0.0,1.0,0.0,0.0,1.0,Taxi
35.2,-0.14222478066873653,8.834994352025278,10.579580605067495,2.169201648063472,-0.24233215962399207,127.35849795333871,16.74539750449348,0.0,1.0,0.0,0.0,1.0,Taxi
35.300000000000004,-0.03963893424497524,-10.129932309752846,10.602339558545008,2.103217650500861,0.38435415448718807,127.50406962910336,17.25429337713736,0.0,1.0,0.0,0.0,1.0,Taxi
