time_s,altitude_ft,vertical_speed_fpm,ias_kt,pitch_deg,roll_deg,heading_deg,throttle_pct,afterburner_on,gear_down,flaps_deg,speedbrake_pct,weight_on_wheels,label
0.0,-0.007741774604612284,-45.03453871927682,12.153033069680317,0.26820841662188555,0.31364353817620283,56.39167146972528,25.415876186140892,0.0,1.0,0.0,0.0,1.0,Taxi
0.1,-0.15785690366886834,-0.9656893303435273,13.096643006562587,0.22487287010012297,0.09735709650930124,56.3197965865225,24.11725546293018,0.0,1.0,0.0,0.0,1.0,Taxi
0.2,-0.01257022125632993,5.881221132002867,12.984783404084725,-0.006985125881006193,0.5737554296951888,56.34421331009219,24.89179592018341,0.0,1.0,0.0,0.0,1.0,Taxi
0.30000000000000004,0.021664331055402043,9.168945855358709,13.94220091793664,0.019053729953475873,1.113469775275191,56.32358274805631,24.23925275199052,0.0,1.0,0.0,0.0,1.0,Taxi
0.4,-0.11201217439207478,11.316401230151945,12.161266700165758,-0.05050918380969727,0.9188245328022172,56.368851909699686,24.375505909794235,0.0,1.0,0.0,0.0,1.0,Taxi
0.5,0.044011784894429806,-5.3753010830855,13.360629869598327,0.24586067298255976,0.8644170805372121,56.447861646191086,24.9227733507832,0.0,1.0,0.0,0.0,1.0,Taxi
0.6000000000000001,-0.0052121743600254365,1.778305404506033,12.393920265901567,0.32586037550483193,0.30728841908144994,56.476743335320464,23.957288446518685,0.0,1.0,0.0,0.0,1.0,Taxi
0.7000000000000001,-0.10312064736954463,7.760787728441822,12.615538724563068,0.140910825092549,-0.038147424348637084,56.41496583697369,24.05716745889853,0.0,1.0,0.0,0.0,1.0,Taxi
0.8,0.08281572353663892,23.02989206432082,13.079378707547292,-0.09710588382413726,0.25847932575537064,56.44286653199424,24.270409147898395,0.0,1.0,0.0,0.0,1.0,Taxi
0.9,0.10993728596157865,17.354142300649766,13.107636068223714,0.19951075713936822,-0.16219625167617294,56.21538626048783,24.112991397740245,0.0,1.0,0.0,0.0,1.0,Taxi
1.0,-0.016349935866295805,-19.6426132716639,13.350154444226703,0.103911086349013,-0.20657572134640606,56.63895339447714,23.950243045767238,0.0,1.0,0.0,0.0,1.0,Taxi
1.1,-0.0153973428216806,-4.733667385587346,14.190264881347687,0.1547164280868616,0.7371100765584666,56.49272065501344,24.872737685035542,0.0,1.0,0.0,0.0,1.0,Taxi
1.2000000000000002,0.08626894903364192,26.322229303088235,12.630098455213684,0.0012184858825048661,0.40105839021675305,56.61968106486256,24.026830306823552,0.0,1.0,0.0,0.0,1.0,Taxi
1.3,0.11526121064914537,49.42571326106778,13.411328793221564,0.32762142722330795,-1.0872703246548954,56.47089856971769,24.620947051441462,0.0,1.0,0.0,0.0,1.0,Taxi
1.4000000000000001,0.23173122348365827,-26.020969205062496,12.1435010691594,0.03403867884742312,0.06636585104552166,56.53861624032328,23.817194694200094,0.0,1.0,0.0,0.0,1.0,Taxi
1.5,-0.043835896991670543,-67.30950165962223,13.632093170010739,-0.038510044710287655,-0.4854099931147464,56.536433238212,24.29883561078671,0.0,1.0,0.0,0.0,1.0,Taxi
1.6,-0.22128629764896576,-59.522715305848045,13.487411746852805,0.08917850483012955,-0.5792735895473884,56.48625369951327,25.23288251261494,0.0,1.0,0.0,0.0,1.0,Taxi
1.7000000000000002,-0.06588235304558196,25.64222469501121,12.288887252879409,0.11576451663325293,-0.24833581337138685,56.39295012691235,24.34112289112039,0.0,1.0,0.0,0.0,1.0,Taxi
1.8,0.08437522648338552,53.658231842569926,11.309543052932925,0.03234208994362266,-0.3332090694953698,56.48543435198485,24.45846340305041,0.0,1.0,0.0,0.0,1.0,Taxi
1.9000000000000001,0.04700486156388389,13.090769132811495,13.118801879752173,0.45241950099530187,0.9350382179606266,56.55968733779599,24.28581603348976,0.0,1.0,0.0,0.0,1.0,Taxi
2.0,-0.0004285073815244507,-57.51741317092273,13.040550521656847,-0.1024922143137054,0.47160825608788864,56.385701325593004,24.282779542820293,0.0,1.0,0.0,0.0,1.0,Taxi
2.1,-0.20321183937122808,-2.2223352978584123,13.309142700951806,0.08146677148677024,-0.7310976071197028,56.66751756842274,24.98846942111607,0.0,1.0,0.0,0.0,1.0,Taxi
2.2,0.035893185074591855,-1.4878434923515311,12.822210197925429,0.3320346563842924,0.20973011687252388,56.40127286765761,24.835313277563376,0.0,1.0,0.0,0.0,1.0,Taxi
2.3000000000000003,-0.007867724843282067,34.77009905977962,13.35930560379015,0.2820403523230418,0.09663181562909905,56.34596793203599,23.381379304939568,0.0,1.0,0.0,0.0,1.0,Taxi
2.4000000000000004,-0.029361344072329973,-15.495055716374338,13.326312191800916,0.4702043974915277,-0.06592338996247833,56.34855459514921,25.54732747934334,0.0,1.0,0.0,0.0,1.0,Taxi
2.5,-0.04158209350727981,-5.422406371695531,12.717854721334469,0.2142985211709778,0.31606454426044334,56.544266987947196,24.69830368087979,0.0,1.0,0.0,0.0,1.0,Taxi
2.6,-0.03497975670175969,-1.112162637663901,13.722918805492892,0.30808008595630026,0.7094633688761246,56.425086680406025,25.374802835812424,0.0,1.0,0.0,0.0,1.0,Taxi
2.7,-0.03492215726064945,-15.485948074059058,13.422265445103937,0.4653527527496738,0.5431860922358486,56.3922566834803,24.086199920639928,0.0,1.0,0.0,0.0,1.0,Taxi
2.8000000000000003,-0.11901183387757508,3.22874482545501,12.787937404866083,-0.19629960766879317,-1.1479860074618045,56.502606780230735,23.543879824143048,0.0,1.0,0.0,0.0,1.0,Taxi
2.9000000000000004,-0.018836032574484633,-3.7083915160046463,14.420047154552599,-0.16964948071292357,-0.249206010289118,56.616119558122875,24.250391811817405,0.0,1.0,0.0,0.0,1.0,Taxi
3.0,-0.053464114840672664,46.209724803324576,13.04410855303222,0.09306081747365275,0.3135855612312013,56.41732022622301,24.877341444911615,0.0,1.0,0.0,0.0,1.0,Taxi
3.1,0.11203679013904784,-16.173294710989524,13.427175824357102,0.09574704853873407,0.050533512618578795,56.61402195188458,24.866363342317335,0.0,1.0,0.0,0.0,1.0,Taxi
3.2,-0.09970250612943221,16.653140387324534,12.59020277992019,0.06085664106462496,-0.05085911240909081,56.518652057386305,24.033179222402385,0.0,1.0,0.0,0.0,1.0,Taxi
3.3000000000000003,0.029801587095950044,-3.9285686048941835,13.681848914877301,0.12051491566936544,0.25053632511070145,56.34234117075266,24.429130639608726,0.0,1.0,0.0,0.0,1.0,Taxi
3.4000000000000004,0.09239394711457696,32.212903964798805,12.3795627669438,0.3483802391400207,0.1763710746593079,56.428753103051406,23.9440347670726,0.0,1.0,0.0,0.0,1.0,Taxi
3.5,0.06136201369456184,-15.406352995596572,14.25671664175578,0.2994737551419295,-0.005907767736098481,56.36713873312141,23.465003184059317,0.0,1.0,0.0,0.0,1.0,Taxi
3.6,-0.047230177882032764,-16.882598115612893,12.95287857901942,-0.2590995877259255,-0.11020025566325028,56.53935223795622,24.73373461102103,0.0,1.0,0.0,0.0,1.0,Taxi
3.7,0.007980956536512552,13.030052512962234,12.558951685956036,0.25466477167719004,-0.21864892273973785,56.58654520437841,23.95548194757976,0.0,1.0,0.0,0.0,1.0,Taxi
3.8000000000000003,0.12651227625937306,-1.2536707600113886,14.348153591006506,0.09134826159675005,-0.18724667125918446,56.49910018578339,23.933286193589865,0.0,1.0,0.0,0.0,1.0,Taxi
3.9000000000000004,-0.05349853168208966,17.4140006331266,13.48585067052321,-0.14059431516805154,0.5094902351380484,56.6214653653401,24.201275809025944,0.0,1.0,0.0,0.0,1.0,Taxi
4.0,0.0950509597021456,8.978315152802027,13.79264220328245,0.11202280218512845,0.13378952554665796,56.22614867449357,25.16952352607683,0.0,1.0,0.0,0.0,1.0,Taxi
4.1000000000000005,0.17140385202338324,67.06663181817703,12.855369748451384,-0.15128673132978737,0.2844495733640401,56.56882068632109,23.783947031034398,0.0,1.0,0.0,0.0,1.0,Taxi
4.2,0.28183462740879556,-34.20841623337801,12.488093091074168,0.3519577644596679,0.0359346626224879,56.498831913844924,24.576152456805136,0.0,1.0,0.0,0.0,1.0,Taxi
4.3,-0.07599112146474438,-73.01618787686219,12.358439211209555,0.27647610028780056,-0.14344852212774717,56.52481711080162,24.394433618855466,0.0,1.0,0.0,0.0,1.0,Taxi
4.4,-0.1936770873609277,-73.70827872913519,13.26977344425889,0.12752843649404694,-0.19479103286994712,56.50416512126492,25.2956473510683,0.0,1.0,0.0,0.0,1.0,Taxi
4.5,-0.08670676623688028,3.021518769601144,12.420444317442328,-0.0804220215249224,-0.5716636783083746,56.3753718914665,24.777628275047565,0.0,1.0,0.0,0.0,1.0,Taxi
4.6000000000000005,-0.06088352761673858,60.41626629439528,13.562498159381356,-0.01318343427667179,-0.23140698130220191,56.403482343897394,25.52174350425858,0.0,1.0,0.0,0.0,1.0,Taxi
4.7,0.10840424411104879,2.595901253768517,11.826786410613938,0.08896209433249377,0.009605743877847305,56.4528643800042,24.734652618819176,0.0,1.0,0.0,0.0,1.0,Taxi
4.800000000000001,-0.07372725996803763,42.00343595199512,11.76280269050355,-0.21044528314311234,1.060893149511427,56.656011997108635,24.79215803344286,0.0,1.0,0.0,0.0,1.0,Taxi
4.9,0.14913365214323712,-51.59376196771009,12.089499295569194,0.21123892714608633,1.2399118469023442,56.562308488821145,24.56220466096198,0.0,1.0,0.0,0.0,1.0,Taxi
5.0,-0.14956456572750157,4.21321575703022,12.321389614307067,0.23926333988184306,0.35392544394823094,56.376568561993906,24.25181135651315,0.0,1.0,0.0,0.0,1.0,Taxi
5.1000000000000005,-0.0526611811828864,-47.44198452760284,12.271523287213558,-0.022634934907136528,-0.4134524057567217,56.4830270253272,23.96869452983507,0.0,1.0,0.0,0.0,1.0,Taxi
5.2,-0.08807627049477695,15.314852172490413,12.75174586580431,0.18736656664935886,-0.5945178247259183,56.49711273451777,23.405300005773164,0.0,1.0,0.0,0.0,1.0,Taxi
5.300000000000001,-0.0729903048650494,47.257492165215474,12.085642840859158,0.021832022760925898,1.1157326236702925,56.511382627226396,24.247330660181824,0.0,1.0,0.0,0.0,1.0,Taxi
5.4,0.1836262796431911,16.038997546692013,13.735524246275274,0.05791006108981629,-0.6132353995333393,56.42710719533545,23.998077449001695,0.0,1.0,0.0,0.0,1.0,Taxi
5.5,-0.007881282761316812,-8.179879522622363,13.107165451602002,0.353833362660804,0.8643204542670597,56.472745321412276,24.18963875906695,0.0,1.0,0.0,0.0,1.0,Taxi
5.6000000000000005,-0.1138897024781611,-31.152612950000208,13.331931158509978,-0.027711340783855454,0.25629941685627955,56.55227385720946,24.22807506256445,0.0,1.0,0.0,0.0,1.0,Taxi
5.7,0.027863214893190158,38.970199646558804,12.467005203872393,0.3103801313959521,0.3670583508733405,56.50429645367876,24.62481679397799,0.0,1.0,0.0,0.0,1.0,Taxi
5.800000000000001,0.18696971547147734,-11.401519288227414,13.336695691680742,0.09447671077053348,0.5645256021200192,56.62153864662179,23.950949916959903,0.0,1.0,0.0,0.0,1.0,Taxi
5.9,-0.1708972989192981,9.360650114631033,13.281284218785428,0.2609525977882507,0.11608925854039907,56.470391133074315,23.923466867889598,0.0,1.0,0.0,0.0,1.0,Taxi
6.0,0.07466646546634541,-36.54551002788411,13.680475283345386,0.08303204175675416,0.6475967568605203,56.44716902714987,25.10064262666019,0.0,1.0,0.0,0.0,1.0,Taxi
6.1000000000000005,0.004242165332056884,39.32237461207212,12.213665242055145,0.056514066694464474,0.12052727902741199,56.42967094889451,23.07468090249983,0.0,1.0,0.0,0.0,1.0,Taxi
6.2,0.02571457414106261,-29.737434676027984,13.482866367403766,0.07684515684174302,-0.3037143537683344,56.57430661318665,25.34731415631603,0.0,1.0,0.0,0.0,1.0,Taxi
6.300000000000001,-0.07402070791379439,5.512124076359359,12.461048332872313,0.3553876317364988,-0.30206104804934125,56.45176117263776,24.029500085383738,0.0,1.0,0.0,0.0,1.0,Taxi
6.4,0.031802785713853775,19.332394078393204,13.659400456696732,0.22671258121959295,1.005921688814899,56.494257032971404,23.931868717524353,0.0,1.0,0.0,0.0,1.0,Taxi
6.5,0.12237654453302874,26.008548806004942,12.859316698276197,0.5699966654965205,-0.8998619770847615,56.36869946054503,24.22306489369973,0.0,1.0,0.0,0.0,1.0,Taxi
6.6000000000000005,0.056022036116230446,-7.927985919844612,13.085944247109852,0.20453413351357255,-1.2892029189999459,56.47346593478187,24.002701030629154,0.0,1.0,0.0,0.0,1.0,Taxi
6.7,-0.007837143885369147,2.8816012137218556,13.231759515785235,0.3050996615718655,-0.2853271588459882,56.476068589375416,24.276463522349594,0.0,1.0,0.0,0.0,1.0,Taxi
6.800000000000001,0.13678455060163813,-19.960907425577457,13.144395909260908,0.14096699655481892,0.27207203426296367,56.41308620288282,24.558169333155874,0.0,1.0,0.0,0.0,1.0,Taxi
6.9,-0.043782501011656726,9.6637907488117,14.2062395116258,0.32930592607949505,0.07926302503789517,56.48849454435248,24.72351556257342,0.0,1.0,0.0,0.0,1.0,Taxi
7.0,0.04048180985868945,-30.176107835754625,14.368331440460093,-0.12570640964582874,0.17606026509153436,56.32157595481203,24.965327356659706,0.0,1.0,0.0,0.0,1.0,Taxi
7.1000000000000005,-0.014095988577134889,9.571054878851092,12.80872665683653,-0.21124608320557187,0.08416222329870975,56.636280117968965,24.272722896415367,0.0,1.0,0.0,0.0,1.0,Taxi
7.2,0.004072773382598837,10.293365553540966,12.819772341652868,-0.010742263235463956,-0.33136827686142867,56.67346061506328,24.378472871970306,0.0,1.0,0.0,0.0,1.0,Taxi
7.300000000000001,0.0919486376263944,4.487335541008619,12.957420637699965,0.4364887610368007,-0.3003963314882037,56.504139163147784,24.99339930066921,0.0,1.0,0.0,0.0,1.0,Taxi
7.4,0.008340689127908326,35.14593522855058,11.82993337786368,0.09398367639830423,-0.33090987065485894,56.558363006050854,24.18560102440993,0.0,1.0,0.0,0.0,1.0,Taxi
7.5,0.17980244952535188,46.44602668631932,12.864262314293812,0.23692287052069172,-0.7737173868499138,56.6484356561333,24.904318170184165,0.0,1.0,0.0,0.0,1.0,Taxi
7.6000000000000005,0.3241787710579911,-26.04921691689385,12.05336115340569,0.2919553152605103,-0.8606467376198322,56.43885292738838,25.1555474249788,0.0,1.0,0.0,0.0,1.0,Taxi
7.7,-0.12190539545656087,-35.817793946146104,12.43632065449748,0.1590899941057019,0.544687813851716,56.5236287870469,24.881814518319725,0.0,1.0,0.0,0.0,1.0,Taxi
7.800000000000001,0.0007134797946213964,-102.08936710767883,12.693797670220237,0.252345046006978,0.796945731613942,56.61179567213276,24.42201072353736,0.0,1.0,0.0,0.0,1.0,Taxi
7.9,-0.18626806448040298,27.47814853993196,12.97714221652288,0.06042524954758241,1.5090112497778059,56.62951983741442,23.8353628875867,0.0,1.0,0.0,0.0,1.0,Taxi
8.0,0.015485347243099,0.8114419132026068,13.018423586307412,0.15036276117876038,0.10657960931222554,56.511090271845944,24.49419156801974,0.0,1.0,0.0,0.0,1.0,Taxi
8.1,0.004770689360634492,31.786961069177732,12.994011060099838,0.27594150003932905,-0.33942417285963833,56.5481536559887,25.028378982102943,0.0,1.0,0.0,0.0,1.0,Taxi
8.200000000000001,-0.02733325913451424,-1.4709150650033465,13.392484284468072,-0.17327506187747466,0.1310401830753418,56.68636432761781,24.575267190110498,0.0,1.0,0.0,0.0,1.0,Taxi
8.3,0.008130771918082362,43.06961410296939,12.974777525788703,0.018665231458099035,-0.22985409700476464,56.50160966971191,24.023720448501585,0.0,1.0,0.0,0.0,1.0,Taxi
8.4,0.22011875987548157,3.292466336078917,12.89271954020983,0.09379482505721293,0.5476985942114437,56.565636152250306,23.838929495995426,0.0,1.0,0.0,0.0,1.0,Taxi
8.5,-0.010870927454119531,-9.253252597828604,13.872333658138052,0.015010529581625937,-0.29293993597671186,56.4599232686632,24.078126468132066,0.0,1.0,0.0,0.0,1.0,Taxi
8.6,-0.038135491071060554,-13.697162394345725,13.570821667406577,0.5408045385891775,0.1705734766384074,56.651971401834544,24.140676150725145,0.0,1.0,0.0,0.0,1.0,Taxi
8.700000000000001,0.15163294790375303,-17.654901010444927,12.383816986408315,0.4870095054285591,0.2984475448035049,56.507032062767564,24.538371168242296,0.0,1.0,0.0,0.0,1.0,Taxi
8.8,-0.099145432506344,0.6037889272433953,13.0643504665502,0.01259962257415978,-0.06476003296548632,56.45995268133129,24.521889208810418,0.0,1.0,0.0,0.0,1.0,Taxi
8.9,-0.035116546434843424,-4.795967821118675,12.162561384356149,-0.04668063582002274,0.08918074200667553,56.48312619384063,24.66727704120666,0.0,1.0,0.0,0.0,1.0,Taxi
9.0,0.12765310879815983,-17.9370791268886,14.038051196105268,0.024638469714029276,0.3376173335738976,56.620931337089985,25.248369647357364,0.0,1.0,0.0,0.0,1.0,Taxi
9.1,-0.1888308281407869,36.47569271736582,12.440873944030542,0.4512090894064695,-0.2552291770134307,56.51264236969752,24.876926569000947,0.0,1.0,0.0,0.0,1.0,Taxi
9.200000000000001,0.1472619171519858,18.240212604572445,13.730607142828406,0.10457507914799026,-0.4763065898216611,56.53520068411569,24.39598707969651,0.0,1.0,0.0,0.0,1.0,Taxi
9.3,0.21885417182102218,43.5954969011595,12.671986027397462,0.21629608378262183,0.3759261837658164,56.43369624387378,24.815148532188335,0.0,1.0,0.0,0.0,1.0,Taxi
9.4,0.02914665636501076,-28.678163330019952,14.22986473962378,-0.16142549893889213,0.21391119931916933,56.310335898071514,24.533787504007424,0.0,1.0,0.0,0.0,1.0,Taxi
9.5,0.0038711005018861734,-16.31928142941074,13.707653994457853,0.002642938092860675,0.10644261259112119,56.64836516880746,26.16277719215094,0.0,1.0,0.0,0.0,1.0,Taxi
9.600000000000001,0.1372577646739686,4.079058915553557,12.472874475232176,-0.14130711110779254,0.4468454484329482,56.35615794991486,24.69082802791418,0.0,1.0,0.0,0.0,1.0,Taxi
9.700000000000001,0.04954195094277869,23.90797744685595,13.097864964120806,-0.06435305260995339,-0.5344605626449525,56.44517809368091,24.124428859099787,0.0,1.0,0.0,0.0,1.0,Taxi
9.8,0.12341098773616604,-38.10902099394198,13.56391142013599,0.2753627167045384,0.2445697370527391,56.5157044571622,25.407452385232745,0.0,1.0,0.0,0.0,1.0,Taxi
9.9,-0.05328734029574111,-32.50243348964806,13.515204133024934,0.30024926680754355,-0.5379028676693062,56.43382760977386,24.929161857369554,0.0,1.0,0.0,0.0,1.0,Taxi
10.0,-0.11297021650546145,-34.4840001294119,11.40476251282379,0.5082201946968907,0.3479705903817423,56.58754617300605,24.88882503014569,0.0,1.0,0.0,0.0,1.0,Taxi
10.100000000000001,-0.04900901291089329,-21.949092318220327,14.340879050159247,0.43613164576062724,-0.5956316806635119,56.552796729571526,24.677040057331364,0.0,1.0,0.0,0.0,1.0,Taxi
10.200000000000001,-0.1630328018868426,-16.116510345358922,13.047955626428966,0.035329861047239466,0.03501171872340577,56.37011916035652,24.397613440935636,0.0,1.0,0.0,0.0,1.0,Taxi
10.3,-0.19355276823225592,13.163476221494207,13.258197919697844,0.409852892407754,-0.6608107144243699,56.715880566887904,25.349649292462615,0.0,1.0,0.0,0.0,1.0,Taxi
10.4,0.016808368196577876,26.16192787603519,13.036259731506677,0.20964281439705326,-0.11179848155791723,56.52527072811108,23.736553410091265,0.0,1.0,0.0,0.0,1.0,Taxi
10.5,-0.03222316250666654,57.48021511701764,12.396906082373954,0.00015075229783589883,0.19870658058121524,56.21658043888067,25.09849421300983,0.0,1.0,0.0,0.0,1.0,Taxi
10.600000000000001,0.09384830735283235,-8.601350675658665,13.339784077495088,0.15867166270427063,-0.15976653047151598,56.60048031279172,24.292054740260447,0.0,1.0,0.0,0.0,1.0,Taxi
10.700000000000001,-0.026198385181715335,20.215498796081253,14.138618173485517,0.06900817551345201,-0.6142769120590013,56.35378770115318,24.171860671772414,0.0,1.0,0.0,0.0,1.0,Taxi
10.8,0.06885433147373983,-49.04461766515155,12.34783528050453,0.1125642675188318,-0.03021840767663043,56.52056201202265,24.661770637096666,0.0,1.0,0.0,0.0,1.0,Taxi
10.9,-0.15137478097292528,-24.708837256803108,13.429857080562575,0.2624809784087418,0.04034170836924329,56.51736158547868,24.105975785585805,0.0,1.0,0.0,0.0,1.0,Taxi
11.0,-0.14974257146573078,-28.79441327998919,14.398890241843919,0.28850987213385165,0.07747801560329542,56.448553456939464,25.15655948418789,0.0,1.0,0.0,0.0,1.0,Taxi
11.100000000000001,-0.07511773492620603,18.852580422686984,13.297776734968123,0.27583767533803205,0.0058415200152096,56.58128787699917,24.12116897434031,0.0,1.0,0.0,0.0,1.0,Taxi
11.200000000000001,-0.05711187885949024,38.71048882375997,13.306612807059174,-0.033418021642151324,0.4799604492383095,56.37281904945172,23.860190012464766,0.0,1.0,0.0,0.0,1.0,Taxi
11.3,0.04380987265306921,46.67326586390799,12.71125877443654,0.2517131255526635,0.0029032579589861164,56.48627248753587,24.991392680139572,0.0,1.0,0.0,0.0,1.0,Taxi
11.4,0.15824859439333405,6.879937004261734,13.288034416645422,-0.30861902841812183,-0.21741360698476436,56.56272041331363,24.445545457599565,0.0,1.0,0.0,0.0,1.0,Taxi
11.5,-0.022712193838181433,-31.581769192136807,13.614197200105348,0.3264058099993842,-0.6200966809123649,56.545096240934754,23.569952022795693,0.0,1.0,0.0,0.0,1.0,Taxi
11.600000000000001,-0.11409897330761475,-27.20467311854377,13.700037039370324,0.17833142671540425,-0.06339712546727776,56.51978354696581,24.077732888253713,0.0,1.0,0.0,0.0,1.0,Taxi
11.700000000000001,0.022225228800615317,-20.360829404639034,12.690253727115369,-0.10858891526055497,0.18366352502959232,56.464565279080034,25.29088123655244,0.0,1.0,0.0,0.0,1.0,Taxi
11.8,-0.12451634086137653,24.09761792686071,12.69972736803091,0.23733627995936943,-0.5815462982354112,56.53849860439573,25.04600880983292,0.0,1.0,0.0,0.0,1.0,Taxi
11.9,0.006389116326688868,-17.193541356870593,12.994431749839713,0.2661284017151526,0.774181178038469,56.53587628566447,23.828576635864504,0.0,1.0,0.0,0.0,1.0,Taxi
12.0,-0.06374247798373756,9.793259109403998,13.73397643749582,-0.002651017192274757,-0.2524409204414413,56.35572603209857,24.14429192479908,0.0,1.0,0.0,0.0,1.0,Taxi
12.100000000000001,-0.07555004531435643,21.37723571543278,12.718216873249684,0.4161567540085644,0.23705455171557474,56.41699836466029,23.554317969098097,0.0,1.0,0.0,0.0,1.0,Taxi
12.200000000000001,0.1132752949038529,29.110233639279546,12.800907126278469,0.410471906867844,-0.5286591461532095,56.60605295566745,24.872696070167176,0.0,1.0,0.0,0.0,1.0,Taxi
12.3,0.0818086902126603,2.798943635596397,13.48174933814509,-0.026460652440550098,0.40172063027888716,56.4164995865811,24.417175632044906,0.0,1.0,0.0,0.0,1.0,Taxi
12.4,-0.061555327136374294,-42.843014263369064,14.149588587744669,0.36425191924703354,-0.23549541738665342,56.61166972460984,24.02223491856894,0.0,1.0,0.0,0.0,1.0,Taxi
12.5,-0.1009397764129923,3.456560262289434,13.48622685362241,-0.09191270599087487,-0.7420850182556501,56.61814493435321,23.82086851331386,0.0,1.0,0.0,0.0,1.0,Taxi
12.600000000000001,0.09909149152410762,31.454824243780763,12.60617589824033,0.2545829544665402,-0.2976540898850995,56.486003753965804,24.13967762326146,0.0,1.0,0.0,0.0,1.0,Taxi
12.700000000000001,0.09571879408252965,58.18841130526052,11.941386836696074,0.14550732666511093,-0.34622097128332996,56.6272637284946,23.907147144878483,0.0,1.0,0.0,0.0,1.0,Taxi
12.8,0.19000228011331044,-2.262025424322682,13.478107088585341,-0.10330451499488805,-0.3850890299684339,56.37395805497806,24.40001560461502,0.0,1.0,0.0,0.0,1.0,Taxi
12.9,0.08778136440249433,-11.161179371842955,12.785340080219457,0.064157003803131,-0.05659380433893195,56.63356585869394,24.912357828190242,0.0,1.0,0.0,0.0,1.0,Taxi
13.0,0.03991289722331499,-27.63706109719163,12.32780231692683,0.30013549026175845,-0.13649159643245876,56.530875344704555,24.55260292871881,0.0,1.0,0.0,0.0,1.0,Taxi
13.100000000000001,0.05181697462735241,-20.879794308519017,12.668216273854169,-0.2968016932568315,0.41641917667847184,56.42280965441961,23.701532089588007,0.0,1.0,0.0,0.0,1.0,Taxi
13.200000000000001,-0.016617607140100642,-13.76418483622931,14.035511452636511,0.23917987539023203,0.11812029086750375,56.492103248512876,25.498147162715906,0.0,1.0,0.0,0.0,1.0,Taxi
13.3,-0.028908026957831453,5.053012361408743,13.299341829965066,-0.17743135600483728,-0.16677134536069735,56.422596642327505,24.14979639822338,0.0,1.0,0.0,0.0,1.0,Taxi
13.4,0.07708203643439625,1.9582928630395102,13.987881098397034,0.3725023463763171,-0.6244583631179595,56.4848983830359,24.3148925952787,0.0,1.0,0.0,0.0,1.0,Taxi
13.5,-0.006826142824902962,16.98764179990127,12.93424390403694,0.1875110326387421,0.42428624679541227,56.59429380272638,24.50161356141292,0.0,1.0,0.0,0.0,1.0,Taxi
13.600000000000001,0.056030182041675015,15.562811995131481,12.809391901586032,0.42177023790310214,0.5634020194242118,56.48165154409719,24.019690582268332,0.0,1.0,0.0,0.0,1.0,Taxi
13.700000000000001,0.15489609641005375,10.407139279967089,13.21559756850246,-0.048690078971483586,-0.3264799462394065,56.53050921645746,24.00357875774784,0.0,1.0,0.0,0.0,1.0,Taxi
13.8,0.04520955357493259,0.11681398138523669,11.60031808163712,0.3070976718131687,-0.13040291664279843,56.57348946042606,24.229123896849497,0.0,1.0,0.0,0.0,1.0,Taxi
13.9,0.056614251948601306,-56.56322825893258,13.553464151852138,0.15036880318668558,-0.3582904468135828,56.41992306586741,24.378530510177157,0.0,1.0,0.0,0.0,1.0,Taxi
14.0,-0.12792004488460904,-4.747687502420632,13.391831737654774,0.04994598676163978,1.1466814935719385,56.697828156562366,24.848132224616602,0.0,1.0,0.0,0.0,1.0,Taxi
14.100000000000001,0.021471116062829546,-1.1467797160141988,13.937875614555677,-0.19705134277103575,-0.07431722705735307,56.63842542508871,24.947217923835527,0.0,1.0,0.0,0.0,1.0,Taxi
14.200000000000001,0.05088035336853043,48.725940213118896,12.469599628235388,0.2404377472590532,-0.5131716167475368,56.60798038656492,24.10600991639195,0.0,1.0,0.0,0.0,1.0,Taxi
14.3,0.11570965618098561,29.499324767752984,12.898742569496513,0.2993646253761898,0.26110668937014336,56.48017082429226,24.613923966605892,0.0,1.0,0.0,0.0,1.0,Taxi
14.4,0.1689677399015946,-24.838665130185902,13.63397028681518,0.3234962895723945,-0.29791986594253017,56.57728502035877,24.950839938845746,0.0,1.0,0.0,0.0,1.0,Taxi
14.5,-0.07331297228239896,-16.968687893603537,13.65265647897526,-0.07597584542952066,0.3178089210070312,56.35843624391674,23.3559824603182,0.0,1.0,0.0,0.0,1.0,Taxi
14.600000000000001,0.030866216712968044,-40.220525412087966,12.931336975622095,0.10484671505504442,0.31907073798471036,56.481510842392424,24.66128092504985,0.0,1.0,0.0,0.0,1.0,Taxi
14.700000000000001,-0.03213488715884512,25.698693853510758,13.012282684043738,0.22656046283816383,0.20425832785038162,56.42381003769333,24.876464882288214,0.0,1.0,0.0,0.0,1.0,Taxi
14.8,0.055180496985154974,17.639360691746504,12.532546075411709,0.14595819163908422,0.1277140917893303,56.53297869205761,23.98345236555395,0.0,1.0,0.0,0.0,1.0,Taxi
14.9,0.1190630201717007,19.55240519886076,12.059839760055805,-0.25917334780771006,0.028714303261790947,56.53991614624124,24.075118176617604,0.0,1.0,0.0,0.0,1.0,Taxi
15.0,0.06562713883545884,-4.282720577670804,13.117458406863554,0.17075135685454645,0.3161180919419308,56.427586745188705,23.935048914975233,0.0,1.0,0.0,0.0,1.0,Taxi
15.100000000000001,0.033766894096801094,-14.750051807329797,12.792836603664878,0.35354589403971604,-0.25444569710461573,56.543842136584374,23.776316575575507,0.0,1.0,0.0,0.0,1.0,Taxi
15.200000000000001,0.04531276113505186,-16.442559227408246,13.603793034668685,0.11507895697568933,-0.9644910554546037,56.35349619452927,24.74377193722953,0.0,1.0,0.0,0.0,1.0,Taxi
15.3,-0.01658565730158224,14.89213846563697,13.576422950905226,0.16216553426795044,0.22699034830532616,56.39976452354318,24.282525097205045,0.0,1.0,0.0,0.0,1.0,Taxi
15.4,0.10822758642498609,-7.37611393412341,13.247111311319053,-0.04380711384064517,0.2670605081802779,56.656282865802496,24.33707263645537,0.0,1.0,0.0,0.0,1.0,Taxi
15.5,0.008432191464434953,18.2806884097195,12.34130362123268,0.14526130250347205,-0.16407259356027848,56.45280802498087,24.75532544679328,0.0,1.0,0.0,0.0,1.0,Taxi
15.600000000000001,0.07481778474701538,-31.63364631614637,13.429228657707375,-0.16041269605038094,-0.1909907049074119,56.48755548580198,24.060045530410587,0.0,1.0,0.0,0.0,1.0,Taxi
15.700000000000001,-0.04994064515574562,19.4661012575634,13.682007983846969,0.3824538974759899,0.29549939601568503,56.69676271397759,24.318827197926456,0.0,1.0,0.0,0.0,1.0,Taxi
15.8,0.10576269775225207,-39.48874608357911,13.111955939621565,0.28067834673673586,-0.6326152406285097,56.51298173108313,24.870694759968252,0.0,1.0,0.0,0.0,1.0,Taxi
15.9,-0.12262594567088002,10.907108635312616,13.273737410715261,-0.17599128224755706,0.4637170647717775,56.434757771298905,24.8915550967896,0.0,1.0,0.0,0.0,1.0,Taxi
16.0,0.0045948980208176,4.195986205916053,12.587942151945853,0.033359654495085975,0.14713869392334109,56.531409818213945,24.25601822631713,0.0,1.0,0.0,0.0,1.0,Taxi
16.1,0.12674262878183248,30.56030783033044,13.390828833715165,-0.34026820944017333,0.291700247187801,56.67066672241799,24.94658419691507,0.0,1.0,0.0,0.0,1.0,Taxi
16.2,0.030175593480772325,-24.63648404414778,13.207283389636954,0.07542870521497515,0.12437980829909762,56.63885048529903,23.996502844453584,0.0,1.0,0.0,0.0,1.0,Taxi
16.3,-0.11858752219992119,-40.46316223673067,13.824194125579496,0.15977347455118604,-0.2311268975742238,56.48080647508061,23.98074634495377,0.0,1.0,0.0,0.0,1.0,Taxi
16.400000000000002,-0.0755731824018207,-3.3715105565608376,13.379860718197781,0.48581590512342154,0.14762928616599194,56.52994417081271,23.98914652758582,0.0,1.0,0.0,0.0,1.0,Taxi
16.5,0.013318040697968277,21.85790930218721,12.609460085871858,-0.029396810095630277,-0.2929213654830427,56.436231709547144,23.651799819031858,0.0,1.0,0.0,0.0,1.0,Taxi
16.6,-0.009297975688984958,22.415295593317513,12.987122056820317,0.03319548968382888,1.1154037763927482,56.47796516553825,24.874134352296046,0.0,1.0,0.0,0.0,1.0,Taxi
16.7,0.036503295564767044,-2.9059890541084408,13.092644452480359,0.2799410016899079,0.9168779629607272,56.46543713345466,24.754591687217598,0.0,1.0,0.0,0.0,1.0,Taxi
16.8,-0.0012119045725737573,-2.251480449114038,12.702624449238906,-0.16227316524650676,-0.1726535810016289,56.46259211710924,24.0263052258042,0.0,1.0,0.0,0.0,1.0,Taxi
16.900000000000002,-0.020555377934554978,25.710157562411847,12.752519381046696,0.006702897497099014,-0.5496800841248576,56.382259823017705,24.851108960743527,0.0,1.0,0.0,0.0,1.0,Taxi
17.0,0.16505408337682645,1.4489417908601656,12.093909035918275,0.5173968797093016,0.0324560155069213,56.37261827749791,23.891842207165055,0.0,1.0,0.0,0.0,1.0,Taxi
17.1,0.0060328043817272255,-22.001289355407195,12.122459109291778,0.1745293546481103,-0.0733794398739532,56.49297042414344,24.820700694611723,0.0,1.0,0.0,0.0,1.0,Taxi
17.2,-0.1305618247115908,-38.54504183487697,13.005084618197683,0.14041402049518995,-0.18612954894032088,56.43297403885754,24.617953566958843,0.0,1.0,0.0,0.0,1.0,Taxi
17.3,-0.02767112579755822,-8.11152375926568,13.035697432078187,-0.04704316114325696,0.7000227563612954,56.40189514268235,25.261463937600798,0.0,1.0,0.0,0.0,1.0,Taxi
17.400000000000002,-0.03452481441460102,42.1641578897599,13.298796270258118,-0.17632267208414382,-0.12098861336499328,56.62006713300343,25.34265411605711,0.0,1.0,0.0,0.0,1.0,Taxi
17.5,0.08025896473720884,-40.21379166031529,12.755727220450481,0.09245218160184586,0.7471076868590524,56.42337949067985,24.089690340801926,0.0,1.0,0.0,0.0,1.0,Taxi
17.6,-0.2287400840991345,-7.010982812738429,13.805495881528413,0.14104552496158132,0.20122401371498705,56.29514125112837,24.240036024153266,0.0,1.0,0.0,0.0,1.0,Taxi
17.7,-0.06957972847829295,-75.14546107088408,12.249546314838751,0.4280610100087027,-0.449818059461184,56.50526566482222,24.129674766884552,0.0,1.0,0.0,0.0,1.0,Taxi
17.8,-0.29546834061721133,7.564229998972294,13.530778606873202,0.4672804446582357,-0.5104049025364896,56.47783763775601,24.595107503940987,0.0,1.0,0.0,0.0,1.0,Taxi
17.900000000000002,-0.19091893410427282,25.287646455406527,13.676223700791288,0.1999689344283013,0.004139663911916368,56.4319538408422,24.11566769751628,0.0,1.0,0.0,0.0,1.0,Taxi
18.0,0.05685850379873986,53.71891587435194,13.605205075201674,0.038023198380359655,0.5647602343378877,56.585372271872984,24.23457164042901,0.0,1.0,0.0,0.0,1.0,Taxi
18.1,-0.02687376124545142,67.73147666662176,13.41235239711329,0.19989384148189682,-0.7061499403713278,56.505876673040746,23.973617020476233,0.0,1.0,0.0,0.0,1.0,Taxi
18.2,0.14773844922883625,-14.952843532007426,12.572011813609631,0.3295211677657396,-0.12766420500937814,56.37587615933819,23.419469209234595,0.0,1.0,0.0,0.0,1.0,Taxi
18.3,-0.017905713861297055,25.228666505085528,13.951642989415932,0.15780406256467336,-0.7206995203658277,56.55422006264274,24.291388826217926,0.0,1.0,0.0,0.0,1.0,Taxi
18.400000000000002,0.09926957127997643,-55.161628726727606,13.881451150584896,0.40299242677313835,-0.15406661251116885,56.6326934287718,24.03648090170738,0.0,1.0,0.0,0.0,1.0,Taxi
18.5,-0.12806969440480168,-26.484361472350432,12.688351923443024,0.378602092744848,0.5220333593360976,56.49774973383245,23.207223596714694,0.0,1.0,0.0,0.0,1.0,Taxi
18.6,-0.1503275212230491,17.224394067042,13.321056042733971,0.1308598561463506,-0.3531765011832748,56.61264863884344,24.859963587534757,0.0,1.0,0.0,0.0,1.0,Taxi
18.7,0.18539154161518656,-15.662928477939365,13.678680752013923,0.1809711893642984,-0.4766237671153797,56.502408974501634,23.8338871786089,0.0,1.0,0.0,0.0,1.0,Taxi
18.8,-0.2063843367944983,-7.608011063786031,13.977281492036056,0.24800557095396136,-0.5867177155162034,56.558471130462806,25.424241699149096,0.0,1.0,0.0,0.0,1.0,Taxi
18.900000000000002,-0.18836757654197905,-61.77112682544813,13.134544787266174,0.2839526392967566,-1.1462701922990706,56.486655112426206,24.55484796567137,0.0,1.0,0.0,0.0,1.0,Taxi
19.0,-0.12346409251205387,55.81381981404891,12.837585179722936,0.08699210042549305,-0.17410982344319864,56.499767224191146,24.722958331547567,0.0,1.0,0.0,0.0,1.0,Taxi
19.1,0.07268476227574641,57.2356786620411,13.365793992273284,-0.20178339372369947,-0.1946995172433671,56.459107960908796,24.846110496211608,0.0,1.0,0.0,0.0,1.0,Taxi
19.200000000000003,0.09781081676822666,45.03736283984688,13.491800592780475,0.23285681410810366,-0.5723798404008047,56.41753678688315,24.089198723082504,0.0,1.0,0.0,0.0,1.0,Taxi
19.3,0.10172272168718066,-35.895416483637796,13.193625432952683,0.25034825478540856,0.3573433371334427,56.39256907561935,24.35297201689828,0.0,1.0,0.0,0.0,1.0,Taxi
19.400000000000002,-0.10679232014244239,-13.786216474288233,12.122165359716437,0.05228486579118363,0.03948344424576235,56.42228608133678,24.87760243086035,0.0,1.0,0.0,0.0,1.0,Taxi
19.5,0.028879734396785692,-11.242873348884686,14.258564431729113,0.08982226701796975,0.10550709329575783,56.4541815850954,24.88481508917831,0.0,1.0,0.0,0.0,1.0,Taxi
19.6,0.04550835494275743,27.68877038667068,12.422150275713944,0.23319205101163215,0.7955202344640758,56.48967470402346,24.124034322235204,0.0,1.0,0.0,0.0,1.0,Taxi
19.700000000000003,0.03165153179091118,27.1000993544592,13.15354531717246,0.11326526362409797,0.14066679881198804,56.488366893181706,24.719382593090394,0.0,1.0,0.0,0.0,1.0,Taxi
19.8,0.16438023116908185,-7.408250335166447,13.104591689555166,0.08311551555254607,-0.6161818745291889,56.54677326697043,24.730863458976323,0.0,1.0,0.0,0.0,1.0,Taxi
19.900000000000002,0.008467103266925364,-0.048961858532676907,13.888034041878777,0.3372257982828767,-0.02504788636081523,56.65361509717093,24.569249307062222,0.0,1.0,0.0,0.0,1.0,Taxi
20.0,0.03140672249824796,-35.50799175266918,13.037003312774447,-0.08596760736563627,-0.02304328919536264,56.55892986571564,23.862751949329294,0.0,1.0,0.0,0.0,1.0,Taxi
20.1,-0.013159727594263855,11.793205100174047,12.02254035961936,-0.08743408168880734,0.4255461833004647,56.33050954232925,25.20051236223444,0.0,1.0,0.0,0.0,1.0,Taxi
20.200000000000003,0.06743312876779578,-22.103253243198292,13.155123808475185,-0.06358191239212385,-0.24540776848883541,56.58780308913174,24.033471436123424,0.0,1.0,0.0,0.0,1.0,Taxi
20.3,-0.07910954371774333,1.7706812857190524,12.63251947436854,0.07766532866386545,-0.02557380104389321,56.63507868947886,24.695140971153158,0.0,1.0,0.0,0.0,1.0,Taxi
20.400000000000002,-0.004306321165668424,-2.976084978628338,12.601251398655078,0.24781622866480893,0.053186690909271576,56.52759540220228,24.174229786535573,0.0,1.0,0.0,0.0,1.0,Taxi
20.5,0.052552703874654265,36.78932119575514,12.765715881672284,0.34341081086469594,0.15550400103815526,56.38777119253672,24.873025408582063,0.0,1.0,0.0,0.0,1.0,Taxi
20.6,0.10483706226103261,-17.1129531640963,12.696745479793796,-0.09990457600172067,-0.026372758669633196,56.289085030010256,24.57586524750588,0.0,1.0,0.0,0.0,1.0,Taxi
20.700000000000003,-0.08987108698614975,19.364127506839242,13.70629830929382,0.445170136043389,0.12127061726044934,56.39251298605279,24.98988649855564,0.0,1.0,0.0,0.0,1.0,Taxi
20.8,0.1493733414088507,-12.678308776665475,13.344943478959115,-0.07829032048070408,0.6649949898100923,56.453269515562226,24.30346062206704,0.0,1.0,0.0,0.0,1.0,Taxi
20.900000000000002,0.041445518377705444,26.20067683170649,12.853502498561046,-0.08023691470381925,-0.5734872793982263,56.54367229571125,25.166506379039383,0.0,1.0,0.0,0.0,1.0,Taxi
21.0,0.04113229717238293,-10.971424398291669,12.614023829222912,0.6167335560343955,0.2778430414278471,56.49076662598043,24.55374611446023,0.0,1.0,0.0,0.0,1.0,Taxi
21.1,0.09451621941739252,-7.734921983322319,13.819151282454541,-0.0530196370871773,-0.37021605449554,56.585334663284414,24.211689186085376,0.0,1.0,0.0,0.0,1.0,Taxi
21.200000000000003,0.0027709084610940213,-17.617271407864223,13.574347760993074,0.1276433056942792,0.10866088048764581,56.33798337771361,24.637118443597387,0.0,1.0,0.0,0.0,1.0,Taxi
21.3,-0.04695405986693802,-4.763004299396973,13.572697580516452,0.6191170964696112,-0.23096502278425185,56.599342127106524,24.6953322834895,0.0,1.0,0.0,0.0,1.0,Taxi
21.400000000000002,0.07070119792040783,27.742243034109265,13.819119053435532,-0.045135885041396345,0.32248471672420387,56.5256252419058,24.13647365425403,0.0,1.0,0.0,0.0,1.0,Taxi
21.5,0.1414821236316405,14.154086421279791,11.622815388294491,-0.15190101681298118,-0.03405688501902117,56.44477853399775,24.760401392832012,0.0,1.0,0.0,0.0,1.0,Taxi
21.6,0.0238163722394611,-23.691841425440064,13.828560638484333,0.20988580883611763,1.6327062708719082,56.491985267281905,24.3996109391834,0.0,1.0,0.0,0.0,1.0,Taxi
21.700000000000003,-0.04775800920679233,-50.02576493019034,11.85982053580817,0.06180003726571115,0.8777378140101785,56.30028582204994,23.310984300933058,0.0,1.0,0.0,0.0,1.0,Taxi
21.8,-0.10864670101931102,-22.09398190075298,13.324884942028831,0.6775409926046811,0.6171672061187754,56.60790612302952,24.397935129995727,0.0,1.0,0.0,0.0,1.0,Taxi
21.900000000000002,-0.08665353726430364,-38.251251786965895,13.079172639783325,0.2919608126537601,0.8534144622479519,56.456236512021746,24.41560238628019,0.0,1.0,0.0,0.0,1.0,Taxi
22.0,-0.23901426814162163,41.913278609891044,13.873469214962759,0.03419190837805275,-0.20036101894003247,56.36063595456989,23.722566519770538,0.0,1.0,0.0,0.0,1.0,Taxi
22.1,0.10091969203014435,19.895743472224883,12.315436370162875,-0.251379140761672,-0.6480407696042598,56.36434361244312,24.128076165739092,0.0,1.0,0.0,0.0,1.0,Taxi
22.200000000000003,0.012825180096820954,54.49174585253014,12.050306058474044,0.11330078510618477,0.0751207854008766,56.555748186537585,25.01799827189904,0.0,1.0,0.0,0.0,1.0,Taxi
22.3,0.0334444611210292,18.053483579599618,13.581915459399562,-0.009443927221295778,-0.3309797724542025,56.42222092307685,24.349148189058766,0.0,1.0,0.0,0.0,1.0,Taxi
22.400000000000002,0.19118710992814258,-10.507363901716502,12.435402901947853,0.23923363440808904,0.27139322592308435,56.5726970762297,24.7161427856691,0.0,1.0,0.0,0.0,1.0,Taxi
22.5,-0.039711639411761424,21.947831563536635,13.397203064495484,-0.07152949918288454,-0.07307837884660061,56.31177056823816,23.906365052563274,0.0,1.0,0.0,0.0,1.0,Taxi
22.6,0.14318361893871254,-20.22674146798862,13.974331881988853,0.31555886727253235,0.7010182662474209,56.52964904564749,24.80579450791099,0.0,1.0,0.0,0.0,1.0,Taxi
22.700000000000003,0.09005340258819966,30.533596214469327,12.909351145705426,-0.2915316796016527,-1.3794218417820827,56.52688823747343,24.174363633248063,0.0,1.0,0.0,0.0,1.0,Taxi
22.8,0.11295634166058538,-23.96750556289361,13.622132973652205,0.0980046475600918,-0.31712143618558947,56.41482216909509,24.831419872684226,0.0,1.0,0.0,0.0,1.0,Taxi
22.900000000000002,0.023346091124244638,5.370979223121324,12.695752045773848,-0.23243255283137382,-0.23327406908037246,56.61303003925502,23.941809828964608,0.0,1.0,0.0,0.0,1.0,Taxi
23.0,0.11690829870380644,-24.78677906220831,12.601682929490327,0.0058861686563186355,-0.26380724428341024,56.324420818177884,24.31504378167995,0.0,1.0,0.0,0.0,1.0,Taxi
23.1,-0.010977553650455999,-18.28172338534125,12.996942837720734,0.13506580783860656,-0.19437855216911254,56.637368255672754,25.077048722734663,0.0,1.0,0.0,0.0,1.0,Taxi
23.200000000000003,-0.06806252580246144,-59.41508646968524,13.311817873021122,0.11341441484969658,-0.9403801571140673,56.425137155775076,23.885125919457977,0.0,1.0,0.0,0.0,1.0,Taxi
23.3,-0.18016713364461964,27.05012971839859,12.652871152296683,0.13488931935559154,-0.04845250661239676,56.60440480440752,23.939037090467803,0.0,1.0,0.0,0.0,1.0,Taxi
23.400000000000002,0.12427309494153711,22.613923868233638,13.508840609595726,-0.2471829581138047,-0.4232670702627797,56.70513318307201,24.683776313626506,0.0,1.0,0.0,0.0,1.0,Taxi
23.5,0.045007093538706903,16.500311271010826,13.61390215007849,0.21944677125735404,-0.1600181727814987,56.48262121220853,23.652063678285938,0.0,1.0,0.0,0.0,1.0,Taxi
23.6,-0.09766557728956533,12.869484857414855,13.06814391670342,0.19908013714404257,0.1458573075711493,56.44555712729368,23.96029555749335,0.0,1.0,0.0,0.0,1.0,Taxi
23.700000000000003,0.18862051922861156,18.161782476063767,13.35548258806068,0.21032497211295711,-0.05988580172490623,56.52898522381645,24.35833805128288,0.0,1.0,0.0,0.0,1.0,Taxi
23.8,0.13581600591902587,-27.799612469061287,12.461434509540425,0.1933218385444331,-0.4580870865589106,56.425133136953264,24.2632164649446,0.0,1.0,0.0,0.0,1.0,Taxi
23.900000000000002,-0.23666363963487164,-48.9505526215938,12.558256493658842,0.04834826707470691,-0.4821498346808429,56.41269130141785,23.964662066744108,0.0,1.0,0.0,0.0,1.0,Taxi
24.0,-0.05613224387935733,-6.9531782090031795,13.205704112136223,0.25752667008673436,-0.18716154614480085,56.32769024927029,24.090284582361164,0.0,1.0,0.0,0.0,1.0,Taxi
24.1,0.10105011487401008,64.92925376326616,12.500542534421946,0.5180027426188565,0.2713133359281962,56.563263326108995,24.355995953931288,0.0,1.0,0.0,0.0,1.0,Taxi
24.200000000000003,0.08798262918145933,22.658322500962523,13.382995789077585,0.3632910785246469,0.08337102535072245,56.42990396128192,24.559767308718694,0.0,1.0,0.0,0.0,1.0,Taxi
24.3,0.057159368625455426,-17.68188763024538,13.587632893142777,0.11663332374590218,0.22502022869205485,56.311550458375564,24.710741750707427,0.0,1.0,0.0,0.0,1.0,Taxi
24.400000000000002,0.012640676722783316,-9.220572944033131,13.241450370205254,0.42626849468404027,-0.4593754065755558,56.407474557011255,24.680305285365698,0.0,1.0,0.0,0.0,1.0,Taxi
24.5,0.04187976446129382,-19.114005035800275,13.891813685714766,0.1735285409729292,-0.7363413081807799,56.38720669951903,24.186977279069048,0.0,1.0,0.0,0.0,1.0,Taxi
24.6,-0.0384106565535458,13.16699839915312,14.238005990108771,-0.32593606481055537,-0.5389002073131584,56.541397821358316,24.286173226609698,0.0,1.0,0.0,0.0,1.0,Taxi
24.700000000000003,0.07847566871854908,-4.408630202400077,12.82794226795824,0.3623617909174752,-0.6718987162357744,56.17157646492558,24.46648755302929,0.0,1.0,0.0,0.0,1.0,Taxi
24.8,0.019836613449293602,-33.61642952114425,12.190738863328145,0.10166874287597931,-0.887361519488769,56.44360061730043,24.587131376318393,0.0,1.0,0.0,0.0,1.0,Taxi
24.900000000000002,-0.20649280415926682,-36.25421848679773,12.599837539827451,0.46203895811230106,-0.4041337157745621,56.46149842746553,24.328783471378124,0.0,1.0,0.0,0.0,1.0,Taxi
25.0,-0.1027954237154394,-23.67908964744437,12.891267525780693,0.3652842747196617,-0.7394065324926249,56.603001222670855,24.34773248399166,0.0,1.0,0.0,0.0,1.0,Taxi
25.1,-0.0985588347879281,24.410441355517957,12.502824056705752,0.4796966970293222,0.5551532359290949,56.45956661151621,24.422431001158703,0.0,1.0,0.0,0.0,1.0,Taxi
25.200000000000003,-0.0844405973816769,38.446344824766385,12.45374989733201,-0.14117279281332168,0.8332295682298012,56.49521128923419,24.62412203843061,0.0,1.0,0.0,0.0,1.0,Taxi
25.3,0.08943630040839264,12.234487555589206,13.21294746665818,0.14010208234666974,0.19614701343553115,56.60542070820338,24.16628019992509,0.0,1.0,0.0,0.0,1.0,Taxi
25.400000000000002,-0.03738639700998196,17.361025408323375,12.943082885236542,0.3595873885202528,-0.14077989277655345,56.41758901600923,23.920393684855085,0.0,1.0,0.0,0.0,1.0,Taxi
25.5,0.002364529659940064,-30.079498634418442,12.854955425151477,0.06773237005231336,0.33459774762575095,56.4645488604865,23.840180070008802,0.0,1.0,0.0,0.0,1.0,Taxi
25.6,-0.06096119276369947,5.2955958346921825,11.962749814217327,0.22795864232413518,0.629719680429254,56.526071308796645,24.160254067219302,0.0,1.0,0.0,0.0,1.0,Taxi
25.700000000000003,-0.010908417836520941,-41.68206569000625,12.980618761324182,0.2021887457407967,-0.5058650434739047,56.51854097708548,23.799316392206006,0.0,1.0,0.0,0.0,1.0,Taxi
25.8,-0.20604579879009105,8.277542914371233,13.488483126547077,-0.027625435973511192,1.9833135981589733,56.30940407665173,24.290559295356317,0.0,1.0,0.0,0.0,1.0,Taxi
25.900000000000002,-0.019573478191843192,11.492897989676521,13.758219942247745,-0.14059169066021043,-0.10169507238229707,56.52826902732693,24.342581176320245,0.0,1.0,0.0,0.0,1.0,Taxi
26.0,0.046556072111861774,45.587158149240416,12.318535894386534,0.02524387303256237,-0.7252670594255307,56.448455199714374,25.697428488854506,0.0,1.0,0.0,0.0,1.0,Taxi
26.1,0.021889991956111104,11.80754758156202,12.978684338440898,0.2527498060970039,0.11108250860598065,56.7196842770536,24.07464814869576,0.0,1.0,0.0,0.0,1.0,Taxi
26.200000000000003,0.03946425971596704,-0.9582050434580959,12.588805785751923,0.25146288697220737,0.09446354441955744,56.44537563277339,24.703817801273082,0.0,1.0,0.0,0.0,1.0,Taxi
26.3,0.04176504689457141,-9.862225513890907,13.797097243425926,0.12558843611687265,-1.0367060272120079,56.6535355097991,23.781333124586055,0.0,1.0,0.0,0.0,1.0,Taxi
26.400000000000002,-0.027421135613343313,-19.530579778759392,13.839129506099514,-0.1194242502357088,0.02217716034656097,56.419335056007355,24.67394590570665,0.0,1.0,0.0,0.0,1.0,Taxi
26.5,-0.058188639177829786,13.624193386847777,12.838185992471391,0.5356303957569433,1.0389968945715224,56.47527775259152,23.589307700702197,0.0,1.0,0.0,0.0,1.0,Taxi
26.6,0.10988601382881043,0.8010567696501122,12.195377987370257,0.06750278540306083,-0.8373488111780231,56.44693857763747,24.212060621030297,0.0,1.0,0.0,0.0,1.0,Taxi
26.700000000000003,-0.023415851765092605,12.041225358340142,12.643370132727908,0.11454499456907533,-1.0404914229118967,56.5355985075405,23.93257478061991,0.0,1.0,0.0,0.0,1.0,Taxi
26.8,0.00201748761387106,-23.754621786848094,13.76395256338642,0.10135834150745057,-0.29362170644939134,56.5465696004955,25.26808652553782,0.0,1.0,0.0,0.0,1.0,Taxi
26.900000000000002,-0.008887095105429925,-4.2739994907393815,13.265506292970313,0.1407961921956854,-0.1942992025654473,56.48826183672833,24.40985249376733,0.0,1.0,0.0,0.0,1.0,Taxi
27.0,-0.0447858492187894,2.502633082003354,12.29392122866686,0.2315174998404112,1.0738552729482531,56.44832855287393,24.65317420962553,0.0,1.0,0.0,0.0,1.0,Taxi
27.1,0.01453065302388795,6.920288772882394,13.140730398309039,0.4083077888843098,-0.5182929950488693,56.48805919034663,24.235625774921928,0.0,1.0,0.0,0.0,1.0,Taxi
27.200000000000003,0.025714348758982167,9.522719975952219,13.93814944093167,0.3245555790348992,0.052560773006037266,56.64252185122194,24.43592254301658,0.0,1.0,0.0,0.0,1.0,Taxi
27.3,0.0028277506609718137,14.859381355268487,12.93704312754786,0.11962390422113812,0.45442036063628594,56.51578643341401,24.650779293072677,0.0,1.0,0.0,0.0,1.0,Taxi
27.400000000000002,0.0888275598002305,-69.59230208125143,13.804909742414424,-0.13873689472723844,-0.25254666655565977,56.47885530614417,24.424326284723925,0.0,1.0,0.0,0.0,1.0,Taxi
27.5,-0.32224716164727485,26.808590961316487,13.2670825346619,0.11093691186923871,-0.7435391587868447,56.38480210065103,24.050837803475353,0.0,1.0,0.0,0.0,1.0,Taxi
27.6,0.13687070546755445,13.62851122304385,13.236104971560906,0.05092631477827585,-0.46238257721622267,56.549566019346685,23.486853408196723,0.0,1.0,0.0,0.0,1.0,Taxi
27.700000000000003,0.15697011591544996,88.91811182017015,13.438650735897697,0.3866363038271442,1.0760569015536132,56.52340966447878,25.26538540535359,0.0,1.0,0.0,0.0,1.0,Taxi
27.8,0.12234339745357609,-40.73702829580408,13.41869990642786,0.36654157527299,-0.38445750882061847,56.519606764576736,24.011172890059562,0.0,1.0,0.0,0.0,1.0,Taxi
27.900000000000002,-0.06681443601146575,-13.13048730337493,13.707639444025526,-0.09281131791392028,-0.6662419460569745,56.34473165524025,23.444468287313267,0.0,1.0,0.0,0.0,1.0,Taxi
28.0,0.0913176793985755,2.7971214758842478,12.977164617882396,-0.013681658188120505,-0.5893684486568763,56.309917025626305,24.530322487371983,0.0,1.0,0.0,0.0,1.0,Taxi
28.1,0.13632900483299754,35.56859916963126,12.417663126355293,0.03203366099868807,0.036063710024914646,56.46598927428272,24.93427699365848,0.0,1.0,0.0,0.0,1.0,Taxi
28.200000000000003,0.11102855983669074,-9.838575480238255,13.815013289015496,-0.027822104140377335,0.10224390903060054,56.300331347724864,24.152245845112887,0.0,1.0,0.0,0.0,1.0,Taxi
28.3,0.042124801997384415,-24.08305660845818,13.2479623606596,0.3211285164127602,-1.411684847198966,56.34045039973569,24.425030782274444,0.0,1.0,0.0,0.0,1.0,Taxi
28.400000000000002,0.015913721790706836,-26.38656443362753,12.990753311244529,0.5494098884799118,0.5388627349936431,56.523163887573105,24.772739319576097,0.0,1.0,0.0,0.0,1.0,Taxi
28.5,-0.02090426233144671,-4.229553245420463,12.652595750784627,0.04909976391387616,0.37408256435725573,56.52898161619328,25.91440143184468,0.0,1.0,0.0,0.0,1.0,Taxi
28.6,0.02097703577028229,-6.6566357363991076,12.918169900435808,-0.03370883432831087,-0.7672532714497982,56.508389298856855,24.48081000326648,0.0,1.0,0.0,0.0,1.0,Taxi
28.700000000000003,-0.01736945689128851,-4.142706754858251,12.658833040195361,0.4830162744508172,0.4711991109809349,56.616523139736955,24.06449708236506,0.0,1.0,0.0,0.0,1.0,Taxi
28.8,-0.04161779610573777,-25.03229480998208,12.52293852069206,0.19834464705578525,0.5428497025853116,56.45825408167747,24.24989149012874,0.0,1.0,0.0,0.0,1.0,Taxi
28.900000000000002,-0.10418443827962794,21.140082824667115,13.712121904080835,0.35056652974866864,-0.3877109740667956,56.33021849191516,23.92264785627278,0.0,1.0,0.0,0.0,1.0,Taxi
29.0,0.08833095723204723,0.040674469191245066,11.702923933608147,0.1784895268080259,0.011424989297320696,56.66561228031463,25.546163160168803,0.0,1.0,0.0,0.0,1.0,Taxi
29.1,-0.04141442375978139,36.888000272798,12.989967599327288,0.19397929962875265,0.0378274291602833,56.419895087820464,24.221402130168254,0.0,1.0,0.0,0.0,1.0,Taxi
29.200000000000003,0.0802555630843623,-20.579197666809513,12.629441812937262,0.12824439251943598,0.11906177687691644,56.62901334108608,24.063182663401907,0.0,1.0,0.0,0.0,1.0,Taxi
29.3,-0.014565031102000116,11.827342108256227,13.359555477131135,0.31014002208702374,0.562739624744049,56.67867534824313,24.763602160053388,0.0,1.0,0.0,0.0,1.0,Taxi
29.400000000000002,0.017722286781499976,-22.71393660759139,13.456643228526282,-0.047974282806657026,0.36081784361571745,56.386998507462295,24.0081246915152,0.0,1.0,0.0,0.0,1.0,Taxi
29.5,-0.03331411995359443,27.24729966904083,14.027142904144373,0.03718632046919523,-0.58782915864034,56.644007532650505,24.397212928210863,0.0,1.0,0.0,0.0,1.0,Taxi
29.6,0.12167146724320427,39.617497010567284,14.190504143968644,-0.13884380175386163,0.07101058840107306,56.50550477169759,24.771490594517722,0.0,1.0,0.0,0.0,1.0,Taxi
29.700000000000003,0.21580977183433658,-18.420474555640237,12.1189715466765,0.26949494143956154,0.6362240981099021,56.43777442286864,24.183006108059686,0.0,1.0,0.0,0.0,1.0,Taxi
29.8,-0.12541649273179542,-29.25226070973214,12.877377806128536,0.0761025389579769,0.4515263748331339,56.47588780835446,25.241553591526458,0.0,1.0,0.0,0.0,1.0,Taxi
29.900000000000002,-0.02458983630545628,-50.68176046799687,13.746422600190463,0.22929994366644313,0.21102370567698403,56.47431025529653,24.312134401950455,0.0,1.0,0.0,0.0,1.0,Taxi
30.0,-0.0375990305056476,18.341655780767052,13.42185426156238,-0.10685879940670856,-0.12957166606751638,56.53107414774769,24.60380338115549,0.0,1.0,0.0,0.0,1.0,Taxi
30.1,-0.03370821382795999,-28.207067168057904,12.678753094777495,0.33200039250747637,-0.5003295777614594,56.418300795216624,24.500885463402753,0.0,1.0,0.0,0.0,1.0,Taxi
30.200000000000003,-0.16562517214574562,36.88526815794912,12.255319923993142,0.20531913426538487,1.4896666645809447,56.29098986627395,25.15122047886471,0.0,1.0,0.0,0.0,1.0,Taxi
30.3,0.1468273102840982,31.65881579286713,13.710383554612077,0.6734229276442851,0.5733356236399629,56.500094540196244,25.40127820019737,0.0,1.0,0.0,0.0,1.0,Taxi
30.400000000000002,0.12458586513637587,-15.792343976597001,13.138130094292693,0.056804968816139834,0.15925979978425908,56.49215480045069,24.37141948223324,0.0,1.0,0.0,0.0,1.0,Taxi
30.5,-0.2445868920287304,-14.516988642864211,12.965576911852141,0.3112396063115421,0.17095216380756947,56.58969217937505,24.69849037468197,0.0,1.0,0.0,0.0,1.0,Taxi
30.6,0.07424236706977731,9.016195013501713,12.99492573045919,0.15929097555735314,0.6433881495520483,56.29079109083125,23.791601467147906,0.0,1.0,0.0,0.0,1.0,Taxi
30.700000000000003,0.1696668402038846,67.64384912410033,13.678995443862675,0.3211962952966443,-0.09817014924740783,56.390231806145835,25.04676340011684,0.0,1.0,0.0,0.0,1.0,Taxi
30.8,0.09363235359177137,0.8635626386059995,13.656434630824808,0.4972287589106148,-0.2662588602827497,56.51581248584489,24.44485829356468,0.0,1.0,0.0,0.0,1.0,Taxi
30.900000000000002,0.07856018026280749,-0.3003913762360047,13.364773904384363,0.3397128506520799,-0.6736634636535557,56.590492859974745,24.84054578137173,0.0,1.0,0.0,0.0,1.0,Taxi
31.0,0.16816488332270477,12.635585736055056,13.617354771925571,0.01603854580501793,-0.33641480122983575,56.62042638905257,25.031395343883197,0.0,1.0,0.0,0.0,1.0,Taxi
31.1,0.15681028227204685,-14.77536738960769,12.613906602158622,0.6968281974200082,-0.30936061473786375,56.53698654887012,24.227583109499996,0.0,1.0,0.0,0.0,1.0,Taxi
31.200000000000003,0.0046833433147692475,0.047982510070719776,12.970378010891496,0.29419707082744406,0.37406957156455395,56.44017276741505,24.385128329676096,0.0,1.0,0.0,0.0,1.0,Taxi
31.3,0.16840479587305854,-47.70917055535519,13.310686952092642,0.0709654889821219,-0.4499644679662604,56.44233825575918,24.971281973176886,0.0,1.0,0.0,0.0,1.0,Taxi
31.400000000000002,-0.0817355705047289,10.911959474933639,12.71969463100952,0.11547466572895831,-0.31231582652908796,56.31440477425292,24.053944550143328,0.0,1.0,0.0,0.0,1.0,Taxi
31.5,0.059243140689437646,-42.656396939048236,13.627410878949531,0.10576265666800651,0.22583348136343978,56.39510831564809,24.675047056397776,0.0,1.0,0.0,0.0,1.0,Taxi
31.6,-0.04487718882218242,4.967415643467956,13.028384908704902,-0.16844809537741728,0.693309578732791,56.549271967956656,24.777578149161066,0.0,1.0,0.0,0.0,1.0,Taxi
31.700000000000003,-0.05689849228738895,-6.715602613398457,13.301133154307964,0.24489101163228366,-0.4222075876623392,56.53928729439912,24.705975305223742,0.0,1.0,0.0,0.0,1.0,Taxi
31.8,0.02566512762244551,-4.472932848841471,12.8887211467853,-0.12877228608444952,0.14157688713741204,56.410782509445085,24.55679583420771,0.0,1.0,0.0,0.0,1.0,Taxi
31.900000000000002,-0.0672418530663896,0.8775676967789616,13.859014132124946,0.09936058043493054,-0.3956898214127314,56.4376648432322,24.345858492402304,0.0,1.0,0.0,0.0,1.0,Taxi
32.0,-0.05251065380349397,4.885270744699568,12.816430205117303,0.03538090029669305,-0.4407091689779701,56.455825463484246,24.711661894053044,0.0,1.0,0.0,0.0,1.0,Taxi
32.1,0.050091481345943524,-2.7563040962455716,13.032888092617757,-0.20194956819553472,1.1489828044439343,56.58760328115244,24.267154745784175,0.0,1.0,0.0,0.0,1.0,Taxi
32.2,-0.08102337354761728,34.43488967138647,13.110541926009832,0.36035254883368417,-0.24797155043537925,56.37505202514848,24.777373427602406,0.0,1.0,0.0,0.0,1.0,Taxi
32.300000000000004,0.11966379455343855,-41.12739897627343,12.392797939890466,-0.009766704466119297,0.14815853555091144,56.500704601275686,24.63312321759721,0.0,1.0,0.0,0.0,1.0,Taxi
32.4,-0.15554551353542345,41.49864458308367,13.666364837627892,0.22011429735109855,-0.09643354301281859,56.62037234316921,24.52649055501756,0.0,1.0,0.0,0.0,1.0,Taxi
32.5,0.12646984936780123,-19.227172077419393,13.703783556002941,-0.16016169902406618,0.1412231254209602,56.524609432555565,24.58002966955616,0.0,1.0,0.0,0.0,1.0,Taxi
32.6,0.023527934166341757,-4.30037235350792,14.495118092716394,-0.15858743727002694,-0.7999630133196146,56.48565032437011,23.754282431768328,0.0,1.0,0.0,0.0,1.0,Taxi
32.7,-0.17704737530296286,-56.376220020234264,13.39055317621787,-0.10029495340964939,-0.1119719765959221,56.613693226519786,23.654872287993875,0.0,1.0,0.0,0.0,1.0,Taxi
32.800000000000004,-0.1554112507333699,3.124939586386404,12.39977050297643,-0.21806035760486864,-0.07698057730519478,56.71109596558318,24.60197515562123,0.0,1.0,0.0,0.0,1.0,Taxi
32.9,0.03915263209827397,56.040637411484234,12.163936596737594,0.02492570164862326,-0.6893612386593729,56.564914997107735,24.542750505137644,0.0,1.0,0.0,0.0,1.0,Taxi
33.0,0.10315581175445854,23.14115923068091,12.617523201758345,0.3581728628849037,0.18656604063876772,56.48630272608602,24.556176056432022,0.0,1.0,0.0,0.0,1.0,Taxi
33.1,-0.03970545457996516,5.375829632742115,14.027948118423001,0.21585648564447557,-0.15179969010034047,56.62211911440011,24.98552912423243,0.0,1.0,0.0,0.0,1.0,Taxi
33.2,0.06603178026198475,-3.170272302585591,13.239528991758785,-0.007118973182237198,0.6116211469655839,56.56325440037506,23.919216559921416,0.0,1.0,0.0,0.0,1.0,Taxi
33.300000000000004,0.08730445024153079,21.139393433777972,13.234702383977371,-0.08541278930698618,0.5215493796717099,56.360917984485354,23.550962264926355,0.0,1.0,0.0,0.0,1.0,Taxi
33.4,0.0659915125889249,-13.161586912653206,12.932730123150396,0.3871604329341627,0.7418980280512162,56.27978102809254,23.8281735872491,0.0,1.0,0.0,0.0,1.0,Taxi
33.5,0.00022384569871890519,-17.491789784951074,12.079099105482891,0.22293966764516265,-0.4842348797995673,56.66251398617368,24.82801000731922,0.0,1.0,0.0,0.0,1.0,Taxi
33.6,-0.00015449868322438737,-11.69804257372604,13.237445632627592,0.1508329251214856,-0.014291242247843184,56.61145858706169,24.36367830262706,0.0,1.0,0.0,0.0,1.0,Taxi
33.7,0.007501299720294881,45.09725402643562,12.325533389344741,0.47921635428239706,0.24401375032032632,56.59351065768209,24.244436796159384,0.0,1.0,0.0,0.0,1.0,Taxi
33.800000000000004,0.22571011583089715,7.96229711455796,13.580393033158963,-0.1624981361834147,0.01365994809658784,56.36062890144285,24.31137236065541,0.0,1.0,0.0,0.0,1.0,Taxi
33.9,0.039656986889565565,39.7178984967687,12.40391456828327,0.5151340125645224,0.13302829255887422,56.39095542526496,24.993658366777375,0.0,1.0,0.0,0.0,1.0,Taxi
34.0,0.2060907922041385,-23.026597293598936,13.844209138396808,0.0243494860664622,1.2590693597698113,56.48536302994967,24.599905154881263,0.0,1.0,0.0,0.0,1.0,Taxi
34.1,0.11057712936290265,-20.868471355247937,13.506192555372653,0.06697253974355757,0.5556343503188006,56.53159634232793,24.56978132075872,0.0,1.0,0.0,0.0,1.0,Taxi
34.2,-0.06468536988667394,-34.38562924710366,12.612145389690294,0.2762384405679579,-0.13276701518668316,56.456319488220174,24.15161112371764,0.0,1.0,0.0,0.0,1.0,Taxi
34.300000000000004,0.03416264596862038,-5.6695121237194535,13.638476653048446,-0.0032839517427777076,0.1423634937534361,56.393207255367656,24.276272020881134,0.0,1.0,0.0,0.0,1.0,Taxi
34.4,0.08222956874430555,7.166715570338842,12.7737714809213,0.1803693996867476,0.290160417681101,56.426150122643605,24.905210266594242,0.0,1.0,0.0,0.0,1.0,Taxi
34.5,-0.02885179203497959,-21.403755651625158,12.58539247912499,-0.01970782204346533,0.4285304720784059,56.453081024264975,24.166358559367023,0.0,1.0,0.0,0.0,1.0,Taxi
34.6,-0.07285613228950524,-11.82043304386127,13.608559272991224,0.11570708509706744,-0.0079626815550238,56.360271608454184,24.608343048005693,0.0,1.0,0.0,0.0,1.0,Taxi
34.7,0.02312740352499936,36.82375506320181,12.502530504576434,0.10986968908079157,-0.04081413328553974,56.53436425557277,24.294510672702145,0.0,1.0,0.0,0.0,1.0,Taxi
34.800000000000004,0.1552669832810296,6.321060178119116,13.630749374962127,0.07005232788408201,0.44681190824314243,56.362810904644334,24.11810108831167,0.0,1.0,0.0,0.0,1.0,Taxi
34.9,-0.04125083139890951,0.3794072441181058,13.337210076844785,0.14667314175803384,-0.1942027811119893,56.68125985603092,25.104008603259985,0.0,1.0,0.0,0.0,1.0,Taxi
35.0,0.025024439745590023,-1.1058131127222168,13.190314064143964,-0.04523089495788457,0.5195608143352393,56.48251459902872,24.640379721811787,0.0,1.0,0.0,0.0,1.0,Taxi
35.1,0.14973791771741865,56.87864631441897,13.95661826046745,0.005092424746067442,-0.07352805423508658,56.50780022866195,23.4768934255919,0.0,1.0,0.0,0.0,1.0,Taxi
