time_s,altitude_ft,vertical_speed_fpm,ias_kt,pitch_deg,roll_deg,heading_deg,throttle_pct,afterburner_on,gear_down,flaps_deg,speedbrake_pct,weight_on_wheels,label
0.0,-2.16437735075956,-664.1866089491275,185.7648306331713,0.491667630588814,-1.6362128326867407,240.21948179632534,41.2730325042375,0.0,1.0,16.695576233137302,1.4247147236296365,0.0,Landing
0.1,-4.378332713923318,-902.4395729224685,187.24554482721663,0.2665096291299889,-1.3651932657989816,240.709429473731,41.504195273153,0.0,1.0,16.695576233137302,1.4247147236296365,0.0,Landing
0.2,-6.676575215371903,-1350.8732571379337,186.92561273537436,0.45838341028856366,-1.5528136483241213,240.35048050896728,41.81535632404506,0.0,1.0,16.695576233137302,1.4247147236296365,0.0,Landing
0.30000000000000004,-8.918743636449229,-1363.8220831770434,187.09843980352912,0.17885367566212015,-1.9215656098343867,240.54999763990793,41.43131922508296,0.0,1.0,16.695576233137302,1.4247147236296365,0.0,Landing
0.4,-11.197443129808535,-1363.3433486321874,186.90997494741652,0.18868033397758607,-1.739861176479599,240.65996423819138,41.393197828307365,0.0,1.0,16.695576233137302,1.4247147236296365,0.0,Landing
0.5,-13.49329195853284,-1353.5473890821113,185.62059762822358,0.3192523906505285,-1.7796441119212205,240.32828018864438,41.461962119386996,0.0,1.0,16.695576233137302,1.4247147236296365,0.0,Landing
0.6000000000000001,-15.686480581859785,-1339.4688998628699,187.71369277263418,0.41492333247563706,-1.8997231851549792,240.45693454852528,41.40185987159428,0.0,1.0,16.695576233137302,1.4247147236296365,0.0,Landing
0.7000000000000001,-17.894787629122884,-1330.5921157023938,190.0765725940634,0.4920223067154912,-2.042913126778393,240.6090914780109,41.15562581064551,0.0,1.0,16.695576233137302,1.4247147236296365,0.0,Landing
0.8,-20.14625253704481,-1337.5013653626436,186.33679454660012,-0.04233725451271342,-1.6032753132445523,240.35913836901227,41.44662271741168,0.0,1.0,16.695576233137302,1.4247147236296365,0.0,Landing
0.9,-22.373987408673003,-1340.4926621133063,188.30169843296517,-0.032100257498259566,-1.7706720944185645,240.57587582455062,41.36099235947404,0.0,1.0,16.695576233137302,1.4247147236296365,0.0,Landing
1.0,-24.597250939689417,-1339.905319264313,187.61590963206933,0.057212766405542625,-1.9056967250072663,240.30452777580217,41.978134047087764,0.0,1.0,16.695576233137302,1.4247147236296365,0.0,Landing
1.1,-26.845779133366374,-1335.8081352758916,188.29474792224264,0.2825605105486985,-1.8614904107379777,240.53645301865163,41.16290228454807,0.0,1.0,16.695576233137302,1.4247147236296365,0.0,Landing
1.2000000000000002,-29.05302808505246,-1341.859588171146,185.96407015956797,0.367113662921458,-1.5142536755131024,240.60532756000566,41.27351669783466,0.0,1.0,16.695576233137302,1.4247147236296365,0.0,Landing
1.3,-31.306548880545147,-1331.8926599187682,187.71588517006074,0.20079172173571447,-1.6384102728719079,240.37163403826492,41.79910534555636,0.0,1.0,16.695576233137302,1.4247147236296365,0.0,Landing
1.4000000000000001,-33.505242432960216,-1337.6612088752083,186.30075334601034,0.3716607991077842,-1.5234590588069703,240.60539377193004,41.634471923088554,0.0,1.0,16.695576233137302,1.4247147236296365,0.0,Landing
1.5,-35.7413341294285,-1344.4843200500875,187.29815993166184,0.08958646363092107,-1.681455598410927,240.0702464115493,41.484320625145386,0.0,1.0,16.695576233137302,1.4247147236296365,0.0,Landing
1.6,-38.028970480795586,-1351.848448753378,188.2467788028738,0.30208909471069284,-1.9998665454766067,240.17440970537223,41.62499168763947,0.0,1.0,16.695576233137302,1.4247147236296365,0.0,Landing
1.7000000000000002,-40.26448467672711,-1353.3843718560631,185.3563849222171,-0.03993979898781702,-1.748801996085772,240.25714325547608,41.936079780675456,0.0,1.0,16.695576233137302,1.4247147236296365,0.0,Landing
1.8,-42.50825598870882,-1335.6143606459682,187.5126620341918,0.2362624639197863,-2.177380715221889,240.4514856519046,41.371027745491084,0.0,1.0,16.695576233137302,1.4247147236296365,0.0,Landing
1.9000000000000001,-44.70704228402543,-1320.769847418184,187.7524244585379,0.5095412437906159,-1.6959475706482605,240.4590927936148,42.06893415015774,0.0,1.0,16.695576233137302,1.4247147236296365,0.0,Landing
2.0,-46.86833391381803,-1340.3281777153763,187.60017105835558,0.23802464262854756,-1.7363651215839815,240.61608869264148,41.80816289195424,0.0,1.0,16.695576233137302,1.4247147236296365,0.0,Landing
2.1,-49.2098968772857,-1337.4965678748665,186.47542642563604,0.24690393974064317,-1.6835410625762444,240.62615765443456,41.43063418982161,0.0,1.0,16.695576233137302,1.4247147236296365,0.0,Landing
2.2,-51.39452512339976,-1354.2155167792741,186.4498521472359,-0.005015146761353506,-1.5865139478836856,240.2961894492181,41.260638010828366,0.0,1.0,16.695576233137302,1.4247147236296365,0.0,Landing
2.3000000000000003,-53.6394114977144,-1335.8889462446202,185.85087846732358,0.16710475780075162,-1.1948266447910756,240.19550418137237,41.60963373200029,0.0,1.0,16.695576233137302,1.4247147236296365,0.0,Landing
2.4000000000000004,-55.8893416085088,-1342.2494470784998,187.5309934551081,0.2567999701105689,-1.6754334155164503,240.45630446988935,41.391071604382375,0.0,1.0,16.695576233137302,1.4247147236296365,0.0,Landing
2.5,-58.10577235879226,-1337.8329335796382,187.47597349473466,0.20258797527754668,-1.5952462320658294,240.50700094569424,41.09450053298746,0.0,1.0,16.695576233137302,1.4247147236296365,0.0,Landing
2.6,-60.32857616561259,-1341.509619970185,187.5882907278664,-0.044873297252876476,-1.6234053227853087,240.40999807233834,41.53329439337598,0.0,1.0,16.695576233137302,1.4247147236296365,0.0,Landing
2.7,-62.596889708359726,-1342.687589382642,185.7751256250724,0.05819922385902254,-1.7268097165790537,240.32215078258855,41.52840789026862,0.0,1.0,16.695576233137302,1.4247147236296365,0.0,Landing
2.8000000000000003,-64.81921030570547,-1332.8174273448951,185.91242805893864,0.05855155498698886,-1.413661928887366,240.5195402253837,41.65080201564952,0.0,1.0,16.695576233137302,1.4247147236296365,0.0,Landing
2.9000000000000004,-66.99266330233706,-1334.1625496200577,188.57748316562785,0.2184015934332298,-1.8181818556022535,240.34515993041578,41.49556902182247,0.0,1.0,16.695576233137302,1.4247147236296365,0.0,Landing
3.0,-69.26770245646001,-1319.9908344267071,187.6368397532655,0.2611602158559332,-1.5928593895080345,240.35411940691324,41.296016122165845,0.0,1.0,16.695576233137302,1.4247147236296365,0.0,Landing
3.1,-71.419164477839,-1339.4210305898382,187.43962338597322,0.21622239378845917,-1.820989364928205,240.3652884717278,41.25098394838267,0.0,1.0,16.695576233137302,1.4247147236296365,0.0,Landing
3.2,-73.68976845528626,-1339.4350782926551,188.47241042828324,0.161301433728852,-1.8553886396440944,240.9139558132523,41.424556980077,0.0,1.0,16.695576233137302,1.4247147236296365,0.0,Landing
3.3000000000000003,-75.96487784792329,-1376.1509186373048,187.3861622942708,0.3612059001851424,-1.9348630837219098,240.6422796748517,41.290384856081644,0.0,1.0,16.695576233137302,1.4247147236296365,0.0,Landing
3.4000000000000004,-78.29991907102553,-1368.5289292157222,185.8241701400133,0.7746698897454729,-1.6405768247501713,240.5443559516841,42.401806132698404,0.0,1.0,16.695576233137302,1.4247147236296365,0.0,Landing
3.5,-80.53241310136487,-1352.1854783703589,187.74974463140438,0.7776768220984909,-1.7543726448746546,240.40054504133923,41.516308202967075,0.0,1.0,16.695576233137302,1.4247147236296365,0.0,Landing
3.6,-82.72580523977508,-1338.5351027021072,188.66436866045518,0.40004327202572537,-1.7541616929153998,240.44872473597525,41.067644723840026,0.0,1.0,16.695576233137302,1.4247147236296365,0.0,Landing
3.7,-84.99259458453606,-1344.7293592503343,186.0752635941273,-0.09271482562497207,-1.509537150133896,240.34580932410483,41.59982919991381,0.0,1.0,16.695576233137302,1.4247147236296365,0.0,Landing
3.8000000000000003,-87.25605989761654,-1353.5815103429825,186.51161201354444,0.3115882761597688,-1.7378910820439635,240.5002942192407,41.50688358893306,0.0,1.0,16.695576233137302,1.4247147236296365,0.0,Landing
3.9000000000000004,-89.49371279149,-1345.9698392884093,187.95433037161888,-0.12147526894239968,-1.4879022068127443,240.71309172676843,41.78656376666112,0.0,1.0,16.695576233137302,1.4247147236296365,0.0,Landing
4.0,-91.72244378097811,-1330.4703908056497,186.17475680132205,0.18809059662551414,-1.5889204318902117,240.32526062179363,41.286858149035346,0.0,1.0,16.695576233137302,1.4247147236296365,0.0,Landing
4.1000000000000005,-93.90841185164479,-1342.2857048784979,188.43277310666298,0.2662948961143992,-1.3991574596153054,240.21955174397863,41.6257719286889,0.0,1.0,16.695576233137302,1.4247147236296365,0.0,Landing
4.2,-96.20514131588249,-1334.6677488676535,188.69949074274788,0.4932095532780285,-1.5598927637854039,240.37551127462098,41.48077900770676,0.0,1.0,16.695576233137302,1.4247147236296365,0.0,Landing
4.3,-98.39578252531638,-1329.8878997078334,187.39639183910066,0.030693702457781025,-1.6843158166387584,240.5494101089471,41.17237106414005,0.0,1.0,16.695576233137302,1.4247147236296365,0.0,Landing
4.4,-100.55785135018395,-1304.6227767622925,188.1390720210646,0.6382595718559163,-1.387465038687868,240.57017867735715,40.87474987873527,0.0,1.0,16.695576233137302,1.4247147236296365,0.0,Landing
4.5,-102.72825519969395,-1303.596680116371,187.7385553171699,0.41735616752824534,-1.6458691449093341,240.57230859901495,41.76036711580366,0.0,1.0,16.695576233137302,1.4247147236296365,0.0,Landing
4.6000000000000005,-104.91376592589823,-1302.3767485860474,187.12143909852765,0.5829078599064665,-1.7004345171994493,240.6285381918185,41.75971078014694,0.0,1.0,16.695576233137302,1.4247147236296365,0.0,Landing
4.7,-107.06973509311419,-1314.8633348502442,186.24627794485983,0.47549717864907604,-1.7892260604177692,240.50684544095157,41.54387916146138,0.0,1.0,16.695576233137302,1.4247147236296365,0.0,Landing
4.800000000000001,-109.30257187394517,-1321.3065268369148,185.7065106154669,0.4166582555651046,-1.7755098768076458,240.2857907020117,41.0621184055276,0.0,1.0,16.695576233137302,1.4247147236296365,0.0,Landing
4.9,-111.52029856008281,-1324.9478764895457,187.82193139208357,0.4158775337100977,-1.673780671079476,240.40182156592414,41.12339673806629,0.0,1.0,16.695576233137302,1.4247147236296365,0.0,Landing
5.0,-113.69447447556192,-1313.8977406709814,186.763996902093,0.14197754031183998,-1.647714069129176,240.38671784898963,41.06681807551696,0.0,1.0,16.695576233137302,1.4247147236296365,0.0,Landing
5.1000000000000005,-115.87206057730008,-1309.3393480415755,187.4122278669702,0.20819300650431127,-1.636294751817616,240.50537665120714,41.510511749589746,0.0,1.0,16.695576233137302,1.4247147236296365,0.0,Landing
5.2,-118.06699530029069,-1309.3622409553461,188.36040130790812,-0.054368517070784994,-1.480554230161399,240.7057774449006,41.21973514589559,0.0,1.0,16.695576233137302,1.4247147236296365,0.0,Landing
5.300000000000001,-120.24128568033865,-1324.6972980676417,184.47885978984976,0.615553692991167,-1.4938173457761919,240.5904173773995,41.14244984375201,0.0,1.0,16.695576233137302,1.4247147236296365,0.0,Landing
5.4,-122.49554706763828,-1330.7762180849948,185.1588886220371,0.18428711352876911,-1.525113914890863,240.4499865453156,41.540029860592284,0.0,1.0,16.695576233137302,1.4247147236296365,0.0,Landing
5.5,-124.72087639071566,-1333.2302027750984,186.77427479646175,0.49177303194085453,-1.3780777683781547,240.5731015340092,41.23380047300343,0.0,1.0,16.695576233137302,1.4247147236296365,0.0,Landing
5.6000000000000005,-126.90743669421414,-1302.0237099482074,186.6019922002813,0.26055498485088474,-1.814361782917556,240.53566000575574,41.76510468295193,0.0,1.0,16.695576233137302,1.4247147236296365,0.0,Landing
5.7,-129.00566561737932,-1287.0355741150095,185.77098515122307,0.1562543162868761,-1.9615612904024262,240.4454039972926,41.06253360012488,0.0,1.0,16.695576233137302,1.4247147236296365,0.0,Landing
5.800000000000001,-131.1560542612907,-1297.2716980687721,189.7378661214966,0.31021663367722235,-1.4558008440052137,240.55205392005223,41.234670628558064,0.0,1.0,16.695576233137302,1.4247147236296365,0.0,Landing
5.9,-133.393795184558,-1312.6858245147275,188.1545977993032,0.38727314144807023,-1.9467991856122675,240.5350097660305,41.65789684208941,0.0,1.0,16.695576233137302,1.4247147236296365,0.0,Landing
6.0,-135.56909473995296,-1321.2509509368829,187.80235756915235,0.3301401930944479,-1.58304176824962,240.53611244991998,41.46887087686291,0.0,1.0,16.695576233137302,1.4247147236296365,0.0,Landing
6.1000000000000005,-137.76230901597512,-1333.3502029520616,187.17759733740905,0.21800456956001762,-1.2960817947260954,240.68093671488305,41.602677440206136,0.0,1.0,16.695576233137302,1.4247147236296365,0.0,Landing
6.2,-140.0605461993183,-1321.5350499692365,186.76121726368987,0.039350536619110865,-1.639723184063234,240.35815840194448,41.13948305290202,0.0,1.0,16.695576233137302,1.4247147236296365,0.0,Landing
6.300000000000001,-142.17676998979914,-1308.3927679222882,187.45560747199661,0.35380810898831383,-1.3818496848939226,240.54030384866928,40.898712650314984,0.0,1.0,16.695576233137302,1.4247147236296365,0.0,Landing
6.4,-144.30427285558656,-1284.064023128576,185.34991000114002,0.2249371178776544,-1.5352870816631932,240.49600112631845,40.96806407262367,0.0,1.0,16.695576233137302,1.4247147236296365,0.0,Landing
6.5,-146.4808663149612,-1281.657133136963,185.90635383378333,0.5773234832128633,-1.6854715012711745,240.5625732919508,41.4115996913795,0.0,1.0,16.695576233137302,1.4247147236296365,0.0,Landing
6.6000000000000005,-148.58505565548396,-1298.7514232481658,188.77176969277545,0.5587535466974445,-1.402345879269383,240.49652829314232,40.97080916576645,0.0,1.0,16.695576233137302,1.4247147236296365,0.0,Landing
6.7,-150.7980299718274,-1298.0984840980739,187.16752590948482,0.26560384583052465,-1.6559079357461788,240.3152681333412,41.438296943447945,0.0,1.0,16.695576233137302,1.4247147236296365,0.0,Landing
6.800000000000001,-152.97135873545156,-1317.2492584427118,187.14724838546277,0.5207599080982992,-1.6339664109741387,240.62703604704143,41.52178415975031,0.0,1.0,16.695576233137302,1.4247147236296365,0.0,Landing
6.9,-155.17130194769751,-1303.9772350024975,187.79544602780751,0.4445990935889561,-1.7963966517308037,240.49039429437562,41.112426617381345,0.0,1.0,16.695576233137302,1.4247147236296365,0.0,Landing
7.0,-157.31791614683988,-1293.2891335343072,187.0988869547222,0.008579898041646827,-1.6616291166044497,240.45078052966596,41.67139809243789,0.0,1.0,16.695576233137302,1.4247147236296365,0.0,Landing
7.1000000000000005,-159.4378044031231,-1280.4669538898452,186.96901667721312,0.39018843817424254,-1.7450325342296331,240.4393538573945,41.41240922477199,0.0,1.0,16.695576233137302,1.4247147236296365,0.0,Landing
7.2,-161.57363671714674,-1298.056256256956,187.22630477695984,0.4144920802480121,-1.705819459189345,240.42700167094915,41.55959171425401,0.0,1.0,16.695576233137302,1.4247147236296365,0.0,Landing
7.300000000000001,-163.80819742812466,-1326.9026947237762,187.99106233876387,0.4112579506490879,-1.862330827355846,240.3618290934062,41.480296869023114,0.0,1.0,16.695576233137302,1.4247147236296365,0.0,Landing
7.4,-166.07231787674198,-1336.1074508607658,187.5031465012952,0.6180930706414831,-1.5718588344572064,240.55798139147373,41.90016586033618,0.0,1.0,16.695576233137302,1.4247147236296365,0.0,Landing
7.5,-168.25417397145057,-1327.5549978522577,188.17111946495024,0.4080230235328698,-1.5106418528828145,240.63828182102907,41.610635954601435,0.0,1.0,16.695576233137302,1.4247147236296365,0.0,Landing
7.6000000000000005,-170.44597241738595,-1320.789433577312,186.75346632963445,0.43253167490431277,-1.859151725795597,240.67435072191392,41.71245765290595,0.0,1.0,16.695576233137302,1.4247147236296365,0.0,Landing
7.7,-172.67626504462854,-1316.7306526676953,187.88103518028322,0.17836786262648605,-1.65475556316032,240.3324171697202,41.625216729073635,0.0,1.0,16.695576233137302,1.4247147236296365,0.0,Landing
7.800000000000001,-174.83782723478905,-1316.2731615753898,186.9137552152198,-0.04388989803104709,-1.9281345315008065,240.48027134249855,41.20143287504291,0.0,1.0,16.695576233137302,1.4247147236296365,0.0,Landing
7.9,-177.0273382252629,-1305.5706398622874,184.79328625416167,0.6816076256498796,-1.8952254353730404,240.38006762256146,41.94026894953261,0.0,1.0,16.695576233137302,1.4247147236296365,0.0,Landing
8.0,-179.20411824393997,-1314.4284689812366,187.23980320795246,-0.11520618466235594,-1.7114980351972138,240.45074721398055,41.324082943331994,0.0,1.0,16.695576233137302,1.4247147236296365,0.0,Landing
8.1,-181.40996957969523,-1293.020089986874,186.94798129992384,0.6331791318722221,-1.4014273977261822,240.68063048383692,41.28295644743366,0.0,1.0,16.695576233137302,1.4247147236296365,0.0,Landing
8.200000000000001,-183.49243867519726,-1296.6237469870975,186.32285398954966,0.1878607416684861,-1.6609461589428036,240.39376657672028,41.049414344797114,0.0,1.0,16.695576233137302,1.4247147236296365,0.0,Landing
8.3,-185.68723697887546,-1279.6864569030788,187.04288371513636,0.11487074275733583,-1.8459619083201895,240.47248644763,41.7233035496314,0.0,1.0,16.695576233137302,1.4247147236296365,0.0,Landing
8.4,-187.80840186421062,-1298.0291392519575,186.9527715540079,0.43976819452937865,-1.5848826844468535,240.664188388291,41.47652454990779,0.0,1.0,16.695576233137302,1.4247147236296365,0.0,Landing
8.5,-189.98258437145705,-1282.9129290760932,188.2415411015905,0.10954469249908827,-1.982105445196602,240.24545229502348,41.34680081231935,0.0,1.0,16.695576233137302,1.4247147236296365,0.0,Landing
8.6,-192.10180162425593,-1294.151565896101,185.7405328059821,0.30489678269245407,-1.350002805342006,240.38675310297833,41.59611823759791,0.0,1.0,16.695576233137302,1.4247147236296365,0.0,Landing
8.700000000000001,-194.27915969369113,-1307.5243795081633,187.0251638319014,0.4020260784649805,-1.2157545890204609,240.13489940499153,41.59408364556535,0.0,1.0,16.695576233137302,1.4247147236296365,0.0,Landing
8.8,-196.52020626899787,-1316.329984135183,186.7733838832342,0.08037424172258778,-1.5407479894618459,240.55724076177012,41.68509487513136,0.0,1.0,16.695576233137302,1.4247147236296365,0.0,Landing
8.9,-198.68345154493184,-1308.3129242005612,185.90586612765028,0.21303038213305509,-1.917499774918884,240.41111712336783,41.46447431963052,0.0,1.0,16.695576233137302,1.4247147236296365,0.0,Landing
9.0,-200.82072431469393,-1284.9507708073245,188.64175336780906,0.06562494816105102,-1.4330340298311164,240.22836368932815,41.198443287369415,0.0,1.0,16.695576233137302,1.4247147236296365,0.0,Landing
9.1,-202.9449601230345,-1285.2027744290638,186.46723079673768,-0.028539321760734926,-1.7845235960285692,240.51550411455526,41.16135717194838,0.0,1.0,16.695576233137302,1.4247147236296365,0.0,Landing
9.200000000000001,-205.10946541707716,-1284.4327481891924,185.77261644242532,0.18663424851004112,-1.4438458371704468,240.52389578229509,41.226818366290416,0.0,1.0,16.695576233137302,1.4247147236296365,0.0,Landing
9.3,-207.2428880556399,-1281.5572489240367,187.1338986129956,0.38607074877310654,-2.04852345859248,240.4362384513646,41.64522392738014,0.0,1.0,16.695576233137302,1.4247147236296365,0.0,Landing
9.4,-209.35274636765467,-1275.5183624805625,187.65572422463987,0.26299221348710733,-2.0081415061502197,240.44048691339435,41.65376882586211,0.0,1.0,16.695576233137302,1.4247147236296365,0.0,Landing
9.5,-211.48705722947997,-1276.5650828780224,185.51731375696394,0.320694765546576,-1.3863501221978973,240.66877815504995,41.35930845257685,0.0,1.0,16.695576233137302,1.4247147236296365,0.0,Landing
9.600000000000001,-213.62571347003,-1282.1151110688222,187.6218156021765,0.4744268889884509,-1.5690004125352137,240.38468898411293,41.42859693136866,0.0,1.0,16.695576233137302,1.4247147236296365,0.0,Landing
9.700000000000001,-215.76332192299878,-1283.2676687874766,187.79336051104002,0.013403574236892701,-1.36983226922125,240.51271124562538,41.081027208614636,0.0,1.0,16.695576233137302,1.4247147236296365,0.0,Landing
9.8,-217.90339557341736,-1278.9335553864532,188.37419485792293,0.3874793050705088,-1.6569046099975417,240.46019288051923,41.289085826965476,0.0,1.0,16.695576233137302,1.4247147236296365,0.0,Landing
9.9,-220.02038124696227,-1279.11000088925,188.1957761053515,0.32779923723002924,-1.5330244486135074,240.36803932406565,41.81931796873569,0.0,1.0,16.695576233137302,1.4247147236296365,0.0,Landing
10.0,-222.15887192744503,-1265.4792940727418,186.6727809063732,0.28586320727377673,-1.3060508062084162,240.22306367326917,41.217333762506556,0.0,1.0,16.695576233137302,1.4247147236296365,0.0,Landing
10.100000000000001,-224.23079204378107,-1268.1129257486646,185.37136789701339,0.24971113904622877,-1.8973475419995192,240.482107912816,41.622017886199885,0.0,1.0,16.695576233137302,1.4247147236296365,0.0,Landing
10.200000000000001,-226.3609458757056,-1274.1583510657904,187.53068119562337,0.19312452170520744,-1.5379499247525397,240.38709464700162,41.79333968373292,0.0,1.0,16.695576233137302,1.4247147236296365,0.0,Landing
10.3,-228.529663682774,-1303.0618767214946,188.78645301219734,0.44963412598150587,-1.8319861028845752,240.65876082910063,41.815524873073905,0.0,1.0,16.695576233137302,1.4247147236296365,0.0,Landing
10.4,-230.74610142738854,-1284.5172603264984,185.98323963008175,0.19194916279417562,-1.7538208680263925,240.42224904091427,41.74312356278507,0.0,1.0,16.695576233137302,1.4247147236296365,0.0,Landing
10.5,-232.7835321773381,-1276.7955391406304,186.0349082700307,0.548352213004285,-1.5514556406439421,240.83804647976763,41.10391326571412,0.0,1.0,16.695576233137302,1.4247147236296365,0.0,Landing
10.600000000000001,-234.91364137847714,-1272.3824649757773,186.05768560998797,0.312037690836252,-1.8960155956761664,240.55891666729292,41.639289191098506,0.0,1.0,16.695576233137302,1.4247147236296365,0.0,Landing
10.700000000000001,-237.10801375226742,-1302.953753123836,186.97487468130063,0.48028582494544464,-1.5255016817997333,240.60418179761814,41.100734418866594,0.0,1.0,16.695576233137302,1.4247147236296365,0.0,Landing
10.8,-239.29830094295727,-1305.798738873625,187.2753672559919,0.3663535741019983,-1.6795298394675535,240.4433779385878,41.62915642957905,0.0,1.0,16.695576233137302,1.4247147236296365,0.0,Landing
10.9,-241.44263507284526,-1303.4736837752405,185.26441861396236,0.7392048677396978,-1.3731056432853348,240.25564589710928,41.37311144772828,0.0,1.0,16.695576233137302,1.4247147236296365,0.0,Landing
11.0,-243.62538217114363,-1280.8487533843675,186.1877805380199,0.5542659404418833,-1.6270394484132467,240.49517317379093,41.333516984186524,0.0,1.0,16.695576233137302,1.4247147236296365,0.0,Landing
11.100000000000001,-245.7025447098791,-1290.321520834243,189.1157679429601,0.39535613373013223,-2.1071497862693156,240.4745548699948,41.374228726152,0.0,1.0,16.695576233137302,1.4247147236296365,0.0,Landing
11.200000000000001,-247.89424267701648,-1276.699304264531,186.8389901065903,0.39034474349660436,-1.877382604160866,240.51879836448165,40.95128865812968,0.0,1.0,16.695576233137302,1.4247147236296365,0.0,Landing
11.3,-250.00887869246628,-1279.5658577299719,186.9518393998194,0.11497771621820993,-1.7234604734600818,240.52214349602377,41.33973929392836,0.0,1.0,16.695576233137302,1.4247147236296365,0.0,Landing
11.4,-252.10037399852897,-1264.3017549901515,187.66545357421103,0.07553052618619016,-1.8114738514353437,240.40411518722487,41.28878044510008,0.0,1.0,16.695576233137302,1.4247147236296365,0.0,Landing
11.5,-254.21575145196724,-1270.6783097482573,187.90261750198226,0.3138943995864537,-1.4560375108530779,240.31564004706274,41.77182216646443,0.0,1.0,16.695576233137302,1.4247147236296365,0.0,Landing
11.600000000000001,-256.36227024120757,-1274.2771500345214,188.63758203585803,0.3229057807059315,-1.6387055953553917,240.49148344943296,41.60841622994759,0.0,1.0,16.695576233137302,1.4247147236296365,0.0,Landing
11.700000000000001,-258.4717597487016,-1276.3155277230283,185.41358911011352,0.6215954581169298,-1.557615983095261,240.54745502254548,41.367346542436536,0.0,1.0,16.695576233137302,1.4247147236296365,0.0,Landing
11.8,-260.5973290905824,-1267.0403372700775,186.72270595573562,-0.19124609345410554,-1.746205547997103,240.48693173725633,41.6366697031272,0.0,1.0,16.695576233137302,1.4247147236296365,0.0,Landing
11.9,-262.69747192755796,-1268.3986495809788,185.28334986592057,0.010743489886983815,-1.689732528109389,240.76044939230417,41.15182063844566,0.0,1.0,16.695576233137302,1.4247147236296365,0.0,Landing
12.0,-264.81375299660647,-1271.5609064079783,185.23073057374086,0.18713493019959743,-1.788456065902225,240.5129241997322,41.3575484169818,0.0,1.0,16.695576233137302,1.4247147236296365,0.0,Landing
12.100000000000001,-266.95513362262227,-1270.0217646481972,187.20321986343248,0.360356437988204,-1.9449718681468724,240.49143392611563,41.517018497249346,0.0,1.0,16.695576233137302,1.4247147236296365,0.0,Landing
12.200000000000001,-269.04758075079894,-1285.1617156278623,186.56451243098653,0.0686711650178776,-2.1789667812614435,240.32445068167124,41.69028911965048,0.0,1.0,16.695576233137302,1.4247147236296365,0.0,Landing
12.3,-271.2395615747458,-1284.777979861883,187.75401828606462,0.3526262257043678,-1.677418145409086,240.68960476621396,41.37056802196649,0.0,1.0,16.695576233137302,1.4247147236296365,0.0,Landing
12.4,-273.3790235219317,-1285.874045773892,186.63815005818543,0.3651256371061062,-1.7534926299099212,240.52811129110148,40.647195392427484,0.0,1.0,16.695576233137302,1.4247147236296365,0.0,Landing
12.5,-275.4769509796684,-1283.9552557360776,186.27114042770637,0.4327923415590894,-1.3382565695018473,240.57478546364973,41.50076810357905,0.0,1.0,16.695576233137302,1.4247147236296365,0.0,Landing
12.600000000000001,-277.65933785342617,-1278.8747656842932,189.2618523672902,0.36815048018548757,-1.5887555075589557,240.57662643579079,41.06947549417189,0.0,1.0,16.695576233137302,1.4247147236296365,0.0,Landing
12.700000000000001,-279.77339735035315,-1282.165687903921,188.0440723491087,0.22555700184134658,-1.7901470409169975,240.51612881925007,41.81573760949125,0.0,1.0,16.695576233137302,1.4247147236296365,0.0,Landing
12.8,-281.887779419188,-1264.4210094715047,188.16761712042998,0.05738602969914264,-1.8069870815357372,240.60903912801973,41.43557902592354,0.0,1.0,16.695576233137302,1.4247147236296365,0.0,Landing
12.9,-283.9814429007837,-1264.3698246882307,186.8513879497593,0.5173854701677199,-1.5469606898442123,240.46548655306083,41.28068818728532,0.0,1.0,16.695576233137302,1.4247147236296365,0.0,Landing
13.0,-286.0952464737943,-1258.880272533963,188.57870381982107,0.315820115924179,-1.4628252040221517,240.40243638250456,41.48059122858469,0.0,1.0,16.695576233137302,1.4247147236296365,0.0,Landing
13.100000000000001,-288.1821807818578,-1287.5187113856327,187.68095528330497,0.4020862151800709,-1.3330697582955604,240.4513480668552,41.66394705459601,0.0,1.0,16.695576233137302,1.4247147236296365,0.0,Landing
13.200000000000001,-290.41903645771185,-1291.147860482204,187.79376381819628,0.22214690030204706,-1.7203956169072239,240.53851395876143,40.8788900544945,0.0,1.0,16.695576233137302,1.4247147236296365,0.0,Landing
13.3,-292.5509857762053,-1318.0988327457726,186.86391461482748,0.49083518003215354,-1.4438931956543815,240.4287839936685,41.45873080588392,0.0,1.0,16.695576233137302,1.4247147236296365,0.0,Landing
13.4,-294.7726749455867,-1297.4271110124507,187.68270826692546,0.31984034595789673,-1.6684206359467662,240.62460922184414,41.33225044922808,0.0,1.0,16.695576233137302,1.4247147236296365,0.0,Landing
13.5,-296.9061720127741,-1279.2088365546872,186.92736989230772,-0.12761628545924752,-1.9604588429469543,240.37149737529808,40.915062109641504,0.0,1.0,16.695576233137302,1.4247147236296365,0.0,Landing
13.600000000000001,-298.94702995897876,-1260.3566229906392,187.77405567541828,0.15664434703073715,-1.711926188965883,240.83534998771688,41.60557545319839,0.0,1.0,16.695576233137302,1.4247147236296365,0.0,Landing
13.700000000000001,-301.0744580605399,-1256.777706888249,185.35957897537637,0.5430597148408309,-1.5305123775725737,240.45965726781594,41.29901536732308,0.0,1.0,16.695576233137302,1.4247147236296365,0.0,Landing
13.8,-303.19006054721535,-1266.8721815990127,187.10778408611762,0.13149852515929003,-1.816440702812165,240.2765427377151,41.52136873791386,0.0,1.0,16.695576233137302,1.4247147236296365,0.0,Landing
13.9,-305.2813908669738,-1247.9635977700243,188.94188113570834,0.1716660573803656,-1.7584107422051516,240.53473534530417,41.65629420273309,0.0,1.0,16.695576233137302,1.4247147236296365,0.0,Landing
14.0,-307.31427604939,-1247.654366387951,185.6239841362784,0.44000908865784916,-1.616117406752696,240.38164442844754,41.87284878309252,0.0,1.0,16.695576233137302,1.4247147236296365,0.0,Landing
14.100000000000001,-309.4283323791551,-1238.5847123215965,187.78999695388774,0.22405678592328102,-1.638556721289566,240.4313500704909,41.75135837574842,0.0,1.0,16.695576233137302,1.4247147236296365,0.0,Landing
14.200000000000001,-311.4743144285818,-1258.3249401837975,187.04964890699927,0.09986618872976877,-1.6912915679482945,240.37937856884514,41.50988727917291,0.0,1.0,16.695576233137302,1.4247147236296365,0.0,Landing
14.3,-313.605900750309,-1237.917818130734,188.33223274835484,0.19746854926770208,-1.4141897373244239,240.46490131232952,41.69478561615694,0.0,1.0,16.695576233137302,1.4247147236296365,0.0,Landing
14.4,-315.6179214698088,-1259.2102780315943,186.80365929183486,0.34162127994984304,-1.7234195420385516,240.62919283165672,41.30708674105113,0.0,1.0,16.695576233137302,1.4247147236296365,0.0,Landing
14.5,-317.7703658187398,-1257.8806751560362,185.0864508461002,0.4579662009110578,-1.7530140602069322,240.5285569679054,41.56214707478687,0.0,1.0,16.695576233137302,1.4247147236296365,0.0,Landing
14.600000000000001,-319.8953041260892,-1275.910642501992,188.4128831095267,0.20310152976590168,-1.8979436453858418,240.31295895364667,41.11039699488715,0.0,1.0,16.695576233137302,1.4247147236296365,0.0,Landing
14.700000000000001,-321.99747468231874,-1261.7463998371588,185.0289950289157,0.3978037104393425,-1.4038981894658775,240.4362906787353,41.01636495581876,0.0,1.0,16.695576233137302,1.4247147236296365,0.0,Landing
14.8,-324.0790978179256,-1269.3744539745583,186.78046829556138,0.2470434508321055,-1.4286147516350465,240.52697068899147,41.843294914333185,0.0,1.0,16.695576233137302,1.4247147236296365,0.0,Landing
14.9,-326.24217639596196,-1274.71620606741,186.88096221054562,0.2381713699738724,-1.790313533280679,240.29479825973613,42.15612801034639,0.0,1.0,16.695576233137302,1.4247147236296365,0.0,Landing
15.0,-328.3710557126558,-1266.7728265564735,187.2333669442328,0.4433001294176824,-1.819797044600454,240.26408175454776,41.43301583181776,0.0,1.0,16.695576233137302,1.4247147236296365,0.0,Landing
15.100000000000001,-330.41296195070794,-1234.7270426926227,186.02737815955285,0.017223346011419005,-1.5488775744295051,240.5630903767285,41.669038247406355,0.0,1.0,16.695576233137302,1.4247147236296365,0.0,Landing
15.200000000000001,-332.4158116094251,-1246.630497681349,187.64243850676206,0.4972119272629314,-1.71648810475114,240.7531800621673,41.333750682907784,0.0,1.0,16.695576233137302,1.4247147236296365,0.0,Landing
15.3,-334.60420820106253,-1249.5751925288005,187.2358622936641,0.13316371002754107,-1.3926271270585322,240.5628772906997,41.828675213242065,0.0,1.0,16.695576233137302,1.4247147236296365,0.0,Landing
15.4,-336.66083791335194,-1290.2124809606676,184.47188421089513,0.1260267081639792,-1.8352193980854459,240.63686420568592,41.22890238365699,0.0,1.0,16.695576233137302,1.4247147236296365,0.0,Landing
15.5,-338.8668740142284,-1284.845160877251,187.00381653199202,-0.07119013807483487,-1.4421358008897256,240.0178353729866,41.37564558391283,0.0,1.0,16.695576233137302,1.4247147236296365,0.0,Landing
15.600000000000001,-341.0284340054488,-1281.2915450218725,185.92999601131345,0.1762679075125065,-1.9428522744121508,240.4058509784536,41.21926230901475,0.0,1.0,16.695576233137302,1.4247147236296365,0.0,Landing
15.700000000000001,-343.0672956384613,-1259.716000511571,187.65695198119113,0.16597225996062545,-1.283051744569877,240.50877908783252,41.52993298269658,0.0,1.0,16.695576233137302,1.4247147236296365,0.0,Landing
15.8,-345.16545401678627,-1232.0239049992097,187.0200427372306,0.349109166226752,-1.6850015447493418,240.46650580493633,41.730214368039576,0.0,1.0,16.695576233137302,1.4247147236296365,0.0,Landing
15.9,-347.18855353044484,-1239.4138751916555,188.9031723658626,-0.049140967652525125,-1.6191159019104329,240.4444479843895,41.317572521643754,0.0,1.0,16.695576233137302,1.4247147236296365,0.0,Landing
16.0,-349.2643650144196,-1232.1874955099136,186.3763135790783,0.061334188864776484,-1.636468508091281,240.5590878776378,41.57844442259071,0.0,1.0,16.695576233137302,1.4247147236296365,0.0,Landing
16.1,-351.32639149433584,-1220.1441627984423,186.69516102948006,0.6517216898919438,-1.6451167972422278,240.79093171479212,41.738291645185704,0.0,1.0,16.695576233137302,1.4247147236296365,0.0,Landing
16.2,-353.28927434443705,-1220.2078526224684,187.75076625437478,0.31422095320459636,-1.9525447800500346,240.63548838867155,41.09801448720229,0.0,1.0,16.695576233137302,1.4247147236296365,0.0,Landing
16.3,-355.3654042775319,-1226.6734692823775,189.98016806836995,0.4894616188000269,-1.6073712232146384,240.77666386942133,41.304343669231955,0.0,1.0,16.695576233137302,1.4247147236296365,0.0,Landing
16.400000000000002,-357.4597588407477,-1239.771021484182,188.0379726278536,0.31120287218523096,-1.7170549951194203,240.35098992106077,41.37105487518594,0.0,1.0,16.695576233137302,1.4247147236296365,0.0,Landing
16.5,-359.48812945185796,-1224.4568101772868,186.76935646843287,0.022115575221278994,-1.7218119458456767,240.4869801336862,41.884485418965276,0.0,1.0,16.695576233137302,1.4247147236296365,0.0,Landing
16.6,-361.48768832841836,-1238.71889846248,188.21616566993936,0.22984996633479454,-1.6115128075206093,240.45346716626932,41.87100338220434,0.0,1.0,16.695576233137302,1.4247147236296365,0.0,Landing
16.7,-363.6533533330601,-1239.2918565674563,188.376130266143,0.24495619256238682,-1.4683206128630515,240.53488368653746,41.29976715055151,0.0,1.0,16.695576233137302,1.4247147236296365,0.0,Landing
16.8,-365.68458873469524,-1261.3075712789966,186.8182661412366,0.1668607232379664,-1.6499175144957419,240.48940128729737,41.465345619428184,0.0,1.0,16.695576233137302,1.4247147236296365,0.0,Landing
16.900000000000002,-367.79422618481334,-1254.9940135537327,188.24950067811633,0.1260631167999636,-1.5018017562583734,240.57103708452098,41.40535554633505,0.0,1.0,16.695576233137302,1.4247147236296365,0.0,Landing
17.0,-369.9283234008288,-1283.1234489000053,185.99842252828049,0.21838706314055495,-1.4291888842986538,240.46452835842967,41.69156824042958,0.0,1.0,16.695576233137302,1.4247147236296365,0.0,Landing
17.1,-372.10020597919527,-1261.14833650455,187.28188986837847,0.6368705694316985,-1.573424579777301,240.72780478767936,41.47328780548833,0.0,1.0,16.695576233137302,1.4247147236296365,0.0,Landing
17.2,-374.0999678673361,-1246.485872005462,187.73021760728884,0.06941668980981935,-1.7388848238713726,240.494853545698,41.166485591244744,0.0,1.0,16.695576233137302,1.4247147236296365,0.0,Landing
17.3,-376.1607527608561,-1234.6172127202751,188.73445000515514,0.24270168905440406,-1.807082580334803,240.4459891225007,41.26727107710683,0.0,1.0,16.695576233137302,1.4247147236296365,0.0,Landing
17.400000000000002,-378.27329204279664,-1237.0072130534027,186.9375749594943,0.1603805086894268,-1.89516640983288,240.39400501376986,41.7898410854614,0.0,1.0,16.695576233137302,1.4247147236296365,0.0,Landing
17.5,-380.2850039326031,-1244.0451901819642,185.89927298258678,0.27145089962986574,-1.8728089262245564,240.507281988351,40.8429085981252,0.0,1.0,16.695576233137302,1.4247147236296365,0.0,Landing
17.6,-382.3809787117659,-1233.2460262852348,186.4692131712289,0.3584884810109546,-1.701911513532681,240.626041497595,41.175356386884495,0.0,1.0,16.695576233137302,1.4247147236296365,0.0,Landing
17.7,-384.4395221742228,-1256.60311298534,187.71556167486284,0.4918686069865922,-1.5001183843846126,240.81754335607673,41.17914829232387,0.0,1.0,16.695576233137302,1.4247147236296365,0.0,Landing
17.8,-386.5680194975298,-1260.893413798897,186.4200899487498,0.09532343499007867,-1.4711216363674657,240.37450710153644,41.14197140276555,0.0,1.0,16.695576233137302,1.4247147236296365,0.0,Landing
17.900000000000002,-388.6854457807604,-1265.4634361639864,186.50614620424588,0.018587578555816053,-1.4177390785911255,240.63331378047553,41.821038900728084,0.0,1.0,16.695576233137302,1.4247147236296365,0.0,Landing
18.0,-390.76683935504275,-1258.5892193950147,187.70766620033703,0.39782028688347393,-1.5922310507852364,240.75369896356847,41.70208665899394,0.0,1.0,16.695576233137302,1.4247147236296365,0.0,Landing
18.1,-392.8609655945049,-1245.6649273949208,188.1268046514157,0.5125496628192903,-1.599610833195025,240.37586322569655,41.80630407627552,0.0,1.0,16.695576233137302,1.4247147236296365,0.0,Landing
18.2,-394.913770417735,-1252.8393647271741,185.0450798023322,-0.07928728645492122,-1.4664180995352114,240.4784454490666,41.61595786980395,0.0,1.0,16.695576233137302,1.4247147236296365,0.0,Landing
18.3,-397.0310361786786,-1239.765078943492,185.69050227884776,0.32035749394906754,-1.4588089303583585,240.5607187143621,41.13345397466895,0.0,1.0,16.695576233137302,1.4247147236296365,0.0,Landing
18.400000000000002,-399.05979098922234,-1239.4299467039446,187.77192283144308,0.4152919411326139,-1.9842125865132878,240.49464549661207,41.45651884214373,0.0,1.0,16.695576233137302,1.4247147236296365,0.0,Landing
18.5,-401.11092015125473,-1232.088641987855,186.35172155913142,0.6392402065266152,-1.6735717241902,240.55012821074808,41.493362965217,0.0,1.0,16.695576233137302,1.4247147236296365,0.0,Landing
18.6,-403.1914793886179,-1228.156212170995,186.36876798702642,0.12484318610581219,-1.577246221685112,240.40730865397063,40.981069602652745,0.0,1.0,16.695576233137302,1.4247147236296365,0.0,Landing
18.7,-405.2005720500773,-1228.57157222345,188.32840045092985,0.416696946766707,-1.6707596517657,240.3129963431286,41.18529545850253,0.0,1.0,16.695576233137302,1.4247147236296365,0.0,Landing
18.8,-407.253778012372,-1203.5649070840009,185.81427491525244,0.38514617765272313,-1.5628721241936245,240.36284155889393,41.290465186234,0.0,1.0,16.695576233137302,1.4247147236296365,0.0,Landing
18.900000000000002,-409.2093039240379,-1217.3322299488063,185.8968512404618,0.3831416683229888,-1.8577721199374937,240.96351740641057,41.15211288144808,0.0,1.0,16.695576233137302,1.4247147236296365,0.0,Landing
19.0,-411.28723319982134,-1224.5249911470753,187.19514464877082,0.17952989424986587,-1.5838619276704131,240.53864406943728,41.41277153769178,0.0,1.0,16.695576233137302,1.4247147236296365,0.0,Landing
19.1,-413.37640296810736,-1222.138025643767,186.977952174422,0.6137385578491992,-1.757288302612598,240.61503180468435,41.75884995874898,0.0,1.0,16.695576233137302,1.4247147236296365,0.0,Landing
19.200000000000003,-415.31999405225673,-1217.8711975547913,186.09898746950532,0.32169013373586847,-1.339979740110523,240.33362380617666,41.40960567788949,0.0,1.0,16.695576233137302,1.4247147236296365,0.0,Landing
19.3,-417.3765891875953,-1215.9707295700855,187.19327203486392,0.4101189736186483,-1.6967288220878352,240.09382972563924,41.63094223451401,0.0,1.0,16.695576233137302,1.4247147236296365,0.0,Landing
19.400000000000002,-419.4562566159578,-1236.641158952193,188.09324824863413,0.2441814555287866,-1.6561301856535189,240.49449555483784,40.70693163548938,0.0,1.0,16.695576233137302,1.4247147236296365,0.0,Landing
19.5,-421.5031998470177,-1241.3560620497835,189.04044964482176,0.0082339845309512,-1.5573292431311059,240.43397512393506,41.897145461252975,0.0,1.0,16.695576233137302,1.4247147236296365,0.0,Landing
19.6,-423.5833694978442,-1244.5098148740726,185.82208018881687,0.2355576882740282,-1.8713078530273546,240.4460188152218,41.0630323964228,0.0,1.0,16.695576233137302,1.4247147236296365,0.0,Landing
19.700000000000003,-425.67880569032815,-1246.7084922158504,187.45711693505368,0.4531941767687846,-1.6845123642754685,240.35491154382157,40.809939605935206,0.0,1.0,16.695576233137302,1.4247147236296365,0.0,Landing
19.8,-427.73674230809695,-1224.4620805423776,187.14993587985785,0.3977861628277114,-1.6792343105877505,240.48594559781736,41.244291867740785,0.0,1.0,16.695576233137302,1.4247147236296365,0.0,Landing
19.900000000000002,-429.7056799005561,-1224.487226658391,188.73667366505052,0.32311809495104316,-1.7276671301078577,240.53480177982556,41.91228843742927,0.0,1.0,16.695576233137302,1.4247147236296365,0.0,Landing
20.0,-431.8012418236201,-1232.4389880465676,187.19234283792616,0.15242481676776407,-1.9118584572314878,240.55575524210713,41.531950396332945,0.0,1.0,16.695576233137302,1.4247147236296365,0.0,Landing
20.1,-433.8989372483298,-1257.5973657768145,187.46134325986114,0.1515906889062565,-1.670817890996043,240.52971242829426,41.6029289796087,0.0,1.0,16.695576233137302,1.4247147236296365,0.0,Landing
20.200000000000003,-435.9936667294402,-1237.5270993672646,186.46655055646596,-0.12782008423007285,-1.3829388900324506,240.4565095520178,41.32873377479652,0.0,1.0,16.695576233137302,1.4247147236296365,0.0,Landing
20.3,-437.9888773204564,-1211.203524927123,186.70892630545438,0.09205635118446875,-1.4987683583512301,240.28658936097008,41.37572550166479,0.0,1.0,16.695576233137302,1.4247147236296365,0.0,Landing
20.400000000000002,-439.9549548729654,-1208.546972159627,187.32200015056304,0.2103732289807584,-1.5577171714024456,240.71337455091043,41.535500181498605,0.0,1.0,16.695576233137302,1.4247147236296365,0.0,Landing
20.5,-442.0364015902383,-1222.1108293432164,187.8626379777377,0.40303368669596473,-1.43282702018109,240.41959048753006,41.90674795868563,0.0,1.0,16.695576233137302,1.4247147236296365,0.0,Landing
20.6,-444.0994314671725,-1230.2278870311395,185.43659674335817,0.09305584104574222,-1.4319221816973895,240.70420763278617,41.53297883331529,0.0,1.0,16.695576233137302,1.4247147236296365,0.0,Landing
20.700000000000003,-446.1060943081211,-1226.2109104936483,185.20901825448374,0.604972357740059,-1.868999354044767,240.37216884177246,41.13328429546548,0.0,1.0,16.695576233137302,1.4247147236296365,0.0,Landing
20.8,-448.16745614270656,-1215.8785746671017,186.94518331285155,0.27954946245921114,-1.3990217165738679,240.49383402596663,41.67350254343091,0.0,1.0,16.695576233137302,1.4247147236296365,0.0,Landing
20.900000000000002,-450.178824340508,-1234.5971883973107,188.6570281636498,0.24669336225292635,-1.929247362369423,240.59741708506215,41.41997328381395,0.0,1.0,16.695576233137302,1.4247147236296365,0.0,Landing
21.0,-452.27908025010765,-1227.6413110643377,187.3479746967993,0.5394590353000726,-1.5139390574620946,240.38695751335354,41.597227089354014,0.0,1.0,16.695576233137302,1.4247147236296365,0.0,Landing
21.1,-454.30566269802824,-1226.6682881224824,187.77712923920274,0.3714183647027422,-1.3691595067973665,240.45099758947197,41.23265343299777,0.0,1.0,16.695576233137302,1.4247147236296365,0.0,Landing
21.200000000000003,-456.3121657811204,-1211.4132410313575,186.76228839878542,0.3737286654426932,-1.5190392647794753,240.71745190020613,41.59281521721317,0.0,1.0,16.695576233137302,1.4247147236296365,0.0,Landing
21.3,-458.33614645526444,-1241.3448993951417,188.25682291736496,0.34599145441016455,-1.820612510475995,240.59465634696073,41.643107366278166,0.0,1.0,16.695576233137302,1.4247147236296365,0.0,Landing
21.400000000000002,-460.51238719500395,-1243.1680282766138,188.05562860694425,0.30692084838427314,-1.2114683531841586,240.4238396101739,41.21777327541247,0.0,1.0,16.695576233137302,1.4247147236296365,0.0,Landing
21.5,-462.5280059225035,-1257.0800064247123,187.53206201583987,0.43347506200444563,-1.4321368016530172,240.54788010166408,41.170073025001216,0.0,1.0,16.695576233137302,1.4247147236296365,0.0,Landing
21.6,-464.621546487388,-1223.0093851203608,186.39225815728034,0.17474722931045233,-1.5302115509639103,240.50025298444257,42.349528635097904,0.0,1.0,16.695576233137302,1.4247147236296365,0.0,Landing
21.700000000000003,-466.62743412060576,-1237.123245538146,186.56791670098636,0.029000261532839244,-1.4917105869092253,240.49838429470583,41.54726763466337,0.0,1.0,16.695576233137302,1.4247147236296365,0.0,Landing
21.8,-468.7136221501942,-1226.2486159925402,186.75034208022794,0.1978781754582305,-1.5524044426576444,240.56200377336302,41.56886909390575,0.0,1.0,16.695576233137302,1.4247147236296365,0.0,Landing
21.900000000000002,-470.7527895673507,-1230.1008912903737,186.4288233953102,0.5432908584391871,-1.80818771741805,240.59097029666498,41.48070659673608,0.0,1.0,16.695576233137302,1.4247147236296365,0.0,Landing
22.0,-472.7779385770576,-1210.074642452116,188.19087381767227,0.4276185657005753,-1.38694110398676,240.51266386479688,41.50358259695005,0.0,1.0,16.695576233137302,1.4247147236296365,0.0,Landing
22.1,-474.7639953624548,-1203.3071258542689,185.29567140302703,0.28324828821864717,-1.3894006977302265,240.40332254269958,41.32058244443945,0.0,1.0,16.695576233137302,1.4247147236296365,0.0,Landing
22.200000000000003,-476.76932519662205,-1212.6004382187036,189.23522053542644,0.8246086440391035,-1.6559820847242344,240.4606633633548,41.41042548367184,0.0,1.0,16.695576233137302,1.4247147236296365,0.0,Landing
22.3,-478.84094076815114,-1210.2094868809334,184.54966378573528,0.6324881691978183,-1.8863759218248346,240.41735040771778,41.64108665069912,0.0,1.0,16.695576233137302,1.4247147236296365,0.0,Landing
22.400000000000002,-480.8150427968595,-1197.3642347475904,187.67241872659582,-0.022521548476203024,-1.8631686160924743,240.23998516380675,41.62564933342613,0.0,1.0,16.695576233137302,1.4247147236296365,0.0,Landing
22.5,-482.75614637036,-1161.9628559389184,187.40922686525786,0.6508115393069668,-1.9051010234800438,240.5200232963498,42.015814559287364,0.0,1.0,16.695576233137302,1.4247147236296365,0.0,Landing
22.6,-484.65075504784573,-1158.3568833957427,186.1284602878162,0.3999847773331682,-1.6371471776405073,240.6072335029745,41.33805143104133,0.0,1.0,16.695576233137302,1.4247147236296365,0.0,Landing
22.700000000000003,-486.6068272138382,-1174.083695289016,188.5745737885901,0.4209904269172786,-1.7471069538692228,240.50054540874032,41.597471249632996,0.0,1.0,16.695576233137302,1.4247147236296365,0.0,Landing
22.8,-488.6265648468051,-1191.9507900539086,187.20024209238574,0.11435411570069998,-1.853931111495271,240.58678746934004,41.54097255994168,0.0,1.0,16.695576233137302,1.4247147236296365,0.0,Landing
22.900000000000002,-490.6105089981153,-1206.048156123268,186.5565464116836,-0.25243488423070193,-1.5745492382464552,240.1939241831551,41.00628677145091,0.0,1.0,16.695576233137302,1.4247147236296365,0.0,Landing
23.0,-492.6370679944545,-1205.5434222978874,187.02260876696678,0.1082497932179626,-1.8170032606706041,240.3714828726214,41.274997627940245,0.0,1.0,16.695576233137302,1.4247147236296365,0.0,Landing
23.1,-494.6542819582945,-1206.012869663539,188.82640174148514,0.06701312020149142,-1.922690408003239,240.5389646076278,41.3458819071186,0.0,1.0,16.695576233137302,1.4247147236296365,0.0,Landing
23.200000000000003,-496.640573346433,-1193.7934526449792,187.67047948887912,0.45221874214492097,-1.8924268958322945,240.55767783775798,41.34776956677924,0.0,1.0,16.695576233137302,1.4247147236296365,0.0,Landing
23.3,-498.6060352576794,-1189.9223127107578,186.48122526967555,0.4221416082600155,-1.2256677200160455,240.48072280600468,41.211217820198534,0.0,1.0,16.695576233137302,1.4247147236296365,0.0,Landing
23.400000000000002,-500.6038935218483,-1208.414416833648,186.5362532927851,0.19868337856855364,-1.975141375253869,240.4326252216365,41.26437023717006,0.0,1.0,16.695576233137302,1.4247147236296365,0.0,Landing
23.5,-502.6826454306012,-1225.6238949315502,185.6616543443412,0.41537186311042484,-1.6527404177197604,240.320824069114,41.243008711313244,0.0,1.0,16.695576233137302,1.4247147236296365,0.0,Landing
23.6,-504.7341547323372,-1233.5039010013588,185.8379598989678,0.20099209422512126,-1.5428417011579898,240.52128541097522,41.153244336746994,0.0,1.0,16.695576233137302,1.4247147236296365,0.0,Landing
23.700000000000003,-506.7714130268551,-1215.3121736700086,185.96819584494722,0.3915858820629999,-1.5382096715337994,240.4426851515965,41.7368804873136,0.0,1.0,16.695576233137302,1.4247147236296365,0.0,Landing
23.8,-508.75920629895126,-1197.9879908215025,187.11314711844105,-0.0683318319252762,-1.7019708703238174,240.55478676033295,41.07626973824443,0.0,1.0,16.695576233137302,1.4247147236296365,0.0,Landing
23.900000000000002,-510.7240946864447,-1202.4199999193,187.83227366757885,0.26151656236971854,-1.5678267040181575,240.6649152678948,41.23043567618099,0.0,1.0,16.695576233137302,1.4247147236296365,0.0,Landing
24.0,-512.7835130264516,-1213.8038832777395,187.2498763296402,0.42108232555217534,-1.4297263972168628,240.40391846499654,41.144849466853486,0.0,1.0,16.695576233137302,1.4247147236296365,0.0,Landing
24.1,-514.82822571534,-1214.4671128442951,187.84932728238965,0.47103602184773474,-1.8876649013532392,240.63774626453755,41.73804346661897,0.0,1.0,16.695576233137302,1.4247147236296365,0.0,Landing
24.200000000000003,-516.7964302506662,-1203.010194971921,186.43899439264018,0.366501211516076,-1.6752839338842818,240.37668279241495,41.362106433489174,0.0,1.0,16.695576233137302,1.4247147236296365,0.0,Landing
24.3,-518.7985640013112,-1208.517392073577,187.351887357219,0.23966127787132063,-1.6666807668321757,240.66921087913636,41.335852457289775,0.0,1.0,16.695576233137302,1.4247147236296365,0.0,Landing
24.400000000000002,-520.8708126757078,-1217.50148210715,187.4688347276821,0.16687123569721793,-1.3438165606954535,240.55819331997054,41.06146110974724,0.0,1.0,16.695576233137302,1.4247147236296365,0.0,Landing
24.5,-522.8839376612019,-1220.07638991995,188.01195569502804,-0.18607918988767636,-1.409792749441722,240.4344547891052,41.90544335061526,0.0,1.0,16.695576233137302,1.4247147236296365,0.0,Landing
24.6,-524.898945950911,-1223.606514884409,187.1246468464914,0.4513889770371988,-1.5494008849948582,240.63737178630936,41.22001983898238,0.0,1.0,16.695576233137302,1.4247147236296365,0.0,Landing
24.700000000000003,-526.9888452501299,-1242.9246661016577,188.0454807698086,0.4053279981825523,-1.8707154540468816,240.66034304287973,41.31588139399903,0.0,1.0,16.695576233137302,1.4247147236296365,0.0,Landing
24.8,-529.0985609917102,-1239.2911357938829,185.3025467649823,0.6507464835493278,-1.6846971546826208,240.65800962115497,41.58341144754816,0.0,1.0,16.695576233137302,1.4247147236296365,0.0,Landing
24.900000000000002,-531.0954016298804,-1223.7957927429306,187.1990107571629,0.3709148126945327,-1.380549885779215,240.39576614785756,41.6150515144141,0.0,1.0,16.695576233137302,1.4247147236296365,0.0,Landing
25.0,-533.1078242138445,-1209.8661344569791,187.28776021491203,0.31726090904671295,-1.5931237898558466,240.46977980287875,41.32253850000025,0.0,1.0,16.695576233137302,1.4247147236296365,0.0,Landing
25.1,-535.1478916639951,-1227.5720422676613,187.9693221232922,0.5402839451007548,-2.0180675968424096,240.49498631301776,41.81554305615784,0.0,1.0,16.695576233137302,1.4247147236296365,0.0,Landing
25.200000000000003,-537.2332618412187,-1231.318491971365,187.45124927299477,0.4174572171207005,-1.6631328913081713,240.3904526265204,41.70828895639658,0.0,1.0,16.695576233137302,1.4247147236296365,0.0,Landing
25.3,-539.2644166737014,-1229.189452344076,186.96496214649136,0.11259280150751508,-1.5968049212837268,240.66329782108494,41.296158950624424,0.0,1.0,16.695576233137302,1.4247147236296365,0.0,Landing
25.400000000000002,-541.2938389257155,-1224.7303368601479,186.12564475788992,0.48174762801670235,-1.5258034456918692,240.49290726486686,41.30531380006389,0.0,1.0,16.695576233137302,1.4247147236296365,0.0,Landing
25.5,-543.3569135255194,-1209.4875230709931,185.48940739596503,0.5237159912132467,-1.494212432965234,240.71192414340567,41.81808076440436,0.0,1.0,16.695576233137302,1.4247147236296365,0.0,Landing
25.6,-545.3118542890563,-1212.8229913641917,188.98722936281746,0.37485884675733033,-1.6038821191166321,240.17686190074028,41.16360939383285,0.0,1.0,16.695576233137302,1.4247147236296365,0.0,Landing
25.700000000000003,-547.3579538825364,-1206.9202157165591,184.8652035235891,0.2600538876898112,-1.4318921820425234,240.6482308986234,41.435071991723134,0.0,1.0,16.695576233137302,1.4247147236296365,0.0,Landing
25.8,-549.3915146041022,-1230.7420859666308,188.87359648927426,0.5474002121693808,-1.6922134300159295,240.68205272140358,41.18112925091759,0.0,1.0,16.695576233137302,1.4247147236296365,0.0,Landing
25.900000000000002,-551.4655647188895,-1215.2470488057133,187.9200865771994,0.25484513423109684,-1.1125075688378856,240.5178015672966,41.722652813548464,0.0,1.0,16.695576233137302,1.4247147236296365,0.0,Landing
26.0,-553.434189126565,-1222.6127977941587,187.2750250752358,0.4925575055084651,-1.6724762221779748,240.46387031790823,41.94643427024804,0.0,1.0,16.695576233137302,1.4247147236296365,0.0,Landing
26.1,-555.504578593073,-1219.2894575831815,185.871407038883,0.45126508043687974,-1.5118815774251162,240.5571252746571,40.80344112650248,0.0,1.0,16.695576233137302,1.4247147236296365,0.0,Landing
26.200000000000003,-557.5620120068054,-1232.8160749565313,189.58176403687824,0.33849346942989295,-1.2194870169762901,240.6481379458994,41.48363182939608,0.0,1.0,16.695576233137302,1.4247147236296365,0.0,Landing
26.3,-559.5982695013477,-1205.1541134928584,186.91155394896813,0.20149852905541565,-1.588431502994931,240.41927704691045,41.45485476704758,0.0,1.0,16.695576233137302,1.4247147236296365,0.0,Landing
26.400000000000002,-561.5303491605373,-1172.1015252298685,187.06101297414108,0.08776950289623045,-1.5813470211148246,240.4779820504956,41.41081320456334,0.0,1.0,16.695576233137302,1.4247147236296365,0.0,Landing
26.5,-563.4225196329547,-1164.5111090875162,187.4524548367137,0.37489831129494167,-1.9070296835740674,240.60246279034243,41.60126290430974,0.0,1.0,16.695576233137302,1.4247147236296365,0.0,Landing
26.6,-565.4208250467852,-1177.4283304286428,188.17257706617764,0.4680107349095639,-1.63203139792855,240.44955410142427,42.03174110441071,0.0,1.0,16.695576233137302,1.4247147236296365,0.0,Landing
26.700000000000003,-567.4174908126805,-1195.3789753157253,186.5518039583561,0.5091974236403609,-1.6217426221593672,240.48776104925605,41.192537704863454,0.0,1.0,16.695576233137302,1.4247147236296365,0.0,Landing
26.8,-569.3994145095334,-1183.2903245895977,187.94864528335526,0.6671224473484767,-1.7309987736494854,240.24340228066944,41.32744388858701,0.0,1.0,16.695576233137302,1.4247147236296365,0.0,Landing
26.900000000000002,-571.3372766697332,-1181.6147674230251,187.8879031109507,0.6936128850486689,-1.4947634319560688,240.38947169983226,41.710839149075156,0.0,1.0,16.695576233137302,1.4247147236296365,0.0,Landing
27.0,-573.3255646497956,-1187.838875516627,187.37585768265012,0.14015217272105288,-1.3073878736259372,240.60441386213768,40.96598890462292,0.0,1.0,16.695576233137302,1.4247147236296365,0.0,Landing
27.1,-575.3386088871165,-1198.596636557454,188.51065654336963,0.19118772003145001,-1.7570382512865272,240.4377972909723,41.00285222619691,0.0,1.0,16.695576233137302,1.4247147236296365,0.0,Landing
27.200000000000003,-577.3302598525205,-1202.836709321923,189.69395654420728,0.48244469671554135,-1.8640193344225204,240.41315234875037,41.22795696069358,0.0,1.0,16.695576233137302,1.4247147236296365,0.0,Landing
27.3,-579.3397481964053,-1195.0879216755538,186.3586452884194,0.5478845629007528,-1.4586183493822924,240.18044778518038,41.255019784325455,0.0,1.0,16.695576233137302,1.4247147236296365,0.0,Landing
27.400000000000002,-581.3140484954943,-1189.9409421412429,186.5725739747968,0.15077286489390898,-1.4678723592991743,240.4157695904305,41.44478806633439,0.0,1.0,16.695576233137302,1.4247147236296365,0.0,Landing
27.5,-583.2799645632267,-1173.9336347327935,186.94280155069995,0.31896980689601717,-1.4949993023031034,240.54141524190243,41.4613627080472,0.0,1.0,16.695576233137302,1.4247147236296365,0.0,Landing
27.6,-585.2094163700692,-1168.3977720852454,185.65642387647884,0.36873449986831364,-2.054665277923107,240.46538185367308,41.46927979469259,0.0,1.0,16.695576233137302,1.4247147236296365,0.0,Landing
27.700000000000003,-587.1560373559205,-1181.569567359952,188.4452528926057,0.06244667031490575,-1.5330985879722288,240.69594875660437,41.510006238196866,0.0,1.0,16.695576233137302,1.4247147236296365,0.0,Landing
27.8,-589.1878124000265,-1172.8928586191614,187.01341120197202,0.22164998043824774,-1.519724689445169,240.9340999687629,41.94844140498048,0.0,1.0,16.695576233137302,1.4247147236296365,0.0,Landing
27.900000000000002,-591.073880663165,-1179.0483630806875,187.94039116755312,0.16221867760897546,-1.7114251281973951,240.56629921597596,41.822711780004454,0.0,1.0,16.695576233137302,1.4247147236296365,0.0,Landing
28.0,-593.0512791713239,-1144.992773854301,185.8834204192822,0.2429531823687227,-1.5865538080857267,240.4296048849285,41.13115050097869,0.0,1.0,16.695576233137302,1.4247147236296365,0.0,Landing
28.1,-594.912776269298,-1178.7411481949675,185.9343262077474,-0.07626836223818162,-1.768604368146737,240.39122666384105,41.29785847017229,0.0,1.0,16.695576233137302,1.4247147236296365,0.0,Landing
28.200000000000003,-596.9675864041399,-1164.2850922070465,187.03208038023328,0.20739423751257552,-1.5605842433062906,240.53319776959552,41.3946947975755,0.0,1.0,16.695576233137302,1.4247147236296365,0.0,Landing
28.3,-598.8727046323592,-1190.3746592858397,187.81513242435022,0.0467975703609495,-1.5742258000632179,240.43031224290053,41.593688754637576,0.0,1.0,16.695576233137302,1.4247147236296365,0.0,Landing
28.400000000000002,-600.8646495657272,-1186.8290003707898,187.048733258013,0.13423881893963452,-1.484564857954026,240.36659914769928,41.30041724829348,0.0,1.0,16.695576233137302,1.4247147236296365,0.0,Landing
28.5,-602.9017314059938,-1212.8051874210087,186.03399697321794,0.2118403319562368,-2.012644901749835,240.50592882304545,41.51866532622887,0.0,1.0,16.695576233137302,1.4247147236296365,0.0,Landing
28.6,-604.9367305694642,-1212.0940427565984,185.1864922198604,0.09579510798221391,-2.055482260855448,240.32716695937768,40.93515242154308,0.0,1.0,16.695576233137302,1.4247147236296365,0.0,Landing
28.700000000000003,-606.9251197795102,-1218.2679479237322,188.0666813557078,0.43306071106978355,-1.5311910983767656,240.6111791320517,41.67177718667982,0.0,1.0,16.695576233137302,1.4247147236296365,0.0,Landing
28.8,-608.9930711456125,-1206.4010615662255,188.24027754036146,0.50052865181537,-1.5396948840898812,240.75236410339824,41.26267381332804,0.0,1.0,16.695576233137302,1.4247147236296365,0.0,Landing
28.900000000000002,-610.9687358772953,-1207.1500188434584,187.33763074460802,0.1592458828196933,-1.356542490497019,240.59834225660177,42.12553272103378,0.0,1.0,16.695576233137302,1.4247147236296365,0.0,Landing
29.0,-612.9608698737275,-1200.8887423174883,186.8464048160251,0.11737004770701598,-1.6673236926094919,240.482769941038,41.61778858718325,0.0,1.0,16.695576233137302,1.4247147236296365,0.0,Landing
29.1,-614.9975148571999,-1226.09796715858,186.82002194333523,0.042557041791514205,-1.9465608873270435,240.81941810713283,41.53555595535109,0.0,1.0,16.695576233137302,1.4247147236296365,0.0,Landing
29.200000000000003,-617.0992257130882,-1228.4778006620854,188.13558807777844,0.4645993634433474,-1.6482233039111853,240.4035788290829,41.760552759715964,0.0,1.0,16.695576233137302,1.4247147236296365,0.0,Landing
29.3,-619.1032588770379,-1197.3703133562822,187.82495086947344,0.3018943277228584,-1.8629470375941628,240.51364953022608,41.20999907260049,0.0,1.0,16.695576233137302,1.4247147236296365,0.0,Landing
29.400000000000002,-620.9843664239813,-1169.0789289870736,185.60722239732,0.46873196468777834,-1.8428897650989748,240.5841425141415,42.094189591170924,0.0,1.0,16.695576233137302,1.4247147236296365,0.0,Landing
29.5,-622.9446203580236,-1154.720866865614,188.33577789005759,0.23896495251195005,-1.1372335647842289,240.3783565104876,41.27960765782227,0.0,1.0,16.695576233137302,1.4247147236296365,0.0,Landing
