time_s,altitude_ft,vertical_speed_fpm,ias_kt,pitch_deg,roll_deg,heading_deg,throttle_pct,afterburner_on,gear_down,flaps_deg,speedbrake_pct,weight_on_wheels,label
0.0,-1.5430101260267033,-467.8783350837631,168.23017664487884,3.0413670402008686,4.888917595615807,159.32260674401164,36.15925324137311,0.0,1.0,13.884578384320214,13.146277007218579,0.0,Landing
0.1,-3.1026045763059136,-626.9425105232772,168.28943183753927,3.6815606789868505,4.689766960634073,159.88076182587258,36.27999157089301,0.0,1.0,13.884578384320214,13.146277007218579,0.0,Landing
0.2,-4.677722678643089,-943.1679872777046,169.6997824120171,3.349111797881477,4.800846567939287,159.5474868612473,36.542269567974245,0.0,1.0,13.884578384320214,13.146277007218579,0.0,Landing
0.30000000000000004,-6.258850062415227,-924.8502783461367,167.26796289449914,3.2118533209963953,5.03955901024426,159.60546910907476,35.8132366132794,0.0,1.0,13.884578384320214,13.146277007218579,0.0,Landing
0.4,-7.726855968036597,-916.6902556454361,168.1244121275636,3.3896358644955806,5.536510166840594,159.47426801846416,36.01019293436569,0.0,1.0,13.884578384320214,13.146277007218579,0.0,Landing
0.5,-9.26117395687027,-905.1716605448428,167.57851460799066,3.447073472993456,5.200194120492054,159.50804882257273,36.13536714849473,0.0,1.0,13.884578384320214,13.146277007218579,0.0,Landing
0.6000000000000001,-10.78470836513944,-924.087425712295,168.73305280715815,3.3855051307881303,4.744572975603304,159.3814773738028,36.014522177851326,0.0,1.0,13.884578384320214,13.146277007218579,0.0,Landing
0.7000000000000001,-12.347293096598072,-944.3055359290402,168.4966805296698,3.4214614182031906,5.0280800507636965,159.66332112715668,36.184507453410845,0.0,1.0,13.884578384320214,13.146277007218579,0.0,Landing
0.8,-13.98270163651547,-958.888840493265,168.73447790906766,3.345993086106613,4.491338327784594,159.91623413698017,36.111770409480734,0.0,1.0,13.884578384320214,13.146277007218579,0.0,Landing
0.9,-15.579152567605766,-967.2543809377586,167.52872828918132,3.485192560784699,4.850150477509446,159.66384995795147,36.444257374549565,0.0,1.0,13.884578384320214,13.146277007218579,0.0,Landing
1.0,-17.183565001286865,-965.8280441584371,168.30820318845463,3.557795797786161,5.136409129734414,159.60717202372757,36.115721719534946,0.0,1.0,13.884578384320214,13.146277007218579,0.0,Landing
1.1,-18.811841857307655,-947.204166020671,167.69600148158275,3.4051453899035393,5.198716512927723,159.51272280804756,35.720131258372426,0.0,1.0,13.884578384320214,13.146277007218579,0.0,Landing
1.2000000000000002,-20.31517339770912,-944.0947744083609,167.97354358485825,3.444371398469817,5.0724220812208936,159.5961598152353,36.17149307603077,0.0,1.0,13.884578384320214,13.146277007218579,0.0,Landing
1.3,-21.90403887332867,-930.0069069266798,169.31248739491414,3.242983771299578,4.496499850598196,159.57841617583995,35.8575724982877,0.0,1.0,13.884578384320214,13.146277007218579,0.0,Landing
1.4000000000000001,-23.461876391941054,-949.4181211273343,169.13962865864804,3.667470468791506,4.8494172652759735,159.49693064658618,36.15726128995824,0.0,1.0,13.884578384320214,13.146277007218579,0.0,Landing
1.5,-25.062264003345792,-963.8331253055709,168.32439859655915,3.618619105376348,5.034021807414625,159.44540988407823,35.859257526782464,0.0,1.0,13.884578384320214,13.146277007218579,0.0,Landing
1.6,-26.723204499856525,-955.1389264018247,169.54312660379634,3.906499879018476,5.225470065540164,159.5441204269024,35.891013872046756,0.0,1.0,13.884578384320214,13.146277007218579,0.0,Landing
1.7000000000000002,-28.237571023950178,-930.337828907046,166.70682140011317,3.1426463383713212,4.926852172564314,159.77686318333508,36.3764875802548,0.0,1.0,13.884578384320214,13.146277007218579,0.0,Landing
1.8,-29.71395314788102,-895.0277436512835,168.91622279976315,3.560748734194173,4.857997141567183,159.55886489520526,36.408961194488676,0.0,1.0,13.884578384320214,13.146277007218579,0.0,Landing
1.9000000000000001,-31.198343218112942,-922.4679051329439,170.0309048873385,3.0975258095409224,4.727944831735541,159.86564927368374,36.085151191767864,0.0,1.0,13.884578384320214,13.146277007218579,0.0,Landing
2.0,-32.8499105496149,-953.3610465100807,169.04046126748506,3.376741213008284,5.077652764788318,159.66077625000798,36.266313304498155,0.0,1.0,13.884578384320214,13.146277007218579,0.0,Landing
2.1,-34.480758380431425,-977.4049136925322,169.53595762829022,3.674844633008542,5.092583398277569,159.6108072278089,35.840328619138894,0.0,1.0,13.884578384320214,13.146277007218579,0.0,Landing
2.2,-36.0853677865756,-953.5768178652006,170.24224252127425,3.365610260067151,5.077884800793773,159.8084817172006,36.19149600199578,0.0,1.0,13.884578384320214,13.146277007218579,0.0,Landing
2.3000000000000003,-37.6177946389409,-943.8216799374828,169.1840181797672,3.4050066097976504,5.238826101201378,159.5190157203765,36.11690986927558,0.0,1.0,13.884578384320214,13.146277007218579,0.0,Landing
2.4000000000000004,-39.19986678011884,-945.0694999054973,171.29945759054357,3.2653311315556417,5.378913503236371,159.54961458836885,35.71232104985465,0.0,1.0,13.884578384320214,13.146277007218579,0.0,Landing
2.5,-40.81071528610309,-961.464010851826,169.98578128307375,3.3757305685693524,4.995139506722116,159.45787184563142,35.913589440821454,0.0,1.0,13.884578384320214,13.146277007218579,0.0,Landing
2.6,-42.42511469320003,-972.4250706056055,169.33139688814353,3.6921581478881342,5.191712145252989,159.47628829074404,35.77332727084052,0.0,1.0,13.884578384320214,13.146277007218579,0.0,Landing
2.7,-44.061992133146866,-956.1158296115381,168.7243292443595,3.493920905891794,4.74352934409923,159.79167030720555,36.36897345064818,0.0,1.0,13.884578384320214,13.146277007218579,0.0,Landing
2.8000000000000003,-45.59129443416078,-953.773724154179,169.54104749400267,3.3586155216425855,4.80580439668808,159.68544193592538,36.25107690651163,0.0,1.0,13.884578384320214,13.146277007218579,0.0,Landing
2.9000000000000004,-47.193983313970925,-943.2712480567758,170.1794466760332,3.4241610029101675,5.114831748183753,159.62047708989144,36.07219546195462,0.0,1.0,13.884578384320214,13.146277007218579,0.0,Landing
3.0,-48.778348373430745,-943.9226402512373,169.07980457942529,3.3946245426407358,4.779379796428584,159.60096203732735,35.890018077227815,0.0,1.0,13.884578384320214,13.146277007218579,0.0,Landing
3.1,-50.31090763541697,-914.6616686935573,167.85884817959044,3.5083344610224505,4.786681325453521,159.5031669606567,35.939750185051174,0.0,1.0,13.884578384320214,13.146277007218579,0.0,Landing
3.2,-51.76729165743871,-910.1963630455642,169.14303760687056,3.4383342900203524,4.848498187596081,159.7444237806933,35.867478295201366,0.0,1.0,13.884578384320214,13.146277007218579,0.0,Landing
3.3000000000000003,-53.32933018865857,-920.5679777850364,170.31997235272638,3.3637429000314087,4.932510513887831,159.54614443487685,36.397730596713174,0.0,1.0,13.884578384320214,13.146277007218579,0.0,Landing
3.4000000000000004,-54.91374752434215,-939.975426926611,167.85971697149557,3.884548460785527,5.231396373524629,159.5664885150668,36.46825343150616,0.0,1.0,13.884578384320214,13.146277007218579,0.0,Landing
3.5,-56.46716879207177,-941.1291260459776,167.31241599721466,3.6710422156310765,5.115365291664143,159.65958261320452,36.205281390360895,0.0,1.0,13.884578384320214,13.146277007218579,0.0,Landing
3.6,-58.034975818888455,-940.6534894438024,169.2437527645855,3.2160624252524466,4.583778957319674,160.0655439246582,36.313360972204826,0.0,1.0,13.884578384320214,13.146277007218579,0.0,Landing
3.7,-59.61701497156116,-957.7584075661051,169.15397538151188,3.45736467066139,4.7624062786152,159.19544529036182,35.45691590173471,0.0,1.0,13.884578384320214,13.146277007218579,0.0,Landing
3.8000000000000003,-61.25596082990229,-945.400436079413,168.7876936517465,3.532153335054702,5.176077171647606,159.6508232356607,35.759634188604124,0.0,1.0,13.884578384320214,13.146277007218579,0.0,Landing
3.9000000000000004,-62.76197799928552,-947.6887332301716,167.28997286039004,3.483451271150987,4.897407799706246,159.46618430382114,36.21066528911003,0.0,1.0,13.884578384320214,13.146277007218579,0.0,Landing
4.0,-64.35545863771202,-934.3188214615508,169.47438322853677,3.2277115312925315,5.097590323739944,159.59960325059137,35.876369664571385,0.0,1.0,13.884578384320214,13.146277007218579,0.0,Landing
4.1000000000000005,-65.92755493721005,-958.1504758164868,168.10564831374302,3.893129439572755,4.924094093663491,159.69988824110544,36.11713999896409,0.0,1.0,13.884578384320214,13.146277007218579,0.0,Landing
4.2,-67.55273037836795,-953.306974455657,168.76930247280532,3.6006962027326854,5.176312051007458,159.45018964005976,35.64038541098265,0.0,1.0,13.884578384320214,13.146277007218579,0.0,Landing
4.3,-69.1219935099903,-959.1480044873833,168.44302172322216,3.3189531510832584,4.994365576944273,159.6467467628247,36.258376440158614,0.0,1.0,13.884578384320214,13.146277007218579,0.0,Landing
4.4,-70.72329495964696,-961.0501852585912,168.09689831180822,3.67937501029371,4.882567504042777,159.65295935579422,35.82075857907209,0.0,1.0,13.884578384320214,13.146277007218579,0.0,Landing
4.5,-72.35798130466091,-979.7072545041232,169.96536271631453,3.114934333595873,4.781093193271063,159.6276985386687,35.993257356389854,0.0,1.0,13.884578384320214,13.146277007218579,0.0,Landing
4.6000000000000005,-74.02052978251092,-957.5944336377773,170.06547654135423,3.635156529641094,5.096682303729644,159.74982056366514,36.137763419360084,0.0,1.0,13.884578384320214,13.146277007218579,0.0,Landing
4.7,-75.51126712783585,-936.7800220725115,170.54998227201875,3.5190567596746902,5.245402156486727,159.43145012078685,35.51972884154541,0.0,1.0,13.884578384320214,13.146277007218579,0.0,Landing
4.800000000000001,-77.04188141502347,-928.1376511071045,167.57703504560087,3.464530178866961,4.890671900490648,159.7562153014834,35.840957790394214,0.0,1.0,13.884578384320214,13.146277007218579,0.0,Landing
4.9,-78.66121803804644,-935.646814874039,167.84943215864735,3.090544978758801,4.839702329972862,159.39496123789343,35.898863816568095,0.0,1.0,13.884578384320214,13.146277007218579,0.0,Landing
5.0,-80.18950120220605,-940.851053796979,170.37165498876016,3.4850365522855595,5.027098273541113,159.82406574235472,36.041436081384035,0.0,1.0,13.884578384320214,13.146277007218579,0.0,Landing
5.1000000000000005,-81.74613668400836,-938.1460501622541,169.3645476887643,3.5568204028512165,5.099661665253312,159.52033846178665,35.6757302665341,0.0,1.0,13.884578384320214,13.146277007218579,0.0,Landing
5.2,-83.35194828885771,-938.6027580590422,168.4335409118022,3.722869524866678,5.090815209652693,159.64394771142463,36.2119162668966,0.0,1.0,13.884578384320214,13.146277007218579,0.0,Landing
5.300000000000001,-84.88251499250126,-930.0987372454841,167.92649694826747,3.746891487047142,4.954539746242021,159.70277336866263,36.333627216239556,0.0,1.0,13.884578384320214,13.146277007218579,0.0,Landing
5.4,-86.39663037023578,-924.1552368191719,167.03105095106608,3.3294825743437895,4.736405378851841,159.49989264262263,35.56852341058114,0.0,1.0,13.884578384320214,13.146277007218579,0.0,Landing
5.5,-87.97272447295357,-941.7269312112381,167.74188238242883,3.2569929057006353,5.056279616570812,159.5941405843123,36.2255541299118,0.0,1.0,13.884578384320214,13.146277007218579,0.0,Landing
5.6000000000000005,-89.59114964855745,-943.5380814716268,171.39989565145706,3.749448818101377,4.783329270829839,159.55922768993184,35.73153463008894,0.0,1.0,13.884578384320214,13.146277007218579,0.0,Landing
5.7,-91.11432077759392,-937.2729404770722,167.80160633570117,3.212144184253589,5.041905686113036,159.66392544509392,36.16111205004426,0.0,1.0,13.884578384320214,13.146277007218579,0.0,Landing
5.800000000000001,-92.65908917533893,-936.803878158625,168.7117977863436,3.3227134973018164,4.833466107357473,159.7807609068609,35.98555727552821,0.0,1.0,13.884578384320214,13.146277007218579,0.0,Landing
5.9,-94.27516903935057,-931.5559006129092,169.10474157876038,3.81247380946718,5.2134364117080025,159.82784149468375,36.13388587790686,0.0,1.0,13.884578384320214,13.146277007218579,0.0,Landing
6.0,-95.77210028065846,-928.6870618573688,167.78743227584226,3.2105306669721765,4.901732746402968,159.44395191136994,36.23941278671995,0.0,1.0,13.884578384320214,13.146277007218579,0.0,Landing
6.1000000000000005,-97.30252448462578,-911.738831461517,169.82323962443354,3.3045015270643407,4.855111649552038,159.27709341785226,35.57469112768493,0.0,1.0,13.884578384320214,13.146277007218579,0.0,Landing
6.2,-98.83386319665816,-938.9107927325654,170.1154634566999,3.3271075680493163,5.157563905897913,159.4314695164187,35.87377038532575,0.0,1.0,13.884578384320214,13.146277007218579,0.0,Landing
6.300000000000001,-100.46665424432129,-951.1613367172486,168.57214569162298,3.658934460053189,4.99366317049637,159.60101535050012,35.652144015752555,0.0,1.0,13.884578384320214,13.146277007218579,0.0,Landing
6.4,-102.05833116821202,-955.4373136848398,169.07187208917432,3.745396689089806,4.875032236123795,159.66555038761373,35.681918860076735,0.0,1.0,13.884578384320214,13.146277007218579,0.0,Landing
6.5,-103.61104976508236,-930.6897791202687,168.7939195158037,3.3788250725229254,4.631602198182843,159.4546288227242,36.31141327871186,0.0,1.0,13.884578384320214,13.146277007218579,0.0,Landing
6.6000000000000005,-105.12010313992263,-918.6510261362458,169.5042892886484,3.055211829047268,4.887509560451089,159.6137134247108,36.273348598547265,0.0,1.0,13.884578384320214,13.146277007218579,0.0,Landing
6.7,-106.65158629889325,-919.858801836088,168.53966738361305,3.583168893691403,4.90133562598233,159.70672272853824,36.34218017121383,0.0,1.0,13.884578384320214,13.146277007218579,0.0,Landing
6.800000000000001,-108.2103437742628,-940.6280665591624,169.78051220020185,3.5523615745367465,5.169717417859928,159.68031822550233,35.87796764248477,0.0,1.0,13.884578384320214,13.146277007218579,0.0,Landing
6.9,-109.82324347271845,-944.6097954990591,169.06322496243737,3.283500505160531,4.935069143785946,159.68053037070285,37.045685749170005,0.0,1.0,13.884578384320214,13.146277007218579,0.0,Landing
7.0,-111.37463527638855,-928.8409989318296,169.93650013070985,3.4202250851359683,4.862904047299116,159.74348553508867,35.826747050055744,0.0,1.0,13.884578384320214,13.146277007218579,0.0,Landing
7.1000000000000005,-112.85454876892194,-932.7681339964159,167.90523598128354,3.682462810195586,4.767173803717407,159.7377701631932,35.50020839507165,0.0,1.0,13.884578384320214,13.146277007218579,0.0,Landing
7.2,-114.48708414270052,-928.7365931951143,169.1852785680589,3.861106016959414,4.668648550093923,159.75099479609844,36.079702996194406,0.0,1.0,13.884578384320214,13.146277007218579,0.0,Landing
7.300000000000001,-116.01831824236412,-953.2121268354161,168.58912834414292,3.5478475332352475,4.8009594119637375,159.75488905780355,36.01727228687557,0.0,1.0,13.884578384320214,13.146277007218579,0.0,Landing
7.4,-117.62060940309902,-939.0511508639007,168.95740843026488,3.4944478261489658,4.749035662908308,159.4731554609475,36.00921679252843,0.0,1.0,13.884578384320214,13.146277007218579,0.0,Landing
7.5,-119.18233989702003,-954.7514596777773,169.92282772415345,3.383145820557738,5.048176440537572,159.6190554002693,35.816807618451776,0.0,1.0,13.884578384320214,13.146277007218579,0.0,Landing
7.6000000000000005,-120.792075540753,-942.9723057429386,169.51329157454097,3.3740262899811992,5.282609523961022,159.80218441698105,35.93183329461532,0.0,1.0,13.884578384320214,13.146277007218579,0.0,Landing
7.7,-122.33547093181372,-939.9805888856605,167.70285891758505,3.578983971544627,4.924445951340549,159.70606713491327,36.21642907442775,0.0,1.0,13.884578384320214,13.146277007218579,0.0,Landing
7.800000000000001,-123.88224284144833,-947.8507921689412,167.83728762485447,3.1860032387196884,5.265090471686511,159.20629538928222,35.44245956326557,0.0,1.0,13.884578384320214,13.146277007218579,0.0,Landing
7.9,-125.53132950159771,-952.4229070860628,170.40300148141603,3.46099739625815,4.77484640490737,159.6498271339026,36.01704415807232,0.0,1.0,13.884578384320214,13.146277007218579,0.0,Landing
8.0,-127.09758546724403,-962.3060515558933,167.4103105464223,3.512125214243309,4.69918502350451,159.60733027061565,36.235719734866564,0.0,1.0,13.884578384320214,13.146277007218579,0.0,Landing
8.1,-128.6937730992278,-934.7479827812862,168.6588391756572,3.717092487745409,5.26386685967042,159.70929645178217,36.02974235047602,0.0,1.0,13.884578384320214,13.146277007218579,0.0,Landing
8.200000000000001,-130.20506941550414,-920.709854929325,168.80136272850936,3.5568691256329763,4.811796385315678,159.57503997224842,35.65537451320461,0.0,1.0,13.884578384320214,13.146277007218579,0.0,Landing
8.3,-131.70113474189066,-927.2485869588594,166.8108576683391,3.416509380708665,4.800990545197746,159.6031232521117,36.00950871445956,0.0,1.0,13.884578384320214,13.146277007218579,0.0,Landing
8.4,-133.3300160340221,-933.8485899245484,168.99306553545088,3.1724373296489152,5.0641960317134895,159.4455977514674,35.62715341045811,0.0,1.0,13.884578384320214,13.146277007218579,0.0,Landing
8.5,-134.87431236512688,-942.4969245787338,169.10041300365023,3.4285297528215897,5.028578395363346,159.72475298935785,36.265286722636866,0.0,1.0,13.884578384320214,13.146277007218579,0.0,Landing
8.6,-136.41361936478432,-915.9949552166267,169.66604089741134,3.4241717394458697,5.021736965781624,159.85346357201286,36.55018972071392,0.0,1.0,13.884578384320214,13.146277007218579,0.0,Landing
8.700000000000001,-137.90999081010523,-924.727664537278,168.88801666736185,3.2855928586163827,4.998566386802516,159.4190397578402,36.3385289545532,0.0,1.0,13.884578384320214,13.146277007218579,0.0,Landing
8.8,-139.49795068781327,-930.5163685564652,168.40383284504156,3.5101484108802516,4.707376591825041,159.69199717291747,35.804153663302245,0.0,1.0,13.884578384320214,13.146277007218579,0.0,Landing
8.9,-141.06620120756665,-924.6629670999879,169.80669369060593,3.368447217882199,4.915546917107641,159.6340026175526,36.432120834064456,0.0,1.0,13.884578384320214,13.146277007218579,0.0,Landing
9.0,-142.53330564560517,-919.0992902612493,167.7622062292318,3.6407152622683148,4.675694519859116,159.7048178534876,35.94199209162255,0.0,1.0,13.884578384320214,13.146277007218579,0.0,Landing
9.1,-144.09344713911952,-903.6661927896944,171.3867406250547,3.525640779374024,4.925636723227888,159.63602608643805,36.01209756024647,0.0,1.0,13.884578384320214,13.146277007218579,0.0,Landing
9.200000000000001,-145.58453217151512,-916.2255903075733,169.09588849381166,3.6719049176710215,4.944604433296898,159.77504147951822,36.547387572788196,0.0,1.0,13.884578384320214,13.146277007218579,0.0,Landing
9.3,-147.11443359714303,-905.4643147495368,168.2732727533004,3.4882185184311005,5.008910618689949,159.64577128008432,36.09916039967788,0.0,1.0,13.884578384320214,13.146277007218579,0.0,Landing
9.4,-148.6207687128672,-919.988120837064,167.8930810877635,3.394350442474464,5.034695215371925,159.53561136778455,35.64185722115169,0.0,1.0,13.884578384320214,13.146277007218579,0.0,Landing
9.5,-150.18447277570044,-932.3762843510053,167.65024642134313,3.429751705699463,5.032032277907639,159.8290673280419,35.700044068634284,0.0,1.0,13.884578384320214,13.146277007218579,0.0,Landing
9.600000000000001,-151.77631501889806,-943.195940308891,169.1993929109869,3.6326878482348044,4.7741929345212695,159.52875837677584,36.27797656033139,0.0,1.0,13.884578384320214,13.146277007218579,0.0,Landing
9.700000000000001,-153.33674841441166,-950.2559165307672,168.61725928966513,3.30640307033493,5.076878618717368,159.88608368548898,36.040711996304154,0.0,1.0,13.884578384320214,13.146277007218579,0.0,Landing
9.8,-154.93575235835428,-939.6286197991003,168.75533379917775,3.5667812731809185,5.180220600882384,159.36100712376674,36.12160835989628,0.0,1.0,13.884578384320214,13.146277007218579,0.0,Landing
9.9,-156.47445811789356,-930.756766301755,167.66435747838275,3.536336414687205,5.099622612011261,159.67478388610857,35.7170926853525,0.0,1.0,13.884578384320214,13.146277007218579,0.0,Landing
10.0,-157.99053224592043,-923.8220438001576,169.56786418264457,3.093905183074609,5.182946797420909,159.93594955271578,36.24212559982565,0.0,1.0,13.884578384320214,13.146277007218579,0.0,Landing
10.100000000000001,-159.55486257735507,-920.2545525646598,170.00820068484725,3.626463861358476,4.9206150324173725,159.5986084906092,36.0783464004123,0.0,1.0,13.884578384320214,13.146277007218579,0.0,Landing
10.200000000000001,-161.07573088071686,-900.7123167643613,167.97090172467762,3.2600300577376937,4.741042749746077,159.64503901211765,36.06909801848271,0.0,1.0,13.884578384320214,13.146277007218579,0.0,Landing
10.3,-162.49409382974224,-880.8796536005106,168.70112253274706,3.621280326247436,5.217302176094834,159.40445577681953,36.30716979751286,0.0,1.0,13.884578384320214,13.146277007218579,0.0,Landing
10.4,-163.95926084535762,-891.0114377815603,168.69266430203803,4.084499449877333,4.765362163030884,159.8144668042853,35.89172418141306,0.0,1.0,13.884578384320214,13.146277007218579,0.0,Landing
10.5,-165.53078806962466,-903.5736248452167,169.05725267497323,3.677320863424861,5.301492334131501,159.89287513542195,35.82248512414558,0.0,1.0,13.884578384320214,13.146277007218579,0.0,Landing
10.600000000000001,-167.01196195396832,-921.638522241733,167.7247015434724,3.7881952200885114,4.8434048711478335,159.6211360688785,35.71265852097735,0.0,1.0,13.884578384320214,13.146277007218579,0.0,Landing
10.700000000000001,-168.56745345656628,-917.438392734914,171.1457976236782,3.2682745140913916,4.938224697889834,159.58206902898814,36.093069475866486,0.0,1.0,13.884578384320214,13.146277007218579,0.0,Landing
10.8,-170.11798003329923,-930.0069357636572,167.04418933281428,3.3974593618725644,4.882764833669651,159.4173994653811,36.53321298595988,0.0,1.0,13.884578384320214,13.146277007218579,0.0,Landing
10.9,-171.6619966327866,-919.5030394629725,169.27081584351293,3.685803408487514,5.349447822665934,159.74070813529306,35.83792800330103,0.0,1.0,13.884578384320214,13.146277007218579,0.0,Landing
11.0,-173.16496865388115,-913.0190536210876,167.42837705972377,3.165768546657219,5.045732365576164,159.68092905511116,36.00786883445511,0.0,1.0,13.884578384320214,13.146277007218579,0.0,Landing
11.100000000000001,-174.68307530140467,-917.7333628179609,168.5415906156554,3.3435185191652153,4.841701570082485,159.72965642399254,35.73697811653559,0.0,1.0,13.884578384320214,13.146277007218579,0.0,Landing
11.200000000000001,-176.25066344687642,-912.0531554042941,169.7154944105585,3.487382289317597,5.131546259904974,159.9311306434123,36.49090974633648,0.0,1.0,13.884578384320214,13.146277007218579,0.0,Landing
11.3,-177.72523443090262,-937.3725515052969,168.01034130100282,3.2473077656891203,5.0165639857300315,159.66001018517602,36.12027968559926,0.0,1.0,13.884578384320214,13.146277007218579,0.0,Landing
11.4,-179.36993805893115,-922.21496534994,168.39081939894567,3.4907266360628295,5.083710072091592,159.71401221775852,35.63756085468218,0.0,1.0,13.884578384320214,13.146277007218579,0.0,Landing
11.5,-180.86173827362612,-947.8782354338877,168.52243245835686,3.2375579149266485,5.149292918854385,159.35294198777274,35.99598706399027,0.0,1.0,13.884578384320214,13.146277007218579,0.0,Landing
11.600000000000001,-182.46462560807205,-921.9661174443048,168.82760590606188,3.276842059217804,4.7175976999336156,159.59117072668346,36.19563166189656,0.0,1.0,13.884578384320214,13.146277007218579,0.0,Landing
11.700000000000001,-183.97976864615268,-936.7303052098408,170.16792124582923,3.2921860822430067,4.879811698605607,159.49946119555966,36.21072376630884,0.0,1.0,13.884578384320214,13.146277007218579,0.0,Landing
11.8,-185.54538979967532,-920.9924798971315,169.02086599541627,3.17715964333767,5.306951882476252,159.6568536691991,35.896948965105786,0.0,1.0,13.884578384320214,13.146277007218579,0.0,Landing
11.9,-187.0695880075577,-937.808668667111,167.39066180765647,3.6473465817980726,4.790063239536553,159.60603719830783,35.6007101302243,0.0,1.0,13.884578384320214,13.146277007218579,0.0,Landing
12.0,-188.66881198948823,-911.9493323127244,167.6360415675833,3.328386963579868,4.927978718661158,159.80253761165648,36.37044801954903,0.0,1.0,13.884578384320214,13.146277007218579,0.0,Landing
12.100000000000001,-190.10513646123894,-930.5868404056923,168.47805940183667,3.3599616087443644,4.933939023696258,159.79395221807135,36.532354060816616,0.0,1.0,13.884578384320214,13.146277007218579,0.0,Landing
12.200000000000001,-191.72252220958617,-910.1935331498339,168.20261263708198,3.815025209037563,5.12681042877035,159.52634026807698,35.5337214140384,0.0,1.0,13.884578384320214,13.146277007218579,0.0,Landing
12.3,-193.2197796552374,-918.9582982327751,167.36276454229122,3.576954379096838,5.2382110648401445,159.8042088778011,36.16989639480419,0.0,1.0,13.884578384320214,13.146277007218579,0.0,Landing
12.4,-194.69992795240282,-899.4350699164501,168.86909200032093,3.4601769434380065,4.961990512294505,159.4829533559472,35.647990055719944,0.0,1.0,13.884578384320214,13.146277007218579,0.0,Landing
12.5,-196.21969755916842,-912.286902076397,167.77427283020438,3.3627283265477748,4.681423496913848,159.67004973681014,35.89085768005713,0.0,1.0,13.884578384320214,13.146277007218579,0.0,Landing
12.600000000000001,-197.7812141656194,-910.6553337863488,170.1346351588576,3.624258282852797,4.873610811275742,159.67986950004706,36.421178547897796,0.0,1.0,13.884578384320214,13.146277007218579,0.0,Landing
12.700000000000001,-199.25320462133456,-909.9196070061167,169.0699610069761,3.365520005290979,4.837001742924653,159.66744217487042,35.294102909635704,0.0,1.0,13.884578384320214,13.146277007218579,0.0,Landing
12.8,-200.769295594199,-902.3740292957824,169.3921882096405,3.109601906974959,5.043554891268277,159.60944041996038,35.91268973031221,0.0,1.0,13.884578384320214,13.146277007218579,0.0,Landing
12.9,-202.2930843120983,-913.670209489254,165.88953750738915,3.4090047556129868,4.758693080521728,159.68944283182998,36.04667866366259,0.0,1.0,13.884578384320214,13.146277007218579,0.0,Landing
13.0,-203.82155566878083,-902.8699727096296,167.95453694450336,3.5569122878043804,4.967827412272806,159.70582293327607,36.109755891467465,0.0,1.0,13.884578384320214,13.146277007218579,0.0,Landing
13.100000000000001,-205.28364545774716,-905.5773555928909,170.1547224275401,3.030300946367109,4.9841207441830315,159.49929668351626,35.9831057840374,0.0,1.0,13.884578384320214,13.146277007218579,0.0,Landing
13.200000000000001,-206.82097109006276,-908.4309852261016,168.7427651397651,3.5599098167159813,4.916446580853118,159.5858411393284,36.00995934252894,0.0,1.0,13.884578384320214,13.146277007218579,0.0,Landing
13.3,-208.36371059491134,-896.4683180966007,168.13062795352107,3.4840874371092903,5.179100150742089,159.77921816709795,36.07021673878881,0.0,1.0,13.884578384320214,13.146277007218579,0.0,Landing
13.4,-209.76598704823016,-912.4225479973575,168.74381885110745,3.5754163876026666,5.217585304102084,159.7772439297487,36.16897411073068,0.0,1.0,13.884578384320214,13.146277007218579,0.0,Landing
13.5,-211.38308383004954,-923.9868916344846,169.5714910993602,3.4329674511815043,4.684510274566633,159.49191242961695,36.05326192805675,0.0,1.0,13.884578384320214,13.146277007218579,0.0,Landing
13.600000000000001,-212.98364505308376,-941.0483047388539,170.44288713748713,3.6691240961645915,4.817782073454363,159.5272607177393,36.25694079970193,0.0,1.0,13.884578384320214,13.146277007218579,0.0,Landing
13.700000000000001,-214.47122857192443,-926.0135224513364,169.2436522731729,3.8591686646822967,4.942831410655983,159.66326067212094,35.95098825656445,0.0,1.0,13.884578384320214,13.146277007218579,0.0,Landing
13.8,-216.01315144230622,-903.7971153409217,168.5804635570678,3.4708274373963826,4.9150921573368125,159.56947571559817,35.93359809802036,0.0,1.0,13.884578384320214,13.146277007218579,0.0,Landing
13.9,-217.50263062978837,-892.6387548875823,169.06078743576964,3.117757926685467,5.0103901717092505,159.54208194532055,35.72334702573224,0.0,1.0,13.884578384320214,13.146277007218579,0.0,Landing
14.0,-218.93442234636234,-872.1645472601209,168.21286932109228,3.529810474806472,5.054467827978143,159.633630473763,36.326375167220135,0.0,1.0,13.884578384320214,13.146277007218579,0.0,Landing
14.100000000000001,-220.37397417860683,-878.2279884570186,169.71961169311547,3.3954475564386484,4.955130179800807,159.5958391338586,35.900227216688464,0.0,1.0,13.884578384320214,13.146277007218579,0.0,Landing
14.200000000000001,-221.89377057207346,-885.4387945966209,168.66846715878359,3.294326328172627,5.162496474409624,159.8367273022801,35.74187725058252,0.0,1.0,13.884578384320214,13.146277007218579,0.0,Landing
14.3,-223.36161631934544,-902.7161951575805,169.00277978980571,3.2602625936142755,5.107864953611712,159.68824528461118,36.37695602652794,0.0,1.0,13.884578384320214,13.146277007218579,0.0,Landing
14.4,-224.88755515439473,-880.8129437615493,170.45716715829536,3.3244790324196396,4.998298646219478,159.61903934235465,35.2265557729702,0.0,1.0,13.884578384320214,13.146277007218579,0.0,Landing
14.5,-226.2978352908812,-899.4600729974081,168.58487119336897,3.619662959077628,4.74770132239078,159.66073960717858,35.98459240086333,0.0,1.0,13.884578384320214,13.146277007218579,0.0,Landing
14.600000000000001,-227.85891668433248,-902.5073826552784,167.9592483567912,3.2050858561454385,5.283639509856366,159.8600202979817,35.847053791854705,0.0,1.0,13.884578384320214,13.146277007218579,0.0,Landing
14.700000000000001,-229.40009206767112,-918.4285436585583,170.40820079248223,3.647795472662162,5.358584187232385,159.55505079799286,36.182160419458,0.0,1.0,13.884578384320214,13.146277007218579,0.0,Landing
14.8,-230.889978009174,-901.7795493113681,169.5915565215178,3.5643179302311396,5.029638074430484,159.94928324772695,36.21014743589295,0.0,1.0,13.884578384320214,13.146277007218579,0.0,Landing
14.9,-232.36781443088933,-884.5198580864349,168.22549648018253,3.557455990186278,5.040788297267766,159.52695257340815,36.147068688188206,0.0,1.0,13.884578384320214,13.146277007218579,0.0,Landing
15.0,-233.8226913581033,-889.616418642413,168.73567201409622,3.3360810244183035,4.879437936546794,159.8135128456488,36.1541779862983,0.0,1.0,13.884578384320214,13.146277007218579,0.0,Landing
15.100000000000001,-235.33806010238607,-894.2907672941715,167.94900991550412,3.826310868870619,4.988157921938275,159.70436695026206,35.42018247668958,0.0,1.0,13.884578384320214,13.146277007218579,0.0,Landing
15.200000000000001,-236.83926826736018,-909.6101898305051,169.56160922123354,3.2480046981971262,5.139681364439172,159.75142417355028,36.41064313872388,0.0,1.0,13.884578384320214,13.146277007218579,0.0,Landing
15.3,-238.37074230725582,-901.950819199817,169.43832086600125,3.6628406027120786,5.237078530133566,159.65273890776223,35.76688927266907,0.0,1.0,13.884578384320214,13.146277007218579,0.0,Landing
15.4,-239.84781419838515,-901.5257466028346,168.61588181665925,3.288452494445379,4.937918514515515,159.69807396636907,35.87015771105968,0.0,1.0,13.884578384320214,13.146277007218579,0.0,Landing
15.5,-241.34689700037436,-901.0768926476885,168.14477893878419,3.3335334302821775,4.772240191602005,159.60765147196378,36.131806382469186,0.0,1.0,13.884578384320214,13.146277007218579,0.0,Landing
15.600000000000001,-242.87612677049427,-912.5780688633027,169.06858434110026,3.2725788317200406,4.975085507052166,159.85302580286805,36.10877923101818,0.0,1.0,13.884578384320214,13.146277007218579,0.0,Landing
15.700000000000001,-244.41070454270167,-915.7327270670976,169.2648292298944,3.5335342721105536,5.022458614934001,159.55669196302324,36.423348154598386,0.0,1.0,13.884578384320214,13.146277007218579,0.0,Landing
15.8,-245.92556063570984,-917.7882087446619,170.29379330957647,3.3152600770154903,5.022437088319314,159.3340664485645,36.12049633230941,0.0,1.0,13.884578384320214,13.146277007218579,0.0,Landing
15.9,-247.46506781421758,-905.7197633120154,168.58205545029787,3.5002244272301337,4.810146807163248,159.6320253304234,36.2170094511566,0.0,1.0,13.884578384320214,13.146277007218579,0.0,Landing
16.0,-248.93930335926174,-916.3346342979594,168.84243764020647,3.367106763132516,4.8610805656764695,159.4918925116583,36.18289997312962,0.0,1.0,13.884578384320214,13.146277007218579,0.0,Landing
16.1,-250.50723380719964,-922.4739488957994,168.63072813683223,3.2073066131323427,5.075235050331462,159.88357797402796,35.993667679127604,0.0,1.0,13.884578384320214,13.146277007218579,0.0,Landing
16.2,-252.07743755869657,-912.9433801244035,169.7419542609217,3.7877157373923693,4.761018244051689,159.84484111075892,35.90764411812562,0.0,1.0,13.884578384320214,13.146277007218579,0.0,Landing
16.3,-253.50402025988376,-892.7425225265948,169.3439795018592,3.398825849920541,5.01736677470669,159.7800545924415,36.748566061351184,0.0,1.0,13.884578384320214,13.146277007218579,0.0,Landing
16.400000000000002,-254.97094641983261,-865.571038729007,168.64688141442622,2.907764222852207,4.906768774215536,159.52890816250647,36.212231512989696,0.0,1.0,13.884578384320214,13.146277007218579,0.0,Landing
16.5,-256.4052927523416,-872.3560870332108,170.14537069939087,3.4164570925147246,4.7287271562384845,159.63332422513213,35.95212988374277,0.0,1.0,13.884578384320214,13.146277007218579,0.0,Landing
16.6,-257.8658006950498,-894.5158111797355,168.90357239583966,3.654317261603576,4.881693856719545,159.69981194094157,36.113560680170536,0.0,1.0,13.884578384320214,13.146277007218579,0.0,Landing
16.7,-259.4435254757313,-920.1407778069552,169.25311064775497,3.7597550401283475,4.925919274956524,159.67438853415365,35.82497783719934,0.0,1.0,13.884578384320214,13.146277007218579,0.0,Landing
16.8,-261.0059966413764,-936.0831165140439,169.77667762064632,3.6358308253744482,4.8615285712630465,159.9397478737585,35.793373281316626,0.0,1.0,13.884578384320214,13.146277007218579,0.0,Landing
16.900000000000002,-262.54621627762003,-910.4920259459391,168.71585255500858,3.349659951283483,5.175835075077046,159.64758888154245,36.20196244238399,0.0,1.0,13.884578384320214,13.146277007218579,0.0,Landing
17.0,-263.995985605461,-889.7392168694864,170.15489478574514,3.485226497611089,5.071800997562327,159.6951423141503,35.96681915336383,0.0,1.0,13.884578384320214,13.146277007218579,0.0,Landing
17.1,-265.4546927257238,-875.518239181099,168.68981649307108,3.3221488562395596,5.105345004330458,159.5064999280479,36.22387992350929,0.0,1.0,13.884578384320214,13.146277007218579,0.0,Landing
17.2,-266.9238074735255,-894.3233675956094,168.4942491420731,3.4778760675120366,5.0933444488802735,159.40793272367978,36.29661457806376,0.0,1.0,13.884578384320214,13.146277007218579,0.0,Landing
17.3,-268.46760244343903,-905.5537682972727,169.3422886523713,3.1855684160129663,5.057576150710423,159.54747051738832,36.20539042372383,0.0,1.0,13.884578384320214,13.146277007218579,0.0,Landing
17.400000000000002,-269.9824615672102,-902.3528785498684,170.21736114763587,3.4077143611126957,4.8605558584892155,159.78242766996857,35.94445594651617,0.0,1.0,13.884578384320214,13.146277007218579,0.0,Landing
17.5,-271.43557186627487,-890.2370449316209,168.05819979700496,3.616535507893502,5.079012193912417,159.56880009028305,35.589878430537425,0.0,1.0,13.884578384320214,13.146277007218579,0.0,Landing
17.6,-272.91878766809714,-897.1480356105985,169.04808540036242,3.2444706286664378,4.822437431973971,159.6303005904806,35.87495310410125,0.0,1.0,13.884578384320214,13.146277007218579,0.0,Landing
17.7,-274.4682017452632,-905.7473787114532,168.08992627605147,3.340626360352402,4.986159238652489,159.45668637173958,36.294330301057464,0.0,1.0,13.884578384320214,13.146277007218579,0.0,Landing
17.8,-275.96430875983214,-917.3832887401318,167.37712369956404,3.109772986381224,5.491910263797001,159.71875237558334,36.01016745783919,0.0,1.0,13.884578384320214,13.146277007218579,0.0,Landing
17.900000000000002,-277.5057041117978,-914.9703231694161,169.3269854783501,3.4202148874655243,5.188680093519599,159.58198426189097,35.86754735961143,0.0,1.0,13.884578384320214,13.146277007218579,0.0,Landing
18.0,-279.04305336111025,-907.9111944907368,167.9213717976125,2.9348565405688434,5.596550528037295,159.73827199418042,35.78920812972942,0.0,1.0,13.884578384320214,13.146277007218579,0.0,Landing
18.1,-280.5038647322858,-905.9341379232478,169.69992779699962,3.431874332198202,5.022877437623816,159.48025022478043,35.79287086306991,0.0,1.0,13.884578384320214,13.146277007218579,0.0,Landing
18.2,-282.03537480141404,-897.7794036703585,169.31064051243598,3.458868647420969,4.865630800561372,159.49424620143714,35.79408707172936,0.0,1.0,13.884578384320214,13.146277007218579,0.0,Landing
18.3,-283.53195037946205,-891.959579155241,168.4212936055865,3.2602269800523898,5.1772418467523185,159.54057667771087,35.74056402669064,0.0,1.0,13.884578384320214,13.146277007218579,0.0,Landing
18.400000000000002,-284.963662628062,-880.0953280803469,169.97461998504073,3.464351174363015,4.635684300568485,159.8097990910428,36.323503781420776,0.0,1.0,13.884578384320214,13.146277007218579,0.0,Landing
18.5,-286.43585144181577,-869.7599904069875,169.17959723366414,3.694000400522473,4.856390541387743,159.6184311427976,36.260543399923975,0.0,1.0,13.884578384320214,13.146277007218579,0.0,Landing
18.6,-287.880750331497,-873.2837354873936,169.51376511317778,3.5661525322511154,4.870222624172967,159.68404015471174,36.17550729845802,0.0,1.0,13.884578384320214,13.146277007218579,0.0,Landing
18.7,-289.330081305499,-878.4941612231819,170.2618504059421,3.579138761699616,4.89504854853844,159.73494006060469,35.702005339067306,0.0,1.0,13.884578384320214,13.146277007218579,0.0,Landing
18.8,-290.8283222479317,-880.1749732231201,168.12177109952444,3.2541208081535116,4.941523850745615,159.7920697030081,35.76013248676244,0.0,1.0,13.884578384320214,13.146277007218579,0.0,Landing
18.900000000000002,-292.2816251976126,-891.4003979608879,168.07438800402645,3.5419400565400063,4.982648196083132,159.42561560902402,36.309881586337866,0.0,1.0,13.884578384320214,13.146277007218579,0.0,Landing
19.0,-293.78708329530343,-875.1545246482124,169.3648645539274,3.769808755506729,4.85287241538789,159.5832176858205,35.79690641250899,0.0,1.0,13.884578384320214,13.146277007218579,0.0,Landing
19.1,-295.20409487117274,-881.796883652396,171.01744502392276,3.369442441374591,5.132235770447037,159.6567522443288,36.03316663727301,0.0,1.0,13.884578384320214,13.146277007218579,0.0,Landing
19.200000000000003,-296.69060961587456,-891.1628865345733,169.41247463237343,3.9976393943101374,5.18820130931716,159.95393817195372,36.02431230070073,0.0,1.0,13.884578384320214,13.146277007218579,0.0,Landing
19.3,-298.2428977279763,-889.7315834117762,170.70054753530988,3.344614325362474,5.053839952017463,159.45222802389128,36.5067730797759,0.0,1.0,13.884578384320214,13.146277007218579,0.0,Landing
19.400000000000002,-299.6527527882316,-881.2572758751685,170.27805046001757,3.7568198056127424,4.960403685294687,159.74077002705815,36.078380701239695,0.0,1.0,13.884578384320214,13.146277007218579,0.0,Landing
19.5,-301.0968959952504,-862.0664734566503,169.5463782881419,3.544084356269662,4.902048858797652,159.6484684124962,35.83015040036228,0.0,1.0,13.884578384320214,13.146277007218579,0.0,Landing
19.6,-302.55323009525955,-865.2745758221727,168.48716362550906,3.449862347853238,4.7836203812330105,159.68188969115295,36.05574595338874,0.0,1.0,13.884578384320214,13.146277007218579,0.0,Landing
19.700000000000003,-303.9791256673425,-865.1096634369537,168.15270530254662,3.2091350869739945,5.122833194377153,159.70549180973012,35.43762525778037,0.0,1.0,13.884578384320214,13.146277007218579,0.0,Landing
19.8,-305.4224443124352,-882.8604562706005,169.0925902800238,3.541693540194225,4.938079396834799,159.48303955121764,35.79893398256649,0.0,1.0,13.884578384320214,13.146277007218579,0.0,Landing
19.900000000000002,-306.96753237661255,-888.8032311105007,169.660405843372,3.2587618120877977,4.695907943609742,159.57389987820216,36.43683447254033,0.0,1.0,13.884578384320214,13.146277007218579,0.0,Landing
20.0,-308.423141822895,-907.7909899498195,169.55668910237688,3.7377312490349652,5.144491131789417,159.6105271614822,35.504881089753795,0.0,1.0,13.884578384320214,13.146277007218579,0.0,Landing
20.1,-309.9613992621843,-892.1012872343113,170.4314710810722,3.213443049686563,4.513834056031438,159.65876160748144,36.332500075430794,0.0,1.0,13.884578384320214,13.146277007218579,0.0,Landing
20.200000000000003,-311.4280388127841,-886.6958070240571,167.92009914451788,3.4443828978911135,5.070006578524625,159.37836284206037,35.866811008702214,0.0,1.0,13.884578384320214,13.146277007218579,0.0,Landing
20.3,-312.8566208580153,-867.9995469565483,167.52325863228768,3.5239770990226478,5.2298857993968,159.5215017280142,36.658923700472386,0.0,1.0,13.884578384320214,13.146277007218579,0.0,Landing
20.400000000000002,-314.301396996967,-871.526446257667,170.01160388751677,3.5967330689503862,4.940909172729722,159.82435734762362,35.98701392281188,0.0,1.0,13.884578384320214,13.146277007218579,0.0,Landing
20.5,-315.78567104407244,-886.6367949234586,168.57807246515904,3.5081566973787957,5.3168375060172695,159.52429693382805,35.91108914310317,0.0,1.0,13.884578384320214,13.146277007218579,0.0,Landing
20.6,-317.28980483263257,-882.3324170125034,167.10522097606224,3.228173967905306,4.987975323509364,159.45736518960007,35.8900451234432,0.0,1.0,13.884578384320214,13.146277007218579,0.0,Landing
20.700000000000003,-318.71305908202953,-892.5787906112305,168.99926953585313,3.4739392792493597,4.773744262019772,159.8954185870707,35.99457376510171,0.0,1.0,13.884578384320214,13.146277007218579,0.0,Landing
20.8,-320.2485649971286,-880.8288502390155,170.02377851201302,3.2924417384664686,4.804086595122003,159.78047774751894,35.85984777813359,0.0,1.0,13.884578384320214,13.146277007218579,0.0,Landing
20.900000000000002,-321.69394908382765,-873.41670705772,167.7074151885077,3.3214239159320598,5.291542113330234,159.5305001268623,35.85554284206039,0.0,1.0,13.884578384320214,13.146277007218579,0.0,Landing
21.0,-323.08014261731813,-858.0340575917944,168.58457112325993,3.703694377708113,4.8537500618335505,159.57508956605182,35.605839233755184,0.0,1.0,13.884578384320214,13.146277007218579,0.0,Landing
21.1,-324.53873528508757,-851.9653016317307,168.9216134106644,3.3269057504297037,4.976967871228861,159.56541514353853,35.953879421873424,0.0,1.0,13.884578384320214,13.146277007218579,0.0,Landing
21.200000000000003,-325.9537755919863,-874.5613476479434,168.83787284375506,3.3510916039264935,5.047241688404325,159.7489770173613,35.64745367817429,0.0,1.0,13.884578384320214,13.146277007218579,0.0,Landing
21.3,-327.45294935555785,-872.6182479340423,169.4348873971966,3.3244367766162304,4.98028815610933,159.86690238599067,36.42130438045701,0.0,1.0,13.884578384320214,13.146277007218579,0.0,Landing
21.400000000000002,-328.9018265247578,-900.3808025728858,169.63361378556095,3.3023761757242016,4.831532038384568,159.60595226636633,35.822525705809625,0.0,1.0,13.884578384320214,13.146277007218579,0.0,Landing
21.5,-330.45567960485073,-894.4250541642418,170.43758344877406,3.431403798273409,5.084017702896805,159.8076432623186,35.819381692640995,0.0,1.0,13.884578384320214,13.146277007218579,0.0,Landing
21.6,-331.92507462637906,-880.6029314595207,168.5176884820854,3.320385171971021,5.1788549447978935,159.7662866800099,36.25680477781711,0.0,1.0,13.884578384320214,13.146277007218579,0.0,Landing
21.700000000000003,-333.3048411820554,-863.9559619668262,168.773437955293,3.4991086822448287,4.951018221009843,159.5929680296249,36.25435266037536,0.0,1.0,13.884578384320214,13.146277007218579,0.0,Landing
21.8,-334.77545941468486,-865.0291166521015,167.23249703805877,3.861610912115214,5.039877643410484,159.3192839480771,36.02056092618182,0.0,1.0,13.884578384320214,13.146277007218579,0.0,Landing
21.900000000000002,-336.25022020963956,-898.1072200121844,169.22941747449926,3.5196235791118733,5.229601299712142,159.6967570463205,35.75667917259952,0.0,1.0,13.884578384320214,13.146277007218579,0.0,Landing
22.0,-337.7953772821163,-925.8655879367552,171.0298152051766,3.404136435398197,4.9484525376072765,159.6931734919865,35.84860172398749,0.0,1.0,13.884578384320214,13.146277007218579,0.0,Landing
22.1,-339.40478735436864,-913.3874957265675,167.66458935778184,3.3056186111244372,4.64093626982916,159.4076879652606,36.212041910063704,0.0,1.0,13.884578384320214,13.146277007218579,0.0,Landing
22.200000000000003,-340.8171576882724,-894.1547631453659,168.9961446329236,3.2845974751744547,4.97770514051131,159.4811790541046,35.959536654859356,0.0,1.0,13.884578384320214,13.146277007218579,0.0,Landing
22.3,-342.26615109784314,-867.8045328647954,167.70783061226888,3.223935833247684,4.649875531733032,159.8538437240253,36.28389510929251,0.0,1.0,13.884578384320214,13.146277007218579,0.0,Landing
22.400000000000002,-343.7438100186926,-878.7634128108948,170.9537855143037,3.426294984044296,5.135253698779725,159.9452900125848,36.24222014672534,0.0,1.0,13.884578384320214,13.146277007218579,0.0,Landing
22.5,-345.2109747523269,-890.2415419118483,169.4656018630133,3.51359959222884,4.819931896343934,159.35632122972004,36.02233511694683,0.0,1.0,13.884578384320214,13.146277007218579,0.0,Landing
22.6,-346.7173588074024,-892.6408144264087,171.3517915072859,3.4542923686019784,4.961407213310083,159.5172295918892,36.32053619559752,0.0,1.0,13.884578384320214,13.146277007218579,0.0,Landing
22.700000000000003,-348.20701409082466,-892.7908359396838,170.39117099621262,3.3744573562774485,4.933239899805632,159.52957312526678,36.08542820317966,0.0,1.0,13.884578384320214,13.146277007218579,0.0,Landing
22.8,-349.6749289320253,-879.1581952403135,167.1368542114015,3.3494533200166594,4.996895427477411,159.5623965184932,36.54626240946296,0.0,1.0,13.884578384320214,13.146277007218579,0.0,Landing
22.900000000000002,-351.11314978360394,-870.9904595068338,169.48770655368844,3.3200620009088624,4.752920615730054,159.65802873586108,36.461073633710356,0.0,1.0,13.884578384320214,13.146277007218579,0.0,Landing
23.0,-352.5619663883588,-864.1052128754382,169.2736289946156,3.3944758747940478,5.087585643965521,159.70756062346663,36.233004601613686,0.0,1.0,13.884578384320214,13.146277007218579,0.0,Landing
23.1,-353.9954549964025,-868.4874946760829,169.0361126349269,3.266569464593877,5.044313225942609,159.5401863297866,36.322531864776984,0.0,1.0,13.884578384320214,13.146277007218579,0.0,Landing
23.200000000000003,-355.45558725698436,-876.6169537321275,168.58816511755737,3.3756924973992035,5.141040257525219,159.61591833505702,35.51670015050593,0.0,1.0,13.884578384320214,13.146277007218579,0.0,Landing
23.3,-356.94505115701946,-866.0935717748885,167.83795469285738,3.5996740698442147,4.919923518116386,159.65855533605065,36.10693096580132,0.0,1.0,13.884578384320214,13.146277007218579,0.0,Landing
23.400000000000002,-358.32592285527693,-860.9129481759851,168.72640392071267,3.378084624346916,5.318190139159111,159.75281339173603,36.237771449415916,0.0,1.0,13.884578384320214,13.146277007218579,0.0,Landing
23.5,-359.7601519978643,-855.5597415811803,170.49624804644074,3.375638564409883,4.842007082150777,159.9545995720166,36.14105643087657,0.0,1.0,13.884578384320214,13.146277007218579,0.0,Landing
23.6,-361.22284986492537,-870.5732087482261,169.5224013522143,3.2166677811882525,4.869108161283979,159.6107940844861,36.29470031952814,0.0,1.0,13.884578384320214,13.146277007218579,0.0,Landing
23.700000000000003,-362.67878889901806,-890.6858960589034,169.70885334166658,3.5405694868622968,4.675982291879975,159.67285292658391,36.22321679622913,0.0,1.0,13.884578384320214,13.146277007218579,0.0,Landing
23.8,-364.2135814781588,-896.3639122665768,168.97467402696185,3.7041035826035973,4.941447969778641,159.49497668345805,35.993312901916745,0.0,1.0,13.884578384320214,13.146277007218579,0.0,Landing
23.900000000000002,-365.70466942625825,-902.6291588841445,168.44043041008422,3.4426601855293244,4.650682520213289,159.6474327964221,36.08037555295138,0.0,1.0,13.884578384320214,13.146277007218579,0.0,Landing
24.0,-367.1919346934388,-878.5544313785977,171.1998123413711,3.270354492289784,5.069198756506747,159.62315603680554,35.71287315314342,0.0,1.0,13.884578384320214,13.146277007218579,0.0,Landing
24.1,-368.6063536350518,-875.109947332885,169.71354554707904,3.4456934963243135,4.832147943183841,159.62907543574931,35.83205220769382,0.0,1.0,13.884578384320214,13.146277007218579,0.0,Landing
24.200000000000003,-370.0802191629227,-878.9502926062482,168.35768469548435,3.6206283906926298,5.249828782093083,159.54008488991246,36.399292090309125,0.0,1.0,13.884578384320214,13.146277007218579,0.0,Landing
24.3,-371.58668615647,-888.1413110759013,169.0340668818362,3.4041288302359463,4.79268139163512,159.73374001913817,35.68681215664097,0.0,1.0,13.884578384320214,13.146277007218579,0.0,Landing
24.400000000000002,-373.0470601904313,-875.874487495048,167.11629208339593,3.3818503262953516,4.927875124158728,159.14038984014405,36.050567070214186,0.0,1.0,13.884578384320214,13.146277007218579,0.0,Landing
24.5,-374.4595916003979,-872.5941475975333,168.39141086011804,3.6036352567919048,4.747967343919842,159.59015709850087,35.425086266425154,0.0,1.0,13.884578384320214,13.146277007218579,0.0,Landing
24.6,-375.9496568944577,-867.5321737779882,170.01810700694836,3.636845054071006,5.310333753999622,159.744464322231,35.28564722742494,0.0,1.0,13.884578384320214,13.146277007218579,0.0,Landing
24.700000000000003,-377.38472105932124,-866.7988553474629,169.45128100843772,3.723814907973269,5.048626732754539,159.62669373024653,36.32101357467099,0.0,1.0,13.884578384320214,13.146277007218579,0.0,Landing
24.8,-378.79358587713523,-871.4111645478283,169.92938254474396,3.517922109457633,5.1796907697615024,159.80063435615875,35.859041296379964,0.0,1.0,13.884578384320214,13.146277007218579,0.0,Landing
24.900000000000002,-380.30671271719683,-881.3705715927199,169.2314775445679,3.6959595075366987,4.9946392055256545,159.54434368352804,35.82805420617997,0.0,1.0,13.884578384320214,13.146277007218579,0.0,Landing
25.0,-381.79157391728484,-871.7049587268662,169.19662877904653,3.560311099439731,4.853206163667509,159.62901323279664,35.75078738940767,0.0,1.0,13.884578384320214,13.146277007218579,0.0,Landing
25.1,-383.15211067076956,-860.9440924465048,168.53545650243652,3.823233427184009,5.333483133875249,159.7641295771025,36.67577825222151,0.0,1.0,13.884578384320214,13.146277007218579,0.0,Landing
25.200000000000003,-384.61143317942935,-853.1260666710637,169.51516730538216,3.5445664243271366,5.1786240377330905,159.50505960662974,35.68704821327424,0.0,1.0,13.884578384320214,13.146277007218579,0.0,Landing
25.3,-386.05720425064015,-873.3399825127549,169.25926973233027,3.173915668812042,5.093795441312705,159.36201161615395,36.87102604539841,0.0,1.0,13.884578384320214,13.146277007218579,0.0,Landing
25.400000000000002,-387.51881058333333,-901.0632317231511,169.75980748756555,3.654518804611755,4.752178830913407,159.5661824599598,36.917351041537756,0.0,1.0,13.884578384320214,13.146277007218579,0.0,Landing
25.5,-389.1167493380451,-909.0768597976762,168.58882519454878,3.431872292726759,4.880702468564375,159.58876954009577,35.53570722535511,0.0,1.0,13.884578384320214,13.146277007218579,0.0,Landing
25.6,-390.60258854962854,-908.5688917075231,167.76489421351363,3.5782561603526553,5.047126484846429,159.59448396250764,36.33766593106442,0.0,1.0,13.884578384320214,13.146277007218579,0.0,Landing
25.700000000000003,-392.06165504187095,-877.2683679153147,169.96437401468512,3.3855202546824854,5.084683854356785,159.75749874237704,36.14504621438694,0.0,1.0,13.884578384320214,13.146277007218579,0.0,Landing
25.8,-393.5030911776217,-871.7654730420577,168.97389307923103,3.123583325832871,5.143015859136561,159.5060071558496,36.710289081584676,0.0,1.0,13.884578384320214,13.146277007218579,0.0,Landing
25.900000000000002,-394.9614159148388,-874.5733447127805,170.93920155992365,3.374152398879563,5.062189115948614,159.6762891088407,35.592429529227964,0.0,1.0,13.884578384320214,13.146277007218579,0.0,Landing
26.0,-396.43452176543485,-867.4670989058654,168.64301400530394,3.6713180310244806,4.977822982486912,159.52228846339574,36.072569309188296,0.0,1.0,13.884578384320214,13.146277007218579,0.0,Landing
26.1,-397.840426672151,-865.8834537991993,168.50099890654164,3.412302043584061,4.9330727377705506,159.70585930147035,36.27817037503459,0.0,1.0,13.884578384320214,13.146277007218579,0.0,Landing
26.200000000000003,-399.2908331838348,-872.1960248849086,166.27419814354838,3.292777815256989,4.772490523571598,159.6927345349617,36.120735126391494,0.0,1.0,13.884578384320214,13.146277007218579,0.0,Landing
26.3,-400.7955018898594,-888.2638837679906,167.90976255259216,3.6590553732434445,4.829069994508296,159.82694960622428,36.05069635004803,0.0,1.0,13.884578384320214,13.146277007218579,0.0,Landing
26.400000000000002,-402.28174609099096,-902.2546990823344,168.4155696653671,3.940679954488608,5.1818067121333335,159.63533546361623,35.85110524665035,0.0,1.0,13.884578384320214,13.146277007218579,0.0,Landing
26.5,-403.8021066792465,-896.3735652732112,168.59446883728856,3.39615789913673,5.178190494950085,159.3699473105587,35.565161440509286,0.0,1.0,13.884578384320214,13.146277007218579,0.0,Landing
26.6,-405.27736971622545,-912.0245147486457,168.12612572424172,3.4636611446711654,4.816780806550607,159.56611213015287,35.925474391970866,0.0,1.0,13.884578384320214,13.146277007218579,0.0,Landing
26.700000000000003,-406.8418686647342,-899.6680555013882,168.4500399668831,3.357864426056678,4.698619253772864,159.4920766292572,35.935641572647306,0.0,1.0,13.884578384320214,13.146277007218579,0.0,Landing
26.8,-408.30044695675343,-877.980427561431,169.72756526357867,3.1796841061446077,5.147975813455849,159.55745064028815,35.86016165305474,0.0,1.0,13.884578384320214,13.146277007218579,0.0,Landing
26.900000000000002,-409.6672718540326,-844.9629249010627,169.24493040210754,3.5414233141855065,4.919292174627917,159.59728394489855,35.430482538551004,0.0,1.0,13.884578384320214,13.146277007218579,0.0,Landing
27.0,-411.0666832892395,-835.3525394698181,168.36247687542914,3.72052397239727,5.280333304336958,159.6145668629265,36.22463029427731,0.0,1.0,13.884578384320214,13.146277007218579,0.0,Landing
27.1,-412.4772096541025,-858.704396466419,170.47822881048518,3.306707025364583,5.143448389116202,159.71688912353807,36.37725363280221,0.0,1.0,13.884578384320214,13.146277007218579,0.0,Landing
27.200000000000003,-413.9607938363647,-873.0975441052578,168.95739560066127,3.763596198118936,4.57004304569288,159.3040974279097,35.82087716242106,0.0,1.0,13.884578384320214,13.146277007218579,0.0,Landing
27.3,-415.4321710097658,-896.2746926758768,166.50755692890715,3.4417832652820324,4.959173002877718,159.33922372089523,35.97661994507152,0.0,1.0,13.884578384320214,13.146277007218579,0.0,Landing
27.400000000000002,-416.9585831174819,-887.4700330267842,167.47899552419932,3.754190523781362,5.007661266187823,159.29946482898754,36.53481558626327,0.0,1.0,13.884578384320214,13.146277007218579,0.0,Landing
27.5,-418.3981440014986,-892.0045502404719,168.28134284254764,3.734490468990448,4.982823705975573,159.68237420395974,35.92322733747068,0.0,1.0,13.884578384320214,13.146277007218579,0.0,Landing
27.6,-419.89219376096815,-869.4838685057334,169.97046062804267,3.5197111964860954,4.650841042111075,159.6901079701629,36.13700858298114,0.0,1.0,13.884578384320214,13.146277007218579,0.0,Landing
27.700000000000003,-421.3060024600106,-862.0613563287861,169.32136289942014,3.396815327794137,5.30006152670163,159.65306551918195,36.38266985752658,0.0,1.0,13.884578384320214,13.146277007218579,0.0,Landing
27.8,-422.70845078314255,-869.3377676162072,169.65658390753947,3.7802910701598798,5.272490473785232,159.66653393412423,35.123852342581614,0.0,1.0,13.884578384320214,13.146277007218579,0.0,Landing
27.900000000000002,-424.2388825990492,-847.630058568825,170.5063830560721,3.040557735884441,5.018451521239147,159.29872009802466,36.0997036867516,0.0,1.0,13.884578384320214,13.146277007218579,0.0,Landing
28.0,-425.5441527528547,-853.7473959862609,168.51845150609267,3.2106712889694555,5.147614107098822,159.68103853984758,35.70733582488628,0.0,1.0,13.884578384320214,13.146277007218579,0.0,Landing
28.1,-426.97718776307386,-833.4726508917242,168.13512110380728,3.380688730633743,5.1973227790784495,159.64111024901808,36.255470226683656,0.0,1.0,13.884578384320214,13.146277007218579,0.0,Landing
28.200000000000003,-428.4062458535078,-855.6889599926421,167.9160567917015,3.2759813731393215,5.334264549142956,159.66193682836706,36.1511725590586,0.0,1.0,13.884578384320214,13.146277007218579,0.0,Landing
28.3,-429.8225975528179,-843.6487116178796,169.04180146306726,3.0691570779613433,5.012876996800978,159.4990632814937,35.902831347288775,0.0,1.0,13.884578384320214,13.146277007218579,0.0,Landing
28.400000000000002,-431.19543132116326,-863.4246831564496,167.58829212799787,3.6082832071562025,4.999017939085395,159.67191911514408,36.41186019889807,0.0,1.0,13.884578384320214,13.146277007218579,0.0,Landing
28.5,-432.72336926929006,-851.3892646690806,168.11794571178822,3.2755864886114114,4.99643614684104,159.4542384172986,35.93723239864278,0.0,1.0,13.884578384320214,13.146277007218579,0.0,Landing
28.6,-434.0795438761633,-895.3328288369335,170.66531493341665,3.414713402644556,4.93832623607734,159.71830315169586,35.95946139094863,0.0,1.0,13.884578384320214,13.146277007218579,0.0,Landing
28.700000000000003,-435.6720954653479,-866.2277347513168,170.2187158465252,3.5494219246512926,4.993647522811656,159.7014387910009,35.86488733448213,0.0,1.0,13.884578384320214,13.146277007218579,0.0,Landing
28.8,-437.05450794304664,-895.3649965425029,168.47736251930732,3.4493144797039483,4.752428061466403,159.6184638821394,35.85889058734404,0.0,1.0,13.884578384320214,13.146277007218579,0.0,Landing
28.900000000000002,-438.5563688588758,-871.5520807588973,167.27872665093358,3.709697734225602,4.990761937587989,159.74995624192002,36.11381522912253,0.0,1.0,13.884578384320214,13.146277007218579,0.0,Landing
29.0,-440.0298558691424,-890.4710901754584,170.15060417385556,3.242856394005453,4.907179954695842,159.6778374150084,35.79477340624054,0.0,1.0,13.884578384320214,13.146277007218579,0.0,Landing
29.1,-441.50686339392394,-892.8806814041877,168.40905436953554,3.393860987185285,5.132373209925223,159.85430438903268,36.304842556492034,0.0,1.0,13.884578384320214,13.146277007218579,0.0,Landing
29.200000000000003,-443.02077226589677,-883.0056438524025,168.58755633033857,3.2582494891217446,5.185079037813195,159.68804536464654,36.616923073632606,0.0,1.0,13.884578384320214,13.146277007218579,0.0,Landing
29.3,-444.4448840884044,-873.5471860877965,167.1199379096864,3.3865482264790088,5.082072951062129,159.49854648802193,35.68983970835078,0.0,1.0,13.884578384320214,13.146277007218579,0.0,Landing
29.400000000000002,-445.8745993243629,-894.2047222596443,168.74572695658836,3.5562008341211504,4.8971157933553515,159.71411167150404,35.83082412635464,0.0,1.0,13.884578384320214,13.146277007218579,0.0,Landing
29.5,-447.491795877195,-895.2624674864865,167.8309001664978,3.0475006105264795,5.116306922245383,159.61236443392363,35.63133503677495,0.0,1.0,13.884578384320214,13.146277007218579,0.0,Landing
29.6,-448.92119642583685,-906.1939219408032,169.09328200817995,3.3121062446616047,5.3127128323773,159.5376347116396,35.85261455402971,0.0,1.0,13.884578384320214,13.146277007218579,0.0,Landing
29.700000000000003,-450.40556893406693,-874.0558774233932,169.5875855376102,3.6897035649554653,5.05797760303006,159.55878599700554,35.81324000741,0.0,1.0,13.884578384320214,13.146277007218579,0.0,Landing
29.8,-451.86207526431195,-878.6279361050788,167.49306820332436,3.436387058602437,5.306855173381604,159.821812693099,35.9355186356752,0.0,1.0,13.884578384320214,13.146277007218579,0.0,Landing
29.900000000000002,-453.31433610636225,-866.2372691358314,168.42353749687237,3.5362590205995623,4.948849078540187,159.6824310276328,36.170562538873845,0.0,1.0,13.884578384320214,13.146277007218579,0.0,Landing
30.0,-454.7367552797461,-860.6712237254214,170.23174437549932,3.377855404795385,5.029748782020292,159.99559960500505,35.8838895569326,0.0,1.0,13.884578384320214,13.146277007218579,0.0,Landing
