time_s,altitude_ft,vertical_speed_fpm,ias_kt,pitch_deg,roll_deg,heading_deg,throttle_pct,afterburner_on,gear_down,flaps_deg,speedbrake_pct,weight_on_wheels,label
0.0,-0.07930206555592471,15.712029879705728,22.306832748871745,0.0555012657188004,0.10818859372394149,131.01816820225827,22.917929321208714,0.0,1.0,0.0,0.0,1.0,Taxi
0.1,-0.026928632623572292,35.64307405439991,22.919761282161968,-0.06905136523225608,-0.18893445126159697,131.04292939907782,23.23324313933777,0.0,1.0,0.0,0.0,1.0,Taxi
0.2,0.09891330471607486,46.11502526727128,22.277474386733996,0.7160583717127198,-0.16904005688359244,131.24303903294816,23.875718000570906,0.0,1.0,0.0,0.0,1.0,Taxi
0.30000000000000004,0.15127306078043168,21.15084935374784,22.348216517238427,0.280776965292988,-0.2987396103166927,131.04167287053394,24.052889954551055,0.0,1.0,0.0,0.0,1.0,Taxi
0.4,0.07882561414516691,-7.974418324225037,23.183673452360594,0.09417539713444995,0.0894858907666712,131.08308389479134,23.193971690678662,0.0,1.0,0.0,0.0,1.0,Taxi
0.5,0.059041213094949675,-34.55051113906459,22.737594462852456,0.2328158719543914,1.2845036514470518,131.19922326568957,23.129608961572455,0.0,1.0,0.0,0.0,1.0,Taxi
0.6000000000000001,-0.021479494914891283,-15.141463969093351,22.912675047998288,0.3051637742242252,-0.5715339455673863,131.10563720448067,23.178784348232092,0.0,1.0,0.0,0.0,1.0,Taxi
0.7000000000000001,0.0031182942997001486,-58.33076976109667,23.122270609259484,0.13434809180900764,-0.9702047926776096,131.24194210031783,23.278621389171253,0.0,1.0,0.0,0.0,1.0,Taxi
0.8,-0.2326126357105337,-22.86547011866553,23.250567915152015,0.4158141335674782,-0.5290279265985169,131.1000646899281,23.013741013281482,0.0,1.0,0.0,0.0,1.0,Taxi
0.9,-0.13580684550821892,6.593074198616672,22.662894909083583,0.49028168417038864,-0.1811067771116995,131.3487353113552,23.605255526365728,0.0,1.0,0.0,0.0,1.0,Taxi
1.0,0.03608366529278354,62.86570672067626,23.95950856015728,0.1876456564131055,-0.03968272070340446,131.14571691857554,22.04675482442473,0.0,1.0,0.0,0.0,1.0,Taxi
1.1,0.0817158978928476,11.625418558247318,23.61974850919331,0.30513252588803763,-0.44079957801142616,131.22564291307617,23.243790880162212,0.0,1.0,0.0,0.0,1.0,Taxi
1.2000000000000002,-0.07767975271698228,32.65962930694561,22.458319740931806,0.14238219369341132,0.5698389718905985,131.10873169237664,23.273866959345447,0.0,1.0,0.0,0.0,1.0,Taxi
1.3,0.19938181182751163,-35.321585603930274,23.110510621069,0.4774150582517812,-0.7836945888885226,131.2685293595997,23.101833305913004,0.0,1.0,0.0,0.0,1.0,Taxi
1.4000000000000001,-0.09489203012680378,40.42975136688736,22.37965938111084,0.5175789257138672,0.31592567063775995,131.0854268391704,23.11730080774373,0.0,1.0,0.0,0.0,1.0,Taxi
1.5,0.1244690041174545,-43.13657324291074,23.59685564041479,0.2858925798602835,-0.2775763896332596,131.13185271072587,23.53974339596259,0.0,1.0,0.0,0.0,1.0,Taxi
1.6,-0.01630105438704206,-1.7518187225603157,21.740818807821938,0.30766224826865046,0.3495516403677635,131.09680075045446,23.82892888459929,0.0,1.0,0.0,0.0,1.0,Taxi
1.7000000000000002,-0.1036511237396053,-40.86191408640805,23.10204596866607,0.18435043465199366,1.1735181755330835,131.03627769231616,22.931936974445605,0.0,1.0,0.0,0.0,1.0,Taxi
1.8,-0.07984056631458572,0.22804330119796626,22.987344061352346,0.22966015257190375,-0.4984714574305329,131.22641776608248,23.342016888224073,0.0,1.0,0.0,0.0,1.0,Taxi
1.9000000000000001,-0.015160837881052165,16.637589956996514,22.83927216316064,0.10966274597515449,0.42793476907959727,131.1054284568553,22.801342177175762,0.0,1.0,0.0,0.0,1.0,Taxi
2.0,-0.020463173954622674,44.08967130368441,22.44559045259556,0.5532783056501469,0.9569247019680264,130.98634124227658,22.613906830250478,0.0,1.0,0.0,0.0,1.0,Taxi
2.1,0.14060779020383637,22.647840737196304,22.028464285993486,0.17331557051951219,0.2946841271782475,131.0076808324627,23.495870719145135,0.0,1.0,0.0,0.0,1.0,Taxi
2.2,0.09807836580492939,-13.117227286258744,24.137653973143046,0.176172619711634,0.29806003281511384,131.05255930406486,23.712520309191174,0.0,1.0,0.0,0.0,1.0,Taxi
2.3000000000000003,-0.08604931038591636,-43.084109404221245,22.667739316508356,0.20204780903385908,-0.39723720630560727,131.11122858378224,22.95606762730407,0.0,1.0,0.0,0.0,1.0,Taxi
2.4000000000000004,-0.07481275681726983,9.629392937870449,22.195400315033748,0.4196496658276725,0.06591569911255465,131.14524343875962,23.58775916446467,0.0,1.0,0.0,0.0,1.0,Taxi
2.5,0.14622533049428166,-14.958138265647051,23.150810170684863,0.6564307857780498,0.26403694597649974,131.06253410817908,23.99038087442925,0.0,1.0,0.0,0.0,1.0,Taxi
2.6,-0.16084000171415158,33.12480512398169,23.351066514742676,0.32374422776391,-0.041977307639560216,131.15309475966052,24.443982513879366,0.0,1.0,0.0,0.0,1.0,Taxi
2.7,0.09081126880263865,-37.72106304447388,22.830845028017798,0.13975637164109578,-0.8513413178121312,131.15633616128042,23.13460514067941,0.0,1.0,0.0,0.0,1.0,Taxi
2.8000000000000003,-0.04237998472808768,30.117948551853587,22.599416777468722,0.35715543006796857,0.47806652652332515,131.27561907908733,24.01057826209498,0.0,1.0,0.0,0.0,1.0,Taxi
2.9000000000000004,-0.010250258954883615,-16.879699680706356,23.354947505176465,0.1515475639540368,-0.4160637499787333,131.3299668563859,23.13629399342052,0.0,1.0,0.0,0.0,1.0,Taxi
3.0,0.006412770399106889,25.7730028652178,23.212957781832216,0.32760724741216646,-0.146841885558044,131.1735502552445,23.043792060036097,0.0,1.0,0.0,0.0,1.0,Taxi
3.1,0.08648502959800132,11.739762204963853,22.114998898278035,0.09786427110946097,-0.015135046515722696,131.21744567285862,23.873168237385574,0.0,1.0,0.0,0.0,1.0,Taxi
3.2,0.04844855206993567,-18.993834761305504,22.293711365211234,0.26832554754844,-0.0658668735646418,130.9836263488031,22.911314108327392,0.0,1.0,0.0,0.0,1.0,Taxi
3.3000000000000003,-0.08855640340742062,-8.166906527987573,23.044409503792252,0.4355728699005945,-0.4057557296734745,131.2449793982679,23.8263040120762,0.0,1.0,0.0,0.0,1.0,Taxi
3.4000000000000004,0.04565049695806348,0.14702320733670327,22.3074093982394,0.5178652776143579,-0.4366067445849058,130.90072481228663,22.82726101069829,0.0,1.0,0.0,0.0,1.0,Taxi
3.5,0.0491836681066192,24.52152705923685,22.579920044643327,0.33399766732721037,-0.37811198570753896,130.9805664176091,22.467352020831633,0.0,1.0,0.0,0.0,1.0,Taxi
3.6,0.03405123188876366,18.665979821157606,22.24621770697024,0.3329919304839397,0.19914702998459258,130.95738754049944,23.167877088177317,0.0,1.0,0.0,0.0,1.0,Taxi
3.7,0.13898039606385154,-22.035643689840402,22.499375972705234,0.30504770875158566,-0.8157625925089635,131.35427060899463,23.228571680088695,0.0,1.0,0.0,0.0,1.0,Taxi
3.8000000000000003,-0.06099455034258279,8.923474029658164,23.825965561701846,0.452926243850175,-0.3637955452004783,131.20459197632238,23.554437611170346,0.0,1.0,0.0,0.0,1.0,Taxi
3.9000000000000004,0.07866860203705447,-20.665040925944165,22.697851559991953,-0.15007030436784602,0.3226658630878329,131.06838779255696,23.407772705791725,0.0,1.0,0.0,0.0,1.0,Taxi
4.0,0.03565519143413073,2.7069491682737663,22.12704069584273,0.3518704208641956,0.698781025102149,131.04584585081233,23.399291167004865,0.0,1.0,0.0,0.0,1.0,Taxi
4.1000000000000005,-0.04745980450121393,-37.82876901434671,22.549308303789278,0.023902910137983402,0.4102512668888861,131.22540662863008,22.32579111619466,0.0,1.0,0.0,0.0,1.0,Taxi
4.2,-0.11047524303467904,24.972242299415925,22.76314418013858,0.12199578827817406,-0.32036672630143714,131.1483818052103,23.670970247969446,0.0,1.0,0.0,0.0,1.0,Taxi
4.3,0.16051640293121036,5.194988616311268,22.238518018472174,0.18572191473159505,0.8390021331559039,131.0720922627819,22.7609677520208,0.0,1.0,0.0,0.0,1.0,Taxi
4.4,-0.021484861419657567,30.802504884410528,21.575871428767357,-0.05933928220876322,-0.012604998351130202,131.32749629856892,24.003983519125523,0.0,1.0,0.0,0.0,1.0,Taxi
4.5,0.043537281387373616,-39.384847094233265,23.55118791567285,0.4480685860266965,0.010439150184906052,130.97022510224605,22.499138781185856,0.0,1.0,0.0,0.0,1.0,Taxi
4.6000000000000005,-0.03640783253995591,5.281298737521492,23.53230427944358,0.26329355384138414,-0.09529539924946642,131.19165137096866,23.255340280149372,0.0,1.0,0.0,0.0,1.0,Taxi
4.7,0.004921632267949946,-2.869503396511909,22.448868449058562,0.4193621910765596,-0.7896513075981267,131.20998560982832,23.30613394941748,0.0,1.0,0.0,0.0,1.0,Taxi
4.800000000000001,0.02918976440481412,4.50316420052891,23.2819666492866,0.2776172281804187,-0.19611037845563842,130.98518313778044,22.890994024843287,0.0,1.0,0.0,0.0,1.0,Taxi
4.9,-0.013892011537311314,1.3016478020348607,22.684282950905214,0.43735772252847616,-0.28436470157482735,131.12984935243287,22.689690839776386,0.0,1.0,0.0,0.0,1.0,Taxi
5.0,0.011429871278124287,-0.8936207235488022,22.322276352154976,-0.010681451373376782,-0.8073183709688828,131.05968225339416,23.190836571858156,0.0,1.0,0.0,0.0,1.0,Taxi
5.1000000000000005,0.024721660787070145,1.390209801151812,23.39961516845116,-0.04516882878149531,0.4211939628108533,131.1023866229176,23.181277531430073,0.0,1.0,0.0,0.0,1.0,Taxi
5.2,-0.00694096253155222,-3.9763775494518243,21.797353709655535,0.39573914866418414,-0.0420210266157208,131.17501830684068,23.623015776811076,0.0,1.0,0.0,0.0,1.0,Taxi
5.300000000000001,-0.0084520164691348,-11.1842548770028,22.449502574320622,-0.07061321185731939,-0.06387172066786641,131.13891131103048,23.221508533687054,0.0,1.0,0.0,0.0,1.0,Taxi
5.4,-0.031199613597943817,16.59011991514587,21.931558924988543,-0.06732015974494382,-0.1322152584425787,131.09912464493272,23.169473829544057,0.0,1.0,0.0,0.0,1.0,Taxi
5.5,0.07600963704417717,-32.02844450664807,23.01445154921988,0.32166317647754267,-1.1435438592329528,131.24095354678718,23.336929303389578,0.0,1.0,0.0,0.0,1.0,Taxi
5.6000000000000005,-0.16859423900237513,12.81408832220636,22.483764131266952,0.5761025617933964,0.3440091939302491,131.1198534805236,22.8986041881757,0.0,1.0,0.0,0.0,1.0,Taxi
5.7,0.032870828013087994,-14.157047446643816,22.727285568241722,0.09164071793324718,-0.07798206395343561,131.06417069355734,23.64222004765532,0.0,1.0,0.0,0.0,1.0,Taxi
5.800000000000001,0.0052243998109581125,39.315071204888596,23.47891616199325,0.527940993396516,-0.639145540087894,131.03965936264018,23.62064779760884,0.0,1.0,0.0,0.0,1.0,Taxi
5.9,0.02798111702206787,-39.217169800704106,23.047557847859117,0.27663805757702375,-0.5068691194597329,131.1719836374657,23.383685342730647,0.0,1.0,0.0,0.0,1.0,Taxi
6.0,-0.1632150209904325,-34.27355477832408,23.153737810532462,0.4897279363459451,1.6333193616596289,131.1219338499847,23.613179037445903,0.0,1.0,0.0,0.0,1.0,Taxi
6.1000000000000005,-0.16614337408066226,7.051726827176599,23.65630399636518,0.3484105354445597,0.14407045854145453,131.0789675704898,22.33964763483457,0.0,1.0,0.0,0.0,1.0,Taxi
6.2,0.06323975115795093,53.18566827672398,23.410053549663466,0.10646984816683058,0.7347048783459326,131.17675324729998,23.721039941403795,0.0,1.0,0.0,0.0,1.0,Taxi
6.300000000000001,0.10271332039318742,9.392506992819458,23.300180069673623,0.6714581618773916,-0.0892666473762474,131.15945003656714,23.184000760489546,0.0,1.0,0.0,0.0,1.0,Taxi
6.4,-0.11918083911656495,-30.74776141191722,22.357719835637585,0.24189162852838053,0.5485955417465365,131.06150075443549,22.845083827053788,0.0,1.0,0.0,0.0,1.0,Taxi
6.5,-0.09049905590163516,-37.69590867386578,24.00396403208157,0.16868426366208653,0.512458247848073,131.1305414580703,24.336756804236693,0.0,1.0,0.0,0.0,1.0,Taxi
6.6000000000000005,-0.08576622297614146,39.4710149682631,22.502894015236432,0.16193531331252353,0.22248983133896233,131.16895674521749,23.427027359426624,0.0,1.0,0.0,0.0,1.0,Taxi
6.7,0.07817423572475057,-31.56577473314567,23.123978475647778,0.29057442666364525,-0.04276111713032225,131.10227262538012,24.196342078439482,0.0,1.0,0.0,0.0,1.0,Taxi
6.800000000000001,-0.2483279295673635,63.35593296746104,22.97896371909029,0.3624783146556865,0.8084296501505979,131.15941388641227,23.138461145845614,0.0,1.0,0.0,0.0,1.0,Taxi
6.9,0.23101344186116377,-34.0787767166281,21.82333991778746,0.4723489400040768,0.03637099080001062,131.0594399591899,23.485862500274905,0.0,1.0,0.0,0.0,1.0,Taxi
7.0,-0.09221964785838987,58.343498241418466,22.68760132071463,0.17368204073226468,0.03707215528891453,131.31880221866686,22.78243012811514,0.0,1.0,0.0,0.0,1.0,Taxi
7.1000000000000005,0.043389561639728874,-37.66633892861741,22.54279368912123,0.21664826484357136,0.9961054595856049,131.2723509930529,23.491442784705615,0.0,1.0,0.0,0.0,1.0,Taxi
7.2,0.04268174721807677,24.91879207077272,23.76564551514889,0.2369368764862537,-0.8770495296291974,131.14960757416873,22.83788810665728,0.0,1.0,0.0,0.0,1.0,Taxi
7.300000000000001,0.03237431249547374,-28.77991508500379,23.6045135378496,0.24940052856050626,-0.32547600680985145,131.16594836522813,24.21939536933134,0.0,1.0,0.0,0.0,1.0,Taxi
7.4,-0.10051001378529006,14.129593899207515,22.948655854121004,0.11911003357267891,0.2886163187977653,131.00011590491852,23.029382570977056,0.0,1.0,0.0,0.0,1.0,Taxi
7.5,0.11332971671411435,0.4599955252265981,22.207007673291464,0.007716346683177583,-0.5330112481619628,131.07616755611582,23.17487708371924,0.0,1.0,0.0,0.0,1.0,Taxi
7.6000000000000005,0.034674290121606735,17.243567595220473,23.244841175484144,0.18467700167859352,0.06052005939981737,131.25442638074253,23.1170098708863,0.0,1.0,0.0,0.0,1.0,Taxi
7.7,-0.014292175809187678,-36.77052896699416,23.137491277347305,0.283428855914062,0.5089767772240263,131.14422943582485,23.453183142112596,0.0,1.0,0.0,0.0,1.0,Taxi
7.800000000000001,-0.07052292812085646,6.805759711385733,22.61547480763833,0.3189302741608396,-0.2059428994397113,131.13230040776864,23.740427483359603,0.0,1.0,0.0,0.0,1.0,Taxi
7.9,0.0687030886785354,46.679727873679646,22.940560557313564,0.05995637261540451,-0.8586965783469794,131.12083454784704,23.632393400618867,0.0,1.0,0.0,0.0,1.0,Taxi
8.0,0.2191064635592106,-15.8289670047866,23.3152515913483,0.13644991297340175,0.3266287244556143,131.23689984523753,23.18017503049597,0.0,1.0,0.0,0.0,1.0,Taxi
8.1,-0.14966776314478944,9.597115580466228,22.916535425866513,0.17368919443694963,-0.13327337994585373,130.99607704403638,23.78447715406932,0.0,1.0,0.0,0.0,1.0,Taxi
8.200000000000001,0.11668866658086662,-67.07605789843637,22.886081720517748,0.21355894025312824,0.88173607364153,131.00757740714096,24.062792211232697,0.0,1.0,0.0,0.0,1.0,Taxi
8.3,-0.11627382593297118,84.45877106713571,22.064085160506764,-0.10117718977730106,0.9462985434854879,131.10030016816745,23.87085582770345,0.0,1.0,0.0,0.0,1.0,Taxi
8.4,0.27262609219088907,3.562855097628097,21.947142872173586,0.00852715732568421,0.37120002266516716,131.06456811084445,23.397467064558377,0.0,1.0,0.0,0.0,1.0,Taxi
8.5,0.134502942069007,24.464830014250982,22.500610957803815,0.48597627429532664,0.48261767320231597,131.05055350424436,23.032938386709773,0.0,1.0,0.0,0.0,1.0,Taxi
8.6,0.006050324138283601,-18.235321387553473,22.80391817798568,0.35753946302920336,-0.38129316615151715,131.04908340598672,23.614494801778413,0.0,1.0,0.0,0.0,1.0,Taxi
8.700000000000001,0.18144948525312166,25.049726354656144,22.91259866780933,0.4369742513991234,-0.20398200731583235,131.2229503396436,24.11875768017733,0.0,1.0,0.0,0.0,1.0,Taxi
8.8,0.2597515738422877,8.815569632746985,22.727325360892003,0.25335855510652633,-0.10907072379057046,131.02913961401794,23.722424213548422,0.0,1.0,0.0,0.0,1.0,Taxi
8.9,0.050128172302018506,-30.11048728517575,22.273303148733483,0.2818603361526157,0.3598143454906867,131.0213854850532,24.01167618142534,0.0,1.0,0.0,0.0,1.0,Taxi
9.0,0.030897048827242875,-56.59641612163383,23.220089813155372,0.2937139734149987,-0.09616469896979361,131.09081948578557,23.560674493723564,0.0,1.0,0.0,0.0,1.0,Taxi
9.1,-0.023230506765881488,7.2571769694212,22.83728109478291,-0.02565196226441041,-0.5924434779568178,131.15846261299714,23.901031304850743,0.0,1.0,0.0,0.0,1.0,Taxi
9.200000000000001,0.08641405714912448,-26.181178293416718,21.362313854858005,0.21679208579283288,0.24071903115123428,131.09360762423603,23.314147865038162,0.0,1.0,0.0,0.0,1.0,Taxi
9.3,-0.10000884263984074,-12.221922343730986,22.978767775224224,0.6461387482789244,-0.1772246221010245,131.1803173695344,23.349645256881665,0.0,1.0,0.0,0.0,1.0,Taxi
9.4,-0.08434011848453646,-17.39264058129677,23.758743037808777,0.3045348664564242,0.1883735625607868,131.01550344494245,23.23690919717626,0.0,1.0,0.0,0.0,1.0,Taxi
9.5,-0.0005491457573594012,8.496476996242306,23.04722704518963,0.1903602664923173,0.544954572733194,131.01467350377106,21.90609153540822,0.0,1.0,0.0,0.0,1.0,Taxi
9.600000000000001,-0.05752645765862923,-4.988778111476946,22.013683435627954,0.10637534926714853,-0.5765881340418136,131.09248350546716,23.630619012157382,0.0,1.0,0.0,0.0,1.0,Taxi
9.700000000000001,-0.1092840090419212,12.99332024637575,22.16457813467637,-0.08137099510938633,-0.2890652108468678,131.02525158560218,22.532527454104013,0.0,1.0,0.0,0.0,1.0,Taxi
9.8,0.06441745547451934,13.27037026247522,22.936752668325624,0.11537292264729904,1.12086933096529,131.30593503251924,23.016979836125053,0.0,1.0,0.0,0.0,1.0,Taxi
9.9,0.008825393653746863,14.644368761938424,22.279023715973835,0.270730046227642,-0.5398430544313235,131.00212480132,23.279321410591546,0.0,1.0,0.0,0.0,1.0,Taxi
10.0,-0.03606216523222911,-0.8208579671781328,23.250246432450652,0.41938221510665386,0.3341153429857401,131.17429733377503,22.751084756461935,0.0,1.0,0.0,0.0,1.0,Taxi
10.100000000000001,0.06031316563862865,12.780937770275697,22.114702939620976,0.27964620394127515,0.35842583577296755,131.04991277371772,22.142528509755536,0.0,1.0,0.0,0.0,1.0,Taxi
10.200000000000001,0.07273008250512533,23.312636398211655,22.351475958727935,0.29067184290421255,0.7491482471738975,131.17600563491334,23.339437768280497,0.0,1.0,0.0,0.0,1.0,Taxi
10.3,0.08050101675882916,-32.741423388748984,22.235288792277665,0.10542444128563422,-0.12668099331682445,131.31717678805717,23.120089653678427,0.0,1.0,0.0,0.0,1.0,Taxi
10.4,-0.1033939513051163,-5.1311895619702454,22.63365408109296,0.38330835910748917,-0.5485920940925096,131.18557469122277,23.243409699175736,0.0,1.0,0.0,0.0,1.0,Taxi
10.5,0.04707413469527404,-24.954782434868648,23.347254576906668,0.1704851213739541,0.16472078250295727,131.13608103754115,22.98317828333318,0.0,1.0,0.0,0.0,1.0,Taxi
10.600000000000001,-0.04427289541551415,28.4618510843723,22.33446812448454,0.30694107645584534,-0.5984815498562739,131.1543346573925,23.18096463922684,0.0,1.0,0.0,0.0,1.0,Taxi
10.700000000000001,0.03891530411674514,-11.138147495221451,22.171367672442678,0.18402530614963097,-0.32469487696901833,131.1359541894584,23.062805779502206,0.0,1.0,0.0,0.0,1.0,Taxi
10.8,-0.008616602780833251,1.4746920107246797,23.469829322319033,0.4166819600725118,0.25194821449145444,131.1484617424735,23.377853698039683,0.0,1.0,0.0,0.0,1.0,Taxi
10.9,-0.036899435361890796,-14.419059644736194,23.33601008344991,0.5467859951704115,-1.0245391182941421,131.11673760727047,22.337190694120356,0.0,1.0,0.0,0.0,1.0,Taxi
11.0,-0.03317999410693589,-1.1843628976197635,22.03539716248131,0.27512451510001673,0.3815351647255744,131.2244016954254,23.455530525664695,0.0,1.0,0.0,0.0,1.0,Taxi
11.100000000000001,-0.014538417268932124,-11.592123288521568,22.109077804313333,0.3258512616085071,-0.3532573653619557,131.1441946250929,23.284704868545905,0.0,1.0,0.0,0.0,1.0,Taxi
11.200000000000001,-0.09486005180449869,29.705359164617718,22.96707960324279,0.2542102877359448,0.044438871521445676,131.11251838524743,22.986768115598075,0.0,1.0,0.0,0.0,1.0,Taxi
11.3,0.11534680171615266,-22.42380174772937,22.514897916943546,-0.008053880575294603,-0.7180442866265087,131.1442653775964,23.90336879711671,0.0,1.0,0.0,0.0,1.0,Taxi
11.4,-0.126657426007579,13.862540977028607,22.67842600921775,0.27471850939212694,0.43870135695393436,131.0497697963492,23.887797691891574,0.0,1.0,0.0,0.0,1.0,Taxi
11.5,-0.025547346919355698,20.08785891351262,23.16343551960626,0.42259007736790943,1.2880306317624255,131.18451131459057,23.393944585885546,0.0,1.0,0.0,0.0,1.0,Taxi
11.600000000000001,0.2157860962837157,26.861453683477237,23.028549941013086,-0.05211578352804774,-0.33242813556815337,131.04677894753036,23.40039044061477,0.0,1.0,0.0,0.0,1.0,Taxi
11.700000000000001,0.0076498424098071175,13.194832879049443,22.984183672250662,0.2270170350291524,1.3841083334535385,131.18051901174738,23.09536813793716,0.0,1.0,0.0,0.0,1.0,Taxi
11.8,0.04042681747589141,-34.59171246354859,23.800429515918218,0.06944689885924457,-0.1596944757056426,131.10085821183407,23.356186879175343,0.0,1.0,0.0,0.0,1.0,Taxi
11.9,0.04282753396597267,-16.826120765446618,22.665864322906113,-0.06335883036437334,1.0090075298339791,130.96735885765906,24.29433088804091,0.0,1.0,0.0,0.0,1.0,Taxi
12.0,-0.07648076141742603,-8.014593125120156,22.79423424832955,0.2275906706911801,0.24097188878740392,131.13265964184143,23.529580992805112,0.0,1.0,0.0,0.0,1.0,Taxi
12.100000000000001,0.0003538518502905844,-3.7939238144894616,23.428782165705744,0.29499243013580867,-0.1278775122092561,131.23344244575105,23.554520707562684,0.0,1.0,0.0,0.0,1.0,Taxi
12.200000000000001,0.023857914893525296,7.845395937309512,21.21255968210554,0.2905161615691444,0.12052420283529372,131.02269128680064,23.67512515461016,0.0,1.0,0.0,0.0,1.0,Taxi
12.3,-0.03725378173087856,-18.57755341720447,22.964537615970677,0.2979794826914074,-0.25099625211338555,131.21015414620172,23.449245112966384,0.0,1.0,0.0,0.0,1.0,Taxi
12.4,-0.09253391523573185,6.087708616604857,22.89135835157575,0.3729424515272846,0.25125517341504805,131.11592126508657,22.8352511651421,0.0,1.0,0.0,0.0,1.0,Taxi
12.5,0.05429645797654951,-24.531309604698805,23.65712780610529,0.2482662180960455,0.2629863922710374,131.25173700809427,23.638672873996317,0.0,1.0,0.0,0.0,1.0,Taxi
12.600000000000001,-0.15991032975437267,-37.72788888301577,22.68838867831975,0.2931585642653204,0.6622978794247542,131.11159161093144,24.08968051560577,0.0,1.0,0.0,0.0,1.0,Taxi
12.700000000000001,-0.2811733596508108,0.29758738904636556,22.243129111392083,0.39393600393129113,-0.8280827244717416,131.05161507910663,23.112429542350934,0.0,1.0,0.0,0.0,1.0,Taxi
12.8,0.05578439492178122,-18.108290777712426,22.50709789662687,0.37104675998544234,-0.7730572713925976,131.0340948572035,24.114725425642074,0.0,1.0,0.0,0.0,1.0,Taxi
12.9,-0.25045178364293486,31.010579715380555,23.472874276210707,0.4196220065128701,-0.30339016023827425,131.28640288076974,23.462421814447477,0.0,1.0,0.0,0.0,1.0,Taxi
13.0,-0.1261204610739081,-38.18240763260124,23.33604856200825,0.42284764164695776,0.08257640710805612,131.10300456145882,23.757448882108132,0.0,1.0,0.0,0.0,1.0,Taxi
13.100000000000001,-0.13512764324122503,49.55348596239912,22.272221709910337,0.34869135593282286,0.395509434528794,130.80544059206426,24.289738359880662,0.0,1.0,0.0,0.0,1.0,Taxi
13.200000000000001,-0.0026843538309393165,57.86201402268742,23.21766612991072,0.16204502608435317,0.8132500077031852,131.0756923140392,23.047659946045208,0.0,1.0,0.0,0.0,1.0,Taxi
13.3,0.16318960903952895,30.56193767317764,22.703722558716024,0.4491120655268438,-0.4534667521706894,131.14846596259088,23.62428500540316,0.0,1.0,0.0,0.0,1.0,Taxi
13.4,0.01768204512466308,25.49836921335653,22.691954062291195,0.07075694617223979,0.37164118279351877,131.14671445662145,22.701193166445172,0.0,1.0,0.0,0.0,1.0,Taxi
13.5,0.12480749223584325,-27.1124893481838,24.03849308121764,0.451888189553185,-0.7180653530967159,131.30764327066169,23.67030511077693,0.0,1.0,0.0,0.0,1.0,Taxi
13.600000000000001,0.027627162298609877,-6.974566306641464,22.107362439987934,0.0734720080769809,0.6288593666336625,131.1494937729147,23.57530973567604,0.0,1.0,0.0,0.0,1.0,Taxi
13.700000000000001,-0.0171907864085443,-28.10228451823666,22.320007972667565,0.275248507133433,-0.3949274286594232,131.1690629943805,24.019796629673877,0.0,1.0,0.0,0.0,1.0,Taxi
13.8,-0.015703930355340102,-37.8873313848239,23.965505759794564,0.19700362365666654,-0.4561653317664672,131.33568361177026,22.489166743101965,0.0,1.0,0.0,0.0,1.0,Taxi
13.9,-0.16180949462550964,-9.653432246471382,22.376313849209122,0.4063726823767166,-0.1274952723749871,131.32911893721683,22.741192075336663,0.0,1.0,0.0,0.0,1.0,Taxi
14.0,-0.06545794764090124,29.579790827495902,23.047173002746035,0.21683836306735876,0.6832343459939163,131.14397209661195,22.411117986934396,0.0,1.0,0.0,0.0,1.0,Taxi
14.100000000000001,0.1321950237821394,44.45765367962991,22.85831051410211,0.1956256005832263,0.7304050131448021,131.14766470869938,23.647153633528646,0.0,1.0,0.0,0.0,1.0,Taxi
14.200000000000001,0.060478773772639854,22.79844783321788,24.031207229899195,0.18311263043985032,-0.1647753601252961,131.05464779642676,23.106613408868824,0.0,1.0,0.0,0.0,1.0,Taxi
14.3,0.04853429152518816,-9.622110202058147,22.21112792062742,-0.09529746937696659,-0.29216016917375665,131.12339391490684,22.921944650881283,0.0,1.0,0.0,0.0,1.0,Taxi
14.4,0.08408447277184865,-6.256968211819561,22.35336081044986,0.32011903089686433,0.22353312672695053,131.04116169146386,23.370050829004814,0.0,1.0,0.0,0.0,1.0,Taxi
14.5,0.029193932713542026,-0.2805128474968394,22.734073388098796,0.35862674088689506,-0.5465580626623731,131.16403399386286,22.713261976710005,0.0,1.0,0.0,0.0,1.0,Taxi
14.600000000000001,0.047131727287703935,-45.00751058941341,23.54743089423563,0.5832371905569371,0.39408881542041013,131.03023030605914,23.123428979427423,0.0,1.0,0.0,0.0,1.0,Taxi
14.700000000000001,-0.14095308017521843,-1.5414052780795942,23.071492271994515,0.29754424005789926,-0.5965004824553995,131.06067645920666,22.715932251116275,0.0,1.0,0.0,0.0,1.0,Taxi
14.8,0.021486906323144,-4.387882141421676,22.31962196750111,0.11828589254047517,0.5076297740421533,131.15178014966733,23.82855565806828,0.0,1.0,0.0,0.0,1.0,Taxi
14.9,0.025192316580595498,16.94994459699391,21.830927647344964,0.4526644702286973,0.7274752656357998,131.1604755111254,23.681745917021857,0.0,1.0,0.0,0.0,1.0,Taxi
15.0,-0.05620335719024894,6.9451075301661005,22.746188367249932,0.10724077421751502,-1.1156302657796526,131.22513281405497,23.351338041350573,0.0,1.0,0.0,0.0,1.0,Taxi
15.100000000000001,0.05621244397397447,-24.534609987401172,22.47640066774311,0.20871201330122688,0.22879782556190634,131.20472477425028,22.884482053761452,0.0,1.0,0.0,0.0,1.0,Taxi
15.200000000000001,-0.09748073335641037,12.803448325508755,22.75383563259837,0.3814425942133559,0.4475703820485642,131.07325130973396,23.252593716850424,0.0,1.0,0.0,0.0,1.0,Taxi
15.3,0.007813884437294827,-9.862566720816602,22.63638392371184,0.1346115387145121,0.5799269231575267,131.15397373407524,23.3943645501842,0.0,1.0,0.0,0.0,1.0,Taxi
15.4,0.0068996103698914435,8.653376594541411,23.93582947871515,0.4106702352300154,0.8658452226884913,131.12732464039738,23.563860832315324,0.0,1.0,0.0,0.0,1.0,Taxi
15.5,-0.054213850383703355,-8.666186006859682,22.350029459650255,0.3386517808988956,1.1217120580811686,131.09381506042274,22.886366538501896,0.0,1.0,0.0,0.0,1.0,Taxi
15.600000000000001,-0.0355170455970036,-13.194742088905494,22.91393108315326,0.28085129728323255,0.8603543859136409,131.18908930128345,23.453357197720447,0.0,1.0,0.0,0.0,1.0,Taxi
15.700000000000001,-0.05907410007463605,11.674110814899258,23.29525426890555,0.27513008599974487,-0.016218129138958728,131.10298806159608,23.47860252238483,0.0,1.0,0.0,0.0,1.0,Taxi
15.8,0.004156703690792914,11.266757054337745,23.944835484935506,0.5130484248371947,0.39007309483324587,130.99392608608082,23.68251719774375,0.0,1.0,0.0,0.0,1.0,Taxi
15.9,0.0208167396746851,22.083797056498636,22.310076519508584,0.4611570815544339,0.3668016930772988,131.06008293677007,22.96180563736589,0.0,1.0,0.0,0.0,1.0,Taxi
16.0,0.0513448852078571,16.10467732616493,23.06803881061659,0.5554545483939626,0.609654351830095,131.3738831617934,23.340805820133234,0.0,1.0,0.0,0.0,1.0,Taxi
16.1,0.08468009032161754,-40.739784357123234,23.531604172991898,0.24722441128137393,-1.2095181571408,131.21352856481076,23.104557581943116,0.0,1.0,0.0,0.0,1.0,Taxi
16.2,-0.1828821821109311,15.883627999969812,22.667914814667718,0.20645203443162963,-0.07216982073778651,131.06983653152906,23.501725819481972,0.0,1.0,0.0,0.0,1.0,Taxi
16.3,0.13076302520770616,-29.560473760004033,21.99603163890872,0.43368398084292903,-0.20373419098073875,131.28700730229423,24.146733525870527,0.0,1.0,0.0,0.0,1.0,Taxi
16.400000000000002,-0.06312227847840264,50.0822740280889,23.10601083591213,0.22479371483934119,0.14309686809039174,131.1428539721427,23.07147576179482,0.0,1.0,0.0,0.0,1.0,Taxi
16.5,0.06752918802951333,-21.963813787321342,22.61731449023394,0.47669318416729084,-0.3343593590382771,131.302895749512,23.38166789800752,0.0,1.0,0.0,0.0,1.0,Taxi
16.6,0.020943956271099417,15.76047770330913,23.92442798833048,-0.04512159459623177,0.317591071159942,131.09123039506613,22.46973761295349,0.0,1.0,0.0,0.0,1.0,Taxi
16.7,0.015680110038142982,-33.678151527327124,22.25654555270188,0.15945920803116942,0.5177364274246238,131.13595390436797,23.34240746300287,0.0,1.0,0.0,0.0,1.0,Taxi
16.8,-0.10086156960712232,-2.0962106620012406,22.465807793864077,0.37270644384429996,-0.583301335094865,131.14808377035166,24.29210339459722,0.0,1.0,0.0,0.0,1.0,Taxi
16.900000000000002,0.010462902961093184,32.287444502392425,21.69000059046175,-0.0870714454134518,0.3830359344851076,131.05110402505977,22.567607951931794,0.0,1.0,0.0,0.0,1.0,Taxi
17.0,0.1771173325501051,54.68662856679018,22.159873609489743,0.14101013338038176,-0.30630884291543903,131.03758820214233,24.454993129982242,0.0,1.0,0.0,0.0,1.0,Taxi
17.1,0.17257157322682856,10.786876102099503,23.57064001738363,0.4330340507899461,0.09393151246109238,131.11502547321493,23.81695698107613,0.0,1.0,0.0,0.0,1.0,Taxi
17.2,0.06439728347159067,-13.820297916343451,22.849536349091622,0.07378114749816922,1.4304471797182385,131.22360310849882,23.643454022872284,0.0,1.0,0.0,0.0,1.0,Taxi
17.3,0.1080158429683878,-19.8424090849412,22.6801392031914,0.2860632176580329,1.0099719306949195,131.30692670031294,23.7435450622841,0.0,1.0,0.0,0.0,1.0,Taxi
17.400000000000002,0.07335952780212253,17.370161438926633,23.34081470436119,0.1876541728652969,0.7989315841838487,130.96316079306325,23.15719623445115,0.0,1.0,0.0,0.0,1.0,Taxi
17.5,0.15124809066622383,0.1777628031473076,22.71851208239255,0.2687026398489564,0.03359189542594513,130.9771467511552,24.106785212478183,0.0,1.0,0.0,0.0,1.0,Taxi
17.6,0.10890465698412433,-59.27704193829731,21.40993886779009,0.002992589834500625,-0.29436660003376125,131.21479748959473,24.026525819243766,0.0,1.0,0.0,0.0,1.0,Taxi
17.7,-0.22302568188936403,-18.81159466792809,23.119449234507922,0.3162603340534542,0.5436360787910918,131.20622286281173,22.2222204402974,0.0,1.0,0.0,0.0,1.0,Taxi
17.8,0.05719011732658333,-37.749713812246426,23.168575846048537,0.14406126289340077,0.004669369399226947,130.99790610871685,22.433854616869716,0.0,1.0,0.0,0.0,1.0,Taxi
17.900000000000002,-0.07984391207710784,53.98858461023957,23.086873315402055,0.4241682077891718,-0.2798405310678489,131.06203352633554,23.74853868258485,0.0,1.0,0.0,0.0,1.0,Taxi
18.0,0.046917241161833795,0.5940137945851308,22.623085243834364,0.2899650890203562,0.005197106251425142,131.2324469917554,23.989561428025272,0.0,1.0,0.0,0.0,1.0,Taxi
18.1,0.06016018629950898,43.28128185277535,22.4319967837868,0.16918591517862575,0.15186535043837707,131.17197944345446,23.600518915899112,0.0,1.0,0.0,0.0,1.0,Taxi
18.2,0.1365624971867689,18.266474602848398,22.115439791083734,0.10431736465854746,-0.7550011781812064,131.05688100312318,23.044431582727107,0.0,1.0,0.0,0.0,1.0,Taxi
18.3,0.13824961417607579,0.6901913446986564,22.517736326128457,0.5680782783355367,-0.7061751250446583,131.30741612336146,24.647352634130428,0.0,1.0,0.0,0.0,1.0,Taxi
18.400000000000002,0.06361114302300226,-43.80434947520354,22.721580998568076,-0.12709067247769867,0.3554816765193355,131.1070491954846,23.978584033497203,0.0,1.0,0.0,0.0,1.0,Taxi
18.5,-0.08245925018924877,15.19119548109012,22.026960226941355,0.3194263076262922,-0.511550238418746,131.1169477225526,22.72970779296402,0.0,1.0,0.0,0.0,1.0,Taxi
18.6,0.21420559158152638,20.898398034275854,22.83937205316103,-0.05445488085183281,0.028186094570287264,131.1513875965162,22.838350829879985,0.0,1.0,0.0,0.0,1.0,Taxi
18.7,0.1681031331943815,16.33012232031528,22.834310954719776,0.3079153610242067,0.522964817007817,131.14057910520154,22.85394946590776,0.0,1.0,0.0,0.0,1.0,Taxi
18.8,-0.0008086385876723621,-20.167634154192456,22.29454250404297,0.5058729342679342,-0.6370569557141962,131.1408804983048,22.932447823971152,0.0,1.0,0.0,0.0,1.0,Taxi
18.900000000000002,0.11336742081056406,-40.085642783869524,22.192068029143446,0.22560910402815385,-0.5071590863258713,131.1423904228414,23.681494244751587,0.0,1.0,0.0,0.0,1.0,Taxi
19.0,-0.03232508072496617,38.70919931955412,23.61681434801327,0.1190511060060038,0.0211566643524962,131.1560479868515,22.86784799220277,0.0,1.0,0.0,0.0,1.0,Taxi
19.1,0.1927373580100982,-49.67641198049125,22.99747248630944,0.1395218844266014,-0.2562090607753336,131.27304298895592,23.941158058731638,0.0,1.0,0.0,0.0,1.0,Taxi
19.200000000000003,-0.13501463909189235,8.695426081338459,23.433386293024473,0.09470769973704321,-0.27224548419835803,131.14040294984483,22.64324761157158,0.0,1.0,0.0,0.0,1.0,Taxi
19.3,0.011152049681726003,8.21128358130459,22.653038983367058,0.08308985695482998,0.1379749756614614,131.04950931490157,23.695068355559382,0.0,1.0,0.0,0.0,1.0,Taxi
19.400000000000002,0.23379377591662107,42.107257396331725,22.401093822709928,0.2449886430059821,-0.22204092937083206,131.19238175131017,23.82904949123793,0.0,1.0,0.0,0.0,1.0,Taxi
19.5,0.07552164788976623,16.83508023034706,21.609676409436247,0.25480261369187346,-0.8409053924483106,131.11277263468185,23.46936949704646,0.0,1.0,0.0,0.0,1.0,Taxi
19.6,0.09532745083346128,-60.69912024532494,23.699580192939294,0.015695912942008894,0.4442377558859177,131.30414493397268,23.36849048019658,0.0,1.0,0.0,0.0,1.0,Taxi
19.700000000000003,-0.06970182531000368,-32.895514106735085,23.067154982891594,-0.14026302100062593,-0.29446553982882595,131.2628982253865,22.948223319971714,0.0,1.0,0.0,0.0,1.0,Taxi
19.8,-0.08895592264390925,-0.08149085267624419,22.98124130077753,0.12182735811527765,0.2131138384065588,131.08396579346123,23.10134722250166,0.0,1.0,0.0,0.0,1.0,Taxi
19.900000000000002,0.09491999657008,28.981850843654883,23.243740070623048,0.24411676249737135,-0.0030436784406128567,131.20391121893215,23.283109414897922,0.0,1.0,0.0,0.0,1.0,Taxi
20.0,0.07520742890827067,11.845609034729904,22.229815587399177,0.27003649908754357,-0.955913818527801,131.12027030419932,23.317249456801548,0.0,1.0,0.0,0.0,1.0,Taxi
20.1,-0.02972787747025978,-15.195627188742309,22.492317537555348,0.18214343604849723,0.08011737060461939,131.11481109745648,23.200518582251558,0.0,1.0,0.0,0.0,1.0,Taxi
20.200000000000003,0.018941860626368424,-28.07625859070683,24.086096524097535,0.19693063279297074,0.13672437335568474,131.19120297411638,23.247749498017317,0.0,1.0,0.0,0.0,1.0,Taxi
20.3,-0.06517386404526351,-12.698390838672793,22.816928604166655,0.43351294140031205,-0.17091107129673325,131.2467826205252,23.62678906995649,0.0,1.0,0.0,0.0,1.0,Taxi
20.400000000000002,-0.09321983166362378,-38.06036748360028,23.05804100231113,0.04282907178124007,-0.11333177397765529,131.20642270469307,23.874034316559268,0.0,1.0,0.0,0.0,1.0,Taxi
20.5,-0.17135997679163306,6.097492764180312,22.00008897888555,-0.0186174441846943,-0.3564094498822716,131.07750037554558,22.64414814904973,0.0,1.0,0.0,0.0,1.0,Taxi
20.6,-0.034686400224362014,14.639455266099887,23.221240794603236,0.428756605198352,-0.13016057127952954,131.19686856977626,23.171881418013168,0.0,1.0,0.0,0.0,1.0,Taxi
20.700000000000003,-0.020022555333124404,33.09686734677865,22.95668981280842,0.10239365374477616,-0.10058982231687272,131.0422071287956,22.722719926381522,0.0,1.0,0.0,0.0,1.0,Taxi
20.8,-0.005875640057739848,33.80223479263026,23.028967810070554,0.38757834781061484,0.3680865487067418,131.027981954651,22.81009791056664,0.0,1.0,0.0,0.0,1.0,Taxi
20.900000000000002,0.13432477373878923,20.85579658760435,22.450710837815052,0.5801281974134356,0.06807283129631163,131.22517417302123,23.594417745434086,0.0,1.0,0.0,0.0,1.0,Taxi
21.0,0.08425642760489731,-17.61477905785568,23.691349646916596,0.4767846721388834,-0.36788896671546606,131.18283683552926,24.016031201117727,0.0,1.0,0.0,0.0,1.0,Taxi
21.1,-0.09394953534701832,22.90297098714093,23.230508117011677,0.21321551509725595,0.9226137897998681,131.11766111690372,23.68282353713101,0.0,1.0,0.0,0.0,1.0,Taxi
21.200000000000003,0.24883962867449383,-5.1731595278317,22.755098504688554,0.013117117548234858,0.17006281934455697,131.2544048879921,23.6488403142375,0.0,1.0,0.0,0.0,1.0,Taxi
21.3,0.058390629965738766,45.09108737515853,23.804549652761988,0.4483456794646695,-0.3227893114968041,131.0093390248078,22.909712440252914,0.0,1.0,0.0,0.0,1.0,Taxi
21.400000000000002,0.13150590152877428,-69.6334616452698,22.721962591536258,0.07388137393210059,0.38704396169306365,131.1980229388987,23.304630661372933,0.0,1.0,0.0,0.0,1.0,Taxi
21.5,-0.09932767955185522,-7.096757327068157,23.22438449151192,0.11325107780484384,-0.2620455080756244,131.0739652167664,23.792210650516882,0.0,1.0,0.0,0.0,1.0,Taxi
21.6,0.02290684333039794,-45.39664594469414,22.463546603577512,-0.06829101632627899,-0.1859868734108965,131.16160785748195,23.37660449918347,0.0,1.0,0.0,0.0,1.0,Taxi
21.700000000000003,-0.09547732819469645,-5.646639284059514,22.8872014587906,0.3584622178496713,0.1236308396956588,131.12884503197427,23.39180341782845,0.0,1.0,0.0,0.0,1.0,Taxi
21.8,-0.1275608759721528,-15.728105776293305,22.560494036870843,0.2778774151225495,-0.5760032430251569,131.1076252131868,23.422395276894594,0.0,1.0,0.0,0.0,1.0,Taxi
21.900000000000002,-0.055733685551068606,-36.29626709344699,22.178412838589804,0.1346254609459167,-0.20734807296987,131.37377459780828,23.328375631995588,0.0,1.0,0.0,0.0,1.0,Taxi
22.0,-0.2769586636619315,27.21125188363621,22.404005212341726,0.2933925318825535,0.0696261948669976,131.12381649663052,21.90274100517705,0.0,1.0,0.0,0.0,1.0,Taxi
22.1,0.008495383446028201,0.4143797870259978,23.69991452030632,0.3470068587639927,0.18490064222159813,131.0170858205018,23.500526047200943,0.0,1.0,0.0,0.0,1.0,Taxi
22.200000000000003,-0.05366178661593866,47.64449028286382,22.640623750433452,0.4175874015478801,0.21354425359166143,131.32905593922152,23.569055669130094,0.0,1.0,0.0,0.0,1.0,Taxi
22.3,-0.03873621224761237,13.27330848354969,22.29062400162173,-0.012172275422832779,-0.8379449110219447,131.13688198513915,22.900222687964792,0.0,1.0,0.0,0.0,1.0,Taxi
22.400000000000002,0.07486192586377663,31.2128618728257,23.51316148368853,0.06696047308938347,-0.9590945263004476,131.16459915137165,22.902417294672148,0.0,1.0,0.0,0.0,1.0,Taxi
22.5,0.10240252274818984,-27.660910594756064,22.8761243905805,0.5451502362671947,0.15794298451742472,131.123187455451,23.360360726071498,0.0,1.0,0.0,0.0,1.0,Taxi
22.6,-0.17704076522139273,3.2450097473322237,22.92240411790582,0.14922139732340184,-0.39303003498867944,131.17823077048786,23.339896513376754,0.0,1.0,0.0,0.0,1.0,Taxi
22.700000000000003,0.0910869746004377,16.99571558253312,22.56408130418066,0.4616242170899869,0.013113250841154112,130.99947751270997,23.64154601406073,0.0,1.0,0.0,0.0,1.0,Taxi
22.8,0.18738110066085542,51.72211138038758,23.233832090283254,0.31730569397275554,0.010948952136116933,131.18454538340575,23.041463802440035,0.0,1.0,0.0,0.0,1.0,Taxi
22.900000000000002,0.08156979168054519,-16.105710642993916,22.270054537724548,0.3164820027736491,-0.08821647654926389,131.29777605686434,22.66387405449694,0.0,1.0,0.0,0.0,1.0,Taxi
23.0,0.010558421385468123,-45.49863858940955,22.23046638210012,0.01580861808876749,0.2572466468781032,131.09685162326355,22.635675004364128,0.0,1.0,0.0,0.0,1.0,Taxi
23.1,-0.040112092286192357,-44.53545205080369,23.131230441764696,0.16732527128744618,0.2088610354512313,131.2462260436729,22.598617156256214,0.0,1.0,0.0,0.0,1.0,Taxi
23.200000000000003,-0.14110746857347328,27.13176091477635,22.857634702624647,0.19530465511643424,0.4846985639454877,131.1701626353124,23.203220795459504,0.0,1.0,0.0,0.0,1.0,Taxi
23.3,0.14621722595934983,18.41052399247182,22.722166494880682,0.27489499353756586,0.10873930597621385,131.04704352502193,23.402775989441572,0.0,1.0,0.0,0.0,1.0,Taxi
23.400000000000002,0.051940527676166706,17.88702711190545,23.988539993911257,0.027370487152157286,0.6297316171595402,131.19142474247155,24.17706302553521,0.0,1.0,0.0,0.0,1.0,Taxi
23.5,-0.05167233301394604,-44.22936997024362,23.772992232495028,-0.04958188158907839,-0.05939854641566523,131.21001450134662,22.678134323881757,0.0,1.0,0.0,0.0,1.0,Taxi
23.6,-0.07492962389186826,-19.127028451621907,22.86227452527801,0.5920598009910625,-0.939863622258928,131.143024579364,23.595609402594945,0.0,1.0,0.0,0.0,1.0,Taxi
23.700000000000003,-0.04369461458194285,-27.05504244301295,23.333935959195006,0.11722229355680397,0.6405472653581931,131.14027824186223,23.01814322947118,0.0,1.0,0.0,0.0,1.0,Taxi
23.8,-0.1869475452290108,5.575342882963923,22.448239453085513,0.4249285351183805,-0.6981741906494473,131.07565043612885,22.376195533774876,0.0,1.0,0.0,0.0,1.0,Taxi
23.900000000000002,-0.04705290947704865,-23.70875143945773,24.107309084764882,0.292316332143293,0.3119864240946853,131.1780275855562,23.8930549568967,0.0,1.0,0.0,0.0,1.0,Taxi
24.0,-0.1622383717792315,42.66043319061216,23.1263889919114,0.511828820181448,-0.04248372194427986,131.10361830358113,23.53937574794416,0.0,1.0,0.0,0.0,1.0,Taxi
24.1,0.026354620724049944,36.54814083297986,22.637147719852766,0.2704314736401696,0.5080030091623582,131.1975405822743,24.200988005904826,0.0,1.0,0.0,0.0,1.0,Taxi
24.200000000000003,0.13568779468785064,26.34580792786025,23.12398834999418,0.009051100394638106,-1.1053463513483546,131.08936413651367,22.48578619661625,0.0,1.0,0.0,0.0,1.0,Taxi
24.3,-0.030509332139930297,-0.5344032488045395,22.881656697146674,0.22320318204108625,-0.3586628708757771,131.1716585355154,23.276146956420764,0.0,1.0,0.0,0.0,1.0,Taxi
24.400000000000002,0.02368260448002721,-18.459620537406064,23.07985308078163,0.19745859898507256,-0.5521151044792683,131.17332654576938,23.72809453728153,0.0,1.0,0.0,0.0,1.0,Taxi
24.5,0.04338969200082026,-5.6580131089207955,22.272765479285415,0.42973238856070084,0.4268197341645561,131.11461540553898,23.197388729608665,0.0,1.0,0.0,0.0,1.0,Taxi
24.6,-0.058799397684534266,-28.555415676616576,22.348231223872943,0.3138604212185209,0.527206618310681,131.21203322740826,23.40936143959232,0.0,1.0,0.0,0.0,1.0,Taxi
24.700000000000003,-0.11909447390305566,-17.779113698341394,22.638514432347623,-0.04881367734503966,-1.2161059243196677,131.12076914276895,23.72707173492972,0.0,1.0,0.0,0.0,1.0,Taxi
24.8,-0.04550587649088669,28.202701903182927,22.53977470509894,0.38490736586018415,-0.22311053397267797,131.14544363066898,22.347772810913696,0.0,1.0,0.0,0.0,1.0,Taxi
24.900000000000002,0.08221411183138035,-0.4509234778308742,22.094969333782487,0.48890285529974586,-0.2785833693229175,131.06842776940687,23.645388327943532,0.0,1.0,0.0,0.0,1.0,Taxi
25.0,-0.12134909129221008,-1.339746007721035,23.1968500226689,0.13624723418134238,-1.4003534573779237,131.10758396937035,22.578203429963818,0.0,1.0,0.0,0.0,1.0,Taxi
25.1,-0.05220460652949191,-19.02119448284327,23.11438818016517,0.47113427943300096,-0.4837250425721774,131.20126458243226,23.317697720892063,0.0,1.0,0.0,0.0,1.0,Taxi
25.200000000000003,-0.012891860582836047,34.401465256010816,23.199275376999896,-0.055350007416336555,-0.5121672055213975,131.08726033103994,23.13230684747787,0.0,1.0,0.0,0.0,1.0,Taxi
25.3,0.05065823498784398,29.623430574450108,22.85351864106269,0.16095870809155707,0.4620039261077606,131.30897963719377,23.2975108836941,0.0,1.0,0.0,0.0,1.0,Taxi
25.400000000000002,0.0959125463427586,3.8599031159601416,23.20532604941701,0.39305525000136726,1.1383832601791213,131.08917192254876,22.562346208695654,0.0,1.0,0.0,0.0,1.0,Taxi
25.5,0.0064076549969646415,-16.989250114189804,23.16754377957951,0.48441196073863824,0.6606866634340155,131.04917524327107,23.246481589751493,0.0,1.0,0.0,0.0,1.0,Taxi
25.6,-0.03428801558310506,0.455787641617718,22.762495523708488,0.045420975813914605,-0.08477339376347515,131.15483301591127,22.727793172295115,0.0,1.0,0.0,0.0,1.0,Taxi
25.700000000000003,0.09819148455084718,26.50831455921633,22.83497967478437,-0.054189574121270345,0.07699293622956821,131.00649434615946,23.37531135093401,0.0,1.0,0.0,0.0,1.0,Taxi
25.8,0.1389492277930463,38.614553781479266,23.276650823051813,0.08518052840216869,0.04287226899438091,131.1378698169798,22.647940825623614,0.0,1.0,0.0,0.0,1.0,Taxi
25.900000000000002,0.1587847533242913,-47.19230022592569,23.923482713302256,0.23938350923309315,0.920458512498459,131.30897396475928,22.985747453998954,0.0,1.0,0.0,0.0,1.0,Taxi
26.0,-0.1377700165787813,-25.82164005557725,23.325636759015637,0.053485243653559805,0.7330600691492188,131.19733460350102,24.29173038400236,0.0,1.0,0.0,0.0,1.0,Taxi
26.1,0.009841027515160014,-30.685702013919823,22.532287031814782,-0.10783023983025053,0.1107496444530231,131.16122062233364,23.2092330632871,0.0,1.0,0.0,0.0,1.0,Taxi
26.200000000000003,0.005356243254692163,30.62724723918897,22.19164485820349,0.25175661301455343,-0.6870053464200203,131.2326267922066,23.28196611639091,0.0,1.0,0.0,0.0,1.0,Taxi
26.3,0.015366219617163524,-28.65787415633278,23.437818911178514,0.28677672540207566,0.2922593883652209,131.1651553447566,23.886698320907577,0.0,1.0,0.0,0.0,1.0,Taxi
26.400000000000002,-0.13344834326650393,-2.6637131955437163,23.044174265998613,0.29226572779440396,-0.1745524579249056,131.21267251882858,23.41716474457739,0.0,1.0,0.0,0.0,1.0,Taxi
26.5,-0.00796232272302647,-3.7416685066443294,23.018412731155507,0.2518115990468526,-0.9031460982221683,131.27810400480416,24.117402062300588,0.0,1.0,0.0,0.0,1.0,Taxi
26.6,-0.003342122916058168,-2.753301510498891,21.984578930348714,0.28921373761262986,-0.030839924676318454,131.2987043484452,22.987867295586415,0.0,1.0,0.0,0.0,1.0,Taxi
26.700000000000003,-0.1472148508189984,2.9478657093052525,22.841195882361422,0.14189245279580306,0.5547120749659166,130.96151779017697,23.63799162421148,0.0,1.0,0.0,0.0,1.0,Taxi
26.8,0.006777005823499781,-38.75391647605357,24.13943621820047,0.2759713901096331,0.31501325341125763,131.23544938461896,23.92999752945867,0.0,1.0,0.0,0.0,1.0,Taxi
26.900000000000002,-0.19711170529632605,-5.11181118803276,22.348271701452855,0.3082510338186627,-0.19041693266822285,131.13104542657254,22.556020916838914,0.0,1.0,0.0,0.0,1.0,Taxi
27.0,-0.17277390675916224,-8.217805906039459,22.2979246679281,0.19562558665474988,-0.2431827839364327,131.1632940979871,22.86949521663632,0.0,1.0,0.0,0.0,1.0,Taxi
27.1,-0.03431202370669752,50.62210235533859,22.6806621079375,-0.05536088668769068,-0.24254155009327324,131.1174111895516,23.562686898253446,0.0,1.0,0.0,0.0,1.0,Taxi
27.200000000000003,0.0559988064803669,46.44605015609303,22.49436948760737,0.0922542812144741,0.08187036018244967,131.07149242690355,24.38039061144206,0.0,1.0,0.0,0.0,1.0,Taxi
27.3,0.05945634402130289,22.55955741210944,22.334904863247857,0.4969203755724666,-0.22351128785164556,131.15379188833026,21.98530521990653,0.0,1.0,0.0,0.0,1.0,Taxi
27.400000000000002,0.07848576335384966,-20.44116747076626,24.07622491459519,0.31687300449717104,0.5705500471495042,131.16372645437343,23.30799442710487,0.0,1.0,0.0,0.0,1.0,Taxi
27.5,-0.046207030873464436,-15.142531834285636,23.025335612758152,0.15446911496597238,-0.3057005280657541,131.21793874746686,23.66362687180956,0.0,1.0,0.0,0.0,1.0,Taxi
27.6,-0.01625631515012533,-17.99338118918893,23.241353680637218,0.5387554199442257,-0.43386566129074006,131.19437953773217,23.02989262007546,0.0,1.0,0.0,0.0,1.0,Taxi
27.700000000000003,-0.011481142592095026,-16.268537597437845,23.009150324411916,0.3704350796104626,0.25848010428169405,131.19458804149735,23.500130584219253,0.0,1.0,0.0,0.0,1.0,Taxi
27.8,-0.12754971886065367,-9.506965762164583,23.973136517196753,0.49264779955692406,0.5408257237176244,131.14790832410807,23.134121134979345,0.0,1.0,0.0,0.0,1.0,Taxi
27.900000000000002,-0.06379114396094825,9.940231483545977,23.377350440007838,0.2914990029286289,0.12653210506514004,130.97120396586,23.4026329420592,0.0,1.0,0.0,0.0,1.0,Taxi
28.0,0.038220014825634835,30.557252076442797,23.367585958675313,0.00948428140011659,-0.3111111185283676,131.23520624826955,23.49389692380722,0.0,1.0,0.0,0.0,1.0,Taxi
28.1,0.025236541521560286,8.617786313431264,23.035026932697274,0.18354634403482753,0.10413291081174322,130.93739357489943,23.741878617477877,0.0,1.0,0.0,0.0,1.0,Taxi
28.200000000000003,-0.02070221239379196,9.51338215824125,22.872733011739637,0.3038012071524071,0.6576398261536036,131.1336152202531,24.026962529888753,0.0,1.0,0.0,0.0,1.0,Taxi
28.3,0.08578692561684106,24.96614609068332,22.826850840701766,0.5458655976982294,-0.24695830362855253,131.11199525610675,23.64724173672659,0.0,1.0,0.0,0.0,1.0,Taxi
28.400000000000002,0.15006727197497685,27.51076955808851,23.807504930830465,0.31788556288231173,0.255739484307881,131.0708549183069,23.617518491341798,0.0,1.0,0.0,0.0,1.0,Taxi
28.5,0.11685163539665054,-39.868247403240396,21.824256186550393,0.4901116966605894,-0.814681307023919,130.994270996083,24.611077095681296,0.0,1.0,0.0,0.0,1.0,Taxi
28.6,-0.1135543113993609,-32.01044910519248,22.762987316495526,0.47284221659219017,-0.7043667180881873,131.12054245091826,22.91810085198251,0.0,1.0,0.0,0.0,1.0,Taxi
28.700000000000003,-0.009984973550985536,-9.996032399843623,22.835819240830013,0.3294341644159604,-0.5302774570327344,131.25138024063676,23.40221359684663,0.0,1.0,0.0,0.0,1.0,Taxi
28.8,0.06687147339743243,3.854852195200787,23.287964805737214,0.8186977202696657,0.4999987761018579,131.05325501472782,23.357150700294447,0.0,1.0,0.0,0.0,1.0,Taxi
28.900000000000002,-0.09428005042335696,-17.28668014258933,23.198078633371615,0.36197725308361983,0.5218972935083523,131.05642223184066,24.037035222277915,0.0,1.0,0.0,0.0,1.0,Taxi
29.0,-0.0964183742639322,-7.7699072557335755,23.470869334514916,0.3002123083036837,0.5192377890828737,131.09618876343927,23.655463134659787,0.0,1.0,0.0,0.0,1.0,Taxi
29.1,0.028021937118764557,1.4151134305260769,22.715602976083595,0.2566339977217231,0.5305015351614305,131.0896386309929,23.781092687881667,0.0,1.0,0.0,0.0,1.0,Taxi
29.200000000000003,-0.08720448327072661,-3.882261435189974,22.91652073965469,-0.008724822045606817,-0.13280157688106106,131.11618015634417,23.611868412247702,0.0,1.0,0.0,0.0,1.0,Taxi
29.3,-0.11582968143988209,1.7159722921530356,22.155551264116344,-0.029578363456987777,-0.040014621268351834,131.06724445842366,22.71934335157164,0.0,1.0,0.0,0.0,1.0,Taxi
29.400000000000002,0.03660179857952971,1.4020869160184997,22.00026049957188,0.2857284407773974,0.14166713126391128,131.1024825502418,22.693963839988665,0.0,1.0,0.0,0.0,1.0,Taxi
29.5,-0.08019404869063412,51.17415645658682,22.87274307214968,0.2813877206361325,-0.18285417137311674,131.36392723657002,23.403478251080752,0.0,1.0,0.0,0.0,1.0,Taxi
29.6,0.14004110084305202,-12.606647505314578,22.987812403016896,0.1472263450278547,-0.7022600626125569,131.13810103644653,23.76662570327143,0.0,1.0,0.0,0.0,1.0,Taxi
29.700000000000003,-0.026431438947043202,10.012537134108223,22.67223405713818,-0.0027681887910935843,-0.7306029720805837,131.13456914383335,23.303731929380707,0.0,1.0,0.0,0.0,1.0,Taxi
29.8,-0.03013136302009302,-44.75841419567886,23.012118844894363,0.09801480697268966,0.26031913345682567,131.09452452399887,23.631920088918925,0.0,1.0,0.0,0.0,1.0,Taxi
29.900000000000002,-0.08375097013534233,-30.006988433354238,23.14804268272241,-0.09850356171290092,0.04012062202169148,131.1260754175721,24.00791364391547,0.0,1.0,0.0,0.0,1.0,Taxi
30.0,-0.1764663811138144,-6.608226071848766,22.432346129818686,0.229580909221117,-0.3558451913889093,131.3430449104577,24.21888908922211,0.0,1.0,0.0,0.0,1.0,Taxi
30.1,-0.06317249337933688,21.417799710991527,22.5813397341412,0.4489401450059455,-0.3230699245000265,131.20737741889718,24.218293338869277,0.0,1.0,0.0,0.0,1.0,Taxi
30.200000000000003,0.023338028419615256,49.94886562008195,22.141483607069347,0.32381023573102696,0.5068342781798983,131.15225572435054,24.583627775346535,0.0,1.0,0.0,0.0,1.0,Taxi
30.3,0.07327794698659533,32.903985556082105,22.76363797302593,-0.09975706784045102,-0.27815532376508734,131.1769981056956,23.220280298140313,0.0,1.0,0.0,0.0,1.0,Taxi
30.400000000000002,0.10134743440107363,-28.743596531044677,22.713527825425395,0.29021192615973357,0.33338669387261216,131.14216446221383,22.8212794196377,0.0,1.0,0.0,0.0,1.0,Taxi
30.5,-0.12037995423560817,-9.563601775698809,22.848518890489736,0.4977645500196054,0.42356582538016724,131.25774445221714,23.80380616417771,0.0,1.0,0.0,0.0,1.0,Taxi
30.6,0.02545993810810125,-34.32036948766788,22.835932877364595,-0.09536736145553071,0.2822582115363329,130.97693164499685,22.849123923324733,0.0,1.0,0.0,0.0,1.0,Taxi
30.700000000000003,-0.0702544130372658,6.274760787236995,23.04190957089961,0.4675904548091614,0.374105749999919,131.23425103832972,24.518201314134288,0.0,1.0,0.0,0.0,1.0,Taxi
30.8,-0.08900615029942319,-6.31758265603452,21.969330345676692,-0.04860727157223527,0.4945513641425858,131.1704374221739,23.54680057070724,0.0,1.0,0.0,0.0,1.0,Taxi
30.900000000000002,-0.006127975172071342,-0.6239977733762837,22.3248881514056,0.2306840902215158,0.6452516895104983,131.05444919930733,23.794084101727034,0.0,1.0,0.0,0.0,1.0,Taxi
31.0,-0.07337440190414722,26.015660930237743,22.64244001246969,0.1557265899631265,-0.01890983305920375,131.01642358604533,24.33563341230446,0.0,1.0,0.0,0.0,1.0,Taxi
31.1,0.04107215435176552,-23.43143394598088,23.23630031092292,0.6253691913340383,0.007823282339810734,130.95535067810545,22.68244477746942,0.0,1.0,0.0,0.0,1.0,Taxi
31.200000000000003,-0.12328514490197576,14.956503335979775,22.415434249115663,0.30222679312602796,-0.2287045395435332,131.02164819242466,23.538625525956302,0.0,1.0,0.0,0.0,1.0,Taxi
31.3,0.0014081147757516402,5.140781493164077,23.130179945317423,0.12771319584152618,0.6209280833311543,131.38284067698987,23.380551441273912,0.0,1.0,0.0,0.0,1.0,Taxi
31.400000000000002,0.0667760618175859,29.782167988740387,22.972949541084002,0.5330732221779171,0.47858577694552357,131.04590032604523,23.183690150536165,0.0,1.0,0.0,0.0,1.0,Taxi
31.5,0.02562569504172621,-19.383399754759804,24.090827903975477,0.7465305506754282,0.06864791803612529,131.13743196972018,23.80573474849915,0.0,1.0,0.0,0.0,1.0,Taxi
31.6,-0.09550888399804737,-34.170226084105025,22.634507116407182,0.20717295233661018,0.11675269085764639,131.0903435258757,24.07305623765776,0.0,1.0,0.0,0.0,1.0,Taxi
31.700000000000003,-0.10407506860293923,-4.44228315423032,22.228049848503016,0.20380517905446638,-0.039202316507648736,131.18038158899424,23.709846553549365,0.0,1.0,0.0,0.0,1.0,Taxi
31.8,0.0034142792705746136,38.26606128414829,22.810128169263365,0.00027677422004823704,0.300505479325627,131.3462123478414,22.26796088342098,0.0,1.0,0.0,0.0,1.0,Taxi
31.900000000000002,0.09582142242269409,47.926496169152465,23.515613544631417,0.2921255651607767,0.459039847421092,131.12106262123785,23.286046159030853,0.0,1.0,0.0,0.0,1.0,Taxi
32.0,0.13555741224282308,30.944758576313532,23.951869854712065,0.49016286734788883,-0.6734643600384339,131.26116739901994,23.28851734912787,0.0,1.0,0.0,0.0,1.0,Taxi
32.1,0.15813807215214226,-3.3474968119581185,23.280422237597236,0.31264014442369,-0.15883912699943556,131.22550840695692,22.77724674146589,0.0,1.0,0.0,0.0,1.0,Taxi
32.2,0.0790839383629035,-57.96759569810384,23.052968393894133,0.284170559871031,0.42135969107347787,131.16846852093136,22.72020925389093,0.0,1.0,0.0,0.0,1.0,Taxi
32.300000000000004,-0.1542805662476961,-43.292671612801975,22.141519559872542,0.27360805592306436,0.33557662406733124,131.0537150592313,22.928645083457457,0.0,1.0,0.0,0.0,1.0,Taxi
32.4,-0.058325285911867635,-4.136212252985895,23.599482657245186,0.2444177398926781,0.19234600954000475,130.92132241002685,22.581310787000486,0.0,1.0,0.0,0.0,1.0,Taxi
32.5,0.05840287709797404,18.4693472090549,23.38615850149542,0.4577085985747815,1.1244210270955681,131.16375703789663,22.940330255589032,0.0,1.0,0.0,0.0,1.0,Taxi
32.6,-0.061933830202421596,15.193768095980692,23.313396471874935,0.08257061331827203,-0.1317780645272345,131.2253644855603,22.892082960304293,0.0,1.0,0.0,0.0,1.0,Taxi
32.7,0.01764355456803583,19.431814082910993,22.658293193930316,0.572679375644193,-0.005855811115413039,131.1906441055977,23.130658069256615,0.0,1.0,0.0,0.0,1.0,Taxi
32.800000000000004,0.15556194751252903,10.551378287560235,23.18581366070009,0.3198029920443992,-0.4603316220201349,131.25616107258173,23.913310944321783,0.0,1.0,0.0,0.0,1.0,Taxi
32.9,-0.009176938764620396,-14.465837305592572,23.210126974627013,0.14658249271361629,0.02718243509225868,131.00355801980504,23.729070179722232,0.0,1.0,0.0,0.0,1.0,Taxi
33.0,-0.05468563195992702,-14.582720947936219,23.036730628197844,0.23116602098069428,0.27752451825926167,131.34660279001923,23.11853467960588,0.0,1.0,0.0,0.0,1.0,Taxi
33.1,0.08264834277284794,18.704674544111466,22.782212262291882,0.8553848239945904,0.6261459830910162,131.03379875805223,22.346100772966963,0.0,1.0,0.0,0.0,1.0,Taxi
33.2,0.08434643395593695,14.135419639409633,21.803286185653736,0.11208791224970696,0.5721714363156527,131.06377038954633,24.003058329084073,0.0,1.0,0.0,0.0,1.0,Taxi
33.300000000000004,0.015991466237121152,-47.12567829593587,22.019763377703367,0.04139140020114848,-0.2286434124867632,131.16545277512733,22.53965482678126,0.0,1.0,0.0,0.0,1.0,Taxi
33.4,-0.15298004870683135,-12.415789439139994,24.454444389810167,0.0962733650919543,0.46065974032525264,131.3193824924209,23.16728516326431,0.0,1.0,0.0,0.0,1.0,Taxi
33.5,0.022267486760237,-20.359704884013343,22.992110078337483,0.5144863683592629,-0.44071723894209414,131.08108236832402,23.24974917985727,0.0,1.0,0.0,0.0,1.0,Taxi
33.6,-0.08580705818294551,43.50963787948226,23.753658057744303,-0.24163957628901023,-0.6652380177033248,131.0861862876095,23.042266091540764,0.0,1.0,0.0,0.0,1.0,Taxi
33.7,0.06456814069058002,-33.95892731477793,23.323897313704702,0.6593633541610189,0.36662578007873453,131.06898897609358,23.8415599240291,0.0,1.0,0.0,0.0,1.0,Taxi
33.800000000000004,-0.14752714981365264,-1.9310306037175937,23.59641044058178,0.20907448967049588,-0.11256902586939331,131.23204759569512,23.936877711783257,0.0,1.0,0.0,0.0,1.0,Taxi
33.9,-0.09546221120153349,-50.00611780040561,22.759384680724132,0.4081281218810351,-0.12256222487993589,131.26779675113852,23.55740629911625,0.0,1.0,0.0,0.0,1.0,Taxi
34.0,-0.18546244831144806,53.87729025411344,23.64184622113715,0.2079469441419435,0.04944256716771581,131.18714115741784,23.281102069670517,0.0,1.0,0.0,0.0,1.0,Taxi
34.1,0.12185930145691462,12.247877305885035,22.95878015003314,0.24564140103270554,-0.9387802277268966,131.04856293950616,23.63642546125497,0.0,1.0,0.0,0.0,1.0,Taxi
34.2,-0.034222824672108305,16.0721876565309,22.96748221835133,0.24998681619609414,-0.009624680003171205,131.16254508871634,23.40770227965706,0.0,1.0,0.0,0.0,1.0,Taxi
34.300000000000004,-0.10510151002879356,-21.720764693211564,22.916311577862107,0.4741603009019074,-0.14982011935112732,130.87568135934407,23.35517236847301,0.0,1.0,0.0,0.0,1.0,Taxi
34.4,0.01325547799085679,6.008165375483437,22.563749967003425,0.3178312849013055,0.691512465668749,130.98459360791702,23.841525767915677,0.0,1.0,0.0,0.0,1.0,Taxi
34.5,-0.004181997794691128,-3.1784544845798783,23.2670515676535,0.4039929768501417,-0.23627831280278094,131.31135910332148,24.12927673756666,0.0,1.0,0.0,0.0,1.0,Taxi
34.6,-0.120993782451693,-27.946476287331823,23.388008171038386,0.3743258534238255,0.13597986741060009,131.04171465782963,23.41753654559814,0.0,1.0,0.0,0.0,1.0,Taxi
34.7,-0.12647690344580237,-12.132672952341979,22.664445648183328,0.5624802456685041,0.08034400463980204,131.17992297034095,23.38489199432779,0.0,1.0,0.0,0.0,1.0,Taxi
34.800000000000004,-0.06484536255640107,17.112693424158437,23.60974807766873,0.3670129677189412,0.13283654969622763,131.11623769649128,24.094868362478728,0.0,1.0,0.0,0.0,1.0,Taxi
34.9,-0.035430315330900845,16.250168498135366,22.73257440588292,0.4825057022012845,0.026241489247952676,131.08461693715503,23.35306234416946,0.0,1.0,0.0,0.0,1.0,Taxi
35.0,-0.04522606095512556,7.736982382581091,23.108851570926465,0.5079335426524862,0.578928215457617,131.0513511129646,24.140192796530012,0.0,1.0,0.0,0.0,1.0,Taxi
35.1,-0.026160450643495637,55.10964897874255,23.015826324629643,0.41646204139098875,0.1825730006122841,131.01746313090302,23.394400856912206,0.0,1.0,0.0,0.0,1.0,Taxi
