time_s,altitude_ft,vertical_speed_fpm,ias_kt,pitch_deg,roll_deg,heading_deg,throttle_pct,afterburner_on,gear_down,flaps_deg,speedbrake_pct,weight_on_wheels,label
0.0,0.13140460366691828,22.84467849695127,18.342864014717666,-1.0356246063339056,-0.04780947381750758,296.7672890790326,17.035466527996135,0.0,1.0,0.0,0.0,1.0,Taxi
0.1,0.2075535319900892,-13.993825577963888,17.93275515175983,-0.8438989627269468,0.27695473030086426,296.76285560219765,15.909069707610923,0.0,1.0,0.0,0.0,1.0,Taxi
0.2,0.06143547577709884,-24.530777474592202,17.4768241147159,-1.0296018433784642,-0.33605999166369876,296.7433613491597,16.681359942448502,0.0,1.0,0.0,0.0,1.0,Taxi
0.30000000000000004,0.008750716293957263,-75.02637347318569,17.6185459659564,-0.5239740716878031,-0.410464588269393,296.7754747367219,16.23270901658417,0.0,1.0,0.0,0.0,1.0,Taxi
0.4,-0.16757833537583922,0.5013409425815212,17.709456113550992,-0.8182492835447875,0.35601685878128464,296.7321437003652,15.979060550445094,0.0,1.0,0.0,0.0,1.0,Taxi
0.5,0.06394218049000647,3.8661931186167684,18.180521038279707,-1.0624940024324636,-0.34920790812365576,296.8175534353825,15.856939515922463,0.0,1.0,0.0,0.0,1.0,Taxi
0.6000000000000001,0.028081681887041132,23.569129527612244,17.808795583844066,-0.9061974880637619,0.19327269918500317,296.7495953638554,17.21237483705879,0.0,1.0,0.0,0.0,1.0,Taxi
0.7000000000000001,-0.04973268773777801,-18.657592981838267,18.229526812348354,-0.771512777863295,-0.9551336546800847,296.85596268490417,16.895116289839645,0.0,1.0,0.0,0.0,1.0,Taxi
0.8,-0.02934578441918488,-20.514458744228754,17.119964538253505,-1.3593083496919482,-0.49036218271738635,296.7320892529433,16.326298945552427,0.0,1.0,0.0,0.0,1.0,Taxi
0.9,-0.07449061183410265,20.644720712937726,18.768066737498767,-1.0446972290787797,-1.3078213689474472,296.71830732929527,15.983625941494688,0.0,1.0,0.0,0.0,1.0,Taxi
1.0,0.05349091582691062,48.30233490933362,18.481845603042874,-0.7053600687968715,0.00520320182870223,296.6960627314169,16.062466033736737,0.0,1.0,0.0,0.0,1.0,Taxi
1.1,0.21216589012748321,-29.582386460812113,17.869112089813427,-0.6988466503681686,-0.6359498298492928,296.6911511823971,16.561419822916186,0.0,1.0,0.0,0.0,1.0,Taxi
1.2000000000000002,-0.22240254413816324,3.1857804238126355,18.564913382915186,-0.9538951141501646,-0.2792201700712647,296.6379869646653,15.716125181925753,0.0,1.0,0.0,0.0,1.0,Taxi
1.3,0.06941981794597374,-79.85455346517679,17.743739533614317,-1.0848229166497385,-0.8343719419032657,296.74139222943063,16.502054130466735,0.0,1.0,0.0,0.0,1.0,Taxi
1.4000000000000001,-0.1871068771984008,71.42142769386324,18.742616835561478,-1.10905959756628,-0.0993828815611034,296.82870645678906,16.06430466737381,0.0,1.0,0.0,0.0,1.0,Taxi
1.5,0.13470459433115292,-31.292186130698287,17.72314709803089,-0.3881121745342321,0.5638252507834187,296.93757002861935,16.00593493811116,0.0,1.0,0.0,0.0,1.0,Taxi
1.6,-0.0870411127075177,55.63499769154698,17.916143811768077,-0.943205382249258,0.6925527129144783,296.83673075653553,17.087258877595243,0.0,1.0,0.0,0.0,1.0,Taxi
1.7000000000000002,0.09106811125933409,-46.07782809329613,18.600291782301817,-0.9024394828713315,-0.6779252229135484,296.88490101287414,16.74536569131399,0.0,1.0,0.0,0.0,1.0,Taxi
1.8,-0.09568454613532779,29.121090903569463,17.273304812270833,-1.0953768383649114,0.232020091501465,296.7377219997702,16.946958918718014,0.0,1.0,0.0,0.0,1.0,Taxi
1.9000000000000001,0.05856434181032958,-24.70309017205173,17.722342200520696,-0.9087897388187487,-0.5417676063636788,296.7375934525278,16.191791134071302,0.0,1.0,0.0,0.0,1.0,Taxi
2.0,-0.03244733960092457,8.471813882996516,17.421801646178793,-1.0933571536625317,0.20861569560546245,296.8225781276758,16.84257345774116,0.0,1.0,0.0,0.0,1.0,Taxi
2.1,-0.053325476720345204,-31.02542658420357,18.57817178723632,-0.9696760523856925,0.34678193292145393,296.71506962410376,16.156368889544982,0.0,1.0,0.0,0.0,1.0,Taxi
2.2,-0.09656279111068826,10.55547623729114,19.309404384523585,-1.0980146107576882,0.6137020980728107,296.7474030953631,16.69337615724517,0.0,1.0,0.0,0.0,1.0,Taxi
2.3000000000000003,0.020330041585531155,27.703359513787547,16.8040507946104,-0.7175536831776451,0.10883264172894938,296.93862384977945,16.561947273221733,0.0,1.0,0.0,0.0,1.0,Taxi
2.4000000000000004,0.08519132084859254,-2.0288939159312016,18.209698001475985,-1.0331388983311305,0.20956662080460478,296.69068020577186,16.158964229723598,0.0,1.0,0.0,0.0,1.0,Taxi
2.5,-0.10670726069034425,24.573789936012464,16.80906274844072,-1.3045584651376279,-1.0457737682136843,296.82582427266857,16.007444982008526,0.0,1.0,0.0,0.0,1.0,Taxi
2.6,0.14319899126559346,-6.425825776246884,18.64874109023535,-0.8318427215962267,0.6608896943499393,296.8984750528516,16.665281082648487,0.0,1.0,0.0,0.0,1.0,Taxi
2.7,0.05306219196735812,3.8899535193242323,18.163396290419154,-0.6706037419759041,-0.16176878933734465,296.70671883250134,15.331830773974094,0.0,1.0,0.0,0.0,1.0,Taxi
2.8000000000000003,-0.08725749309372308,-44.95383597530625,17.319263510889414,-0.843597462674097,0.35816712364233805,296.80321106391193,16.443041856795166,0.0,1.0,0.0,0.0,1.0,Taxi
2.9000000000000004,-0.08157018861093772,8.084314965941948,19.439754580636823,-0.4340607927478005,-0.037138689305709884,296.68636508318014,16.837629221358316,0.0,1.0,0.0,0.0,1.0,Taxi
3.0,0.09348376679706791,27.741108492463308,18.887576238940042,-1.4280693718802262,0.46837239472213543,296.7329768311288,16.037927194114324,0.0,1.0,0.0,0.0,1.0,Taxi
3.1,0.0514480493685935,40.74363133579021,17.133340006249767,-0.8539462763399203,-0.20886841797734654,296.7402759007323,16.176946175852223,0.0,1.0,0.0,0.0,1.0,Taxi
3.2,0.12214796806801341,-35.44179927273793,18.065139068634537,-0.7823944870397063,-0.2141697707741003,296.53136158022164,16.291770593097187,0.0,1.0,0.0,0.0,1.0,Taxi
3.3000000000000003,-0.08372522956662169,-4.98238780649343,17.285510180306396,-0.6134101052604328,-0.2983534751369281,296.80308468352086,16.484044178769313,0.0,1.0,0.0,0.0,1.0,Taxi
3.4000000000000004,0.026536110336126392,5.422364503987758,19.525364257814637,-1.0647637601184403,-0.3066367088267202,296.65829252477704,14.967613879669628,0.0,1.0,0.0,0.0,1.0,Taxi
3.5,0.14925979058795227,57.781357665702615,18.79075661437319,-1.1841420569149421,-0.20536162284481102,296.59871819724844,16.46652503851308,0.0,1.0,0.0,0.0,1.0,Taxi
3.6,0.2051815587618914,-0.5212563384522184,17.698653179535803,-0.8024608788551042,-0.08506635380936588,296.75639938732604,16.35682719043228,0.0,1.0,0.0,0.0,1.0,Taxi
3.7,0.02392982864386535,-50.1481545169579,18.30187913440968,-0.932490118195338,0.3859261453201037,296.6211781137247,16.81092562849607,0.0,1.0,0.0,0.0,1.0,Taxi
3.8000000000000003,-0.1014809819968372,-77.57258166522035,17.843678655435607,-0.7037193276396978,0.44379871263612963,296.7215789234183,16.5669168208648,0.0,1.0,0.0,0.0,1.0,Taxi
3.9000000000000004,-0.18268134956421034,35.954928332876904,17.69538134326772,-0.6911337015337713,0.8695924983118621,296.5305139190358,16.579138476770392,0.0,1.0,0.0,0.0,1.0,Taxi
4.0,0.2037044703082499,34.78130615830252,18.961908740017243,-0.7067702140481193,-0.256175100110241,296.58864061094914,15.933113636914614,0.0,1.0,0.0,0.0,1.0,Taxi
4.1000000000000005,0.07242554879467546,29.443844491986727,18.785271044026977,-0.6870572421402883,-0.6301674962367819,296.48824604878155,17.187298238591172,0.0,1.0,0.0,0.0,1.0,Taxi
4.2,-0.035462127104276646,-25.02477121207407,17.945578208929717,-0.7392159464151947,0.488213005326707,296.66898991719995,16.102877877460706,0.0,1.0,0.0,0.0,1.0,Taxi
4.3,0.07858061424787964,-22.174629491577747,17.365620420001576,-0.8377970225654476,-0.06164454908119399,296.62717338409766,16.98217718514109,0.0,1.0,0.0,0.0,1.0,Taxi
4.4,-0.038447598663213185,17.05539854902142,18.48103884928828,-0.9862825841241333,0.7561394385868341,296.76129193783845,18.08312240272552,0.0,1.0,0.0,0.0,1.0,Taxi
4.5,0.04981486564083054,-10.601064621242243,19.032307557471306,-0.9957106549115633,0.19220459357408165,296.73945350361737,16.255011056508884,0.0,1.0,0.0,0.0,1.0,Taxi
4.6000000000000005,0.025575291141668507,5.910427199555071,17.417436025508152,-1.0436635683930198,-0.27112325259219777,296.65287471871716,16.39414506531629,0.0,1.0,0.0,0.0,1.0,Taxi
4.7,-0.008895462665437757,-22.226692816001698,17.728419631001458,-0.6943320880507087,0.5179857655120415,296.69161238305503,16.7607282871406,0.0,1.0,0.0,0.0,1.0,Taxi
4.800000000000001,-0.06131859843917786,-11.525808285708168,19.207779636501453,-0.9764168131693599,0.31273325743182717,296.6885714453134,15.89161217578274,0.0,1.0,0.0,0.0,1.0,Taxi
4.9,-0.032053750286872254,25.484161856794668,16.519722704984787,-0.5318137091031171,0.43902519616993363,296.6726568201667,15.877415975706926,0.0,1.0,0.0,0.0,1.0,Taxi
5.0,0.11852534661853564,10.339114564146959,18.329092553187674,-1.2574114782649792,-0.35597669332541904,296.7628604634742,16.45622452202379,0.0,1.0,0.0,0.0,1.0,Taxi
5.1000000000000005,-0.009623025618442969,-25.593912741659352,18.24609205660606,-0.8167964910037948,0.7050972803888871,296.71643296558227,16.892146012437326,0.0,1.0,0.0,0.0,1.0,Taxi
5.2,-0.16002331399516892,-15.794198921644394,17.571272513491618,-1.0582772996824563,0.3659932085454701,296.68596452611246,17.421375054532632,0.0,1.0,0.0,0.0,1.0,Taxi
5.300000000000001,0.03955435201031374,-5.501178924236868,17.53887436849246,-0.842179711959012,0.5761058986370208,296.824175888529,17.304998239572804,0.0,1.0,0.0,0.0,1.0,Taxi
5.4,-0.03712892023962721,20.786632977921247,17.622536117392336,-0.8330483225789933,0.4496456222588677,296.7590362480091,15.79112487040433,0.0,1.0,0.0,0.0,1.0,Taxi
5.5,-0.056090149105562565,-22.643466720659934,17.872344609754226,-1.1477683400495664,0.5856816457980313,296.81942729293723,17.233630207410695,0.0,1.0,0.0,0.0,1.0,Taxi
5.6000000000000005,-0.07366298159298583,-1.7823127329990622,17.843817995243473,-1.0536631393606208,-0.16872903882493298,296.7555560133842,16.07391466924472,0.0,1.0,0.0,0.0,1.0,Taxi
5.7,-0.046040483904622426,0.20188606640599568,17.810031573235765,-0.9567341965568081,0.13656576167784634,296.94651765368985,16.25679672285199,0.0,1.0,0.0,0.0,1.0,Taxi
5.800000000000001,-0.05508071877353249,24.742638600857465,18.55984726260755,-1.2658531692652442,-1.0983875572293738,296.91430371753563,16.670651789126858,0.0,1.0,0.0,0.0,1.0,Taxi
5.9,0.05005021141130159,12.199982308597818,18.222187200538166,-1.2619884545780606,0.06737064445188629,296.9284367879503,15.43982671686596,0.0,1.0,0.0,0.0,1.0,Taxi
6.0,0.01495942763836676,18.721596008872336,18.53913991453771,-0.6693916620006803,-0.4447074143555972,296.7825716967758,17.288955927867978,0.0,1.0,0.0,0.0,1.0,Taxi
6.1000000000000005,0.03852726127082928,-19.284195911217708,17.84716309176599,-1.0132206705461517,0.18154449204832412,296.6899691716218,16.536814669838133,0.0,1.0,0.0,0.0,1.0,Taxi
6.2,-0.04637076814478685,-15.061533813849337,18.11931211553041,-0.9432704289324356,0.1170422466853992,296.60448966031015,16.735063072756677,0.0,1.0,0.0,0.0,1.0,Taxi
6.300000000000001,-0.06034824143087983,-16.051733553621194,17.866262422642034,-0.44468914132786863,0.02681801921942965,296.87824655337363,16.898688811166654,0.0,1.0,0.0,0.0,1.0,Taxi
6.4,-0.04173140649727658,-14.043332470360788,17.671145427510567,-0.7430298636605877,0.8490423647638655,296.59724323740943,17.06594111249111,0.0,1.0,0.0,0.0,1.0,Taxi
6.5,-0.11658743049659069,40.587072382450316,17.90804301017204,-0.9284774549813062,0.05208707072442992,296.80304043035744,16.61904664653586,0.0,1.0,0.0,0.0,1.0,Taxi
6.6000000000000005,0.14258712048137187,55.12097379993754,17.780436966466127,-0.7672116648121519,0.36342432789638124,296.9017990791808,16.462118869034313,0.0,1.0,0.0,0.0,1.0,Taxi
6.7,0.23387346250241126,56.24540534978531,19.102872114598394,-0.6108335969184834,-0.41162112339288676,296.7126408745928,15.532161074205263,0.0,1.0,0.0,0.0,1.0,Taxi
6.800000000000001,0.164639596252336,-20.40811491723223,18.407282575359446,-0.8178655386524321,-0.7513324591301261,296.824203887114,17.052200971921796,0.0,1.0,0.0,0.0,1.0,Taxi
6.9,0.040546545895210784,-57.381399001514836,17.87814766920963,-0.9786680765601062,-0.37566243463491555,296.69156874301507,16.643956534709258,0.0,1.0,0.0,0.0,1.0,Taxi
7.0,-0.05303353250516284,-33.02372676927533,19.0169955570794,-1.3524577188160212,0.6645397567096544,296.8395898834648,15.640469846319903,0.0,1.0,0.0,0.0,1.0,Taxi
7.1000000000000005,-0.00047903759404053625,-30.68574089399552,17.613497546281543,-0.6989068520573873,0.233001976054922,296.7614136935408,17.307006947275582,0.0,1.0,0.0,0.0,1.0,Taxi
7.2,-0.11288215857476679,20.57915848959487,19.20608149999664,-0.7175091806994067,-0.24690482871762207,296.77193930362205,15.962355941828772,0.0,1.0,0.0,0.0,1.0,Taxi
7.300000000000001,0.04986225994281152,-9.529298244875884,18.705772660102046,-0.766661609372879,0.5798701635555368,296.7617586288004,16.387007498639726,0.0,1.0,0.0,0.0,1.0,Taxi
7.4,-0.04812552881841995,-10.687868552201437,17.42318144985591,-0.9818758393871035,-0.6213996649264169,296.6955165898188,16.012702547663704,0.0,1.0,0.0,0.0,1.0,Taxi
7.5,-0.16632150133577395,-7.907916218101723,17.17193389630517,-1.1812839709123142,-0.08643262048676636,296.67827701500596,16.274845249985574,0.0,1.0,0.0,0.0,1.0,Taxi
7.6000000000000005,0.010322678852302921,-16.241300761880094,17.989040768723378,-0.7790034806076297,-0.4837827832351793,296.8939172287876,15.989035740879935,0.0,1.0,0.0,0.0,1.0,Taxi
7.7,-0.1293320326278204,38.41579109338647,18.39267115255697,-0.9804071451195402,0.5034695416994431,296.7436165293177,16.03592934808616,0.0,1.0,0.0,0.0,1.0,Taxi
7.800000000000001,0.025757454131158444,18.218570615283916,17.479642399465963,-0.7941343924324287,-0.6161860297752909,296.7237157364059,16.002121493103704,0.0,1.0,0.0,0.0,1.0,Taxi
7.9,0.10141553192872255,31.70417197559713,18.294723538000504,-0.8979101362782619,0.06692472847851492,296.7673938155622,16.632706588378195,0.0,1.0,0.0,0.0,1.0,Taxi
8.0,0.029188827250165274,7.6547398858582065,17.04080292461151,-1.1322818801380303,-0.29178265281456006,296.74297974264505,17.30902583792153,0.0,1.0,0.0,0.0,1.0,Taxi
8.1,0.06403115356044949,4.0059065189143945,18.770247595547325,-0.5928274351472126,0.45748571831044155,296.9921913923429,16.581362081380263,0.0,1.0,0.0,0.0,1.0,Taxi
8.200000000000001,0.12144506452329454,-11.115187908980507,17.936881929346324,-1.0917039003883162,-0.6894365516051694,296.7466853812326,16.275548404134675,0.0,1.0,0.0,0.0,1.0,Taxi
8.3,-0.026387112294737253,38.46257104716242,17.789335968504776,-1.1081471742409144,0.6693504479921331,296.8018507255738,16.15806860594665,0.0,1.0,0.0,0.0,1.0,Taxi
8.4,0.25634400879626157,-10.148813380593495,18.882757824248145,-0.5186727518597721,0.06837183634945578,296.7263216980458,16.523752628602345,0.0,1.0,0.0,0.0,1.0,Taxi
8.5,0.07070099762032703,4.20908995608671,17.976753623162484,-0.9004885281876668,-0.590772754736252,296.6297508631526,16.686108331793935,0.0,1.0,0.0,0.0,1.0,Taxi
8.6,-0.005341662514303723,-72.71950500213146,17.77601792132642,-0.7483399595630122,0.5197723224308421,296.51511694190435,16.472137271453256,0.0,1.0,0.0,0.0,1.0,Taxi
8.700000000000001,-0.10725351621439572,-22.160212004865073,17.679500019506722,-0.7446955579079693,-0.43125511244357445,296.64233438516885,16.330740396470368,0.0,1.0,0.0,0.0,1.0,Taxi
8.8,-0.040100062403998354,3.796824785483603,18.718118863694524,-0.5718865193345837,0.7500116578286983,296.7272013779791,16.151515164393366,0.0,1.0,0.0,0.0,1.0,Taxi
8.9,0.01364246141311428,21.434208526621887,17.85973843784106,-0.736162175978065,-0.14703549139005748,296.6584063455814,16.58936699938892,0.0,1.0,0.0,0.0,1.0,Taxi
9.0,-8.247358128629359e-05,-6.308930797624218,18.852013432892104,-0.9059602287059001,0.20607959638198411,296.7114169179308,16.68451938195189,0.0,1.0,0.0,0.0,1.0,Taxi
9.1,-0.07164471639211945,9.040049806941946,18.120779321538752,-0.9569722376476386,0.20696181417160178,296.79557943321265,17.45621140681624,0.0,1.0,0.0,0.0,1.0,Taxi
9.200000000000001,0.05884271044782401,43.60785364958,17.490861595973076,-0.959680476666944,0.47667481345942836,296.701624259704,16.948267179566145,0.0,1.0,0.0,0.0,1.0,Taxi
9.3,0.21795679466661377,29.536813406648452,17.508581969258454,-1.0743981139577827,-1.1323736111975646,296.66932356818893,16.428028243160547,0.0,1.0,0.0,0.0,1.0,Taxi
9.4,0.07603935064112284,-29.533149109272514,18.34626478654258,-0.9454200800845081,-0.06718166790960266,296.6647302696256,16.53041788781302,0.0,1.0,0.0,0.0,1.0,Taxi
9.5,-0.08882303509853855,-67.9908867010204,17.826654956622168,-1.023497771053392,0.5247293641607629,296.7077372758133,16.39622140141972,0.0,1.0,0.0,0.0,1.0,Taxi
9.600000000000001,-0.12199763883848827,5.80284548021002,17.73336279202598,-0.7064590347284796,-0.06396259429477441,296.71459177234294,16.74574366199429,0.0,1.0,0.0,0.0,1.0,Taxi
9.700000000000001,0.10505357804217291,34.11142328975132,18.41975164967051,-1.0543047001597312,-0.5021574536277955,296.7300659032678,16.545296997934617,0.0,1.0,0.0,0.0,1.0,Taxi
9.8,0.08173408135021805,27.763182319306352,18.34150780577927,-1.000777025755938,-0.4031450371272892,296.7011048656243,16.32035414906877,0.0,1.0,0.0,0.0,1.0,Taxi
9.9,0.01681827275804348,-41.80740083694443,18.955525884201307,-1.0700966695621008,-0.1696585638691637,296.60187621019736,16.500263363932866,0.0,1.0,0.0,0.0,1.0,Taxi
10.0,-0.10398342614254925,-0.21938011000852006,18.28337615143148,-0.5204037798514222,0.5213683675597344,296.68873018988404,16.487834923452283,0.0,1.0,0.0,0.0,1.0,Taxi
10.100000000000001,0.08063718080017544,7.40196621180542,18.47910708766885,-0.7314577198078042,-0.532362932421042,296.67970713711907,15.640206307129358,0.0,1.0,0.0,0.0,1.0,Taxi
10.200000000000001,0.05382810381707057,-9.044947833617485,16.927867682884155,-1.016874714001662,-0.693920440495003,296.6823106001816,16.400249255049427,0.0,1.0,0.0,0.0,1.0,Taxi
10.3,-0.1492081653106367,-5.3171339523302095,18.467846702574757,-0.9511316916646038,1.0974377762902476,296.7207797127952,16.41378434940543,0.0,1.0,0.0,0.0,1.0,Taxi
10.4,0.05405151103852443,-9.638150211518909,18.798223665252838,-0.7444960098501814,-0.7462104496929551,296.7351454616902,16.46843389945415,0.0,1.0,0.0,0.0,1.0,Taxi
10.5,0.005637352759476044,46.921481023956865,18.5873194921875,-0.9790834706806562,-0.051176182689182746,296.6379318128081,17.170098226056403,0.0,1.0,0.0,0.0,1.0,Taxi
10.600000000000001,0.08539923980914767,-51.71836367553365,18.63217652836884,-0.5638199631267888,0.48048959405343766,296.7032323681924,16.76039465302318,0.0,1.0,0.0,0.0,1.0,Taxi
10.700000000000001,-0.20454030733914383,23.265600699652254,17.76312103190205,-1.0821101379042244,1.1145216911971658,296.93539586250654,16.96466810857353,0.0,1.0,0.0,0.0,1.0,Taxi
10.8,0.12196535625773736,-40.224839892484944,17.62799604538282,-1.0041895534816785,0.046608067101447534,296.6832109802117,16.335906299711798,0.0,1.0,0.0,0.0,1.0,Taxi
10.9,-0.115724959653277,64.60443013512325,18.335662268714024,-0.7219649557348398,0.370090573847325,296.69434513413194,17.06258385056437,0.0,1.0,0.0,0.0,1.0,Taxi
11.0,0.11848184333647249,-30.18712587699866,18.6682595005339,-1.0372357823830194,-0.8600590662506885,296.64615158434697,16.564724304572266,0.0,1.0,0.0,0.0,1.0,Taxi
11.100000000000001,-0.02897027312725592,-16.71082405449826,17.987699031226768,-0.48790208180103484,-0.25000205358540173,296.6615822195821,16.937869575085088,0.0,1.0,0.0,0.0,1.0,Taxi
11.200000000000001,-0.19927907992576832,-8.944885671745075,18.789155653958257,-0.5836866532439391,0.8890465323413528,296.7581718354354,16.470832849723354,0.0,1.0,0.0,0.0,1.0,Taxi
11.3,0.07375741497774711,23.648698966356818,18.017522648032728,-0.8258493425345929,0.23793039337343055,296.7912468574732,16.690495226048867,0.0,1.0,0.0,0.0,1.0,Taxi
11.4,0.08927322170452817,41.0826566211422,18.104047815071773,-0.6925159650931544,-0.14461020850750403,296.70418210506045,16.88187598946696,0.0,1.0,0.0,0.0,1.0,Taxi
11.5,0.006134203179942649,6.581594882770503,17.741387775702485,-0.787086614619413,-0.24700150811299598,296.59296313576033,16.554476984596594,0.0,1.0,0.0,0.0,1.0,Taxi
11.600000000000001,0.10666538939159964,-22.50706021179262,18.8687077064994,-1.0359515661651784,0.5386203848758206,296.7829139719678,15.983339321509442,0.0,1.0,0.0,0.0,1.0,Taxi
11.700000000000001,-0.02326207935443491,9.520780332970245,17.894339563926444,-0.779149131480323,0.19932727211508605,296.75515695620516,16.339554667472438,0.0,1.0,0.0,0.0,1.0,Taxi
11.8,0.05373810484479388,-30.550755912894772,18.189944800819923,-1.0700796125248164,-1.3408936883607876,296.6655080930623,16.074011990364397,0.0,1.0,0.0,0.0,1.0,Taxi
11.9,-0.04608839017287421,1.5017040267875206,17.70081419450187,-0.5388435847311495,0.6856118568313773,296.6967042685062,15.545456333738189,0.0,1.0,0.0,0.0,1.0,Taxi
12.0,-0.015753559220497294,1.4546266257695895,17.141786039141984,-1.1778728025403657,-0.11265115093180261,296.7364794413611,15.686863039207683,0.0,1.0,0.0,0.0,1.0,Taxi
12.100000000000001,0.061011237973641864,28.58081192299341,18.557430557888335,-0.7480960538914789,0.292886454171742,296.6814766504758,16.492157095129762,0.0,1.0,0.0,0.0,1.0,Taxi
12.200000000000001,0.09681566944209287,8.875236258444971,19.03289674982262,-0.8689736661990352,-0.04742262121736487,296.775526900135,16.513848217842238,0.0,1.0,0.0,0.0,1.0,Taxi
12.3,0.028622622071727572,-33.54989003184158,18.188894552049504,-0.7561321468323369,-0.2075290464534762,296.6914179982632,14.897370966646243,0.0,1.0,0.0,0.0,1.0,Taxi
12.4,-0.106738212185566,-4.73292228854864,19.86617366580606,-0.6640656444556611,0.413099321014503,296.7681677268366,17.436511234822017,0.0,1.0,0.0,0.0,1.0,Taxi
12.5,0.0731510579993497,-34.41524807778159,17.59770259076824,-1.2298162067015195,-0.15484049040756695,296.70079166316305,16.65939607311673,0.0,1.0,0.0,0.0,1.0,Taxi
12.600000000000001,-0.14345361831718031,44.23400245711944,18.490961643927296,-0.990675071150495,-0.6294717113690249,296.7006611383516,17.33451878262918,0.0,1.0,0.0,0.0,1.0,Taxi
12.700000000000001,0.11443180010003123,0.29693871888476525,18.598342483141227,-0.8928866571493703,0.5937725463852364,296.7100071111669,16.40833040828502,0.0,1.0,0.0,0.0,1.0,Taxi
12.8,0.07463575159377357,24.876699915911555,19.21200885019428,-0.7315889069681794,-1.3468690715494174,296.6995442066677,16.715157219299094,0.0,1.0,0.0,0.0,1.0,Taxi
12.9,-0.019070118737622554,-41.42069517713099,18.836659748102264,-1.040740545712193,-0.7281363714966989,296.8101951645931,16.196382311290783,0.0,1.0,0.0,0.0,1.0,Taxi
13.0,-0.09267167578562369,28.478527942784172,17.648118335901,-1.0943112354858777,-0.11719148177734466,296.7524287641095,17.23445126532762,0.0,1.0,0.0,0.0,1.0,Taxi
13.100000000000001,0.21702839130769447,-9.760017672376563,17.708733802260788,-1.0061609140918633,1.3790790783038818,296.7621404463773,15.857768082395078,0.0,1.0,0.0,0.0,1.0,Taxi
13.200000000000001,-0.06787020709950538,32.92327823959365,18.300429568377805,-1.0601748601442076,-0.22766796384471344,296.76415078858463,16.872892815616797,0.0,1.0,0.0,0.0,1.0,Taxi
13.3,0.07194471541234457,-21.46263051850536,17.737379815904738,-0.8859671125296478,0.3039736766130586,296.6340772411289,16.69126908748128,0.0,1.0,0.0,0.0,1.0,Taxi
13.4,0.10971523871516764,-0.920644405741939,17.976262712707896,-0.6835730030004464,-0.5551559731311562,296.82605250209235,16.260236785850275,0.0,1.0,0.0,0.0,1.0,Taxi
13.5,-0.07247342912821507,-8.950700989623767,18.528191399807355,-0.8640866263294934,-0.8175186797832549,296.6608513598935,17.300534882814492,0.0,1.0,0.0,0.0,1.0,Taxi
13.600000000000001,0.027191210464225752,-47.34645566523406,18.458253565790354,-0.9813297069301427,-0.1370753687427452,296.8469790244428,15.870539792106374,0.0,1.0,0.0,0.0,1.0,Taxi
13.700000000000001,-0.12701703961100264,29.38867693376211,18.463737020806235,-1.1033056748341357,-0.18641714408924948,296.6275031639518,16.266920926285703,0.0,1.0,0.0,0.0,1.0,Taxi
13.8,0.07446995554059549,-21.2548380716378,18.10551742508853,-0.7557066855019032,0.012471405305876428,296.878273343885,16.89430426800231,0.0,1.0,0.0,0.0,1.0,Taxi
13.9,-0.07908297989396325,44.37421706864625,18.613688855179472,-0.7122875594279998,0.3050799503444286,296.73536664237076,16.10840243458031,0.0,1.0,0.0,0.0,1.0,Taxi
14.0,0.09485404573222857,-15.696972216536482,18.261720127472604,-0.6899429655759401,1.819540992004196,296.69476481696574,16.755933896929477,0.0,1.0,0.0,0.0,1.0,Taxi
14.100000000000001,-0.004014905542086967,27.05411935135456,17.93815412222164,-0.9132973806799656,-0.10810400287209074,296.636787794823,15.96186531602049,0.0,1.0,0.0,0.0,1.0,Taxi
14.200000000000001,0.05618761686280954,-11.490335533755383,18.799681021163973,-0.909835225717086,0.4595883405949233,296.8371836543498,17.27867108646482,0.0,1.0,0.0,0.0,1.0,Taxi
14.3,0.037402368063451645,1.9821854775617471,17.445812404189876,-0.8198933299645874,0.6724802029702581,296.61584368555464,17.45882817394399,0.0,1.0,0.0,0.0,1.0,Taxi
14.4,0.0058960218457217465,-38.51507120877835,18.020067723209014,-0.9687078852192911,0.3095920776001059,296.8477283876855,16.072736879873823,0.0,1.0,0.0,0.0,1.0,Taxi
14.5,-0.13638773918108224,-15.276608973587562,17.59849099017815,-1.0015740968390587,0.083308059185637,296.7388944486097,16.175539365100096,0.0,1.0,0.0,0.0,1.0,Taxi
14.600000000000001,-0.03898067680448619,-16.32806207149601,18.7466943133367,-0.8509812690335246,-0.3442339452626184,296.81579284660984,15.609815401943118,0.0,1.0,0.0,0.0,1.0,Taxi
14.700000000000001,-0.07574428851175835,7.688633838684982,17.213197729195358,-0.8922347095105071,-0.13229027489049308,296.5333601263974,16.649943998362353,0.0,1.0,0.0,0.0,1.0,Taxi
14.8,-0.09794456998765735,14.153333126239156,18.784638066789007,-0.8480350253294903,1.0644380608004629,296.83614603960984,16.041267495530338,0.0,1.0,0.0,0.0,1.0,Taxi
14.9,0.03178598882670955,52.415700867150235,17.837417787601925,-0.8960332663408777,-1.0772331861100124,296.6875867404808,16.28806423750191,0.0,1.0,0.0,0.0,1.0,Taxi
15.0,0.1863342158239928,51.279952985919216,18.47342531793659,-1.0074653854297235,0.3978567831496875,296.64655090321105,16.93903608293875,0.0,1.0,0.0,0.0,1.0,Taxi
15.100000000000001,0.15845519494193872,27.76128578268107,19.51700524018448,-0.7487545976130561,0.17834368382446503,296.7407268116915,16.783249950928493,0.0,1.0,0.0,0.0,1.0,Taxi
15.200000000000001,0.17059241774011488,-33.60468730398794,19.28566362919655,-1.0024058903758155,-0.3512565819450902,296.7913053227835,16.06248153853105,0.0,1.0,0.0,0.0,1.0,Taxi
15.3,0.01831077930405309,-3.5118590225342436,18.40816757196571,-0.6683814392899251,-0.42432008201396654,296.5529006979252,16.425866403488204,0.0,1.0,0.0,0.0,1.0,Taxi
15.4,0.14089589982926748,-52.957864774550956,18.44208449029009,-1.1650590436560584,0.665709131849499,296.6767506581648,16.724659687091464,0.0,1.0,0.0,0.0,1.0,Taxi
15.5,-0.09419690613263992,1.05235839473355,18.760021522099358,-0.9266107506355855,-0.05439230836259194,296.74903277820476,16.528846048530518,0.0,1.0,0.0,0.0,1.0,Taxi
15.600000000000001,0.023572571277720795,-9.312792327841498,18.874348124430366,-0.6238246178485499,-1.2927437683582956,296.7103759246356,15.648717340841964,0.0,1.0,0.0,0.0,1.0,Taxi
15.700000000000001,0.09433193819005994,-26.836305178003826,18.104056905483258,-0.766905137712892,-0.4337138632926336,296.66873340547727,16.539575634012618,0.0,1.0,0.0,0.0,1.0,Taxi
15.8,-0.2283784320226591,-26.50392740750942,18.16063524032119,-0.988454548033102,0.6961911524114838,296.81315865612646,16.608708179173046,0.0,1.0,0.0,0.0,1.0,Taxi
15.9,-0.10894706575982634,0.6565260225352793,18.316869322622427,-1.189493984223191,-0.47134084386418446,296.66035029448483,16.114795186827468,0.0,1.0,0.0,0.0,1.0,Taxi
16.0,0.09761456830273635,7.8710408098622695,17.928045925772782,-0.972808251743059,0.04864618574309278,296.65673357678133,17.076991688866272,0.0,1.0,0.0,0.0,1.0,Taxi
16.1,-0.18902322797334772,37.41839341511742,18.149776234524815,-0.870544039527709,0.15635454556727454,296.76214404529776,17.76458518229489,0.0,1.0,0.0,0.0,1.0,Taxi
16.2,0.07814490131576078,-15.339081326341331,18.120215780377983,-0.7813169145478934,0.3548864239246496,296.72809062021156,15.409149373691173,0.0,1.0,0.0,0.0,1.0,Taxi
16.3,0.020919161671029682,47.56156403892384,17.65605947871255,-1.151022420513761,0.4126989550406164,296.6445523724781,16.63721085211967,0.0,1.0,0.0,0.0,1.0,Taxi
16.400000000000002,0.04878459222127147,4.046815172980089,19.324471339760485,-0.9849919225202961,-0.31659347418990885,296.81544579371257,16.383422443265452,0.0,1.0,0.0,0.0,1.0,Taxi
16.5,0.09837897718066121,20.461774690639718,18.668051045540096,-1.2720804571135496,-0.5253028701568153,296.7586342192269,16.571249539868155,0.0,1.0,0.0,0.0,1.0,Taxi
16.6,0.12322803512422827,-13.026226090143602,19.394655955123213,-0.8491112907381846,0.5788391231294103,296.71879598329497,16.832978060356446,0.0,1.0,0.0,0.0,1.0,Taxi
16.7,-0.016346538229446542,-57.95941224209512,18.74357767568046,-0.792140224444461,0.16198230624467727,296.79099386718826,16.678939526379054,0.0,1.0,0.0,0.0,1.0,Taxi
16.8,-0.1914180840298144,-38.6719552871292,19.010573943224475,-0.9967324320337965,0.4121668643033418,296.81280878919006,17.02760913309306,0.0,1.0,0.0,0.0,1.0,Taxi
16.900000000000002,-0.07013174131141775,-13.630018996662775,18.517397227851774,-1.3169065622391976,0.17672744112879726,296.5605626510196,16.60013903640842,0.0,1.0,0.0,0.0,1.0,Taxi
17.0,-0.08449663321276042,33.202487369869665,17.933450938802732,-0.879374770471795,0.24999433795294984,296.61234551673033,15.9490743266104,0.0,1.0,0.0,0.0,1.0,Taxi
17.1,-0.02540564718046608,-2.2880814509572125,18.07306713085695,-0.8065986992371917,-0.05991720069630101,296.69106319378284,16.518848650981944,0.0,1.0,0.0,0.0,1.0,Taxi
17.2,-0.0815721485662038,39.18197734785792,17.673396475705424,-1.1102919641469386,-0.07612123423034142,296.8031710896678,16.8121876790386,0.0,1.0,0.0,0.0,1.0,Taxi
17.3,0.11141325352652919,2.3099194785965644,17.462919150927547,-1.1407082366577506,0.7271499637407877,296.7609101484752,16.843707848141356,0.0,1.0,0.0,0.0,1.0,Taxi
17.400000000000002,-0.013856049787483225,30.508975682508353,17.444196905764848,-0.6762624942689931,-0.28976204806955247,296.564148092757,16.157130585742436,0.0,1.0,0.0,0.0,1.0,Taxi
17.5,0.07097272984633798,-57.1242280429272,18.227774843808838,-0.7892234553527223,-0.06403003445789346,296.77605520283396,16.431522429619733,0.0,1.0,0.0,0.0,1.0,Taxi
17.6,-0.17420788668810683,3.5345802749225377,18.11082715973576,-0.8242181059739477,0.2714642559028205,296.61333737562495,17.034265509229467,0.0,1.0,0.0,0.0,1.0,Taxi
17.7,0.0038168515871294926,0.5630565104591009,18.63100931239319,-0.9613351734875765,0.18062009083324454,296.5777568067674,16.678985684981537,0.0,1.0,0.0,0.0,1.0,Taxi
17.8,0.07378801239863352,25.136702616475386,18.848372302986675,-0.5739936625007775,0.4792093863274181,296.84148868092257,16.249137057169598,0.0,1.0,0.0,0.0,1.0,Taxi
17.900000000000002,-0.04852437360572989,-2.108118503418563,18.983216552123576,-0.6147599209590551,0.5892834821581904,296.69697821563534,15.561127498944684,0.0,1.0,0.0,0.0,1.0,Taxi
18.0,-0.006723740929963313,-17.423808906680552,17.430146330815663,-1.0595075599217347,0.29176053498258675,296.78776433287794,15.895264894288642,0.0,1.0,0.0,0.0,1.0,Taxi
18.1,-0.013331032134769242,0.27041487037749573,19.25608201361724,-0.9014102829469217,0.7248222131342948,296.710156817083,17.43523940889483,0.0,1.0,0.0,0.0,1.0,Taxi
18.2,-0.0471722992538424,12.745670135291277,17.92100095228606,-0.7792596042174366,0.2889750842130287,296.75381019842587,16.973218416850493,0.0,1.0,0.0,0.0,1.0,Taxi
18.3,0.0570046097464931,9.184244109155099,18.38761747351915,-0.6419489189230837,-0.08253175549715878,296.76834832391046,16.375792086095977,0.0,1.0,0.0,0.0,1.0,Taxi
18.400000000000002,0.03259018841100627,8.773251905250786,19.922889369873875,-0.7484450284065718,-0.23354838167985875,296.77575113331454,16.841830725370553,0.0,1.0,0.0,0.0,1.0,Taxi
18.5,-0.003306039727588442,5.984449244884426,17.92560878326947,-0.6345889543471589,-0.11507427947986129,296.99028379116896,16.47641802868053,0.0,1.0,0.0,0.0,1.0,Taxi
18.6,0.08692685597091522,-13.836555906402287,17.41592448211691,-1.0096355925403373,-0.3514377766505649,296.61480706659927,16.993648348104223,0.0,1.0,0.0,0.0,1.0,Taxi
18.7,-0.03659259112100518,47.052112190605584,18.706376940066633,-0.6387829103656124,0.5096712140057772,296.611953154508,16.77854307484807,0.0,1.0,0.0,0.0,1.0,Taxi
18.8,0.23195452122543947,16.442865627223274,17.570675300450663,-1.1730463498995622,0.19045447932764034,296.7254117607241,16.409329519037886,0.0,1.0,0.0,0.0,1.0,Taxi
18.900000000000002,0.16914118410703158,20.904609651078697,18.44570978072495,-0.8275551850060407,-0.8345278466580462,296.6941273246771,16.00839609802412,0.0,1.0,0.0,0.0,1.0,Taxi
19.0,0.06793045713438829,-19.61507180597611,18.638337860567212,-1.3587066057979853,-0.5197836390659496,296.72106087179077,16.882989029275276,0.0,1.0,0.0,0.0,1.0,Taxi
19.1,0.1338791621955589,-46.96749337152506,18.423489497916208,-0.8461400354729735,0.08674958265981798,296.7738086937351,16.651630460366007,0.0,1.0,0.0,0.0,1.0,Taxi
19.200000000000003,-0.06569628275059375,-67.74650768019463,18.01696245949759,-0.8304312887116532,-0.023645359548097867,296.5917960924313,17.093203836771483,0.0,1.0,0.0,0.0,1.0,Taxi
19.3,-0.27080208126658484,-39.770644563788125,19.03599898470842,-0.650816925947454,0.0411423881720046,296.7826332238826,16.90859270673786,0.0,1.0,0.0,0.0,1.0,Taxi
19.400000000000002,-0.06497406062338171,28.92594959781293,18.588910734294107,-0.7587221031915693,0.999455576267664,296.56849169110797,16.844524016230956,0.0,1.0,0.0,0.0,1.0,Taxi
19.5,0.07893346523847095,69.54103093475554,17.85355550926497,-0.6661663290421229,-0.33810915223423577,296.62280559498845,16.456681934622313,0.0,1.0,0.0,0.0,1.0,Taxi
19.6,0.07690307340719288,3.623552529712157,17.325102375433634,-0.9369718748688662,-0.08907317892555187,296.60296689078905,16.445355470030872,0.0,1.0,0.0,0.0,1.0,Taxi
19.700000000000003,-0.04685629797482092,-45.154620945466526,19.34323362744137,-0.9329901135677262,-1.583604384122462,296.60472377794565,16.096725989689418,0.0,1.0,0.0,0.0,1.0,Taxi
19.8,-0.14683963948886167,-8.851647693452591,17.778043938110844,-1.0596457891984765,-0.4461540913324244,296.6706474635239,15.868111008252878,0.0,1.0,0.0,0.0,1.0,Taxi
19.900000000000002,0.03264483493992989,21.64395556813353,18.845653386680773,-0.8659126604859403,-0.19089128419861978,296.8295307851174,16.50368833414741,0.0,1.0,0.0,0.0,1.0,Taxi
20.0,0.061363479865846754,36.433326731216376,19.62058108804987,-0.7044519205668356,1.4451112632530279,296.8478215457551,15.848291858104979,0.0,1.0,0.0,0.0,1.0,Taxi
20.1,0.03532699416722024,19.560679068623738,18.166138182767316,-0.5460979945881118,-0.24344623260208767,296.6402251071561,15.03447834591533,0.0,1.0,0.0,0.0,1.0,Taxi
20.200000000000003,0.1304482302830486,-35.73794671128372,18.36829024163692,-0.7630719339407561,0.7804259163396852,296.64615910976363,16.486083237884124,0.0,1.0,0.0,0.0,1.0,Taxi
20.3,-0.11732625369057181,17.69436910681978,17.79205520767343,-0.6330090188934101,-0.47612192540053394,296.9153345437003,16.793743907863863,0.0,1.0,0.0,0.0,1.0,Taxi
20.400000000000002,0.12379883970131914,-43.36040621744093,18.939201508438085,-0.7993214767958601,-0.2538049430537327,296.77546810467584,17.32526099466291,0.0,1.0,0.0,0.0,1.0,Taxi
20.5,-0.0863538008041561,-10.299748521127988,17.738028629050977,-0.6434541816877392,0.35726291912171604,296.6467850962789,16.32160998697898,0.0,1.0,0.0,0.0,1.0,Taxi
20.6,-0.16882499629621178,12.999212276268793,18.999084565881468,-0.5714588790266708,-0.7245491530796886,296.6220755981209,16.5043668289539,0.0,1.0,0.0,0.0,1.0,Taxi
20.700000000000003,0.18879490108266309,20.97186705619635,17.993436613914916,-0.7554024867189177,-0.4854583403337763,296.585206765923,16.376188132303255,0.0,1.0,0.0,0.0,1.0,Taxi
20.8,0.01850553447682568,21.475034302747968,16.665584672210436,-0.6377970212083625,-0.21441053478059086,296.78734751419097,16.021314914607544,0.0,1.0,0.0,0.0,1.0,Taxi
20.900000000000002,-0.06144982478247194,-28.559666007900574,17.832148368625397,-1.0175297965364956,-0.30689157912884873,296.79952108461885,17.813403104029376,0.0,1.0,0.0,0.0,1.0,Taxi
21.0,0.04599657104316024,2.88962467090858,19.074885077132485,-0.7368477598827725,0.3394864356520106,296.7697451621825,16.789344779164253,0.0,1.0,0.0,0.0,1.0,Taxi
21.1,0.0329536578313686,20.01852250233758,18.829294160543657,-1.1959917183688962,-0.07764160746233127,296.60220009255795,16.38705509659408,0.0,1.0,0.0,0.0,1.0,Taxi
21.200000000000003,0.03864278772921598,-37.26592383630408,18.509200676983077,-0.517854315165948,-0.1190909805808397,296.5820513125095,16.61003712943811,0.0,1.0,0.0,0.0,1.0,Taxi
21.3,-0.14033304813836014,9.84321879950881,17.431454005885158,-0.6121452788197279,-0.2519844132348776,296.85092637218895,16.63872011549765,0.0,1.0,0.0,0.0,1.0,Taxi
21.400000000000002,0.08216975182891263,-24.67525922761801,18.456005352150118,-0.5955709234092816,-0.4640703074260064,296.6450881841113,16.1609270602052,0.0,1.0,0.0,0.0,1.0,Taxi
21.5,-0.08473350840887409,33.141532236711775,17.52215033608337,-0.819115543227114,-0.06256180930085041,296.53774305467823,16.897659628108343,0.0,1.0,0.0,0.0,1.0,Taxi
21.6,0.02537461304519871,-29.168297193139,18.37858500392465,-0.6582948074404559,-0.2125102706147887,296.65864826133475,16.994885886020285,0.0,1.0,0.0,0.0,1.0,Taxi
21.700000000000003,-0.06367173413678237,26.584186901296963,18.367702158582635,-1.0572116029817769,-0.6669593922333593,296.58406829220826,15.675430344364297,0.0,1.0,0.0,0.0,1.0,Taxi
21.8,0.04818742609761073,-10.596474706083802,19.032606039733718,-0.7193212235834631,0.09831527549127536,296.6791200148841,16.80985319081729,0.0,1.0,0.0,0.0,1.0,Taxi
21.900000000000002,-0.027607760485220286,29.140972855526503,18.02288600363826,-0.9757896421249127,-1.2861871778743053,296.76219167422255,16.470604494802036,0.0,1.0,0.0,0.0,1.0,Taxi
22.0,0.08203313014085017,34.35585690235717,17.32729252426218,-1.0162422425820434,-0.00034474905119862817,296.6366944028663,17.063893942315815,0.0,1.0,0.0,0.0,1.0,Taxi
22.1,0.2199667106093966,21.103498843756586,18.143312303607452,-0.9816297257784188,-0.3475624692090762,296.7656149131226,16.546301018840474,0.0,1.0,0.0,0.0,1.0,Taxi
22.200000000000003,0.0779097337335627,10.499587510592965,17.900491992718578,-1.048015037622515,-0.0011981459421654874,296.7634264820406,15.22880746467687,0.0,1.0,0.0,0.0,1.0,Taxi
22.3,0.13453106769381504,-18.890900000559267,18.05061147375922,-1.069349827945559,0.3669666884745321,296.74961866110857,16.92290235219203,0.0,1.0,0.0,0.0,1.0,Taxi
22.400000000000002,0.1255122106066003,-30.10997035939769,18.496309979478195,-0.33221261686206704,0.04724608757981458,296.74143873964636,16.110589395754314,0.0,1.0,0.0,0.0,1.0,Taxi
22.5,-0.07264011806342571,-56.80931767576564,18.04760502956855,-0.9361687876794783,-0.030415207095011946,296.52441806990703,16.0362732538758,0.0,1.0,0.0,0.0,1.0,Taxi
22.6,-0.14951552068501317,11.959905922105937,18.57032035075986,-0.977015553149291,-0.1716095781746328,296.82068608427585,15.722059161122331,0.0,1.0,0.0,0.0,1.0,Taxi
22.700000000000003,0.18531174021713007,6.228785689271831,18.59257641118404,-0.9159265180826535,0.624223646374128,296.60075525654156,16.803370546554515,0.0,1.0,0.0,0.0,1.0,Taxi
22.8,-0.041496189617066526,34.46626708348156,18.034754146240594,-0.4235592335065452,0.4503298706418886,296.6481427607748,15.818577219377035,0.0,1.0,0.0,0.0,1.0,Taxi
22.900000000000002,0.022815814732394683,-52.131601262936066,18.591642793697112,-0.9044925153076184,-0.31392673955311073,296.6877201243494,15.967443033157268,0.0,1.0,0.0,0.0,1.0,Taxi
23.0,-0.07534626609755024,-23.376599608405154,17.859129481774904,-0.6639386752786809,-0.4711751604007114,296.72688892953056,16.27711741140605,0.0,1.0,0.0,0.0,1.0,Taxi
23.1,-0.15837918765909229,-23.193807746605216,19.201993277869658,-1.2570478292789073,-0.43136550235471516,296.78683403936543,15.823702784742716,0.0,1.0,0.0,0.0,1.0,Taxi
23.200000000000003,-0.09315322400063142,14.91382589186169,18.49384219804461,-1.0780261810301077,-0.5074827655634645,296.8197923066267,15.994755742633876,0.0,1.0,0.0,0.0,1.0,Taxi
23.3,-0.0007771366382417995,-1.4346662035881461,17.848485150811577,-0.5688270566279127,-0.7176375265222631,296.68941184400865,16.228244665292756,0.0,1.0,0.0,0.0,1.0,Taxi
23.400000000000002,-0.16555251867703302,-3.775950200659331,18.281866243313495,-1.0825257237217563,-0.8476918576217202,296.7771078406637,15.210206109062087,0.0,1.0,0.0,0.0,1.0,Taxi
23.5,-0.11203297500392809,33.403013941334734,19.43306309604588,-0.4810308186571142,0.06441705818046387,296.5591656492725,16.49334987398011,0.0,1.0,0.0,0.0,1.0,Taxi
23.6,0.16623793306843185,69.34391918601825,18.74640086250183,-0.7160308011717759,0.34893451796792097,296.8552590170608,16.613292471023858,0.0,1.0,0.0,0.0,1.0,Taxi
23.700000000000003,0.18116707725305822,19.3214543069513,19.068820234275005,-1.0974934431826529,0.6720244944141844,296.74582974195346,16.817131511268123,0.0,1.0,0.0,0.0,1.0,Taxi
23.8,-0.015425703469171588,5.732747515052314,18.001081577840754,-0.4107744517118209,-0.4151737369452906,296.87475787143944,16.604290813577443,0.0,1.0,0.0,0.0,1.0,Taxi
23.900000000000002,0.19490167064369343,-47.58009200081414,18.847869281975438,-0.6227179154337278,-0.6014148613974923,296.76259814107823,16.354872348900518,0.0,1.0,0.0,0.0,1.0,Taxi
24.0,-0.05673338275101252,8.142326304396585,19.092922672457032,-0.7682833582967702,0.2324924586530666,296.8234674933276,16.617112570095603,0.0,1.0,0.0,0.0,1.0,Taxi
24.1,0.025285928052811282,-41.94957177326058,17.422033425661077,-0.8775754232653361,-0.10971247265375998,296.6063757553886,15.984326813439997,0.0,1.0,0.0,0.0,1.0,Taxi
24.200000000000003,-0.014846188222609517,6.580756344627921,17.10728281160413,-0.7857898660149045,0.20430741756471246,296.70962157985707,16.591454905975333,0.0,1.0,0.0,0.0,1.0,Taxi
24.3,-0.023829601027872915,-22.349580966843206,18.314146932516344,-1.0703309121240001,-1.2257088707110015,296.7871118526798,16.77488912191902,0.0,1.0,0.0,0.0,1.0,Taxi
24.400000000000002,-0.08646197678140476,3.961907796143128,17.437965605220754,-0.9077373460033796,-0.4171794204049627,296.87779403057596,16.89755391279766,0.0,1.0,0.0,0.0,1.0,Taxi
24.5,0.004963350758106126,30.32922191330897,18.13826953995696,-0.8307384602815755,0.05506241322224356,296.61092652984894,17.307303446796656,0.0,1.0,0.0,0.0,1.0,Taxi
24.6,0.12781650853867194,41.54847181340596,18.632293951152143,-0.8322335309766936,0.0734390147284539,296.77230738286255,17.112755000216755,0.0,1.0,0.0,0.0,1.0,Taxi
24.700000000000003,0.12128038228562504,-14.324168058480504,17.15771153232538,-0.9728554220736004,-0.7606646506558461,296.6069586933097,16.148962095075962,0.0,1.0,0.0,0.0,1.0,Taxi
24.8,-0.06665748953429639,-22.315514347700685,19.130200501118814,-0.6188420865232056,1.121455626107052,296.6517573419162,16.671061121247792,0.0,1.0,0.0,0.0,1.0,Taxi
24.900000000000002,0.016238936800168528,-17.631981507690618,17.542938106129043,-0.8074181175361766,-0.572816490345114,296.6183692006391,16.74727106777174,0.0,1.0,0.0,0.0,1.0,Taxi
25.0,0.03312047474717196,22.149202500215022,18.79622666351253,-0.8009366294487925,0.5264359300613509,296.6766471608662,16.06183294775169,0.0,1.0,0.0,0.0,1.0,Taxi
25.1,0.044088522966778704,1.8229257173954483,19.421906365401213,-0.8183805242908587,-0.24869948833194142,296.75191646895337,16.826973567029093,0.0,1.0,0.0,0.0,1.0,Taxi
25.200000000000003,0.02535356538714577,2.652302220228933,16.806239463368833,-0.3469735717421245,0.5521018145279808,296.7464365502842,16.223545551913713,0.0,1.0,0.0,0.0,1.0,Taxi
25.3,0.046381985848316626,-23.464946118263878,17.538866741865537,-0.9307543074100911,0.1558921895352343,296.8428015344938,16.30582748188575,0.0,1.0,0.0,0.0,1.0,Taxi
25.400000000000002,-0.07323620762454067,21.744015054802045,17.284993359952573,-0.839013254275606,-0.5273314142386502,296.7274705460228,16.74498552221627,0.0,1.0,0.0,0.0,1.0,Taxi
25.5,0.134073640661156,12.825721322291352,18.094078882870107,-0.8669015702809618,-0.1311789783884849,296.7949919165346,16.543844677803644,0.0,1.0,0.0,0.0,1.0,Taxi
25.6,0.1105105924597734,10.992126947967284,18.15162657324208,-0.578152416957296,-0.29630885997013323,296.56711694098044,16.218411329061624,0.0,1.0,0.0,0.0,1.0,Taxi
25.700000000000003,-0.018275572884704234,-20.439089741149925,18.6332210096784,-0.9451282879435778,-1.1607592060775185,296.7057380323997,16.997473622971636,0.0,1.0,0.0,0.0,1.0,Taxi
25.8,0.03187819195540639,-21.539034060930003,19.155313302764107,-0.7256469799869113,-0.14310361811415812,296.56266846608514,16.207563919329186,0.0,1.0,0.0,0.0,1.0,Taxi
25.900000000000002,0.002815422155123393,-4.919374066386255,17.67646787453487,-0.8412779914379146,0.19251469366008953,296.6457645707155,16.929530052921343,0.0,1.0,0.0,0.0,1.0,Taxi
26.0,-0.04287244321663552,7.072927572520939,17.974631307220363,-0.6176630418164528,0.7744801802679423,296.72984640323557,16.722761529627522,0.0,1.0,0.0,0.0,1.0,Taxi
26.1,0.06724282981801108,-41.317432776545196,17.8856661975245,-1.0077912631714208,0.34453433103175923,296.7204536854442,15.43991572486625,0.0,1.0,0.0,0.0,1.0,Taxi
26.200000000000003,-0.20377174172760265,-0.6433178997679315,18.43674563283645,-0.5174749211404778,-0.3296182954766843,296.58830040843054,16.196902006142075,0.0,1.0,0.0,0.0,1.0,Taxi
26.3,-0.04608903271547524,24.621267577736816,19.04859870784183,-1.0376401350201716,0.06135335360732272,296.54565547121774,16.3658652030415,0.0,1.0,0.0,0.0,1.0,Taxi
26.400000000000002,0.1903491677066951,42.43961676131783,18.068935680528526,-1.0603933722072125,0.49007511502998446,296.7075738476026,16.71085558058615,0.0,1.0,0.0,0.0,1.0,Taxi
26.5,0.00842634207898652,-9.33433313022614,18.225066752483798,-0.4450896713935294,-0.468819049491837,296.8054961854816,16.274775642927136,0.0,1.0,0.0,0.0,1.0,Taxi
26.6,-0.09276069836660593,-25.722960390677077,18.35044652389284,-0.9001689287576004,0.19046125354672572,296.7136665741507,16.277544834796036,0.0,1.0,0.0,0.0,1.0,Taxi
26.700000000000003,0.06173436575330973,-13.211587254615006,18.10567949837116,-0.9240224372978584,0.2785603645994746,296.57515270078386,16.744566174783603,0.0,1.0,0.0,0.0,1.0,Taxi
26.8,-0.05763159419408851,2.3193475508593484,18.111001519988402,-0.9546402153088063,-0.12696115963232024,296.6528475738735,16.16960197831376,0.0,1.0,0.0,0.0,1.0,Taxi
26.900000000000002,-0.08116396061230917,-0.041209451877364245,17.91394699684005,-0.986166346497883,-0.275963283495574,296.7741658165894,16.253267969441332,0.0,1.0,0.0,0.0,1.0,Taxi
27.0,0.06152831849392291,0.963133558916501,19.061608133321684,-1.0309213923336942,-0.8762351774361209,296.61168757125324,16.263572119732785,0.0,1.0,0.0,0.0,1.0,Taxi
27.1,-0.05281592639950599,0.390786586328856,18.193554118697314,-0.922077627501836,0.2326575871016015,296.87413553660986,17.20117269467352,0.0,1.0,0.0,0.0,1.0,Taxi
27.200000000000003,-0.07921002768066487,-40.368881690727434,18.101550798851964,-1.2401940736329364,-0.5625398994955899,296.5715013463973,16.126941207696294,0.0,1.0,0.0,0.0,1.0,Taxi
27.3,-0.14031608995971426,24.111520252929434,17.73952479237118,-0.8240934208591474,-0.5927811985012353,296.8584459993092,16.12590353703487,0.0,1.0,0.0,0.0,1.0,Taxi
27.400000000000002,0.0677416748651412,-17.917843154649958,17.963528333402216,-0.9455269251366305,-0.11082923888822667,296.8101979774301,15.93335533459309,0.0,1.0,0.0,0.0,1.0,Taxi
27.5,-0.16879924345391462,60.2537240456813,18.41813062711095,-0.5981984702208588,-0.32993020703631903,296.9383658516268,16.534014280375988,0.0,1.0,0.0,0.0,1.0,Taxi
27.6,0.1609525302686923,11.85394510756658,18.663737597645955,-1.2344578956069638,0.13344647184042865,296.8337634363953,16.19624582075041,0.0,1.0,0.0,0.0,1.0,Taxi
27.700000000000003,0.12701140040297418,38.93537755236104,18.22735609314665,-0.5753209584069203,0.7802499535547497,296.66742994306014,16.6434878667821,0.0,1.0,0.0,0.0,1.0,Taxi
27.8,0.025877644307890624,-63.205116442401845,17.5876812504409,-0.8802301969069215,-0.7256672943235764,296.8071986010531,16.53707002650357,0.0,1.0,0.0,0.0,1.0,Taxi
27.900000000000002,-0.15507305194331683,-33.59292190668868,18.82678860493944,-1.1095911311508089,-0.1642000675381475,296.78272113267644,16.69320747895909,0.0,1.0,0.0,0.0,1.0,Taxi
28.0,-0.04095320913046916,-25.6995724127151,17.705576102295055,-0.9427772330927205,0.2654009453402878,296.8214143547408,16.251908811014367,0.0,1.0,0.0,0.0,1.0,Taxi
28.1,-0.1026202177556848,7.047338750015597,17.975568168950918,-0.8752111502596569,-0.19480165505234126,296.99365773192653,16.787027968165763,0.0,1.0,0.0,0.0,1.0,Taxi
28.200000000000003,-0.11983635819323882,-1.4068796738811997,18.014296130241032,-0.7415808381811829,-0.07860339541592698,296.71633953693686,17.106498853673582,0.0,1.0,0.0,0.0,1.0,Taxi
28.3,-0.047987607499875115,1.621034548002387,18.32424177432628,-0.8778592012417729,0.3939159754474576,296.7221729365342,17.082841698102683,0.0,1.0,0.0,0.0,1.0,Taxi
28.400000000000002,-0.09451504501567283,48.62281698195764,18.793928783485516,-0.9127937217251093,0.7972862689140456,296.8409215926706,16.882792959446398,0.0,1.0,0.0,0.0,1.0,Taxi
28.5,0.12327772671654941,17.10398191870353,18.29693289310888,-0.7086484239188459,0.21316853449148962,296.76326348733846,16.32530854859383,0.0,1.0,0.0,0.0,1.0,Taxi
28.6,0.037532302093642556,-9.612311276624354,18.300565737311402,-0.5694834015836354,0.20553941347760804,296.96731168493716,16.210129948375346,0.0,1.0,0.0,0.0,1.0,Taxi
28.700000000000003,-0.14257660139879458,-0.21890201329084866,18.144712999183387,-0.7486683882655942,0.7781137421061782,296.62851069597286,15.783021140072144,0.0,1.0,0.0,0.0,1.0,Taxi
28.8,0.12218321665009524,-12.940960319590054,17.84746429678501,-0.7078703454606344,0.26705071061589997,296.8113916264181,17.643256482174948,0.0,1.0,0.0,0.0,1.0,Taxi
28.900000000000002,-0.02717249950430763,50.85652738323295,18.84601334628257,-0.6302043854628409,-0.4810679515836949,296.5875130841555,17.1586444429677,0.0,1.0,0.0,0.0,1.0,Taxi
29.0,0.11170603551737023,-7.303233651429671,18.811773304334597,-0.583468251255597,-0.2975401355587397,296.6740900937548,16.465950911968722,0.0,1.0,0.0,0.0,1.0,Taxi
29.1,0.08566704839294692,29.386726718362336,18.232299029922665,-0.7982624562727425,-0.5397868380868426,296.7524926268662,16.578281201146652,0.0,1.0,0.0,0.0,1.0,Taxi
29.200000000000003,0.11976113408750405,-4.437361613704392,17.772131180996226,-1.0403545870293542,-1.3003865973211508,296.67502578635276,17.06788229905845,0.0,1.0,0.0,0.0,1.0,Taxi
29.3,0.08951922744884828,-26.91018586081214,19.01485788948753,-1.0653369096302208,-0.06659246308564028,296.6771484277922,16.885931058462273,0.0,1.0,0.0,0.0,1.0,Taxi
29.400000000000002,-0.04888388091111374,10.159873906398767,19.576435532101144,-0.6787371233598356,-0.032556997177804844,296.72042454213715,16.425428803121097,0.0,1.0,0.0,0.0,1.0,Taxi
29.5,0.17056050361949796,0.5535896292702537,18.095125081225838,-0.7993829830112843,-0.28714945881765036,296.76769546399123,16.543513238584445,0.0,1.0,0.0,0.0,1.0,Taxi
29.6,0.09228717559519961,12.091682411265529,17.98840476491126,-0.7623334108779862,0.38992083515068493,296.76611431672904,16.658759518720558,0.0,1.0,0.0,0.0,1.0,Taxi
29.700000000000003,0.01157453114521395,-39.09359718863798,18.345418898690586,-0.932111443316314,0.10439361244836308,296.772372658319,16.277277036960548,0.0,1.0,0.0,0.0,1.0,Taxi
29.8,-0.0249074823236919,10.353280214441677,17.80795708756038,-1.3504942087176692,-0.6911031868578067,296.9053051102044,16.234388347889936,0.0,1.0,0.0,0.0,1.0,Taxi
29.900000000000002,0.14405357666740803,-15.94189901918582,17.92211558988865,-0.7096146752092073,-0.3031581117450602,296.6039071727341,17.04846559252809,0.0,1.0,0.0,0.0,1.0,Taxi
30.0,-0.0681349639507151,15.285301603272123,17.49618651481475,-0.8642822178293283,-0.4581490567215903,296.74990043066225,16.89332224511692,0.0,1.0,0.0,0.0,1.0,Taxi
30.1,0.05151902569266875,-19.070339737235873,18.622933026527814,-0.8015757737727427,0.15954306825685285,296.7570284183864,16.50498739166964,0.0,1.0,0.0,0.0,1.0,Taxi
30.200000000000003,0.04870187798122869,19.81586795570284,17.434011000450923,-0.893581069830704,0.14952006994759898,296.6731505762648,16.566819215591618,0.0,1.0,0.0,0.0,1.0,Taxi
30.3,0.030944375827799117,-3.1488227386412544,17.680048849902636,-0.7836330217134295,0.6050928365640016,296.85311289707397,16.17550211545034,0.0,1.0,0.0,0.0,1.0,Taxi
30.400000000000002,0.035774911999462505,-12.819857867911226,17.260503668746768,-0.894764226729123,-0.009315149909124246,296.64314741527926,16.650636275225256,0.0,1.0,0.0,0.0,1.0,Taxi
30.5,-0.015397411358327407,10.659562484059656,18.38076812664036,-1.036823357073043,0.675766260399513,296.76296201622836,16.722002426265753,0.0,1.0,0.0,0.0,1.0,Taxi
30.6,0.08424218824809743,19.997174676396906,18.210961665056143,-0.9528334148727863,-1.1459606386905934,296.80669506832874,16.304111933503403,0.0,1.0,0.0,0.0,1.0,Taxi
30.700000000000003,0.13576078538144706,-7.169096670997798,18.362403879206262,-1.0423030346642028,0.08307742498310365,296.72528820937305,16.750009438949345,0.0,1.0,0.0,0.0,1.0,Taxi
30.8,-0.05124289471331637,11.928710851847947,18.04228645353032,-1.0489836539939756,-0.2775232564107924,296.70819734692793,17.08395192214157,0.0,1.0,0.0,0.0,1.0,Taxi
30.900000000000002,0.1438857425073372,-0.23274035675024626,19.317451776462747,-0.6105907859722135,0.14996528291474426,296.6302276831618,16.46104963204582,0.0,1.0,0.0,0.0,1.0,Taxi
31.0,0.13459708359769587,2.596851748198565,17.708223492381443,-0.8893986042636416,0.16674300801419967,296.63937838891206,16.471685658388342,0.0,1.0,0.0,0.0,1.0,Taxi
31.1,-0.0382586359723235,-70.77264907889769,17.62573320332695,-1.061727393737453,0.2213124352805436,296.702428696173,16.804776155037924,0.0,1.0,0.0,0.0,1.0,Taxi
31.200000000000003,-0.2099775028871511,5.8684060562091815,17.657183651569643,-1.0167046651203422,-0.04798124001300854,296.6673010721496,15.682594586333444,0.0,1.0,0.0,0.0,1.0,Taxi
31.3,0.16393911387874185,12.694108010563761,17.48304791078701,-1.0895319889772694,-0.003272692802006996,296.8316385640876,16.24973499875438,0.0,1.0,0.0,0.0,1.0,Taxi
31.400000000000002,0.02521190408049538,20.154962973987992,18.502071551947193,-0.8513763545845668,-0.5158547563834767,296.657394082019,15.741907656304546,0.0,1.0,0.0,0.0,1.0,Taxi
31.5,-0.10920268801721114,-33.363070249041634,18.058821841002867,-1.054655574751254,0.06971974865571352,296.7103616755677,16.725484233359417,0.0,1.0,0.0,0.0,1.0,Taxi
31.6,-0.002876237366466371,-0.5761079398532539,18.304116468408136,-0.8259003163313473,-0.13921595444380994,296.63078294026377,16.11354102742763,0.0,1.0,0.0,0.0,1.0,Taxi
31.700000000000003,0.022331364381229096,-0.2502591390665714,17.428781932327947,-0.5932650843091846,-0.5203576332980232,296.84063998012243,16.675516730510132,0.0,1.0,0.0,0.0,1.0,Taxi
31.8,-0.11045398371254396,14.648888797361371,19.56594928596022,-0.739157472073589,0.4758959465272805,296.7444894018846,16.543859929832298,0.0,1.0,0.0,0.0,1.0,Taxi
31.900000000000002,0.07036820662034053,12.099432885502232,18.134843102848436,-0.6603825253819248,0.3307961704428358,296.75402051961964,15.919598192027557,0.0,1.0,0.0,0.0,1.0,Taxi
32.0,0.08282852880874031,3.308038534512851,17.9557993161185,-0.9470207280089024,0.12739771530266178,296.74550043927206,16.395572326605876,0.0,1.0,0.0,0.0,1.0,Taxi
32.1,-0.09391379103997968,-17.869309256576233,17.966145149813492,-0.9097186095986202,0.18410650497978084,296.78866657115566,15.8761366437237,0.0,1.0,0.0,0.0,1.0,Taxi
32.2,-0.01897833966254059,-72.48874553034739,18.079725366579797,-1.0362910467507829,0.5328615616661088,296.7501414519279,16.663038471207983,0.0,1.0,0.0,0.0,1.0,Taxi
32.300000000000004,-0.2796151988429966,18.930641448281374,18.576364595504653,-0.6077214778968918,-0.42316021668972026,296.9098901411112,16.194091668669664,0.0,1.0,0.0,0.0,1.0,Taxi
32.4,0.0007394162014272273,40.298251423814946,18.05496912487867,-0.749732995770161,-0.2857107628517176,296.7276911230995,16.791472464672157,0.0,1.0,0.0,0.0,1.0,Taxi
32.5,0.1825129174565342,31.280393124244256,18.138426059717244,-0.6499884754206489,-0.1840218140871621,296.69151124383484,15.632285216804114,0.0,1.0,0.0,0.0,1.0,Taxi
32.6,-0.12321323322177534,16.35577449427362,18.558313305186402,-0.8914456854610955,0.32954139864147924,296.7312095341779,16.175594418467455,0.0,1.0,0.0,0.0,1.0,Taxi
32.7,0.08251828867279536,-27.057585158514126,17.62350503713877,-0.5987176573465616,0.059528065700665905,296.72253753722066,16.323815258622876,0.0,1.0,0.0,0.0,1.0,Taxi
32.800000000000004,0.04722499166396357,61.92708082715245,18.20699073207515,-0.921611069493575,-0.4538726734913666,296.7529007987397,16.834097832969128,0.0,1.0,0.0,0.0,1.0,Taxi
32.9,0.18642217091398688,-7.688387853470137,17.927952257770592,-0.5999384338365616,-0.3091378305815839,296.7848753528742,16.2435117406971,0.0,1.0,0.0,0.0,1.0,Taxi
33.0,0.04407634940544464,-45.965065761377986,18.79536440555154,-0.8867833529895943,-0.6400613211966852,296.7491013758465,16.527296961850077,0.0,1.0,0.0,0.0,1.0,Taxi
33.1,-0.1826003371429264,-29.308903246695184,18.98976176376366,-0.6620832580582353,0.19177786812898853,296.7211761137801,16.917585605357004,0.0,1.0,0.0,0.0,1.0,Taxi
33.2,0.039877654680510945,-31.88716645354056,17.558706084634835,-0.8477037365532527,0.11476835840164043,296.762679313583,17.332025315759854,0.0,1.0,0.0,0.0,1.0,Taxi
33.300000000000004,-0.11535948286225815,30.521197811653337,17.988912706840313,-1.0521177013261371,0.33037946291864595,296.7084441784284,17.196088017252976,0.0,1.0,0.0,0.0,1.0,Taxi
33.4,-0.02999434808465969,-3.829807103759381,18.090961455865877,-0.6666139846497252,-1.4950697040248089,296.62508298871217,15.36058274429551,0.0,1.0,0.0,0.0,1.0,Taxi
33.5,0.020728619161714045,-8.620778042623433,18.303966691686554,-0.7669134734034273,0.12474501010690486,296.4446372329161,16.031781906400745,0.0,1.0,0.0,0.0,1.0,Taxi
33.6,-0.15846337307537536,-11.358259515465923,18.02999570132113,-0.7052948390241137,-0.49237779632993395,296.77835255466437,17.318921256314265,0.0,1.0,0.0,0.0,1.0,Taxi
33.7,-0.08678564566198936,-23.762936261831012,18.588647432383798,-0.5358537604473962,-0.47093962330950956,296.8241608026956,16.97157290390092,0.0,1.0,0.0,0.0,1.0,Taxi
33.800000000000004,-0.09808606214744106,20.37857214590179,17.821325450510916,-0.5188979043529802,0.31346451365682393,296.7336573891894,16.162094722908293,0.0,1.0,0.0,0.0,1.0,Taxi
33.9,-0.056570512345866464,16.592181654799106,17.17384108321266,-0.9089471933318891,-0.20994151230298647,296.57060765984863,16.259671518835724,0.0,1.0,0.0,0.0,1.0,Taxi
34.0,-0.0038247373879938817,20.816312711805857,17.772131614039345,-0.7476230798670325,-0.0077805610419594985,296.7070205810819,16.329198420163458,0.0,1.0,0.0,0.0,1.0,Taxi
34.1,0.005995501411588177,-14.235497490474012,19.077485537883177,-0.8571982643871672,-1.203177332807439,296.7775029903571,16.646474282547704,0.0,1.0,0.0,0.0,1.0,Taxi
34.2,-0.1277479997982366,23.105901598213052,17.191506212644455,-0.5288925692307141,0.7672108459886943,296.6402413385347,16.545849630411695,0.0,1.0,0.0,0.0,1.0,Taxi
34.300000000000004,0.11170477060307134,-19.29192964813873,18.559525718969482,-0.9032671773229395,0.73323133472875,296.8594292798691,16.886986775454403,0.0,1.0,0.0,0.0,1.0,Taxi
34.4,-0.09046414682910553,28.745623902855456,18.02510461003771,-0.8779548237851261,0.6900052621705924,296.68459940005073,17.038197986103917,0.0,1.0,0.0,0.0,1.0,Taxi
34.5,0.015980119716040648,-22.431736110610956,17.789711960310854,-0.8813015753889935,0.7875494482429124,296.7181512899464,16.431235816260987,0.0,1.0,0.0,0.0,1.0,Taxi
34.6,-0.0004539099499835141,19.9468175949964,18.829500701474796,-0.8352385004660803,0.46308793007870064,296.67761128526945,16.30322212146791,0.0,1.0,0.0,0.0,1.0,Taxi
34.7,0.009269941145876424,25.372526756132714,18.310685832218816,-0.8042201691423123,-0.36114061652217266,296.82916907625315,16.49649303778868,0.0,1.0,0.0,0.0,1.0,Taxi
34.800000000000004,0.1428427534967042,-33.561521036839245,17.499123393109286,-0.9511920807438061,1.0505730574910828,296.7772522542789,16.82107851226881,0.0,1.0,0.0,0.0,1.0,Taxi
34.9,-0.16826151513417978,-8.653350271375212,18.736323732495347,-0.7268271711077523,-0.6985758306355272,296.6708536314461,16.797949063542454,0.0,1.0,0.0,0.0,1.0,Taxi
35.0,-0.033996810210999664,-20.405739538151924,18.128067334778706,-1.052600051833783,-0.39797860614302083,296.60065209520826,17.30521191981821,0.0,1.0,0.0,0.0,1.0,Taxi
35.1,0.04081405580594455,28.12698993063837,18.20500151866004,-0.8318467723397271,-0.19722752625763787,296.7747346756323,16.67604230819577,0.0,1.0,0.0,0.0,1.0,Taxi
