time_s,altitude_ft,vertical_speed_fpm,ias_kt,pitch_deg,roll_deg,heading_deg,throttle_pct,afterburner_on,gear_down,flaps_deg,speedbrake_pct,weight_on_wheels,label
0.0,0.14158127763250103,-31.40500971024847,19.58138160990368,-0.38295399990128587,-0.2734624613145733,93.63767854366301,15.926647592809497,0.0,1.0,0.0,0.0,1.0,Taxi
0.1,0.0368979119316728,-43.72706552476643,20.021509550028075,-0.4705884987499786,0.4308350777620678,93.55035357730776,15.256099074820055,0.0,1.0,0.0,0.0,1.0,Taxi
0.2,-0.07705404999133114,-15.019875223781744,18.664816831650104,-0.3500914108740876,-0.2792818535633525,93.63854331622491,15.831804013759822,0.0,1.0,0.0,0.0,1.0,Taxi
0.30000000000000004,0.06648190151359232,-20.684701242118106,19.761286722179392,-0.3985123274481623,0.5940301705593938,93.6844743341191,14.710740566836028,0.0,1.0,0.0,0.0,1.0,Taxi
0.4,-0.0665255942789177,30.954912909941072,19.60744585322913,-0.6812153496696929,0.18456540155285348,93.63271120367892,15.242441736914301,0.0,1.0,0.0,0.0,1.0,Taxi
0.5,0.07772051455837425,-23.277283988137953,18.88774985242367,-0.11954348638052598,-0.7439732647725573,93.67562606325015,15.299440649395637,0.0,1.0,0.0,0.0,1.0,Taxi
0.6000000000000001,-0.049904518427097394,-6.412843175656804,18.4439004253461,-0.5466315172924109,0.34791848324546704,93.55831057639364,15.09512256346506,0.0,1.0,0.0,0.0,1.0,Taxi
0.7000000000000001,-0.0985898101572017,-45.57893869841133,18.891768025760634,-0.5011033008504712,0.3366265452315349,93.59866342590044,14.786141270559083,0.0,1.0,0.0,0.0,1.0,Taxi
0.8,-0.1501741789336824,16.969812450581433,18.710231930389735,-0.5050607584229106,0.04008882485389831,93.62030546994038,14.715556486015208,0.0,1.0,0.0,0.0,1.0,Taxi
0.9,0.03494454382580974,20.20908499271049,19.641702705402697,-0.3774625281665111,0.7429479494935165,93.58731936216589,14.344940787142672,0.0,1.0,0.0,0.0,1.0,Taxi
1.0,0.0024556148063507328,24.090180956723216,17.715364017900264,-0.30637510442247196,-1.056259636680648,93.50423592536072,15.317298330106992,0.0,1.0,0.0,0.0,1.0,Taxi
1.1,-0.029723274150066356,16.63993501905153,20.278306889443794,-0.10661094760733525,-0.34394736924992153,93.52181173151621,14.913067205012325,0.0,1.0,0.0,0.0,1.0,Taxi
1.2000000000000002,0.11814421892106737,-20.902965630474284,19.362669739752793,-0.2697013430863826,1.306966743507656,93.4207997044598,15.982051165519751,0.0,1.0,0.0,0.0,1.0,Taxi
1.3,-0.10205921334602074,-28.66446701149613,20.042703769935425,-0.6773870380031519,0.6123377720922363,93.56963408770292,14.74223649804384,0.0,1.0,0.0,0.0,1.0,Taxi
1.4000000000000001,-0.17304560920754705,-29.847815291774452,19.481213427246267,-0.7078688365543229,0.18535963908644204,93.517142295783,14.539971427566893,0.0,1.0,0.0,0.0,1.0,Taxi
1.5,-0.031094857537804943,40.93300496565756,19.89419517996892,-0.5172039530474334,0.5935941667205398,93.58478911590117,14.674528281604815,0.0,1.0,0.0,0.0,1.0,Taxi
1.6,0.10260581148226705,42.87341202153316,18.5786479566678,-0.4694577630021288,-0.5094331059627348,93.5769212106685,15.401425108462236,0.0,1.0,0.0,0.0,1.0,Taxi
1.7000000000000002,0.041321450900118725,22.95082558290771,19.425717819689346,-0.3459948413311601,-0.18231758749564056,93.62672261125533,14.879661154464998,0.0,1.0,0.0,0.0,1.0,Taxi
1.8,0.0836592703767336,-15.667932614058131,19.025245914334274,-0.33181276908944124,-0.141238454947236,93.60030306362097,14.778883816804335,0.0,1.0,0.0,0.0,1.0,Taxi
1.9000000000000001,0.02426614841197637,-31.798748620498817,19.694277479568772,-0.5408238812936217,-0.641462400650016,93.55439546602253,13.46431079614124,0.0,1.0,0.0,0.0,1.0,Taxi
2.0,-0.11767229220237536,-17.924866414267353,19.427208620319536,-0.6786818563625372,-0.1359340948792619,93.54579623120844,15.557753260013572,0.0,1.0,0.0,0.0,1.0,Taxi
2.1,-0.005965061694603219,-1.1229134020006004,19.022746741735347,-0.4483732463205675,-0.8054927463565489,93.69751940881685,14.546918013417148,0.0,1.0,0.0,0.0,1.0,Taxi
2.2,0.018651581401973327,24.12522535687508,20.026552689273228,-0.5414899335897893,0.5573004919802228,93.57388590831607,14.212334694776203,0.0,1.0,0.0,0.0,1.0,Taxi
2.3000000000000003,0.0029538345819999966,-32.7890736956941,20.240031606115263,-0.2956652073155238,0.007744914927035154,93.52350130537837,15.254854537673923,0.0,1.0,0.0,0.0,1.0,Taxi
2.4000000000000004,-0.16991043017307372,-22.47064085735521,18.95593603103271,-0.5211426295171467,-0.12655226628828828,93.51419905019588,15.45031822631959,0.0,1.0,0.0,0.0,1.0,Taxi
2.5,-0.09370162288480274,-22.542243979425848,19.68393220342968,-0.4075813767699197,0.43432209842909314,93.53084855491807,14.643969552309496,0.0,1.0,0.0,0.0,1.0,Taxi
2.6,-0.10975738531512924,32.149633408850434,19.034340441127114,-0.6431661622280659,-0.17486224928798358,93.69442096655501,14.670677133884041,0.0,1.0,0.0,0.0,1.0,Taxi
2.7,-0.009162263128821586,-12.46130797982215,17.997386779049055,-0.6188975891861145,-0.7558612350755264,93.65194844980874,14.064223094344682,0.0,1.0,0.0,0.0,1.0,Taxi
2.8000000000000003,-0.15600816278391352,30.89051696635551,18.79343878305309,-0.3696485899479006,0.3706702445539681,93.54617482753224,14.512457464735729,0.0,1.0,0.0,0.0,1.0,Taxi
2.9000000000000004,0.04469519951664829,-0.667243240587716,20.02257438759667,-0.361541006557819,0.35485737408258816,93.66213272294351,15.054826087716702,0.0,1.0,0.0,0.0,1.0,Taxi
3.0,-0.012498479331760182,9.83551637509805,19.256886792271526,-0.25789875656472017,-0.3439207760027992,93.62894077789855,14.37498181717284,0.0,1.0,0.0,0.0,1.0,Taxi
3.1,-0.10683058090842329,3.940037451041576,18.92284049174399,-0.6657149394895465,0.01601116155417414,93.6069107899105,15.8777020153783,0.0,1.0,0.0,0.0,1.0,Taxi
3.2,0.06439538677185619,28.313949777006286,18.750489001639494,-0.17431686575810795,-0.6207502017111627,93.6740327347776,15.076001751995864,0.0,1.0,0.0,0.0,1.0,Taxi
3.3000000000000003,0.12907126955327125,26.08816295961692,18.446838570943644,-0.5997249991671577,0.05852069946553343,93.4646723193452,14.787676586173037,0.0,1.0,0.0,0.0,1.0,Taxi
3.4000000000000004,0.023610233889661287,3.7848875304152876,19.045175176268728,-0.42162731331743925,0.7270324939185253,93.60858548967144,15.363940169005046,0.0,1.0,0.0,0.0,1.0,Taxi
3.5,0.08331982442393261,-19.105719377896275,19.136377924735704,-0.5006822881974266,0.18190377302326138,93.66294115394902,14.61273778043459,0.0,1.0,0.0,0.0,1.0,Taxi
3.6,0.033542672663789866,7.183211946130636,19.55725165785686,-0.4722141865366164,0.42875188136787945,93.45725457710068,14.818628093375425,0.0,1.0,0.0,0.0,1.0,Taxi
3.7,0.05952629362031447,-12.02347297079322,18.571676085334357,-0.2495338227291594,-0.24008812053751144,93.59478471929344,15.320952182240593,0.0,1.0,0.0,0.0,1.0,Taxi
3.8000000000000003,0.023202459569966513,7.601485814471946,18.84032217070601,-0.9075291042361725,0.4859874723323465,93.62939022405305,14.650825697548445,0.0,1.0,0.0,0.0,1.0,Taxi
3.9000000000000004,0.07155010173614959,-33.62315133745181,17.917089831129818,-0.3705147522823038,0.8093069433691885,93.58521522156627,15.243480210573043,0.0,1.0,0.0,0.0,1.0,Taxi
4.0,-0.10858946306694457,-31.726111497034903,18.869847136070945,-0.6779354992635164,-0.14197731994295026,93.46699741902853,15.096312885552514,0.0,1.0,0.0,0.0,1.0,Taxi
4.1000000000000005,-0.13542809791520802,-12.040974488752141,19.94697209103716,-0.23324039566890334,-0.007191007690841885,93.45136073804906,14.9300963025452,0.0,1.0,0.0,0.0,1.0,Taxi
4.2,0.011345229292388882,-1.266908559521923,20.070538241075386,-0.13381237013694364,0.3439585653760594,93.64161830198952,15.643772694230982,0.0,1.0,0.0,0.0,1.0,Taxi
4.3,-0.1149240058645542,20.263087757383165,19.397198961500685,-0.6174493296759731,-0.22588753889726512,93.47570235779392,15.057818529230733,0.0,1.0,0.0,0.0,1.0,Taxi
4.4,-0.03411265912829221,-16.788336775668558,19.88907130646028,-0.6972907058669198,0.4865774387584816,93.4085664425532,15.425690917406174,0.0,1.0,0.0,0.0,1.0,Taxi
4.5,-0.07259645458595393,23.67924964639896,19.103849763086675,-0.38212223079774665,0.031884743811583426,93.46170992854712,15.653867452047091,0.0,1.0,0.0,0.0,1.0,Taxi
4.6000000000000005,0.003472242367440608,-9.995560712671177,20.04102944100144,-0.053850721943787705,0.13673261525813704,93.6216795275767,14.982258065777105,0.0,1.0,0.0,0.0,1.0,Taxi
4.7,-0.0840904626916481,42.30257474839329,19.835326915023476,-0.48976499573459803,-0.9024173887056268,93.64736614406752,14.78384305521814,0.0,1.0,0.0,0.0,1.0,Taxi
4.800000000000001,0.13891641915601247,-60.12429538980433,19.026740102380092,-0.19429101968894938,-0.12060684602836337,93.54792289991053,15.352573159937863,0.0,1.0,0.0,0.0,1.0,Taxi
4.9,-0.2971492345815811,36.19121105744214,20.103155851923677,-0.25235844960637593,0.03271677534919625,93.36749033162448,14.388538044073433,0.0,1.0,0.0,0.0,1.0,Taxi
5.0,0.09686559259556252,-48.53219601287544,18.97109655570694,-0.638546547486329,0.4469889413656212,93.5569444075079,15.506306293724146,0.0,1.0,0.0,0.0,1.0,Taxi
5.1000000000000005,-0.10374456090836477,36.70040794857619,18.465851563245312,-0.27777481939122384,-0.9440914013691192,93.40562708891918,15.02144607025059,0.0,1.0,0.0,0.0,1.0,Taxi
5.2,-0.11364719483870017,-12.733471712588974,19.09713128212834,-0.30514338348193115,0.1727861833874061,93.51054533286026,15.166726827939963,0.0,1.0,0.0,0.0,1.0,Taxi
5.300000000000001,0.03319823403261762,-8.16345794611594,19.218906822232626,-0.3226820133148278,-1.0076681533168779,93.7373773854747,15.001830971625575,0.0,1.0,0.0,0.0,1.0,Taxi
5.4,-0.1445618506389445,27.66315980039309,18.953402075310276,-0.8422683462066389,0.2684408706925612,93.69814679818506,14.828130929128942,0.0,1.0,0.0,0.0,1.0,Taxi
5.5,0.024668604163265242,20.50808873303936,20.34323175707424,-0.36085977336907044,-0.4630984450415152,93.54028029952951,15.823001144313087,0.0,1.0,0.0,0.0,1.0,Taxi
5.6000000000000005,0.13573867769781442,38.795299887866285,18.268638265637065,-0.6869527352200828,-0.058143448215168064,93.5738707561855,16.297706676382706,0.0,1.0,0.0,0.0,1.0,Taxi
5.7,0.049414648800386936,-11.917391953635493,19.733166595719936,-0.6329619733474428,0.30147062195978613,93.52502803274797,15.157026877634461,0.0,1.0,0.0,0.0,1.0,Taxi
5.800000000000001,-0.034918355604912216,-39.80046233776887,19.547879401971944,-0.3214148283494948,0.14062391728885973,93.53051677010376,13.783355982826015,0.0,1.0,0.0,0.0,1.0,Taxi
5.9,-0.06326363399102995,26.41614354737872,19.13754062570877,-0.8008035736672632,0.03487406319512414,93.5014119376313,15.235539448644639,0.0,1.0,0.0,0.0,1.0,Taxi
6.0,0.1814953665372805,-18.30699327928154,19.221764299164406,-0.31646067262752225,-0.2528917169997371,93.56734201239794,14.194405050544033,0.0,1.0,0.0,0.0,1.0,Taxi
6.1000000000000005,-0.12645332200131992,-2.382720046865382,20.251113830910676,-0.38350287582196174,0.275031128417043,93.42008565060758,13.668028495579962,0.0,1.0,0.0,0.0,1.0,Taxi
6.2,-0.07517723422535688,-39.702537054530104,20.311840658148466,-0.3947591323321502,0.46658624751626027,93.63961222316846,15.582188028401749,0.0,1.0,0.0,0.0,1.0,Taxi
6.300000000000001,-0.017017318735370043,27.69465226066899,19.027401764648832,-0.6455550056818011,-0.24622469221368562,93.3656492604427,15.101948175824878,0.0,1.0,0.0,0.0,1.0,Taxi
6.4,0.012019939302025,14.542859826536636,18.513013273180487,-0.47880322252317525,0.6312002255812902,93.53922243277503,15.044922347809473,0.0,1.0,0.0,0.0,1.0,Taxi
6.5,-0.002462935092673738,14.782270666246395,19.42528893556295,-0.23682515208839938,-0.20568686907021108,93.61172026965068,15.197502372911927,0.0,1.0,0.0,0.0,1.0,Taxi
6.6000000000000005,0.05689403459586189,3.028532277077199,18.999749764117073,-0.4103601949952253,0.364346247884467,93.45266084931791,14.38963508341805,0.0,1.0,0.0,0.0,1.0,Taxi
6.7,0.027162600687410957,11.793713860543646,19.232265118949286,-0.5084066786705629,-0.25538893533226575,93.67896361006802,14.789575276553318,0.0,1.0,0.0,0.0,1.0,Taxi
6.800000000000001,0.056505634210044446,-25.141418436378967,20.59451112218891,-0.5117370296139208,0.8930007522048313,93.42379606859527,15.038967405614851,0.0,1.0,0.0,0.0,1.0,Taxi
6.9,-0.06881305758603298,-38.69042322612709,19.136690021408263,-0.24998619071874453,0.2665239885960838,93.57222198410795,15.117448732419943,0.0,1.0,0.0,0.0,1.0,Taxi
7.0,-0.1662895154432245,-33.62978794793994,19.073326977816702,-0.37305377697051995,0.23563269444763946,93.49594459155708,13.999986486154098,0.0,1.0,0.0,0.0,1.0,Taxi
7.1000000000000005,-0.11164330552965529,9.453622616001148,19.90496263786179,-0.7820266691319899,-0.9367388332406517,93.69160273707337,15.011361307154152,0.0,1.0,0.0,0.0,1.0,Taxi
7.2,-0.0215449445060273,-8.605324477129065,18.68701407157901,-0.7024605428505075,-0.6618799929789081,93.60291945227868,14.827498206144321,0.0,1.0,0.0,0.0,1.0,Taxi
7.300000000000001,-0.2093161378288699,19.69158942881539,19.28203476539728,-0.5231688670132952,-0.9248943697322083,93.44093483956783,15.230822532898289,0.0,1.0,0.0,0.0,1.0,Taxi
7.4,-0.013185358385578405,59.7718509809501,19.770944571485856,0.01627601301531678,-0.2524265829166448,93.75123082173315,15.512564431240724,0.0,1.0,0.0,0.0,1.0,Taxi
7.5,0.2773143103987232,55.5874236272251,19.800816682417594,-0.7165361400236774,-0.3697520671662471,93.51656356472813,15.518506241785047,0.0,1.0,0.0,0.0,1.0,Taxi
7.6000000000000005,0.06862098030725558,-4.764044060730868,19.645728522905483,-0.41567688879811987,-0.6347257751088009,93.83367068579935,15.014538554865245,0.0,1.0,0.0,0.0,1.0,Taxi
7.7,-0.03700557868923275,-33.32398534973267,18.592118707549044,-0.5842146046100554,-0.6295868184400493,93.68676712602098,15.209796077235039,0.0,1.0,0.0,0.0,1.0,Taxi
7.800000000000001,0.11069438365005974,-1.024748138511221,20.12433407977142,-0.6459152410078717,0.5111023164169659,93.59145081130714,15.15212144426325,0.0,1.0,0.0,0.0,1.0,Taxi
7.9,0.06349723961469941,-0.25873629812588206,19.65421893132357,-0.1390275331648963,0.04492835879240502,93.35503323727886,14.894440489406223,0.0,1.0,0.0,0.0,1.0,Taxi
8.0,-0.03829926017986224,6.492979221874724,20.09176221331841,-0.3431673407099855,-0.2235221610290878,93.59892470439172,14.409397579086312,0.0,1.0,0.0,0.0,1.0,Taxi
8.1,0.1431592797594333,-45.44558070775801,18.604733126267476,-0.4638586205830149,-0.3483902173438581,93.55494186251542,14.615303405879246,0.0,1.0,0.0,0.0,1.0,Taxi
8.200000000000001,-0.16373066392409072,60.49379473307295,18.6605667836982,-0.412806150777683,0.2864950650375417,93.67737072190488,14.588510267558119,0.0,1.0,0.0,0.0,1.0,Taxi
8.3,0.2641697134855025,2.3420459292521705,19.28189900539354,-0.49749488934448893,0.21882203236550452,93.61625426189329,14.918822639240371,0.0,1.0,0.0,0.0,1.0,Taxi
8.4,0.1548695094056941,60.00304758785577,19.306048943988678,-0.4845441291796315,-0.010308712395900596,93.57765933893552,14.707207115993121,0.0,1.0,0.0,0.0,1.0,Taxi
8.5,0.13628457401518806,-27.98907221719473,18.49571308791771,-0.4864362857442849,0.43669030258248726,93.61864578398541,15.725039801780426,0.0,1.0,0.0,0.0,1.0,Taxi
8.6,0.12422435239952878,-50.85929557660588,19.863192231270045,-0.34794588046605146,-0.2866866709694148,93.37962185065237,14.586710394280729,0.0,1.0,0.0,0.0,1.0,Taxi
8.700000000000001,-0.09942696847733537,-13.007929774613265,19.861727085423365,-0.6657434629257452,0.222325312591688,93.50008979308603,14.86873919434332,0.0,1.0,0.0,0.0,1.0,Taxi
8.8,0.0712449251421217,-19.73691880759551,19.593333630844917,-0.45176686211675976,-0.3480270785611187,93.52156251441914,15.041978731108525,0.0,1.0,0.0,0.0,1.0,Taxi
8.9,0.0255397583615512,24.474123877799215,19.932230170978464,-0.8625839246024265,-0.6588795803327463,93.50729232603823,14.1635947564787,0.0,1.0,0.0,0.0,1.0,Taxi
9.0,0.022943650911660677,-0.29199259275158457,18.07608108383166,-0.15489601327123637,0.3033058195118175,93.54289539336878,15.401158922561285,0.0,1.0,0.0,0.0,1.0,Taxi
9.1,0.06978496217836376,-8.128650717718662,18.92581474421875,-0.5038173833868624,0.34270102638682903,93.4244971861288,14.420484287033762,0.0,1.0,0.0,0.0,1.0,Taxi
9.200000000000001,-0.015103495227042128,-7.847645177187137,19.24514694914642,-0.19113302905112226,-0.08344998132038046,93.43743990911287,14.658306900865144,0.0,1.0,0.0,0.0,1.0,Taxi
9.3,-0.016294574974275035,46.10322942036046,20.299479182588783,-0.46250024942712686,0.34749256822726354,93.62812097975882,14.521705506609008,0.0,1.0,0.0,0.0,1.0,Taxi
9.4,0.30030110928016596,-4.163737295632681,19.856386913706686,-0.6171379142694782,-1.0550996009321576,93.74130292460325,15.323296466723408,0.0,1.0,0.0,0.0,1.0,Taxi
9.5,-0.035922181705205614,-0.9963208443767039,19.249492828417498,-0.2613798967696816,-0.7588706437785702,93.5990211046659,13.986357108876028,0.0,1.0,0.0,0.0,1.0,Taxi
9.600000000000001,-0.021276179196158648,-47.971167164478125,19.83198134530726,-0.5754548526930781,-0.3064796485329553,93.62717882105983,14.920141278119567,0.0,1.0,0.0,0.0,1.0,Taxi
9.700000000000001,0.060445273457775284,27.23273481443576,18.58774363701983,-0.39373523819195927,0.25959338163178014,93.6753645383983,15.683036148372796,0.0,1.0,0.0,0.0,1.0,Taxi
9.8,0.10024149236697316,13.891083645851495,18.74193661846601,-0.46384956021122303,0.14301237066840974,93.50951133750345,15.528462333886376,0.0,1.0,0.0,0.0,1.0,Taxi
9.9,0.048179239033098814,-20.247162415503116,18.392331725623084,-0.6012015893512968,0.5062742679078123,93.78590525789315,15.177260225696436,0.0,1.0,0.0,0.0,1.0,Taxi
10.0,-0.04079053861974033,-8.984127755290126,20.208828486018888,-0.3301679293275074,-0.23039083531835988,93.56669102362775,14.913686632689068,0.0,1.0,0.0,0.0,1.0,Taxi
10.100000000000001,0.055320853590522495,16.330106685095412,19.217448706303827,-0.5725948179147263,0.8940737777743,93.6061005687094,14.914019520861771,0.0,1.0,0.0,0.0,1.0,Taxi
10.200000000000001,0.12982977245857585,-11.62082853781566,18.939495550082516,-0.3031034271352233,-0.4277729754240232,93.62343722166281,14.778665980037879,0.0,1.0,0.0,0.0,1.0,Taxi
10.3,-0.09889468130881861,-14.407321533686984,18.610801599041743,-0.6283906028014943,0.5187852222016324,93.56773069228512,14.942523669462016,0.0,1.0,0.0,0.0,1.0,Taxi
10.4,-0.016715754077912415,-7.935168609720648,19.055918406523865,-0.295886470410312,0.7147079245737864,93.55056080261454,15.042279405190662,0.0,1.0,0.0,0.0,1.0,Taxi
10.5,0.09015392940997259,43.52920443524156,19.920442616866477,-0.747921045145021,-0.36313245910705577,93.60808557976225,15.201974259665374,0.0,1.0,0.0,0.0,1.0,Taxi
10.600000000000001,0.11875134086738917,7.8685305263898,19.062397683805116,-0.16533787198855598,1.2205560282824033,93.54647806738996,14.953754820784471,0.0,1.0,0.0,0.0,1.0,Taxi
10.700000000000001,0.022626898554036518,-35.22500259619074,20.047207333149146,-0.24099082960502602,0.06393933154494073,93.53248408623801,15.070027387687954,0.0,1.0,0.0,0.0,1.0,Taxi
10.8,-0.08597108357098115,-25.3899137370548,19.274560333354327,-0.6689210634706708,0.871108185340415,93.68677698559384,14.678053854784478,0.0,1.0,0.0,0.0,1.0,Taxi
10.9,-0.008198227817884892,-0.1708625167842044,18.325712103530194,-0.13868557507198104,0.11458577632711088,93.56519116142908,14.32294673607051,0.0,1.0,0.0,0.0,1.0,Taxi
11.0,0.021772585970115447,15.091447424251447,19.485555984677315,-0.3189176591173122,0.003517651049600768,93.50689698875647,14.237432764374763,0.0,1.0,0.0,0.0,1.0,Taxi
11.100000000000001,-0.010513846449723993,-27.839535913203246,20.663614747909183,-0.38332742348716337,-0.0679169183720525,93.64262843710003,14.923522291135848,0.0,1.0,0.0,0.0,1.0,Taxi
11.200000000000001,-0.14739590738390118,-18.66885020066605,19.426085136734805,-0.5864036628474482,-0.5785618855641863,93.57709688954219,15.626123899536069,0.0,1.0,0.0,0.0,1.0,Taxi
11.3,-0.07157166503321488,-10.822454801585854,19.85663086478772,-0.44382268199716285,0.5188586280443104,93.56789933644524,14.409901506946294,0.0,1.0,0.0,0.0,1.0,Taxi
11.4,-0.06462612045765333,-10.47584561155152,20.015022875277666,-0.6016137021147924,-0.3225558166083827,93.68413655961541,15.197318404665616,0.0,1.0,0.0,0.0,1.0,Taxi
11.5,-0.1997751354416588,17.185547297268414,19.581893248261306,-0.4271327608427958,0.02866657769779792,93.58857939979856,14.827791649279597,0.0,1.0,0.0,0.0,1.0,Taxi
11.600000000000001,0.01435607145312718,-2.237602304250442,20.230449037127954,-0.7287020566602938,-0.1568343199870171,93.79386387542064,15.37227216550825,0.0,1.0,0.0,0.0,1.0,Taxi
11.700000000000001,-0.07581413197890557,35.906824976669206,20.121440466468126,-0.36456330285053284,0.39103589358686136,93.51394462970404,15.188283685755945,0.0,1.0,0.0,0.0,1.0,Taxi
11.8,-0.02024101055831287,-15.542424563986549,19.423271736011152,-0.2982155505604537,0.002741879905203239,93.51995760491525,14.510077933261051,0.0,1.0,0.0,0.0,1.0,Taxi
11.9,-0.06335605136680564,27.1908246272999,19.22141770520318,0.015734713242597786,0.08414549769258424,93.57160401917668,14.487896960683752,0.0,1.0,0.0,0.0,1.0,Taxi
12.0,0.06013999115759386,0.6269882838905687,19.64181573232137,-0.8369115102265705,0.38987816839826644,93.56425228826231,15.054800595732548,0.0,1.0,0.0,0.0,1.0,Taxi
12.100000000000001,-0.017106069138860085,2.0294701691882735,19.997949150136666,-0.7453255327856616,-0.24931501539101827,93.75369661831775,13.62389748632098,0.0,1.0,0.0,0.0,1.0,Taxi
12.200000000000001,-0.05320870052086433,-24.256689589364345,19.78493730184069,-0.13159491681097207,0.1531681406184468,93.6190013551444,15.217539695183849,0.0,1.0,0.0,0.0,1.0,Taxi
12.3,-0.06114345678922792,5.013000619963414,18.30411391093134,-0.42612099375450535,0.385553550835898,93.58409982808337,15.21525224806106,0.0,1.0,0.0,0.0,1.0,Taxi
12.4,0.007958933960956925,9.55412704503627,19.35517616565822,-0.43847177038053814,0.18051509198861487,93.5656277895543,14.269610698544586,0.0,1.0,0.0,0.0,1.0,Taxi
12.5,-0.005438065295683046,-6.31518670867968,19.82447685983735,-0.37533539432494045,-0.5275066479646058,93.49373359676957,15.522042298573119,0.0,1.0,0.0,0.0,1.0,Taxi
12.600000000000001,-0.09271939033262637,-4.480951695015951,19.810685287028114,-0.5039883095529424,0.5531155031202185,93.38769190683621,14.046027392211698,0.0,1.0,0.0,0.0,1.0,Taxi
12.700000000000001,-0.014445824514122874,10.148743557913232,19.956665272028648,-0.3111276767385672,0.3273075561379425,93.59519833098909,15.23170525457079,0.0,1.0,0.0,0.0,1.0,Taxi
12.8,0.04530565249388306,-2.181146072077785,18.49198558600379,-0.2831756669973997,-0.05603656985245739,93.63671635677508,14.502372838996225,0.0,1.0,0.0,0.0,1.0,Taxi
12.9,-0.10362512069301535,1.4448128326848202,20.129707958517162,-0.2141501598964326,-0.3722316886459189,93.64365450769162,14.833632382834226,0.0,1.0,0.0,0.0,1.0,Taxi
13.0,-0.007221760350698835,18.5339495555454,19.785829241638517,-0.5561789362985726,0.200694294728762,93.74921632303216,14.591423390917738,0.0,1.0,0.0,0.0,1.0,Taxi
13.100000000000001,0.13797540027161004,2.8371771759262763,19.134352618696397,-0.29130928774262344,0.42481477028281694,93.48527616228279,14.977362092373522,0.0,1.0,0.0,0.0,1.0,Taxi
13.200000000000001,-0.08943923481338402,3.723301025101293,18.74398543361303,-0.5758706990937336,-0.2104575339989178,93.62283555932237,14.474855893259843,0.0,1.0,0.0,0.0,1.0,Taxi
13.3,0.011394744774807574,-39.63567936360516,19.140551613434127,-0.4343646051523718,0.12989249642290848,93.51794424205207,15.29146142369036,0.0,1.0,0.0,0.0,1.0,Taxi
13.4,-0.06020299654641588,30.078807791207197,18.584155159270857,-0.4126794566999806,-0.3699792018705679,93.64107864945646,15.118343651587537,0.0,1.0,0.0,0.0,1.0,Taxi
13.5,0.0609548041426519,-37.224936654104475,20.094744238704386,-0.6544554176458888,0.41151631487179585,93.61772660536627,15.320141859160906,0.0,1.0,0.0,0.0,1.0,Taxi
13.600000000000001,-0.17472993849571486,-1.8002996244640361,19.79128927888837,-0.5539477173560954,0.3226915803741087,93.66780002017049,15.201902088656478,0.0,1.0,0.0,0.0,1.0,Taxi
13.700000000000001,-0.06920449466873609,5.121377429218195,18.998819085248453,-0.5094105429382001,0.39142652532164945,93.65286265730816,15.392936824690667,0.0,1.0,0.0,0.0,1.0,Taxi
13.8,0.08656169128874286,80.47804629646659,19.23068917660794,-0.07422530906888747,-0.49290683250789097,93.62646116832599,14.368046968273662,0.0,1.0,0.0,0.0,1.0,Taxi
13.9,0.22766029298661805,35.60999960504726,18.398351581836927,-0.5019808549373522,0.048819955283032165,93.37690532300178,15.445074656848574,0.0,1.0,0.0,0.0,1.0,Taxi
14.0,0.10884550335650021,-58.67752989571695,19.37460497200733,-0.4203065001416957,0.4675635767621313,93.61261808880488,15.055715432655468,0.0,1.0,0.0,0.0,1.0,Taxi
14.100000000000001,-0.20682595818984192,-20.761176111893047,18.670060212586094,-0.5131292344098384,0.5799343216027106,93.43874962215085,14.701217882571697,0.0,1.0,0.0,0.0,1.0,Taxi
14.200000000000001,0.12385441242715274,-31.90759938133337,19.964119184052592,-0.5027860529950492,0.45674741487302295,93.5792608654358,14.730279061736864,0.0,1.0,0.0,0.0,1.0,Taxi
14.3,-0.05069249355016675,45.924197034146964,19.92792403513963,-0.4555450921731202,0.026179251273030862,93.57873800226258,14.609197477332717,0.0,1.0,0.0,0.0,1.0,Taxi
14.4,0.022795026980892797,-31.693481049783895,19.466644788607738,-0.09117069864566874,0.3511745681828635,93.50119905032813,14.488511734984629,0.0,1.0,0.0,0.0,1.0,Taxi
14.5,-0.03461299282176677,18.195606571145618,19.38023566139062,-0.12350909500579799,-0.9464978780470908,93.68022583858726,14.263812379138358,0.0,1.0,0.0,0.0,1.0,Taxi
14.600000000000001,0.04028553930556131,-12.474964495923153,18.344412146599964,-0.3789552746781447,0.7396086722173463,93.6628542807884,15.266494986150512,0.0,1.0,0.0,0.0,1.0,Taxi
14.700000000000001,-0.039579795498722994,-0.08750769314020139,18.13552051234182,-0.35648290201817945,-0.2969903978428816,93.55653672337462,15.000685060523264,0.0,1.0,0.0,0.0,1.0,Taxi
14.8,-0.0350505312874678,-21.076623461201148,18.944821670193683,-0.35614653720294287,0.4866555006423683,93.50427860158527,16.308920493884518,0.0,1.0,0.0,0.0,1.0,Taxi
14.9,-0.06509757800044445,10.368613678236128,19.253703909462466,-1.019624774593578,0.37895571114816906,93.41541332098973,15.8427791930234,0.0,1.0,0.0,0.0,1.0,Taxi
15.0,0.012263272892457627,6.398849157624272,19.23957045210066,-0.6404968714696693,0.15225782411830835,93.70348600224872,14.84794980400096,0.0,1.0,0.0,0.0,1.0,Taxi
15.100000000000001,-0.00305628549934646,27.772365027413482,19.50268073252501,-0.6052129435093718,-0.4590765594091304,93.71973198681525,15.449161263473089,0.0,1.0,0.0,0.0,1.0,Taxi
15.200000000000001,0.07376424713662293,20.244849516743674,19.665328431364003,-0.3591380063760008,-0.5777425371993591,93.54241020235224,15.12289982853852,0.0,1.0,0.0,0.0,1.0,Taxi
15.3,0.113487520476176,7.436774881698862,19.073743657239756,-0.235438439611743,-0.10973894636280686,93.6539494251291,14.76670745271479,0.0,1.0,0.0,0.0,1.0,Taxi
15.4,0.03412758890914783,-32.269702588292915,20.40762741300799,0.08722176201197074,0.3036662959740702,93.44281790684977,15.269253923202193,0.0,1.0,0.0,0.0,1.0,Taxi
15.5,-0.08758426580484166,-35.57207076005766,21.087956919502048,-0.4159865519268999,0.22279092307664156,93.57758469006552,14.531364262888692,0.0,1.0,0.0,0.0,1.0,Taxi
15.600000000000001,-0.0643728333241123,-35.15126049910777,18.857462148026666,-0.6388097749011392,-0.22422698042083375,93.69098459866336,14.886890916748872,0.0,1.0,0.0,0.0,1.0,Taxi
15.700000000000001,-0.14162871358639104,-18.285063553140244,21.018609644706146,-0.4837940522836442,0.18760711390683937,93.74191641349353,15.481249067872703,0.0,1.0,0.0,0.0,1.0,Taxi
15.8,-0.1790095835705429,23.625069669750534,19.156161137215015,-0.20811416882350942,0.27710089408882194,93.5578545533906,14.398622046168736,0.0,1.0,0.0,0.0,1.0,Taxi
15.9,0.05375251502464038,35.03592120771201,19.126647271436752,-0.09668689035669159,-0.015093070179912928,93.61875694391546,14.049630228574113,0.0,1.0,0.0,0.0,1.0,Taxi
16.0,0.033550892452168996,39.420735515543115,19.928805177269872,-0.2531495115345301,0.43902804395595124,93.50641660642776,14.921578022700585,0.0,1.0,0.0,0.0,1.0,Taxi
16.1,0.018094094007172656,-11.225680652216601,18.617465084188904,-0.21755402657283063,-0.14994521766541533,93.42843197458046,15.486367395280626,0.0,1.0,0.0,0.0,1.0,Taxi
16.2,-0.0023758882364426524,0.5153257978897052,18.649675772315756,-0.4666631533274816,-0.13786270470684825,93.50783353698563,14.186442644741236,0.0,1.0,0.0,0.0,1.0,Taxi
16.3,0.0361275214416175,-7.83729288909133,18.58917528004771,-0.6093131151672804,-0.2518798171347196,93.51903555141212,14.704011986039045,0.0,1.0,0.0,0.0,1.0,Taxi
16.400000000000002,-0.021092370438284012,-22.661548344093045,19.722447949919545,-0.439818498496838,-1.104871300759107,93.3906475076065,15.263476463061151,0.0,1.0,0.0,0.0,1.0,Taxi
16.5,-0.1156836299569079,-26.26139334586011,18.32377586171229,-0.30790258266832604,0.21599361361057506,93.49931903874045,14.775444741389231,0.0,1.0,0.0,0.0,1.0,Taxi
16.6,-0.09517944528768307,1.960969289994362,19.01016182324513,-0.39834580177128653,-0.22285698200225104,93.63850746727366,14.243054351570716,0.0,1.0,0.0,0.0,1.0,Taxi
16.7,-0.011287523988312235,31.415164929675182,19.23212620228318,-0.6306922270710658,0.636695567970474,93.78300653023268,15.824914399558441,0.0,1.0,0.0,0.0,1.0,Taxi
16.8,0.041392194691468,10.59303449171662,20.42095460658186,-0.3040777652742959,-0.10842610000814253,93.41705429034937,14.792175288743234,0.0,1.0,0.0,0.0,1.0,Taxi
16.900000000000002,-0.0422142728291,1.9690615073293867,19.155602497455355,0.1346050813043056,-0.03825738953456631,93.4433489556709,14.772492753319792,0.0,1.0,0.0,0.0,1.0,Taxi
17.0,-0.0014422164516653296,5.209730640581174,19.469304952878137,-0.26802378489214274,-0.2773476367714955,93.54211184732372,14.885910896284672,0.0,1.0,0.0,0.0,1.0,Taxi
17.1,0.06744084789437384,19.25579778366134,19.485174422045656,-0.6397538923949845,0.47277760507318045,93.54210624005736,14.798605384341972,0.0,1.0,0.0,0.0,1.0,Taxi
17.2,0.054064716089206655,36.10466966715378,19.65614776241608,-0.5274969678050195,0.4000319357106808,93.45193171704756,15.249546945635364,0.0,1.0,0.0,0.0,1.0,Taxi
17.3,0.17908113188410354,-28.49808298723832,19.00820094229478,-0.756617126862074,0.4822544326555851,93.4554682414257,15.125635396357037,0.0,1.0,0.0,0.0,1.0,Taxi
17.400000000000002,-0.07504956704181781,-14.54285002341951,19.53401482948754,-0.33226556322434947,0.05236888750589714,93.65386387662932,15.71570574851712,0.0,1.0,0.0,0.0,1.0,Taxi
17.5,-0.018649534027890942,-67.94291036212981,18.921894108618933,-0.6390912347933141,0.065321043566125,93.41402255655976,14.059220766780047,0.0,1.0,0.0,0.0,1.0,Taxi
17.6,-0.16063341992654553,-1.763017362972261,20.200668890866147,-0.5794487904354536,-0.8443209179789513,93.78537596219854,15.546540157599608,0.0,1.0,0.0,0.0,1.0,Taxi
17.7,-0.08386465385667913,24.18554240438714,19.405468303986474,-0.4662033606108224,-0.3557528521033342,93.47984509626866,14.417730689032995,0.0,1.0,0.0,0.0,1.0,Taxi
17.8,0.10227817799404476,60.137833467741274,18.939378405737994,-0.3471442090663834,0.18892298971045174,93.59636482287493,14.290803939790964,0.0,1.0,0.0,0.0,1.0,Taxi
17.900000000000002,0.14005574741216076,19.03108136723994,18.77123157932075,-0.14901543345991858,-0.22140615199990946,93.57430396086471,14.97411378015118,0.0,1.0,0.0,0.0,1.0,Taxi
18.0,0.011290752979520518,9.121109096133154,19.8315539290471,-0.30712619619821135,0.5526897738756471,93.4832206628177,14.950483576334053,0.0,1.0,0.0,0.0,1.0,Taxi
18.1,0.14788372347471043,-48.073208165362495,20.21208970305196,-0.26142446152754517,-0.023806440445688866,93.5463566075631,13.51163923167717,0.0,1.0,0.0,0.0,1.0,Taxi
18.2,-0.10031029341465181,-4.877382253634863,19.33717391696339,-0.5634649876771689,-0.1261897739025299,93.5242775612295,14.703975657017596,0.0,1.0,0.0,0.0,1.0,Taxi
18.3,-0.013096158288653898,-43.22892125961965,19.262012379885164,-0.35589227130381185,-0.04267631924360404,93.5792809498289,16.13631960885338,0.0,1.0,0.0,0.0,1.0,Taxi
18.400000000000002,-0.06826088282338791,24.837018433532148,20.9015075690692,-0.31969554659984556,0.3884603585847765,93.56689925359302,15.628249168841698,0.0,1.0,0.0,0.0,1.0,Taxi
18.5,0.023874798753008842,-12.201590054271222,19.817646920502725,-0.4252141909321581,-0.6410467739129517,93.77871612202011,14.636376977073686,0.0,1.0,0.0,0.0,1.0,Taxi
18.6,-0.07410410856001008,10.790345152185493,18.92486725312473,-0.6350181366100898,-0.3559056151007818,93.35497020722693,15.478255886432903,0.0,1.0,0.0,0.0,1.0,Taxi
18.7,-0.014309157062460524,-7.879449823356013,19.903662659245633,-0.650888597172334,1.2713137308525455,93.57638214106635,15.481886542113495,0.0,1.0,0.0,0.0,1.0,Taxi
18.8,-0.015522450363771312,21.256252319897467,18.753643814808697,-0.4324037520037036,-0.4291529812547759,93.56102948078455,13.74164787757581,0.0,1.0,0.0,0.0,1.0,Taxi
18.900000000000002,0.03217715303947714,10.98593177271948,19.095359745334843,-0.3885155536207067,-0.21447943226191932,93.49243026677885,15.22443968879394,0.0,1.0,0.0,0.0,1.0,Taxi
19.0,0.04062050180113677,-1.3124916552423922,19.420921392822976,-0.4993903642661082,-0.31107260290398003,93.6776930724152,15.733258948360739,0.0,1.0,0.0,0.0,1.0,Taxi
19.1,-0.022084908639983376,5.398627646318232,19.097310117463945,-0.3356603474433082,-0.11628449208344645,93.52304305073181,14.073284440856828,0.0,1.0,0.0,0.0,1.0,Taxi
19.200000000000003,0.05917029127106821,4.248950074179347,19.699017582173916,-0.49274040227593274,-0.14251357391704247,93.53581581029539,15.027022977287869,0.0,1.0,0.0,0.0,1.0,Taxi
19.3,0.06186525217203342,4.011934353312502,19.35385936181717,-0.6193956845361636,0.34222174560585245,93.72063083119275,15.328412342221727,0.0,1.0,0.0,0.0,1.0,Taxi
19.400000000000002,-0.0020252368734209668,-34.279357725504056,20.326893862963598,-0.3625812910623569,0.242271119310907,93.54357017723322,14.716859935063999,0.0,1.0,0.0,0.0,1.0,Taxi
19.5,-0.11222649735645217,-31.594232050898253,20.053305599323547,-0.580983912958045,-0.31151572490306817,93.50822641782986,14.193077409652457,0.0,1.0,0.0,0.0,1.0,Taxi
19.6,-0.09610590808245792,-13.598019748171076,19.418387856219404,-0.2177955773610482,-0.27296058764742337,93.48024477050404,14.343308346863298,0.0,1.0,0.0,0.0,1.0,Taxi
19.700000000000003,-0.07001533561427643,-3.952652457410361,19.75551597654077,-0.7328195548307135,-0.23436831691733018,93.77090619391595,15.51508114177943,0.0,1.0,0.0,0.0,1.0,Taxi
19.8,-0.13198975964350407,9.90833134522843,20.44885026185413,-1.0137640416442255,0.03176005388046296,93.57967016357225,14.874838108182868,0.0,1.0,0.0,0.0,1.0,Taxi
19.900000000000002,-0.04656425135631586,13.036967190619132,20.31103010746477,-0.35451839717470257,0.5290504012701626,93.54367184528826,15.104094640595381,0.0,1.0,0.0,0.0,1.0,Taxi
20.0,-0.004830499661180856,62.61269309721399,18.980950838455314,-0.2658275439409713,0.1889709617479553,93.589897243032,14.722285134082417,0.0,1.0,0.0,0.0,1.0,Taxi
20.1,0.18107370584256582,22.514470864941384,18.95387305492207,-0.4287115166210628,-0.13588141968225917,93.65408332965558,15.615043826856619,0.0,1.0,0.0,0.0,1.0,Taxi
20.200000000000003,0.06600810296839096,-37.84083137715535,19.736417720833476,-0.5300312225938012,-0.18959522241331114,93.6068132300341,14.645299194889834,0.0,1.0,0.0,0.0,1.0,Taxi
20.3,-0.19403465654695762,-12.059566878722498,19.519141019349252,-0.3958309144276247,0.4488089458849662,93.37263017728594,14.709835127640186,0.0,1.0,0.0,0.0,1.0,Taxi
20.400000000000002,0.12077587144895328,-25.470530770475843,18.51112610766982,-0.759280247358475,-0.06813047993784895,93.65582073626496,14.559968073777327,0.0,1.0,0.0,0.0,1.0,Taxi
20.5,-0.061344550883988304,19.658360829972157,20.125720165668515,-0.14006815007775514,-0.04099476228169054,93.68760377540576,15.29720676744302,0.0,1.0,0.0,0.0,1.0,Taxi
20.6,-0.09574285239709696,-19.474447849064315,19.657034416569235,-0.16571416281189794,0.5142194132632459,93.54101676106268,16.050282286068796,0.0,1.0,0.0,0.0,1.0,Taxi
20.700000000000003,0.023403632203631605,9.717092236669842,19.907059918220753,-0.24575389848463408,-0.35916004573604654,93.60995472691309,14.531407972691252,0.0,1.0,0.0,0.0,1.0,Taxi
20.8,-0.012759089700639194,15.710716639205833,19.046420234869284,-1.0640050824421863,-0.11753758346395447,93.84716596472134,14.527578867915775,0.0,1.0,0.0,0.0,1.0,Taxi
20.900000000000002,-0.017189269201067888,3.9211312768550735,19.515989637513325,-0.1185541610389757,0.06967369681842793,93.68061336386336,15.259268412362774,0.0,1.0,0.0,0.0,1.0,Taxi
21.0,0.04300928858790689,-20.29876831356943,18.729612932870545,-0.5208126133386628,-0.7315660494921633,93.45064757010556,14.918523336965407,0.0,1.0,0.0,0.0,1.0,Taxi
21.1,-0.11425293126848644,-29.70903980172386,19.835389857895198,-0.4611763715778218,0.4618341962168648,93.51386292467475,15.320061834851177,0.0,1.0,0.0,0.0,1.0,Taxi
21.200000000000003,-0.1657344682096873,7.712651590812409,17.993641763953278,-0.3125735608129093,0.15652493918691335,93.53630236230492,14.218408194793565,0.0,1.0,0.0,0.0,1.0,Taxi
21.3,0.08157254654196883,57.840583702256396,19.250045944676625,-0.16789373015806475,-0.43852387486013933,93.67423463877913,14.448340148465368,0.0,1.0,0.0,0.0,1.0,Taxi
21.400000000000002,0.17494998724279545,30.774623483202948,19.335634347230062,-0.3628611726859555,0.37673178604738405,93.71146605582732,14.88030403490433,0.0,1.0,0.0,0.0,1.0,Taxi
21.5,-0.011861350793672622,-41.227403536712025,20.217960258574728,-0.6301322239585642,0.6060214259205313,93.58027209522834,14.561920669934826,0.0,1.0,0.0,0.0,1.0,Taxi
21.6,-0.12456447114159136,-25.02227072359716,19.290561638728565,-0.7508745591934121,-0.01236667709081689,93.45239099249704,14.810271241091069,0.0,1.0,0.0,0.0,1.0,Taxi
21.700000000000003,0.04983863362480957,-15.67849087545928,19.185458818926687,-0.2020938366734264,-0.6425849270530223,93.71208393618144,15.231409816820419,0.0,1.0,0.0,0.0,1.0,Taxi
21.8,-0.09025380517096906,0.45120106212221717,20.09933241783958,-0.5991477207834374,-0.23876139413707723,93.47012692870487,14.812775099383346,0.0,1.0,0.0,0.0,1.0,Taxi
21.900000000000002,-0.12230846583098032,-18.74092758763396,19.74963569854894,-0.41884420360160085,-0.1349291229128145,93.57201153412393,15.769719541277851,0.0,1.0,0.0,0.0,1.0,Taxi
22.0,-0.04386600431336027,-7.553458032933615,18.152086002473055,-0.2889385316320586,-0.424005476597888,93.55244717462256,14.624544317176891,0.0,1.0,0.0,0.0,1.0,Taxi
22.1,-0.12802109533563721,39.280218619947,18.75664523414558,-0.3189256007725813,-0.26626515007222973,93.53497023753908,15.391253423938517,0.0,1.0,0.0,0.0,1.0,Taxi
22.200000000000003,0.07409262726875461,-11.937461095480794,19.947527393062796,-0.474694199370736,0.4227708056068315,93.53236013089492,14.896396633239899,0.0,1.0,0.0,0.0,1.0,Taxi
22.3,-0.1035533097907643,-7.612583379873276,20.45084750131347,-0.42822215767977323,-0.6225007676440614,93.50992995783031,15.249237244221826,0.0,1.0,0.0,0.0,1.0,Taxi
22.400000000000002,-0.16608401223500366,-44.32012406068119,19.3416443344608,-0.5090546454529155,-0.36119923051008923,93.5876590135515,15.82728369236019,0.0,1.0,0.0,0.0,1.0,Taxi
22.5,-0.14750799303465137,41.40219957380157,19.406228183202263,-0.49550586987623846,1.2802174556372565,93.53128978662835,15.048345138503851,0.0,1.0,0.0,0.0,1.0,Taxi
22.6,0.10345768807824347,10.11191181971293,19.50658529765092,-0.24179375863656893,0.4174321030505488,93.615522298847,14.402840251960736,0.0,1.0,0.0,0.0,1.0,Taxi
22.700000000000003,-0.11552445313643905,46.32763098952251,19.207831984412326,-0.6544641921332115,-0.2613319923261921,93.52203813242107,15.347442343320166,0.0,1.0,0.0,0.0,1.0,Taxi
22.8,0.08413016191296113,-27.068688805594906,19.455508800736396,-0.5038592716252784,-0.16700632921651892,93.57224703680811,15.129872420819455,0.0,1.0,0.0,0.0,1.0,Taxi
22.900000000000002,-0.03188575594973112,35.486287341964434,19.134694265367656,-0.5714616871416309,-0.3126188250672191,93.50410894723524,15.25436807792198,0.0,1.0,0.0,0.0,1.0,Taxi
23.0,0.06190698357338306,-0.38304431063257677,19.088331304380393,-0.39297474157247486,0.10600504046084219,93.56187071360256,14.636414820169017,0.0,1.0,0.0,0.0,1.0,Taxi
23.1,0.0822149403597982,4.034458800881329,18.55217452021175,-0.6745390285826529,0.43246553656137593,93.67620719883757,14.967052907158573,0.0,1.0,0.0,0.0,1.0,Taxi
23.200000000000003,-0.011713461945324515,-20.570227047490167,19.551239250906292,-0.4116686368983223,0.37112445585433473,93.46285562448583,15.273091684481638,0.0,1.0,0.0,0.0,1.0,Taxi
23.3,-0.04094415166406784,-4.548188760083325,20.05992106714004,-0.0576917834695454,-0.48359287519648625,93.63848299525307,14.924640337562407,0.0,1.0,0.0,0.0,1.0,Taxi
23.400000000000002,0.05947399655938151,-23.63678144909947,20.018001580322508,-0.21270108476795782,1.0351770859836282,93.58259278789421,14.82055683875038,0.0,1.0,0.0,0.0,1.0,Taxi
23.5,-0.12989736919082193,33.12577917343866,19.43424127372729,-0.4717360452138847,0.7795047769788447,93.5721700933741,14.836499463848474,0.0,1.0,0.0,0.0,1.0,Taxi
23.6,0.12468474420312542,3.903485962186154,19.743946643586472,-0.44806447677920114,0.5135844111681562,93.59992917876036,14.886056198860798,0.0,1.0,0.0,0.0,1.0,Taxi
23.700000000000003,0.07899142637031227,31.30085425366089,19.214673187585344,-0.6936493949273113,-0.12623949737778487,93.50741242574759,14.9999243776253,0.0,1.0,0.0,0.0,1.0,Taxi
23.8,0.026606902077482533,-54.13982762958713,18.970463039197707,-0.6303218858808909,-0.607656523106739,93.62442021751929,14.982748274760091,0.0,1.0,0.0,0.0,1.0,Taxi
23.900000000000002,-0.14601439394481028,-27.409713415342082,19.721635408843238,-0.5991152642204228,-0.2315224419045588,93.77653906093843,15.057019323763482,0.0,1.0,0.0,0.0,1.0,Taxi
24.0,-0.05805714070639817,-16.52994271730429,20.002091998443234,-0.42637186690381773,-0.6541947823284752,93.6765676786224,15.20712700170436,0.0,1.0,0.0,0.0,1.0,Taxi
24.1,-0.05604281150903896,34.69760877760909,19.473422766761615,-0.4514532505304116,0.10064170995062215,93.56124170098371,14.882679913277308,0.0,1.0,0.0,0.0,1.0,Taxi
24.200000000000003,0.02747364994323513,-13.968102275250976,19.28493774779077,-0.39354996256820546,-0.3953991193168118,93.58678620703944,14.22221216637,0.0,1.0,0.0,0.0,1.0,Taxi
24.3,-0.1278976520826531,9.289651538795594,18.93262083970635,-0.31282225150118526,-0.27982876733059237,93.42911910529892,14.975634946097166,0.0,1.0,0.0,0.0,1.0,Taxi
24.400000000000002,-0.009594553815061068,17.348016359233686,19.617067820081047,-0.32700549655575173,-0.5165372455634296,93.6752735218542,14.507916735395643,0.0,1.0,0.0,0.0,1.0,Taxi
24.5,0.11421373173940351,40.70480507125051,18.65807792515542,-0.4531569440623654,0.42430098850488396,93.66685647838443,14.93589617866934,0.0,1.0,0.0,0.0,1.0,Taxi
24.6,0.0756263732735994,-26.806738881707457,19.201004442442066,-0.37629788423529265,-0.5871944175107374,93.56597623293362,15.403612357311442,0.0,1.0,0.0,0.0,1.0,Taxi
24.700000000000003,-0.14362824822359835,-23.252166501381865,19.93859391113331,-0.08493058111435947,0.4422863839630266,93.46739850156712,14.361340570706291,0.0,1.0,0.0,0.0,1.0,Taxi
24.8,-0.0020471007675058224,-13.596362636773945,18.75409034610746,-0.3231348811236853,0.4277583817775847,93.43078785944243,14.250237549566801,0.0,1.0,0.0,0.0,1.0,Taxi
24.900000000000002,0.007644560089729674,24.85068801020311,19.187480393741286,-0.3309068868407715,0.15806329362275637,93.58947962529408,14.630846546153338,0.0,1.0,0.0,0.0,1.0,Taxi
25.0,-0.01937480817258284,-47.78442733433277,19.076440224473945,-0.3644891743506095,-0.4612328505457028,93.63818131406617,15.488041409032656,0.0,1.0,0.0,0.0,1.0,Taxi
25.1,-0.2409692374391697,22.19460549498105,19.329046483211943,-0.43779423311952814,0.45109432805159827,93.52652319506808,15.649318577509174,0.0,1.0,0.0,0.0,1.0,Taxi
25.200000000000003,0.11861758756463486,12.399631178481819,20.188239024526542,-0.38490630277793264,-0.3626458568181018,93.72843725796815,14.348449724044903,0.0,1.0,0.0,0.0,1.0,Taxi
25.3,0.042623347719826184,49.60461686325169,20.101818642305783,-0.2600846890080124,0.4711294807707049,93.56935344315775,15.323049782726452,0.0,1.0,0.0,0.0,1.0,Taxi
25.400000000000002,0.007053846877088653,-42.02356346360065,18.598622705753435,-0.33498067662917813,-0.5151483828828838,93.45829518004064,15.542255727458805,0.0,1.0,0.0,0.0,1.0,Taxi
25.5,-0.09150022975336847,-39.2821953818206,19.781833384805182,-0.2429507093671087,-0.3523849843777575,93.4396969630925,14.659219799581367,0.0,1.0,0.0,0.0,1.0,Taxi
25.6,-0.1537876291892769,-21.757214734888937,18.923329434709377,-0.699828414923903,-0.38715827231071603,93.57104944258691,15.234005168480556,0.0,1.0,0.0,0.0,1.0,Taxi
25.700000000000003,-0.1017322267973561,-7.549258397043904,18.719309267738524,-0.6171735274609106,-0.008576530591804117,93.54998090805611,15.18466589790557,0.0,1.0,0.0,0.0,1.0,Taxi
25.8,-0.12924652173858805,36.00524437042396,19.518552225744624,-0.2794813402358572,-0.17852929611366236,93.46939871635323,15.36986367146148,0.0,1.0,0.0,0.0,1.0,Taxi
25.900000000000002,0.026238592662842793,53.605340308385884,19.632653761352834,-0.2097350835210748,0.4817410706962491,93.57381590443242,14.598974178641413,0.0,1.0,0.0,0.0,1.0,Taxi
26.0,0.16629447474457326,50.50068924321576,19.36241028228135,-0.5079183854616546,0.2377457436597176,93.61266291331248,14.416422377687706,0.0,1.0,0.0,0.0,1.0,Taxi
26.1,0.12325692447749066,1.0263156567781972,19.152999865765395,-0.695844057748815,-0.4864845069567154,93.53104980958801,15.171114290356734,0.0,1.0,0.0,0.0,1.0,Taxi
26.200000000000003,0.0313701709467337,-0.3523709897541636,19.319932644275898,-0.30040431991920946,0.597244614364666,93.44384724220049,15.5572021819285,0.0,1.0,0.0,0.0,1.0,Taxi
26.3,0.16453261979580236,-16.804349086984583,19.468815822873434,-0.3351333691833399,-0.2816711042340214,93.5837122604267,15.161392767871604,0.0,1.0,0.0,0.0,1.0,Taxi
26.400000000000002,0.03923517904256766,-35.994064357267355,19.62458104594605,-0.3544332207938921,0.17040651390193773,93.39972203711284,14.752933574201583,0.0,1.0,0.0,0.0,1.0,Taxi
26.5,-0.14860015083960315,-32.26581766938694,19.325877023576464,-0.2738725307131057,0.27440246841715266,93.6037656375014,15.122103620566245,0.0,1.0,0.0,0.0,1.0,Taxi
26.6,0.0032035314488676244,4.611113990214129,19.661445401994794,-0.20965068544920656,-0.13941003272491914,93.4474758931978,14.537204780404439,0.0,1.0,0.0,0.0,1.0,Taxi
26.700000000000003,0.06229074899363826,-16.9258609900513,19.489179167834436,-0.6712070515856592,0.301205351442705,93.67710886712632,14.685562353697346,0.0,1.0,0.0,0.0,1.0,Taxi
26.8,-0.23322945578985968,-21.011431172557906,19.016850753219558,-0.37092518261360985,-0.40652474522242876,93.5268960602009,14.762641311534853,0.0,1.0,0.0,0.0,1.0,Taxi
26.900000000000002,-0.10185362441392193,-39.07979477328171,19.80632776151185,-0.6307178757413044,-0.08971383749786793,93.53635323607557,16.103519854385645,0.0,1.0,0.0,0.0,1.0,Taxi
27.0,-0.13310822487277033,37.38138539853572,19.180583335713948,-0.4255043149434041,0.5144952897044744,93.61077207519622,14.652430835277798,0.0,1.0,0.0,0.0,1.0,Taxi
27.1,-0.04632252879718113,13.996557900741943,19.087476299077373,-0.43666953085101284,-0.6836191527376133,93.55472450402328,15.192245835687059,0.0,1.0,0.0,0.0,1.0,Taxi
27.200000000000003,-0.031870834910212247,33.36215358089874,19.7889857907582,-0.6313723616347874,-0.5514395151962576,93.5226496623934,15.129084316081983,0.0,1.0,0.0,0.0,1.0,Taxi
27.3,0.03370254303172332,14.348468965192914,19.353277224622286,-0.46971820414509446,0.011446074385015912,93.42722041240751,14.686920445561807,0.0,1.0,0.0,0.0,1.0,Taxi
27.400000000000002,0.025419816028783394,17.15845089848907,19.968691020565107,-0.40418991816122374,0.11608614374708,93.47954295553347,15.160595991753038,0.0,1.0,0.0,0.0,1.0,Taxi
27.5,0.053921419582233045,3.04845440763363,19.968524892315465,-0.21025449304974328,0.013156363075612331,93.60742687645899,14.34022185655703,0.0,1.0,0.0,0.0,1.0,Taxi
27.6,0.048944815069891436,-35.60632207188329,19.67409125032651,-0.7281957853312746,-0.09939215107031744,93.50717798299263,15.403823628828334,0.0,1.0,0.0,0.0,1.0,Taxi
27.700000000000003,-0.15261179433063307,9.757446295518045,19.237947668142844,-0.62899618853904,0.891781702014649,93.59500192448695,15.545503295765144,0.0,1.0,0.0,0.0,1.0,Taxi
27.8,0.10270865105982326,10.308737930193656,19.45747831659101,-0.12114592778586353,-0.7380556100993417,93.31294999761832,14.671951377334535,0.0,1.0,0.0,0.0,1.0,Taxi
27.900000000000002,0.10048850472085968,10.8322903104468,18.969620197132407,-0.5766185863094295,-0.1343904462087506,93.63648965441888,14.8626676231132,0.0,1.0,0.0,0.0,1.0,Taxi
28.0,-0.09845034277839908,-60.77608573956189,18.988701946839267,-0.07618051231885375,-1.0205206370105537,93.67955075384725,15.494617699663566,0.0,1.0,0.0,0.0,1.0,Taxi
28.1,-0.20117177763798622,-5.3748320593903145,19.45909578939702,-0.6214950770225385,-0.4375264271162618,93.47902567180404,14.452385467415928,0.0,1.0,0.0,0.0,1.0,Taxi
28.200000000000003,0.07361434442390816,-3.330825495503447,20.435064809277037,-0.3675117341746203,-0.2556722628644059,93.5077283802932,15.224204087173002,0.0,1.0,0.0,0.0,1.0,Taxi
28.3,-0.11510447025591633,49.02393772919826,18.769281659231112,-0.3767968600232843,0.5386744839081724,93.53188946640421,14.171910319719007,0.0,1.0,0.0,0.0,1.0,Taxi
28.400000000000002,0.0439479110080051,-2.819197179215869,20.609618041172403,-0.5033152498075579,0.1383795650840452,93.59238076036513,15.078830623050019,0.0,1.0,0.0,0.0,1.0,Taxi
28.5,0.05951835852782877,9.368801253060008,19.02908448885511,-0.5097385020416482,-0.05934563986401111,93.500883507391,14.96212843227702,0.0,1.0,0.0,0.0,1.0,Taxi
28.6,-0.06826046399061633,-26.97441444823859,19.46964443945174,-0.592293511314958,-0.7368939055616569,93.44333147167964,14.480514673559279,0.0,1.0,0.0,0.0,1.0,Taxi
28.700000000000003,-0.09092416123318792,8.929160327353358,19.146483940783465,-0.3781702671081597,-0.26445506476765906,93.43557035134893,14.03405032674564,0.0,1.0,0.0,0.0,1.0,Taxi
28.8,0.10416416016459551,51.86160061976657,19.38547676092596,-0.23467707084974382,0.4430652867644261,93.40887373703077,15.398382510194557,0.0,1.0,0.0,0.0,1.0,Taxi
28.900000000000002,0.19104753910821648,-10.60741831179586,18.525444624758862,-0.39255245176530784,-0.5524043416426659,93.52087474897166,15.59771706412408,0.0,1.0,0.0,0.0,1.0,Taxi
29.0,-0.14396125279216732,-2.2849016998554155,19.15404095525982,-0.2620986334832169,-0.26664708664499515,93.64052505045174,15.280078870600544,0.0,1.0,0.0,0.0,1.0,Taxi
29.1,0.09273965166531833,-23.517579770052624,19.508366130135673,-0.712423207207854,0.32596069133959177,93.73285853086617,15.021251534176896,0.0,1.0,0.0,0.0,1.0,Taxi
29.200000000000003,0.07345964025795325,-2.540647497193703,20.523580803449132,-0.2927910451698613,-0.14846124159511495,93.5835545811459,14.710405239823,0.0,1.0,0.0,0.0,1.0,Taxi
29.3,-0.1566644902781359,-23.88752293968437,18.992979626374726,-0.28162810277044514,0.28151329039398915,93.60739922911847,15.126587952200365,0.0,1.0,0.0,0.0,1.0,Taxi
29.400000000000002,-0.026697963033103553,-17.19828712226961,19.332264289653818,-0.27544655088835973,-0.45123528053770995,93.64167872650648,15.19261753791433,0.0,1.0,0.0,0.0,1.0,Taxi
29.5,-0.012531795353394838,63.06832955929129,18.127635868583315,-0.7478391614269932,-0.6862358992104705,93.44098389239582,14.759765321858866,0.0,1.0,0.0,0.0,1.0,Taxi
29.6,0.15867715751832057,29.733653722506038,20.488923422991288,-0.6672618909616005,0.43594831909937337,93.5801519928524,15.853139887718458,0.0,1.0,0.0,0.0,1.0,Taxi
29.700000000000003,0.12197030557942662,0.617517769077485,19.319564877802406,-0.3527197259551067,0.23419446353224252,93.59456867572834,14.631706654994314,0.0,1.0,0.0,0.0,1.0,Taxi
29.8,-0.009444206508007414,-25.550214351319212,19.91535976018327,-0.342620093382623,0.16894984841792896,93.66209807151483,14.149244919417713,0.0,1.0,0.0,0.0,1.0,Taxi
29.900000000000002,0.03092608576172447,-16.12904399600284,20.321853400738462,-0.5039637035317347,-0.46644643746285835,93.73260785775773,15.590492053053582,0.0,1.0,0.0,0.0,1.0,Taxi
30.0,0.041325085599412385,25.835287981671744,19.86684681811504,-0.25515918943815696,0.8389376645970398,93.62688089802998,14.822339584298328,0.0,1.0,0.0,0.0,1.0,Taxi
30.1,0.11973223340035127,33.992316302764735,20.106372383182876,-0.16131316089319747,0.18468023485824997,93.66161381048425,15.379663584301204,0.0,1.0,0.0,0.0,1.0,Taxi
30.200000000000003,0.2008876672755481,1.3042521440001071,20.709433094744682,-0.19169017761107565,0.45879256725092254,93.8366352048273,14.64413686153692,0.0,1.0,0.0,0.0,1.0,Taxi
30.3,0.04784634631941287,-9.152373230829188,18.949322322183306,-0.4580168260204133,0.41023025478086483,93.44430451277248,15.391286224096486,0.0,1.0,0.0,0.0,1.0,Taxi
30.400000000000002,0.07397036724620527,-47.48952139482253,18.461344752815734,-0.12989615229980905,-0.27141351915923767,93.68025602246416,15.20896028356855,0.0,1.0,0.0,0.0,1.0,Taxi
30.5,-0.036559939698564595,44.60870374535754,19.25440979712251,-0.062192094702744116,0.19198548058276718,93.60307973059543,16.000664850604302,0.0,1.0,0.0,0.0,1.0,Taxi
30.6,0.27088986504620055,-31.309994231437454,18.36920572421142,-0.05126690062667616,-0.3020860025163466,93.52626966510837,14.858462222656584,0.0,1.0,0.0,0.0,1.0,Taxi
30.700000000000003,-0.08257960391098201,12.205574150172097,20.02888052466126,-0.5623691840313768,0.08034448253642519,93.56510206688506,14.928169012093228,0.0,1.0,0.0,0.0,1.0,Taxi
30.8,0.024467931052295888,-90.1321995358182,19.96835962116618,-0.5186935847201611,-0.4251094427701295,93.54769176079253,15.231260698118858,0.0,1.0,0.0,0.0,1.0,Taxi
30.900000000000002,-0.17977113263289055,-7.787060903526656,19.729608401439428,-0.8526497649402733,0.1136203009196636,93.6063236306536,14.687821964443868,0.0,1.0,0.0,0.0,1.0,Taxi
31.0,-0.1215149084286153,-36.70489129505355,19.09033273401617,-0.7928001133838432,-0.8464796767776217,93.54349150589434,15.24177816952954,0.0,1.0,0.0,0.0,1.0,Taxi
31.1,-0.15905652542297188,62.235612324405146,18.939871353185637,-0.4880441320314349,-0.36304654388267554,93.46327368084559,14.393625547211185,0.0,1.0,0.0,0.0,1.0,Taxi
31.200000000000003,0.1314069289891352,73.42943495256252,19.343060799975902,-0.6610021873971934,-0.2936731359059353,93.45258135603098,15.421414610673324,0.0,1.0,0.0,0.0,1.0,Taxi
31.3,0.24563226633419732,37.94591137952361,19.219069622496626,-0.3491148392465242,-0.32046558154367094,93.59723283407811,14.920643224680456,0.0,1.0,0.0,0.0,1.0,Taxi
31.400000000000002,0.0306730314746462,-28.367766511251645,20.75223031397314,-0.2518477671642865,0.45403067743754083,93.59619861469025,14.915524243063176,0.0,1.0,0.0,0.0,1.0,Taxi
31.5,-0.010431903567123023,-51.25221005333794,19.0829935455152,-0.34682576274334287,-0.15125555528571166,93.67946711246447,14.048985758893735,0.0,1.0,0.0,0.0,1.0,Taxi
31.6,-0.01062878393249242,-10.978880879556518,19.054294807601504,-0.614369295021489,0.5139741432733774,93.63678830344531,14.554479788817686,0.0,1.0,0.0,0.0,1.0,Taxi
31.700000000000003,-0.024221372923136423,-4.776786903260195,19.92169441901051,-0.48912915447794264,0.3217188934701205,93.57821746326226,14.459902924446096,0.0,1.0,0.0,0.0,1.0,Taxi
31.8,-0.034315838083424026,-29.82116079103065,19.94189732371132,-0.5030353176045684,-0.09654055144401494,93.66312180321074,15.01001059458822,0.0,1.0,0.0,0.0,1.0,Taxi
31.900000000000002,-0.15973458788764572,9.320449192955882,19.39994480723422,-0.6507084433579864,-0.044330660556538705,93.59541105241578,15.179825906931335,0.0,1.0,0.0,0.0,1.0,Taxi
32.0,0.022380873041642938,-8.470374807234263,19.312062299474366,-0.2096963841212134,0.15077901270644553,93.37885874272752,14.89890553039117,0.0,1.0,0.0,0.0,1.0,Taxi
32.1,-0.07666771211959539,20.710880778581984,18.268301246644505,-0.8545287949377475,-0.05103259510087181,93.59226745540042,14.950389788643951,0.0,1.0,0.0,0.0,1.0,Taxi
32.2,-0.056180183994735816,-14.442269352365251,19.65626185297587,-0.39472084968527793,0.581353549144011,93.64479300386517,14.960784932033254,0.0,1.0,0.0,0.0,1.0,Taxi
32.300000000000004,-0.049830473720183344,26.79207756463799,19.31164266198883,-0.16658194861540526,0.4161301047382026,93.41394106254569,15.351711484639258,0.0,1.0,0.0,0.0,1.0,Taxi
32.4,0.057292675703594524,32.46236009946241,20.071222879096688,-0.23551945717571615,0.004275349458657259,93.56542306280721,14.560049207708342,0.0,1.0,0.0,0.0,1.0,Taxi
32.5,0.10613161650257619,7.556509606700416,19.891184042395903,-0.17655051746114392,-0.6168593780161132,93.602164763654,15.689160760574964,0.0,1.0,0.0,0.0,1.0,Taxi
32.6,-0.01204792568668129,-22.759165953355193,19.965101341543214,-0.6251764267265384,-0.15984613888461938,93.52484052669837,14.783911638045488,0.0,1.0,0.0,0.0,1.0,Taxi
32.7,-0.056503154063181474,-42.471138325188576,19.742280961443257,-0.46688754121216547,0.22430411303875142,93.61840850966274,14.573259139966023,0.0,1.0,0.0,0.0,1.0,Taxi
32.800000000000004,-0.10622407512336672,-49.23659210632792,19.62289484952148,-0.59518599214092,0.26521929929990007,93.51943139674216,15.054488666119198,0.0,1.0,0.0,0.0,1.0,Taxi
32.9,-0.2582308862183209,42.9833343189554,19.734902884093433,-0.2874571330302942,-0.08708034413633357,93.43369936852457,14.856288288066018,0.0,1.0,0.0,0.0,1.0,Taxi
33.0,0.1584135175315955,38.318944988463876,19.11504070340699,-0.35553575841294033,0.27662430509788355,93.51167709156186,14.259159722823618,0.0,1.0,0.0,0.0,1.0,Taxi
33.1,0.0853706498189526,69.05551425060823,19.08061311964815,-0.9678880781266747,-0.2762121793939537,93.57391979277133,15.309789349194212,0.0,1.0,0.0,0.0,1.0,Taxi
33.2,0.08704668503472018,-34.435533914756654,19.154009903514662,0.0029668642622495134,0.066646841877545,93.8359973320284,15.009913399376257,0.0,1.0,0.0,0.0,1.0,Taxi
33.300000000000004,-0.013764152042187776,-44.482948777078626,19.621853561575918,-0.545763571353766,0.1892180369613087,93.51109205033896,14.380205997189256,0.0,1.0,0.0,0.0,1.0,Taxi
33.4,-0.13704409406644058,-79.33558309432124,18.949127460616758,-0.3645531208486018,-0.12466735471825213,93.6581430687911,14.816132784150689,0.0,1.0,0.0,0.0,1.0,Taxi
33.5,-0.309631230436886,-7.231238542503718,20.000535696336808,-0.6007695552796921,-0.41659570895358744,93.58066876445343,15.184569168358813,0.0,1.0,0.0,0.0,1.0,Taxi
33.6,-0.049920344754706435,20.80763631317961,18.49813486265885,-0.5826210287283177,0.12807484768835625,93.45895562378922,14.586942954422991,0.0,1.0,0.0,0.0,1.0,Taxi
33.7,-0.033005912500542585,34.654505692579264,19.140987603690757,-0.5786290895113989,-1.5338205053480316,93.59222067422138,15.082894719340674,0.0,1.0,0.0,0.0,1.0,Taxi
33.800000000000004,-0.13635870197398972,17.2442181475613,19.50271916038588,-0.5655453752610003,0.38596034504536236,93.57392550810101,15.755555854355963,0.0,1.0,0.0,0.0,1.0,Taxi
33.9,0.036300745983100076,1.6067272831578616,20.249274940392684,-0.43615763160056814,0.4443082221989879,93.66001399672882,14.583537572598521,0.0,1.0,0.0,0.0,1.0,Taxi
34.0,-0.024972276084753237,9.709538138176981,19.99084215708027,-0.376657682218392,0.13723352526860444,93.56058007584227,14.405891293562,0.0,1.0,0.0,0.0,1.0,Taxi
34.1,-0.0878110112831048,-24.260021856768883,19.682380977463005,-0.6967344531793307,-0.09529384249617256,93.44698034685973,14.850976713954102,0.0,1.0,0.0,0.0,1.0,Taxi
34.2,-0.08499936330074433,50.31936686946771,19.435391562930153,-0.3832056125028996,0.524876128239565,93.51674844428192,13.646708738743527,0.0,1.0,0.0,0.0,1.0,Taxi
34.300000000000004,0.22662455826258532,-0.23040096712408817,19.175494382936655,-0.4601061704674761,-0.3154906258123942,93.44020436740607,15.6526957057611,0.0,1.0,0.0,0.0,1.0,Taxi
34.4,-0.08896301611872527,38.2368749742209,19.937980330171126,-0.38859390913295866,-0.3855627524236043,93.48610554917502,14.603565619250343,0.0,1.0,0.0,0.0,1.0,Taxi
34.5,0.1061850115703602,-78.77095376519867,20.370369199551817,-0.22981993049487037,-0.2299988569905096,93.63157361669818,14.777003348064975,0.0,1.0,0.0,0.0,1.0,Taxi
34.6,-0.16723021056340806,9.551563213890637,20.037480586394075,-0.3121555897851098,0.6589881877280536,93.50612880539387,15.01770013041055,0.0,1.0,0.0,0.0,1.0,Taxi
34.7,-0.04120520004927211,-6.89180105964707,19.70153381273266,-0.39772500937027955,0.5863984504698057,93.62849696462388,14.213534038459176,0.0,1.0,0.0,0.0,1.0,Taxi
34.800000000000004,0.07172600627212482,9.750559109238935,20.39079072461183,0.0008376822107499793,0.20749841715963752,93.65616749260084,15.569030081865412,0.0,1.0,0.0,0.0,1.0,Taxi
34.9,-0.11847741501721339,-33.387859108915706,19.014693007643775,-0.15415468641167768,-0.5144142343922986,93.57714032224231,14.104647994864246,0.0,1.0,0.0,0.0,1.0,Taxi
35.0,-0.20814449559385065,-8.45420685516178,19.86668233710026,-0.3295194191329084,-0.12749013535394724,93.52644504497403,14.910859000882219,0.0,1.0,0.0,0.0,1.0,Taxi
35.1,0.029454971996315877,61.28549743179843,18.544009572514383,-0.43795300830425976,0.502405140731488,93.5285863693424,13.727483064299463,0.0,1.0,0.0,0.0,1.0,Taxi
