time_s,altitude_ft,vertical_speed_fpm,ias_kt,pitch_deg,roll_deg,heading_deg,throttle_pct,afterburner_on,gear_down,flaps_deg,speedbrake_pct,weight_on_wheels,label
0.0,-0.06624485887973468,-3.620551342231837,17.856454773417912,1.9686253481222282,0.02471425581451957,115.41043658983506,23.060663632747556,0.0,1.0,0.0,0.0,1.0,Taxi
0.1,-0.0783133633538408,38.150851093137014,17.589499421581543,1.5566601360816805,0.07078609268716582,115.60151470460391,24.06743939704211,0.0,1.0,0.0,0.0,1.0,Taxi
0.2,0.12450939658595038,10.150242179635143,18.670379896779952,1.7831889502771157,0.46817170769905786,115.34230901142405,22.461093269103937,0.0,1.0,0.0,0.0,1.0,Taxi
0.30000000000000004,-0.01549364798155898,6.389584866827125,17.948664281487368,1.6493216977274294,0.1251990886086264,115.33034099537747,23.174439997194696,0.0,1.0,0.0,0.0,1.0,Taxi
0.4,-0.0463654390197052,-18.990071590721175,16.72499211716692,2.0081806956637025,0.13359829083678856,115.31888137366599,22.726800080367415,0.0,1.0,0.0,0.0,1.0,Taxi
0.5,0.029559038632344478,6.495043362903869,18.782886725504618,1.5041637153772707,-0.37832246819609144,115.29282765159076,21.67731011136947,0.0,1.0,0.0,0.0,1.0,Taxi
0.6000000000000001,0.01698156883296034,6.549702392161678,18.542577583721858,1.8979427602478351,0.2118987594856839,115.43450431129452,23.498319437916837,0.0,1.0,0.0,0.0,1.0,Taxi
0.7000000000000001,-0.013616927058896826,15.255004548919493,17.14536257824397,2.0908598163708416,-0.1929124752450873,115.37391188170477,22.73633185139732,0.0,1.0,0.0,0.0,1.0,Taxi
0.8,0.10583406137694194,-48.51305154508467,17.456138431569773,1.6183939062537498,0.2808115867811154,115.27033059926487,23.516054128119208,0.0,1.0,0.0,0.0,1.0,Taxi
0.9,-0.22558368889246305,-18.49671757772427,18.119604865463504,1.874555767349102,-0.07249768908510333,115.35318686112038,23.27483251309278,0.0,1.0,0.0,0.0,1.0,Taxi
1.0,-0.10610051494751821,-41.842780034630394,17.93332575138254,1.5062286851352957,-0.40386464274022704,115.45435060128227,23.266350954339224,0.0,1.0,0.0,0.0,1.0,Taxi
1.1,-0.10337983879621007,77.02666359487785,18.84412959271366,1.6508605223915578,-0.11321068698333256,115.48197155307349,22.683249572101424,0.0,1.0,0.0,0.0,1.0,Taxi
1.2000000000000002,0.15954962908192616,48.546531893118704,18.516080315264762,1.6370566204361898,-0.27249951198914507,115.34211221523378,22.588211896237553,0.0,1.0,0.0,0.0,1.0,Taxi
1.3,0.13663214451807537,23.44759630708521,17.95705076304205,2.251959323009651,-0.20677139234505792,115.3041898356895,23.92880963963408,0.0,1.0,0.0,0.0,1.0,Taxi
1.4000000000000001,0.013858142739216006,-32.98044803293612,17.533933297408915,1.6539284180158718,-0.04734395990466276,115.55431141759038,23.054516358820905,0.0,1.0,0.0,0.0,1.0,Taxi
1.5,-0.0053526110827544285,-34.20394858385901,17.352104001135146,1.6896184140243937,-0.019685315590647023,115.3727237834139,23.91131765221045,0.0,1.0,0.0,0.0,1.0,Taxi
1.6,-0.03438759840121971,17.932120173639433,18.722018719556775,1.8708332610554343,-0.7606753305661219,115.6245984982915,22.88236558803836,0.0,1.0,0.0,0.0,1.0,Taxi
1.7000000000000002,0.10351874360741319,-22.844494285043783,17.514363430010775,1.7011446152883407,0.6250720780793777,115.45286913923417,23.098584069955862,0.0,1.0,0.0,0.0,1.0,Taxi
1.8,-0.11957508250797336,24.68533348047683,18.06073684450363,2.0441125909414697,-0.24978117281640813,115.23593581370807,23.1847450423262,0.0,1.0,0.0,0.0,1.0,Taxi
1.9000000000000001,0.08903906900116446,12.198372790828307,18.15875898628292,1.8466576889049833,0.7983924457131203,115.3563934145007,23.455641974237356,0.0,1.0,0.0,0.0,1.0,Taxi
2.0,0.1645106075615547,28.11510926751018,17.366166429924665,1.795708244667632,0.2475061792828761,115.42696696960013,21.74512165224435,0.0,1.0,0.0,0.0,1.0,Taxi
2.1,0.021000463829577577,-11.890137368219284,18.364978208059725,1.7665545298258107,-0.5654302156497538,115.50206829029383,22.67027255414171,0.0,1.0,0.0,0.0,1.0,Taxi
2.2,0.029588382160068007,-29.773290606367166,18.751192781715428,1.617041859590335,-0.4421871712925965,115.31240313058777,23.167710545454053,0.0,1.0,0.0,0.0,1.0,Taxi
2.3000000000000003,0.015644154529718828,-12.509043222246499,18.16854879338338,2.0748601680042356,0.1611079280091822,115.41629774722554,23.64880932748929,0.0,1.0,0.0,0.0,1.0,Taxi
2.4000000000000004,-0.041544752281654926,-38.589686049145435,17.407955713425853,1.9593689084255446,-0.4897926246357477,115.34632616504422,23.341769795733054,0.0,1.0,0.0,0.0,1.0,Taxi
2.5,-0.16336004808565918,-0.15370936944895183,18.652739522545133,2.1999201781357174,0.5422303273588329,115.50228892860105,22.680932475144697,0.0,1.0,0.0,0.0,1.0,Taxi
2.6,0.014875607682474035,-4.405091677651498,17.784387905867785,2.033338569844092,0.28567521421033387,115.30191470002626,23.109136128429114,0.0,1.0,0.0,0.0,1.0,Taxi
2.7,-0.06357021066991246,15.02099796249073,17.64071343534834,1.7336514417642346,1.134380667497101,115.43328392493498,24.241510054914883,0.0,1.0,0.0,0.0,1.0,Taxi
2.8000000000000003,-0.08825505827320557,-7.108895590273477,19.486702810106053,1.722026829209677,0.24367601288299054,115.38977119533013,23.007905007372173,0.0,1.0,0.0,0.0,1.0,Taxi
2.9000000000000004,-0.020668870268893375,27.08803271006742,17.114533980742166,2.1628269715706816,-0.4653775648024333,115.45126393964074,22.779835243120797,0.0,1.0,0.0,0.0,1.0,Taxi
3.0,0.07186995288042461,26.10872526950182,17.47436346194517,1.8008110854850838,0.36652539073697815,115.39657062206754,23.2805398929248,0.0,1.0,0.0,0.0,1.0,Taxi
3.1,0.04228856807430351,11.380831307897978,18.40634254009993,1.839812522052772,0.04905047157996884,115.31471558307794,22.806925669799888,0.0,1.0,0.0,0.0,1.0,Taxi
3.2,0.03623528627059649,-1.1541911551214774,18.099704422860643,1.787993478135938,0.017230540092433275,115.40048243622914,23.032189325958864,0.0,1.0,0.0,0.0,1.0,Taxi
3.3000000000000003,0.0660989971048172,-0.5411278300853185,18.324140033348545,1.8293312508263362,0.2503955339995767,115.2962699699874,23.150425061451678,0.0,1.0,0.0,0.0,1.0,Taxi
3.4000000000000004,0.0395829289238769,10.463176663212433,18.311662696327804,1.8881292046596398,-0.42265539726823076,115.32110490969285,22.60831928979677,0.0,1.0,0.0,0.0,1.0,Taxi
3.5,0.08855116958665864,8.419125397264397,18.103821719556624,2.0974281052383645,0.25229847928344895,115.41559928724746,22.61413002459668,0.0,1.0,0.0,0.0,1.0,Taxi
3.6,0.10819462409113917,9.887938279282432,18.835098029167963,2.3848386803168826,0.3027893827379282,115.2395866092387,23.85172899302829,0.0,1.0,0.0,0.0,1.0,Taxi
3.7,0.08902262032028904,-31.792791276022765,18.694674345712393,1.8062962469578125,0.16416906606353768,115.5169452139944,22.3481341581869,0.0,1.0,0.0,0.0,1.0,Taxi
3.8000000000000003,-0.0704127867934552,-5.197139863987222,18.06845638996566,1.7994105480044766,-0.9665833591853092,115.45536062001116,22.393395724018553,0.0,1.0,0.0,0.0,1.0,Taxi
3.9000000000000004,0.08220892477120303,-26.740007975458536,18.050630030438963,1.8401616559500853,0.050635127099573234,115.62057407689394,22.952153366733093,0.0,1.0,0.0,0.0,1.0,Taxi
4.0,-0.04467741955700366,-5.166497801976924,18.381687652354728,1.9644286526367738,-0.7086196308324627,115.63883464842411,22.433989941421608,0.0,1.0,0.0,0.0,1.0,Taxi
4.1000000000000005,-0.09624527580333986,-29.14273662280347,18.085768320771344,1.784429707449387,-0.6496340739293952,115.31466976608937,23.188801548383832,0.0,1.0,0.0,0.0,1.0,Taxi
4.2,-0.06350475834281434,-9.081834403052499,18.978346321708315,1.5252057488814015,-0.5600395601149456,115.49860879597617,23.032407203325295,0.0,1.0,0.0,0.0,1.0,Taxi
4.3,-0.0900865915722662,36.391383471792494,18.771356036071612,1.5296014621934269,-0.10678016990512477,115.44558563562532,23.267446997442704,0.0,1.0,0.0,0.0,1.0,Taxi
4.4,0.0857116415556226,17.77633071905416,18.52134614875032,2.155979795377181,-0.13991841021365908,115.5363001025861,23.47404704185292,0.0,1.0,0.0,0.0,1.0,Taxi
4.5,0.02537689525245644,39.492007957361075,19.02357031966037,1.7218092446138693,0.7678046436064203,115.3937975323638,23.099618740687482,0.0,1.0,0.0,0.0,1.0,Taxi
4.6000000000000005,0.10737344821453915,4.422745291426427,18.523558850278864,1.634734682398522,0.43777051344899837,115.39683096268004,23.47612795552219,0.0,1.0,0.0,0.0,1.0,Taxi
4.7,0.10782536801275469,-7.641308319618915,18.281192704143077,2.3070938967865984,0.6172244779555719,115.41760238806495,21.989671915643015,0.0,1.0,0.0,0.0,1.0,Taxi
4.800000000000001,-0.01282964634563816,-7.81198279740714,18.19053159617405,1.9549381400109886,0.44069160551848907,115.44981464247735,22.87620137395774,0.0,1.0,0.0,0.0,1.0,Taxi
4.9,0.06831353422750343,-49.75073264657434,18.317220024427307,1.740331756457541,-0.5919803170256557,115.41878944043947,21.982767467440954,0.0,1.0,0.0,0.0,1.0,Taxi
5.0,-0.14092829522011704,-14.743933015497339,19.123281373655296,1.5918054213412562,-0.3616464608497737,115.48300176188098,23.05408178682619,0.0,1.0,0.0,0.0,1.0,Taxi
5.1000000000000005,-0.08654931142312489,-42.838760782149194,18.385436749550166,2.1040831890980267,-1.3228138589924343,115.37105913238588,23.561581674425337,0.0,1.0,0.0,0.0,1.0,Taxi
5.2,-0.1458802696832426,9.973221380714648,17.416312112019714,1.5588267251286558,-0.004761936656312984,115.27426361597526,22.241058568594493,0.0,1.0,0.0,0.0,1.0,Taxi
5.300000000000001,-0.09106218831654385,1.6647629359671996,17.79442090355438,1.5501731971757087,0.740947342934394,115.38151855097874,21.913118219565476,0.0,1.0,0.0,0.0,1.0,Taxi
5.4,-0.07822549674328894,18.62356475824951,18.786069607883658,1.9161794248456383,0.029698730022836944,115.37711902727938,22.52991511453682,0.0,1.0,0.0,0.0,1.0,Taxi
5.5,-0.05276244589199508,9.006297331417313,17.7597564542122,1.5962090073895117,-0.5650579879376976,115.6529094311228,23.29282291849599,0.0,1.0,0.0,0.0,1.0,Taxi
5.6000000000000005,-0.04603070165945733,1.4307053754204695,18.3348877375729,1.6031146633679774,-0.4085669915867729,115.42693764342522,22.981494484906175,0.0,1.0,0.0,0.0,1.0,Taxi
5.7,-0.07107196986618664,-11.259224390470479,18.557910545819873,1.9220780933430428,0.2389449357680143,115.50954437274333,22.597496985552045,0.0,1.0,0.0,0.0,1.0,Taxi
5.800000000000001,-0.10905856784434752,28.58303716338268,18.31547406252354,1.9041644065276353,-0.2417254134744024,115.41411564658176,22.990411761233283,0.0,1.0,0.0,0.0,1.0,Taxi
5.9,0.09688448415745606,10.973225574497675,18.12919823962854,1.513100463998792,0.47766948236092344,115.31315050204898,22.13116772167766,0.0,1.0,0.0,0.0,1.0,Taxi
6.0,-0.01620584199369829,32.65312524325509,17.644613136276906,1.95464823532273,0.4088488581968019,115.32905745958624,22.966113433571028,0.0,1.0,0.0,0.0,1.0,Taxi
6.1000000000000005,0.05420705837192789,-34.14184238688413,18.612157629619254,1.4833159874801929,-0.12329273094838232,115.46333748761361,22.525220909829123,0.0,1.0,0.0,0.0,1.0,Taxi
6.2,-0.07382472777696464,-17.734303262194597,17.582166224597376,1.869281272400687,-0.5608057708392163,115.51537455044763,23.286966586720478,0.0,1.0,0.0,0.0,1.0,Taxi
6.300000000000001,-0.10487735830467133,9.66545079644608,18.472324599683155,1.5799191179237553,0.28224088687620613,115.4981925462236,22.16221118122495,0.0,1.0,0.0,0.0,1.0,Taxi
6.4,0.1025343123541582,38.09531139063999,16.985770433046987,1.9226485687043997,-0.33148639288463216,115.45941880426346,22.915480305022406,0.0,1.0,0.0,0.0,1.0,Taxi
6.5,0.11665182917623523,25.9680298888299,17.727995856225096,1.8432191899282058,0.2547866686771644,115.49021580909056,22.71959876285886,0.0,1.0,0.0,0.0,1.0,Taxi
6.6000000000000005,0.024962791139478063,-22.456537893876543,18.23033170973053,1.7186474604226734,0.31066644944283905,115.48022406692945,23.400041889899818,0.0,1.0,0.0,0.0,1.0,Taxi
6.7,-0.009748377115224595,8.654801056535215,18.130585167641634,1.683141072782726,-0.2635108328028971,115.46977033090565,22.485929687324138,0.0,1.0,0.0,0.0,1.0,Taxi
6.800000000000001,0.15992583445891123,16.861231252625448,18.635159674949556,1.844740112459819,0.7991390818956748,115.48516654499213,21.868070577228263,0.0,1.0,0.0,0.0,1.0,Taxi
6.9,0.10926894740260525,-2.7834962465410436,17.07643551655359,1.707454401646623,-0.1320210069305371,115.46134647317581,23.180727672019426,0.0,1.0,0.0,0.0,1.0,Taxi
7.0,-0.023665858347929863,-51.5030336416782,17.72407670792397,1.6693909903119286,0.485849556705708,115.38326838165784,22.23559025578856,0.0,1.0,0.0,0.0,1.0,Taxi
7.1000000000000005,-0.09758933374947984,6.90313783211099,17.564990022944944,1.778519663910591,0.4038259535978374,115.4366631080905,22.79998275837354,0.0,1.0,0.0,0.0,1.0,Taxi
7.2,0.14378463656316015,-44.324706154178806,18.82244669841974,1.9790054614004349,-0.1429060771625877,115.64851821326647,23.05865203352235,0.0,1.0,0.0,0.0,1.0,Taxi
7.300000000000001,-0.24528938911882392,17.53996837534071,17.662565275447317,1.550966678972088,-0.5851094772587281,115.4795728440319,21.737471436782528,0.0,1.0,0.0,0.0,1.0,Taxi
7.4,-0.009889491872776372,-37.886152362864586,18.074106258907875,1.7032548088585706,0.016566721137723485,115.55131313570456,22.29784101620025,0.0,1.0,0.0,0.0,1.0,Taxi
7.5,-0.04564612525116289,35.336974612491154,18.30475402829201,2.0727449533867075,0.4006193448231485,115.38782661372107,23.401639070547162,0.0,1.0,0.0,0.0,1.0,Taxi
7.6000000000000005,-0.06860451605636823,-14.189662501132199,17.838650064564543,1.7393213938426169,-0.09533883019230402,115.41952853296175,23.339136843215567,0.0,1.0,0.0,0.0,1.0,Taxi
7.7,-0.08083780437843746,6.848309710698199,18.502368256505285,2.3162845274319013,-0.1728129423773244,115.33647438837517,22.804585658923312,0.0,1.0,0.0,0.0,1.0,Taxi
7.800000000000001,-0.011404576697671993,35.06489706812215,17.82625426793369,2.071631851384858,0.23126911904012976,115.37118510674708,22.318480438122595,0.0,1.0,0.0,0.0,1.0,Taxi
7.9,0.10671996928424242,-0.5329943412126615,17.111748718644296,1.7156476521936908,0.13673563523274007,115.50117994346522,24.17826160790511,0.0,1.0,0.0,0.0,1.0,Taxi
8.0,-0.08350277608450085,32.994765011128244,17.60435560771863,1.6481382040805077,-0.377920260278582,115.3222645431876,23.026703454150116,0.0,1.0,0.0,0.0,1.0,Taxi
8.1,0.15356924835796915,-27.747273419574796,17.07908035538204,1.970933637973702,-0.7189562977337121,115.61624423321848,23.2885661304761,0.0,1.0,0.0,0.0,1.0,Taxi
8.200000000000001,-0.03201639781363163,-9.737884766522576,18.27677285033149,2.2669690365974056,0.30032316821585425,115.45264167482435,22.537725930242644,0.0,1.0,0.0,0.0,1.0,Taxi
8.3,-0.1321921999171138,-46.851737438232085,18.113562851998214,1.6389546353050493,-0.37876299329617213,115.60868612135158,22.32454925402832,0.0,1.0,0.0,0.0,1.0,Taxi
8.4,-0.08068943883319138,-4.588432603345681,18.024606691445726,2.153310022533531,-0.23949403534807215,115.56012311969033,23.38189794170856,0.0,1.0,0.0,0.0,1.0,Taxi
8.5,-0.05495856083036012,16.1825085713858,18.500425866745733,2.0371125620170374,0.5350716616894365,115.45638669300604,22.762087782357124,0.0,1.0,0.0,0.0,1.0,Taxi
8.6,-0.051279657060184905,-5.868165618976396,18.539372858325994,1.6464193831511402,1.3220573951599583,115.34626742375565,22.9741445571685,0.0,1.0,0.0,0.0,1.0,Taxi
8.700000000000001,-0.11003026692807344,23.301434912286837,17.588878766712728,2.1343870270526217,1.0300212445121,115.39341324640588,22.770117717905887,0.0,1.0,0.0,0.0,1.0,Taxi
8.8,0.06154861373107402,22.2297067687069,18.380137824514055,1.8361479361605086,0.012629580264339678,115.43445961203133,23.585086813657227,0.0,1.0,0.0,0.0,1.0,Taxi
8.9,0.05986887678334956,18.505077537664587,17.54839970656752,1.9461253803182672,0.7472895345059912,115.42375097086608,22.758775743915983,0.0,1.0,0.0,0.0,1.0,Taxi
9.0,-0.017504879239750575,-35.11923281926007,17.22195538551,1.8289830583371467,-0.698485309397383,115.45764187368434,23.12275697954767,0.0,1.0,0.0,0.0,1.0,Taxi
9.1,-0.11404755036522643,-24.995071303922668,18.894076341050535,1.4882791239939361,-0.1264673320313363,115.62890600323811,22.933224734407105,0.0,1.0,0.0,0.0,1.0,Taxi
9.200000000000001,-0.06510647973626388,3.7964215506423735,18.109304455832586,1.66812389950613,-0.206946986427543,115.38527135468382,22.126730434713565,0.0,1.0,0.0,0.0,1.0,Taxi
9.3,0.0014772285134612047,-3.6468040964321538,18.49123375312939,1.9416533599068757,-0.2937179037820943,115.33854609145237,22.43475472825485,0.0,1.0,0.0,0.0,1.0,Taxi
9.4,-0.13228157084738726,-13.059309293126482,17.46251503564801,2.0649744762802857,0.10181729732744287,115.48384068290744,22.99973176518125,0.0,1.0,0.0,0.0,1.0,Taxi
9.5,-0.13040302620189637,-6.5392146663255035,18.402176724517947,1.742787901695644,0.19545413999702616,115.46849890100259,22.645596110949732,0.0,1.0,0.0,0.0,1.0,Taxi
9.600000000000001,-0.03121884481816642,-4.599939924999752,18.044893759388515,1.7221856351669245,-0.17853220545838272,115.33747465443759,22.726045475817546,0.0,1.0,0.0,0.0,1.0,Taxi
9.700000000000001,-0.15528127047238613,39.35642819728356,18.15091171696074,2.0968167175423726,0.08851481284955758,115.54491566428578,23.591623511907965,0.0,1.0,0.0,0.0,1.0,Taxi
9.8,0.06637911478452134,8.827761790180707,19.166594329206877,2.2528594879543364,-0.46002543597014844,115.26174928263981,22.693719475829003,0.0,1.0,0.0,0.0,1.0,Taxi
9.9,0.012919964132737011,57.45994443290761,17.06274274441171,2.0009572761656047,-1.393199005727728,115.5389211606028,23.939509768916174,0.0,1.0,0.0,0.0,1.0,Taxi
10.0,0.13201845169215182,-38.46928004185423,18.52212380596073,1.8000692906596032,0.0656409192058022,115.55349595900435,22.73342196491496,0.0,1.0,0.0,0.0,1.0,Taxi
10.100000000000001,-0.12596728542474994,-16.61618142420959,18.889611996985533,1.9670804537497923,0.21397028861828002,115.6437939339541,22.553369188273745,0.0,1.0,0.0,0.0,1.0,Taxi
10.200000000000001,-0.07016094298831102,-11.183280846950206,18.490040955888016,1.9342601800835737,0.4649931892790569,115.40332508983533,23.616064276126263,0.0,1.0,0.0,0.0,1.0,Taxi
10.3,0.07610204745740069,40.37545811830792,18.82394316694171,1.9677522807502703,-0.6413952789477075,115.44735853921355,22.997327152548014,0.0,1.0,0.0,0.0,1.0,Taxi
10.4,0.07591000516678954,-18.01480345370254,17.712935531159633,2.0411803312711827,-0.7084458971249629,115.4525014034096,23.54607634187782,0.0,1.0,0.0,0.0,1.0,Taxi
10.5,-0.1602349602568238,15.073353808703908,18.172115466129913,1.9492111084931514,-1.0467407755780307,115.37622381982618,22.260508903431973,0.0,1.0,0.0,0.0,1.0,Taxi
10.600000000000001,0.15146881650092023,-31.1429083354513,18.69734635157274,2.2282727317257405,0.18329304326542636,115.45601964786675,21.824684170923764,0.0,1.0,0.0,0.0,1.0,Taxi
10.700000000000001,-0.07980453651046698,59.78709979954109,17.83348397675222,1.8970531719980417,-0.37366294574791675,115.47459388625185,21.53665378685695,0.0,1.0,0.0,0.0,1.0,Taxi
10.8,0.1387005387408816,-35.35968194590642,17.311080791252888,1.694829592238357,-0.32867399978453654,115.47273544925827,22.12183340035747,0.0,1.0,0.0,0.0,1.0,Taxi
10.9,-0.02532959322861201,33.35500306977607,19.600754672967287,2.034585193955613,0.2962261299530446,115.52475979770725,22.163235248507448,0.0,1.0,0.0,0.0,1.0,Taxi
11.0,0.08697047883841325,-70.0644923311176,18.589265426313702,1.8543049342143656,0.7152554057869673,115.50738610764517,23.11665414590281,0.0,1.0,0.0,0.0,1.0,Taxi
11.100000000000001,-0.21162192291470647,84.64488909463556,18.640100053866536,1.9379223800266752,-0.2590517683398663,115.42903890202422,22.742684451464108,0.0,1.0,0.0,0.0,1.0,Taxi
11.200000000000001,0.39789485224456567,-17.704976551103908,18.209728237249955,2.0039368606222454,0.4289383375363021,115.28470530530848,22.67928143700071,0.0,1.0,0.0,0.0,1.0,Taxi
11.3,-0.001554403917106388,68.54434582127868,18.552179065797052,2.0500486973242342,0.24574367103580358,115.59629953499513,22.190954729474914,0.0,1.0,0.0,0.0,1.0,Taxi
11.4,0.1310998061916867,-77.9656232514651,17.90260831702458,1.498246429853395,0.7586311467905987,115.31994443637916,23.285057919130974,0.0,1.0,0.0,0.0,1.0,Taxi
11.5,0.008066735987239889,7.841228803523435,18.260065442918474,1.9450154992435642,0.18578835913694122,115.46959390816977,23.193404884719516,0.0,1.0,0.0,0.0,1.0,Taxi
11.600000000000001,0.03765174010051059,-6.091955014837784,18.303685691906306,1.7138831206905798,-0.3373768942874146,115.2922375884745,22.03830536381559,0.0,1.0,0.0,0.0,1.0,Taxi
11.700000000000001,0.1006400311174976,33.45896572687365,18.433482950012845,1.8277232553548006,-0.32102618439174235,115.38840777344404,22.65457556599503,0.0,1.0,0.0,0.0,1.0,Taxi
11.8,0.17536156462160793,-7.537126261115541,17.952970925880624,1.3886463835333642,0.7526409205642987,115.45198905706314,22.435490887949143,0.0,1.0,0.0,0.0,1.0,Taxi
11.9,-3.389120506728466e-05,11.945565731939675,18.022343794364716,1.9962872881456388,0.9745441922013649,115.46300662374188,23.716573537617318,0.0,1.0,0.0,0.0,1.0,Taxi
12.0,0.1603678597771958,-34.54775644787663,18.59801812767993,2.0009749190783532,-0.45104680116726664,115.32849703232876,22.951108035976976,0.0,1.0,0.0,0.0,1.0,Taxi
12.100000000000001,0.0026227823822245807,12.188380809019009,18.38786430868391,2.044654839328918,-0.9094494107604657,115.59406019704386,22.835138450434073,0.0,1.0,0.0,0.0,1.0,Taxi
12.200000000000001,0.060908012840027594,-27.440600673408213,18.721216226681776,1.881841675294716,0.20418987527167565,115.39042595434898,22.946011662527088,0.0,1.0,0.0,0.0,1.0,Taxi
12.3,0.023164856410154585,3.6193415987998456,17.48274080352293,1.638213738954484,-0.6077042601012981,115.54720860384407,22.936651287735888,0.0,1.0,0.0,0.0,1.0,Taxi
12.4,0.020719490376223653,-16.454728657722946,18.581531633653924,1.4998872232491567,-0.631545535939498,115.39311958566424,22.97739108572357,0.0,1.0,0.0,0.0,1.0,Taxi
12.5,-0.021365630448587292,-10.885433721255394,17.61199851958947,2.0354155365195963,-0.41395952468522734,115.40568133105018,21.77906225166053,0.0,1.0,0.0,0.0,1.0,Taxi
12.600000000000001,-0.03126231219612255,-7.428855245427319,19.05198180395662,2.0007112360232497,-0.2892929708617186,115.64922796167724,22.841851452765376,0.0,1.0,0.0,0.0,1.0,Taxi
12.700000000000001,-0.016424785850913108,23.70369009092471,18.232125647490754,1.8457002604521093,-0.8206967582014995,115.45209726392324,24.305953297944527,0.0,1.0,0.0,0.0,1.0,Taxi
12.8,0.09715282000603606,30.353605964465995,18.166647059686415,1.8178880105870445,0.3864402830179334,115.2516447761086,22.36175651440311,0.0,1.0,0.0,0.0,1.0,Taxi
12.9,0.12050571762620724,-36.315961936998825,18.31013751241658,2.035319983172004,-0.1209480203514238,115.44629989126724,23.30557398441755,0.0,1.0,0.0,0.0,1.0,Taxi
13.0,-0.19800459553590743,-27.611256300846534,18.420564706133316,1.592718691145547,0.22713323362084992,115.42980293150981,23.145325831074114,0.0,1.0,0.0,0.0,1.0,Taxi
13.100000000000001,-0.040903461498196736,-58.815988282559374,18.745550442030684,1.7552801475369844,-0.3388493351028922,115.39246665625484,22.791448311839712,0.0,1.0,0.0,0.0,1.0,Taxi
13.200000000000001,-0.1735742237865898,43.383317074070675,18.928050439939753,2.109790186755738,0.0639194031430957,115.3112501246352,22.37087872233865,0.0,1.0,0.0,0.0,1.0,Taxi
13.3,0.01891198983444581,-17.74704261666184,17.165313484056398,1.5328124705196469,-0.06091197822571068,115.36868192452084,23.111352527271187,0.0,1.0,0.0,0.0,1.0,Taxi
13.4,-0.12963867458150607,9.962161377900761,18.0554252822961,1.99688674317346,0.25314403911147226,115.60686114342434,22.650733746464525,0.0,1.0,0.0,0.0,1.0,Taxi
13.5,-0.12376341689708613,-10.222404720164272,17.91057921668767,1.6421054390046588,-0.567772055826614,115.37664837970709,22.7895912550022,0.0,1.0,0.0,0.0,1.0,Taxi
13.600000000000001,-0.03220003376637572,-4.52382025303262,17.773626426887418,1.7247814207887633,0.44061785034296325,115.46397496718538,23.060690264813356,0.0,1.0,0.0,0.0,1.0,Taxi
13.700000000000001,-0.15225777584666936,36.015117361743684,17.4297397871811,1.79959013026121,-0.029038163572727087,115.37895233707866,22.365060912582035,0.0,1.0,0.0,0.0,1.0,Taxi
13.8,0.056312169911632085,10.427984585978447,18.221643466123144,1.8972832440587546,-0.3678075230903126,115.31820222031365,22.655256622567816,0.0,1.0,0.0,0.0,1.0,Taxi
13.9,0.01993988916351633,15.830568920332206,17.450162511875895,1.8491317768172326,0.09358813392231603,115.38215751052093,23.196883766277107,0.0,1.0,0.0,0.0,1.0,Taxi
14.0,-0.0731049312450085,-1.9385286569065745,18.76607243632799,1.9345294088457192,0.5598981567591644,115.51837365568241,22.82202008852405,0.0,1.0,0.0,0.0,1.0,Taxi
14.100000000000001,0.04661952662709905,-12.4981600794163,17.75240255553118,1.9734916063766108,0.3723463832002182,115.54292142765951,21.9272263936864,0.0,1.0,0.0,0.0,1.0,Taxi
14.200000000000001,-0.04255091123356535,16.22805104150612,18.43241006875669,1.6586791802139351,0.4471951242943465,115.3928980286662,23.036585161390533,0.0,1.0,0.0,0.0,1.0,Taxi
14.3,0.008035323962521913,42.86920230879534,17.723124349877438,1.7795037069650126,0.02827780486020554,115.39119370225723,23.129007136417,0.0,1.0,0.0,0.0,1.0,Taxi
14.4,0.26096553817107554,3.4377829704905025,17.693497074443073,1.7820066719326162,-0.4364209921103144,115.66346906553667,23.181987958922313,0.0,1.0,0.0,0.0,1.0,Taxi
14.5,-0.025361996381113035,0.3341050843830011,17.957482813609907,2.0357699892160115,-0.0909055561081984,115.48705389457143,22.735495287602397,0.0,1.0,0.0,0.0,1.0,Taxi
14.600000000000001,0.009705849384436728,-37.297201467095455,17.612921061544142,1.7676959969243429,0.020600088249967466,115.54227908687943,22.36318068817052,0.0,1.0,0.0,0.0,1.0,Taxi
14.700000000000001,0.0744795308355981,62.630513799265145,18.84573178227382,1.5771487703714255,0.5251032007287898,115.50276708820854,22.226783958391028,0.0,1.0,0.0,0.0,1.0,Taxi
14.8,0.2877905726152125,-14.367767800158987,18.380455738712747,1.7429189993639382,-0.4055397278594319,115.58834130735175,22.643634894932312,0.0,1.0,0.0,0.0,1.0,Taxi
14.9,-0.062132989616358374,-22.777957777405245,18.641057679444437,2.0419191762900017,0.5500441715678478,115.4323911261863,23.204639294514468,0.0,1.0,0.0,0.0,1.0,Taxi
15.0,-0.03941025805142831,-46.445312894467655,17.98783193317404,1.9100976346971745,0.49273757400393225,115.4638951462025,22.489552520760412,0.0,1.0,0.0,0.0,1.0,Taxi
15.100000000000001,0.055564008142874044,3.262866658037119,18.83059339635729,1.9304198277570308,0.6578531861180145,115.40540096934762,23.74418541841386,0.0,1.0,0.0,0.0,1.0,Taxi
15.200000000000001,-0.04581865632617296,12.842846196799863,18.52980902155347,1.6132140502970134,0.3905327580486387,115.31617750713275,22.545543145297028,0.0,1.0,0.0,0.0,1.0,Taxi
15.3,0.024803972932570837,27.947315496006045,17.668092442622296,2.1127688462502183,-0.014555194313582952,115.39732015899637,23.540268597757866,0.0,1.0,0.0,0.0,1.0,Taxi
15.4,0.1953005856229041,4.141575767266346,18.276585119983828,1.9418953282758267,-0.2827652629522304,115.23049905785922,23.040735305379968,0.0,1.0,0.0,0.0,1.0,Taxi
15.5,-0.025110777489841446,-14.00742243006721,18.64189761785575,1.9159209823474743,0.6999197844264824,115.3528241829182,22.573894750879727,0.0,1.0,0.0,0.0,1.0,Taxi
15.600000000000001,-0.04523313921776542,-3.002365241263931,17.91170352523694,1.7657344152115406,0.26430158769640283,115.47926641755134,22.255296308165782,0.0,1.0,0.0,0.0,1.0,Taxi
15.700000000000001,0.18028875941658423,-4.3818864460540015,18.62217594457505,2.1316083917349946,-0.7580540180927732,115.56975568803148,23.095230680227647,0.0,1.0,0.0,0.0,1.0,Taxi
15.8,-0.0470202097201117,15.192136833232738,17.330023721581682,1.5441492008160835,0.6153340609846562,115.32140627616553,22.77428422490725,0.0,1.0,0.0,0.0,1.0,Taxi
15.9,0.030727544948398022,-74.17271146543999,18.11175898492891,1.5203859728859839,0.01793539707015572,115.51499407646361,22.46708165973005,0.0,1.0,0.0,0.0,1.0,Taxi
16.0,-0.19057479791061596,22.49181540914803,17.947664016634626,1.712189935391085,0.17444782492855032,115.41218943104758,22.867748213365978,0.0,1.0,0.0,0.0,1.0,Taxi
16.1,0.06543886732562826,-1.0512663741318171,19.063631795577976,1.7681525182545483,0.9431767726469406,115.42382799339623,22.956646779663785,0.0,1.0,0.0,0.0,1.0,Taxi
16.2,0.02547121307773876,8.445366991886184,17.648836788842967,1.8347719851170419,-0.08594149567163614,115.53775127549778,22.39549070559236,0.0,1.0,0.0,0.0,1.0,Taxi
16.3,-0.14834796295118524,-13.914065373662908,18.243170501245,1.9062605014922496,-0.9681687421751898,115.49129748273339,22.893171755728954,0.0,1.0,0.0,0.0,1.0,Taxi
16.400000000000002,-0.0041314595426865134,13.988454687964056,19.030171777069114,2.0405382313509817,0.1137844904110261,115.31013826814683,21.746609217957612,0.0,1.0,0.0,0.0,1.0,Taxi
16.5,0.09541348651755881,18.652601663811193,18.3470809193476,1.8441435873733676,-0.2611208358213365,115.41395532553838,22.161160902406728,0.0,1.0,0.0,0.0,1.0,Taxi
16.6,-0.05508495463212953,-9.591865567146149,17.68931896651274,1.742075540028826,-0.13687434842095123,115.39811250790558,23.29772852165703,0.0,1.0,0.0,0.0,1.0,Taxi
16.7,-0.05209078737841749,4.213902965674076,18.643422116583064,1.787632430381855,-0.3617730187298176,115.51790697285645,22.64482668784237,0.0,1.0,0.0,0.0,1.0,Taxi
16.8,0.11648300134592895,9.647061625788274,19.31334095246539,1.9903335522527221,-0.8157643723053714,115.53936394853451,23.16532012892698,0.0,1.0,0.0,0.0,1.0,Taxi
16.900000000000002,-0.006849646503188373,24.136461317230385,18.243216891837235,1.7290041909191267,0.33264755471300195,115.50166389538765,23.10663955516998,0.0,1.0,0.0,0.0,1.0,Taxi
17.0,0.06859151920773424,1.587947916749788,19.179500769149055,1.8164002690601706,0.7562811252834721,115.42694321174667,23.318415138136388,0.0,1.0,0.0,0.0,1.0,Taxi
17.1,0.1244227409296777,-15.620464872454695,18.53969690615599,1.7313835529599066,0.24394061443566437,115.3424224622375,23.175220823368104,0.0,1.0,0.0,0.0,1.0,Taxi
17.2,-0.08495197086546209,-29.754204105870794,19.378989539046476,1.9500541507494136,-0.4079326923871387,115.3743091450338,23.273150933943665,0.0,1.0,0.0,0.0,1.0,Taxi
17.3,-0.08017950132161998,-17.72022965225254,18.532611646616292,1.9582370812061651,-0.025600982748115682,115.43496139491515,22.093863500808304,0.0,1.0,0.0,0.0,1.0,Taxi
17.400000000000002,0.03582159266841473,0.8819952299294584,19.488878317739687,2.032466913565769,1.2943294246712786,115.46737864679812,23.650782281700852,0.0,1.0,0.0,0.0,1.0,Taxi
17.5,-0.08054199471581502,15.887872623268327,17.963065248546112,1.8123549420012988,0.34379510871324054,115.4107344625076,23.132956306338052,0.0,1.0,0.0,0.0,1.0,Taxi
17.6,-0.0007401382052785785,-0.15298237210769608,18.306420681160127,1.8275160525400402,0.03401543319178901,115.56705065871358,24.081089655558273,0.0,1.0,0.0,0.0,1.0,Taxi
17.7,0.03505668080787602,31.16708944242147,17.615653629447365,1.6161078175096035,-0.6027181143154283,115.52186445341192,22.75582679743257,0.0,1.0,0.0,0.0,1.0,Taxi
17.8,0.0752934524962921,-6.219385270181879,18.672521881440684,1.5155540311793056,0.05954333410508239,115.61499215876643,22.411023366871397,0.0,1.0,0.0,0.0,1.0,Taxi
17.900000000000002,-0.03183706455618817,28.48668395096946,18.337254436594154,1.7604680253518765,-0.20380570293325828,115.32022143196866,23.403156831461516,0.0,1.0,0.0,0.0,1.0,Taxi
18.0,0.1774901005627231,37.143920652033046,18.621357107035887,1.7898148204093294,0.37926482261826117,115.52084381681368,23.26275703237486,0.0,1.0,0.0,0.0,1.0,Taxi
18.1,0.2610130557564571,-10.020671799879333,18.533912696107933,1.801068179299563,-0.03546582456076479,115.55587392678882,21.97913122333303,0.0,1.0,0.0,0.0,1.0,Taxi
18.2,-0.08194042355558515,18.122717785621678,18.499821734313915,2.038549081594529,0.645070340447862,115.35010962754018,22.799987281461345,0.0,1.0,0.0,0.0,1.0,Taxi
18.3,0.26810368949083124,-63.65541806785223,18.72235805239442,1.5807081287957643,0.7014151414199946,115.47006459541888,22.522533090431686,0.0,1.0,0.0,0.0,1.0,Taxi
18.400000000000002,-0.057264034582804296,-13.268232580153004,18.796675262248314,1.5178486572205798,-0.8600432803854531,115.44180340173261,22.58117008606799,0.0,1.0,0.0,0.0,1.0,Taxi
18.5,-0.14828158645635034,-51.84660273589517,18.463576450180554,1.4922216617416204,0.22505397925580775,115.42244825985347,22.874494431512627,0.0,1.0,0.0,0.0,1.0,Taxi
18.6,0.008870675811355234,21.155331480201436,18.376854338208716,1.7536233049929864,0.7521978019121686,115.33365710078215,22.37621212199261,0.0,1.0,0.0,0.0,1.0,Taxi
18.7,0.04851262281820265,18.595127879995175,17.72260490501699,2.150668822632716,0.5334126701910322,115.40070822568657,23.380531008116126,0.0,1.0,0.0,0.0,1.0,Taxi
18.8,-0.055305947056374705,-6.61812102523865,18.852898137394,2.077285776342021,-1.12906620263902,115.37085241123157,22.43795404391549,0.0,1.0,0.0,0.0,1.0,Taxi
18.900000000000002,-0.024219929314838268,4.946689528133352,17.69616807909977,2.044131536359209,0.9434510387646551,115.53103850400049,22.437759288163146,0.0,1.0,0.0,0.0,1.0,Taxi
19.0,0.07324607045886916,-23.296928254711887,18.08986870215141,1.7239383206414183,-0.7249759219758296,115.58628524581343,22.20462990006136,0.0,1.0,0.0,0.0,1.0,Taxi
19.1,-0.17179058832993438,2.521020621131072,18.24582374945346,1.5997716463272316,-0.8950806664834328,115.34601212765375,22.98991450464145,0.0,1.0,0.0,0.0,1.0,Taxi
19.200000000000003,-0.011614826209183157,-38.97987878907242,17.418976724199034,1.926540184399172,-0.8500528723173129,115.51691034489664,22.250581279031444,0.0,1.0,0.0,0.0,1.0,Taxi
19.3,-0.12165332348649321,24.530405955603147,17.462300481517584,2.177024062214382,0.28070978503156124,115.45068785884581,23.12270807963958,0.0,1.0,0.0,0.0,1.0,Taxi
19.400000000000002,-0.0491385585519189,34.465442364139264,17.763281892121753,1.7980070999930176,-0.4792578889597688,115.47273503585319,23.39342203094767,0.0,1.0,0.0,0.0,1.0,Taxi
19.5,0.1607123856115129,30.421214177541405,18.504836445653375,1.6678099807079405,-0.3897934900808326,115.39975655450121,22.585505875460193,0.0,1.0,0.0,0.0,1.0,Taxi
19.6,0.03045274740121355,57.16049252445839,18.41249536213003,1.7367069201245806,-0.28590041046881487,115.36481633333102,23.56318144417298,0.0,1.0,0.0,0.0,1.0,Taxi
19.700000000000003,0.23666390407037277,-42.74790914318087,17.86746080315593,1.7575010319883362,0.594299058734393,115.5852986059486,22.698951370026474,0.0,1.0,0.0,0.0,1.0,Taxi
19.8,-0.05302716010439166,18.581257988276892,19.018880853055034,2.189375605194626,0.3532283754845634,115.38979420567455,23.417346472368713,0.0,1.0,0.0,0.0,1.0,Taxi
19.900000000000002,0.12335903734259782,-29.030296123777635,17.977377705550808,1.8163151444794394,-0.6605961629870573,115.52193196754467,23.251272707804386,0.0,1.0,0.0,0.0,1.0,Taxi
20.0,0.09151242345148439,-23.40955192399476,19.13000332347269,2.0640791106395078,-0.38620691463391776,115.51244235680286,22.520672970598245,0.0,1.0,0.0,0.0,1.0,Taxi
20.1,-0.17007491972436567,-36.700066962520175,18.03468045537773,1.9685545818249144,-0.7921068344517894,115.42417511738768,22.89296810314297,0.0,1.0,0.0,0.0,1.0,Taxi
20.200000000000003,-0.060141297470003255,10.164286049368291,17.801493166730232,1.9524301335747816,-0.3604986673926112,115.49998744981872,22.954454664578417,0.0,1.0,0.0,0.0,1.0,Taxi
20.3,0.1423338536983256,42.91314717167131,19.793650673128468,2.076754935033014,0.20935760961081512,115.3989602779829,22.39755104843948,0.0,1.0,0.0,0.0,1.0,Taxi
20.400000000000002,0.04449081613399067,-3.757076772861472,16.978045187718863,2.0926132317902377,-0.15178484667288702,115.48380403227009,22.285827388019907,0.0,1.0,0.0,0.0,1.0,Taxi
20.5,-0.07892668133431084,-61.65665707070923,18.393309145988155,1.7854152236102019,-0.5788840502509545,115.26539991465177,22.55245710870636,0.0,1.0,0.0,0.0,1.0,Taxi
20.6,-0.16594943165522075,-46.89251343710666,17.749959354023233,1.6121797333832932,0.4410457100044245,115.38367474974427,22.482871551242685,0.0,1.0,0.0,0.0,1.0,Taxi
20.700000000000003,-0.18997175105154282,33.34416414937246,17.469893974749315,1.7892505208493654,0.018532424187647778,115.44502142492257,21.605749012887664,0.0,1.0,0.0,0.0,1.0,Taxi
20.8,0.08779413941255128,10.037316749387003,18.175068256368778,1.752975587082732,-0.4781898752062358,115.28393017852557,23.920009337851216,0.0,1.0,0.0,0.0,1.0,Taxi
20.900000000000002,-0.1157628479082859,71.03566768336334,19.157345364131977,2.1098303507804474,0.754158465311278,115.32394421623388,22.599586446584993,0.0,1.0,0.0,0.0,1.0,Taxi
21.0,0.16520658736527372,2.555819532203936,18.541236143241594,1.923780185119267,0.1640402765124362,115.28317647324093,23.486746358698777,0.0,1.0,0.0,0.0,1.0,Taxi
21.1,0.10057323707357078,-29.51022496553398,17.24797660433001,1.5054030202877813,-0.030960812321188014,115.49577335026197,23.13472020035623,0.0,1.0,0.0,0.0,1.0,Taxi
21.200000000000003,-0.263313972735956,-23.74034577007846,17.49481257323368,1.6781644980938442,0.2099850473564167,115.3080201592785,22.46176200907356,0.0,1.0,0.0,0.0,1.0,Taxi
21.3,0.04650485851488112,-34.27932740650826,17.873945569733404,1.7313322621154728,-0.7314764239842195,115.32970321647116,23.252953630257217,0.0,1.0,0.0,0.0,1.0,Taxi
21.400000000000002,-0.07082339995897077,49.94473992082252,17.628441641649218,1.9988165429094318,-0.7496867537235907,115.38689915570711,22.41239458538201,0.0,1.0,0.0,0.0,1.0,Taxi
21.5,-0.013590273131843626,-7.560436905944236,19.03439067752439,1.7302186278719394,-0.381447612025835,115.51879117092102,23.806722434658152,0.0,1.0,0.0,0.0,1.0,Taxi
21.6,0.008702673985159717,9.414577137817544,18.535175899330007,2.0509512215996684,0.43108300687324663,115.153720464059,22.512378884399403,0.0,1.0,0.0,0.0,1.0,Taxi
21.700000000000003,-0.023750514269883262,9.452119890736169,17.91726331806457,1.6052596614609482,-0.319704463150648,115.39121035868192,22.458790117171056,0.0,1.0,0.0,0.0,1.0,Taxi
21.8,0.033670326321837,-26.402308849443475,18.1628246515882,1.4454162487310738,-0.1970712535398344,115.54545613693722,23.44248231344393,0.0,1.0,0.0,0.0,1.0,Taxi
21.900000000000002,-0.12330887026205786,21.873309048183174,17.639592225060497,1.8707886193772658,0.9938701324807433,115.3475580640577,22.808175212739908,0.0,1.0,0.0,0.0,1.0,Taxi
22.0,0.08561603097103242,-38.83889887663488,17.88520166000247,1.4707533459766864,-0.8143825588236201,115.46703451242678,23.639326813316217,0.0,1.0,0.0,0.0,1.0,Taxi
22.1,-0.1605241680613376,18.202674954677054,17.474965464204494,1.7849034047437722,0.44247474226727956,115.4896064446989,22.39863989909421,0.0,1.0,0.0,0.0,1.0,Taxi
22.200000000000003,-0.0322954954886728,-23.482066797574916,18.25816909213123,1.8733449257682353,-0.5877257982109606,115.28124537555021,23.885267698391015,0.0,1.0,0.0,0.0,1.0,Taxi
22.3,-0.0317943030168424,62.308735593948654,17.957344736099955,2.045552103741068,0.4693651164122918,115.40427589545703,22.25978234143771,0.0,1.0,0.0,0.0,1.0,Taxi
22.400000000000002,0.15101950990840543,-15.827321448036045,18.200678500104058,1.988765064150706,-0.38000511431722833,115.37351469052697,23.10553550433008,0.0,1.0,0.0,0.0,1.0,Taxi
22.5,-0.11143210272885329,13.014997049563645,18.838674436039813,1.5972706580708163,-0.07466182832974692,115.4532488303085,22.490258122892556,0.0,1.0,0.0,0.0,1.0,Taxi
22.6,0.03328068223097556,-15.661992687234692,18.106006898567447,1.6252640456189915,-0.4545445897924852,115.48989244637494,22.816057007338657,0.0,1.0,0.0,0.0,1.0,Taxi
22.700000000000003,0.07270954647223171,37.54484811388432,16.74308939762567,1.5810408234949165,-0.6993793716898494,115.46627803428919,23.482857954612427,0.0,1.0,0.0,0.0,1.0,Taxi
22.8,0.07629213784056807,-12.285865055503644,19.25172670503781,1.7170147713681292,-0.55851312293086,115.49572206970709,22.446787159053855,0.0,1.0,0.0,0.0,1.0,Taxi
22.900000000000002,-0.028148643046542923,-3.0633897024879766,18.33468398279911,2.101003691272052,-0.08491149469172278,115.35141670946246,23.722900472446156,0.0,1.0,0.0,0.0,1.0,Taxi
23.0,0.05739259795979157,13.175279009135563,17.457763391720555,2.4230748986254533,-0.2719453266422909,115.40802407642707,23.2159777268883,0.0,1.0,0.0,0.0,1.0,Taxi
23.1,0.14216853288624562,-10.047917631312723,18.10436689108888,1.8862831546652512,-0.6008765039889531,115.50652812309175,21.905054495150843,0.0,1.0,0.0,0.0,1.0,Taxi
23.200000000000003,-0.07838823120310683,-18.67542063432006,18.75005910261547,1.804588690358378,0.1966137744941294,115.48529864938149,22.667851890842627,0.0,1.0,0.0,0.0,1.0,Taxi
23.3,-0.035984505211809,-27.18701336587164,17.992994487248705,1.7698352244141182,-0.9686654902932288,115.26934985417563,22.90279989798554,0.0,1.0,0.0,0.0,1.0,Taxi
23.400000000000002,0.006233466056887122,-1.0566617739900626,18.15500365107689,1.6870494636452897,0.06827113221752193,115.46483897533415,22.933557347330726,0.0,1.0,0.0,0.0,1.0,Taxi
23.5,-0.0836715400730574,39.109280957148044,18.08853434529738,1.443946650404054,-0.2689372311853851,115.30039280174344,22.344442316046905,0.0,1.0,0.0,0.0,1.0,Taxi
23.6,0.15956189957393094,-6.250317049023607,19.177394821432777,2.093875206052898,0.26123218021277705,115.31457421217499,22.53343910976167,0.0,1.0,0.0,0.0,1.0,Taxi
23.700000000000003,-0.025018119188231193,12.385946179546538,19.661211795002487,1.9284103498500569,0.6956590449715806,115.5396194125633,22.219548873829947,0.0,1.0,0.0,0.0,1.0,Taxi
23.8,-0.02174180917532499,-52.09322449735941,18.771497562964555,1.7740291150708383,-0.30720390219837523,115.51574761689983,23.60884129824122,0.0,1.0,0.0,0.0,1.0,Taxi
23.900000000000002,-0.10090422291286637,14.21600994950849,19.21707874372967,1.9237431899843627,-0.18305369967510088,115.36587716543755,21.963487897246114,0.0,1.0,0.0,0.0,1.0,Taxi
24.0,0.046061930559310967,19.138767201091195,17.30684140792194,1.908745124427266,0.26901881332482624,115.44782885865794,21.97392681332498,0.0,1.0,0.0,0.0,1.0,Taxi
24.1,0.07395202683013069,-4.047694007267253,17.975010419335504,2.0439249255299208,0.01893276423563581,115.48178901344966,22.41476256448539,0.0,1.0,0.0,0.0,1.0,Taxi
24.200000000000003,-0.12114269294920295,3.6536212616709065,17.69226122879791,1.9021393999673077,0.37335206752656147,115.34950340673595,22.547872044921153,0.0,1.0,0.0,0.0,1.0,Taxi
24.3,0.06433003686766521,1.9080367607838837,18.60849616635113,1.8069267373411941,-0.40914139724265675,115.20959512289653,22.516431012368205,0.0,1.0,0.0,0.0,1.0,Taxi
24.400000000000002,0.08349221063404982,30.23798970568618,18.920297956599327,1.8492199069627104,0.26561153733070914,115.46507078757622,22.720342559893,0.0,1.0,0.0,0.0,1.0,Taxi
24.5,0.030047255579227702,-31.038866938083714,18.07377439844731,1.6777007923417184,0.06792243273100271,115.58373726353881,23.413010825951766,0.0,1.0,0.0,0.0,1.0,Taxi
24.6,-0.09086429782275363,-23.028802841758566,18.02872721543915,1.6349621434600656,0.1591062000817998,115.37124306584303,22.411104095374842,0.0,1.0,0.0,0.0,1.0,Taxi
24.700000000000003,-0.03165180357474328,-38.08049620982964,18.256121969890014,1.9974819787072622,-0.23526756213156336,115.43092314928805,22.542279541066822,0.0,1.0,0.0,0.0,1.0,Taxi
24.8,-0.1603552254699208,-9.72574512171312,17.749973654217737,2.216951935756636,-0.17801748724304148,115.54116479754032,23.185188504432066,0.0,1.0,0.0,0.0,1.0,Taxi
24.900000000000002,-0.1394930234313195,22.77029090972989,17.194594431156723,1.6536297971766447,-0.500742450298913,115.57677416475809,23.637315184749315,0.0,1.0,0.0,0.0,1.0,Taxi
25.0,0.08219965097390591,60.69207996054511,18.78382280569768,1.5143110181205066,0.2640823334815691,115.47544082067242,23.23872350484536,0.0,1.0,0.0,0.0,1.0,Taxi
25.1,0.1431051743328045,20.817924929548592,17.89136522263124,1.5352395684841122,0.013854990952017759,115.38718822102828,21.74558007901016,0.0,1.0,0.0,0.0,1.0,Taxi
25.200000000000003,-0.03540339878357685,-4.983705339113809,18.04304047097196,1.7247023548324047,0.014472801223809534,115.44953844941608,22.87356744013551,0.0,1.0,0.0,0.0,1.0,Taxi
25.3,0.05728112427833655,-40.54153775861758,18.603822531164383,1.6898491575021792,-0.47119807055119006,115.40156565253642,23.490787191142548,0.0,1.0,0.0,0.0,1.0,Taxi
25.400000000000002,-0.05960251446028371,5.198399946360602,17.55854316699628,2.012090769229106,0.24317931886420627,115.39939934137243,21.817833520637038,0.0,1.0,0.0,0.0,1.0,Taxi
25.5,-0.009411399051774154,-3.1954770735228615,19.314100374972476,2.0665861422352245,-0.59416868234713,115.49431076983836,22.846435889921533,0.0,1.0,0.0,0.0,1.0,Taxi
25.6,0.041303738910721935,22.1340209423559,18.486826509800935,2.1772543763413896,0.3046910221480857,115.47641727062756,22.68173549184981,0.0,1.0,0.0,0.0,1.0,Taxi
25.700000000000003,0.05106759025149548,-6.924297638869992,17.777736525681757,2.1091065319152533,-0.8097740058178926,115.47873308726764,23.89134198121689,0.0,1.0,0.0,0.0,1.0,Taxi
25.8,-0.04403288724612441,8.060993585040364,18.879080801202154,1.9519643683466803,0.9424575372572337,115.40858262738345,23.017029421939316,0.0,1.0,0.0,0.0,1.0,Taxi
25.900000000000002,0.08160870683592346,-34.23258168931113,19.172580599923798,1.6211547160108504,1.3930702613190282,115.58203930842956,23.13408919690908,0.0,1.0,0.0,0.0,1.0,Taxi
26.0,-0.1200953181950605,38.383686305743616,17.12927476983782,1.8895466659820057,0.44107507599571477,115.35656225544585,23.41865874275364,0.0,1.0,0.0,0.0,1.0,Taxi
26.1,0.14788554428259335,-33.84181045563883,16.23336261320038,1.6978601518535044,-0.031023833441352743,115.26007724038664,21.451141389366217,0.0,1.0,0.0,0.0,1.0,Taxi
26.200000000000003,-0.08760034544227102,35.21108245817432,18.070889389724638,1.3908798485444462,-0.4006926722235227,115.3727173616897,23.12045946476836,0.0,1.0,0.0,0.0,1.0,Taxi
26.3,0.05596009409581078,-60.072231984618405,18.208271567919905,1.8284256759682853,-0.45628804520825855,115.47450244054755,22.45941097401564,0.0,1.0,0.0,0.0,1.0,Taxi
26.400000000000002,-0.152475615640499,-6.455592564270156,18.352333098580935,1.729649405305553,-0.12734391742989784,115.41653827025834,22.27752115071925,0.0,1.0,0.0,0.0,1.0,Taxi
26.5,-0.11987830826362207,-44.98854160157685,19.109485235961827,1.5945350723580707,0.32935027720712606,115.3320508459991,22.634505782256525,0.0,1.0,0.0,0.0,1.0,Taxi
26.6,-0.1689826139120737,4.049246207999079,18.37207727242669,1.7331644525036716,-0.0207447591630622,115.56708464284117,22.724778483698334,0.0,1.0,0.0,0.0,1.0,Taxi
26.700000000000003,-0.13222938460050387,47.56615374288947,18.061944407173566,2.218836461520989,1.5620612390958657,115.23673323904103,23.005782818491575,0.0,1.0,0.0,0.0,1.0,Taxi
26.8,0.11795246045082504,26.99809615015044,18.726758517519972,2.037160940278446,-0.2085711761847561,115.42005657153288,23.272573401864374,0.0,1.0,0.0,0.0,1.0,Taxi
26.900000000000002,-0.033992133161321735,38.59612045210079,19.08279846039191,2.207014745936756,-0.17736781562611856,115.42824500448427,23.60333442697986,0.0,1.0,0.0,0.0,1.0,Taxi
27.0,0.060751217659999836,-12.241398367338137,17.157986757420367,1.8615624542280214,-0.07345095426229502,115.66973919515465,22.445497603067675,0.0,1.0,0.0,0.0,1.0,Taxi
27.1,0.05674546861413408,19.531872492199508,18.947378478343577,1.5035747579634924,0.13636340426508817,115.52810595109497,22.828175886443983,0.0,1.0,0.0,0.0,1.0,Taxi
27.200000000000003,0.06366722929967554,11.615993628588846,18.002444608273965,1.4747354085717466,-0.3615844478018184,115.48862685885433,21.495203520207674,0.0,1.0,0.0,0.0,1.0,Taxi
27.3,0.11883118580294381,-15.961057807871446,18.85940540882407,1.5712574466973388,0.42639466052617564,115.65779241663654,22.395005910574056,0.0,1.0,0.0,0.0,1.0,Taxi
27.400000000000002,-0.0230598204252234,-21.066681671690002,17.69908047278861,2.289786362428644,-0.8351058118281068,115.50619692865342,23.05012631186019,0.0,1.0,0.0,0.0,1.0,Taxi
27.5,-0.04166617905877471,-53.200817827122044,17.669940650802598,1.8723149814337172,0.6893814133486886,115.52681037759424,23.224789091796154,0.0,1.0,0.0,0.0,1.0,Taxi
27.6,-0.14717290333266664,6.389294577228019,18.66645884593653,1.8935819685145634,0.0919346116905993,115.38782934506031,24.19999219359063,0.0,1.0,0.0,0.0,1.0,Taxi
27.700000000000003,0.008886652460916423,7.221710953306281,18.89046945844691,1.8334902306390737,-0.2275211607269578,115.56967333814589,22.732505915638324,0.0,1.0,0.0,0.0,1.0,Taxi
27.8,-0.005557624292243582,8.785828670734611,19.080941347303508,1.920547695106813,0.6356350587786177,115.33935324771971,22.43716214817853,0.0,1.0,0.0,0.0,1.0,Taxi
27.900000000000002,-0.10324375997899388,-15.422395709126524,17.291968385983694,1.6031553024186447,0.21781689351628586,115.37502876677746,22.776688194501418,0.0,1.0,0.0,0.0,1.0,Taxi
28.0,-0.06822532608471647,-15.090885693570405,18.43106781553807,1.759056637634725,-0.4217333550521578,115.60095867266341,22.73517645195964,0.0,1.0,0.0,0.0,1.0,Taxi
28.1,-0.08101205276009588,-4.962685266665901,18.71520075489907,1.4538618285058433,-0.30172311944406477,115.43301548529422,22.316445866918894,0.0,1.0,0.0,0.0,1.0,Taxi
28.200000000000003,-0.12805718631232366,44.174602660087466,17.265494397933917,1.907041045454014,-0.28928579671754795,115.45545142678588,23.078850478350997,0.0,1.0,0.0,0.0,1.0,Taxi
28.3,0.15264768721572067,28.21989321467736,17.229367370897855,1.9368592245924239,0.2550091131301672,115.62030411712152,22.161976489258517,0.0,1.0,0.0,0.0,1.0,Taxi
28.400000000000002,0.060087413313290705,56.462731716387026,18.372039110691535,1.6810602638834866,0.27552883178106713,115.37063937887274,23.07474775922944,0.0,1.0,0.0,0.0,1.0,Taxi
28.5,0.15425647226961126,-12.61026732238413,18.312735174162242,1.42333672870632,-0.19354595798619761,115.44317798429347,22.91547478388899,0.0,1.0,0.0,0.0,1.0,Taxi
28.6,0.08959635060379972,10.372743423918953,18.366373991899223,1.7661041262130899,0.07027803438643196,115.29327025526192,22.997706533554343,0.0,1.0,0.0,0.0,1.0,Taxi
28.700000000000003,0.11195113043288518,-65.83290659718071,17.931579086002174,2.0187780359592007,1.6003368621669978,115.5183271454195,23.185338936239535,0.0,1.0,0.0,0.0,1.0,Taxi
28.8,-0.17490806071629256,-31.359300074687564,17.87315158033458,1.5698675916147204,-0.5290043648953446,115.51919371003947,23.590252484708145,0.0,1.0,0.0,0.0,1.0,Taxi
28.900000000000002,-0.06720014976963834,0.7710927567185356,19.320900746388595,1.6373546962945598,-0.1263905997877308,115.47205644168918,22.868952275056014,0.0,1.0,0.0,0.0,1.0,Taxi
29.0,0.11580659421647761,51.95229845083676,17.964552702084053,1.816611267520377,0.2924728407455161,115.35973480190432,22.866551945226266,0.0,1.0,0.0,0.0,1.0,Taxi
29.1,0.08485343153789099,31.01674816494473,18.31722483201102,1.8480684300585175,0.6694689431044228,115.48404120446583,23.01314244487103,0.0,1.0,0.0,0.0,1.0,Taxi
29.200000000000003,0.08788359105508507,-42.098276008487865,17.545189052097687,1.9417241462677486,-0.04351764919184507,115.36299743857364,22.66861021151815,0.0,1.0,0.0,0.0,1.0,Taxi
29.3,-0.09468478582596197,-5.055768163640049,18.81256360692593,2.126698102100206,-0.9014537747826946,115.29793088905507,23.4220076050063,0.0,1.0,0.0,0.0,1.0,Taxi
29.400000000000002,0.059574590719690505,-42.76164528603072,18.20217007154217,1.6618515143135613,0.7478409115731958,115.53666213407735,22.1733464085302,0.0,1.0,0.0,0.0,1.0,Taxi
29.5,-0.12592463537506876,16.15952101766572,18.541362946154138,1.6037015364873743,0.5947359766327266,115.45428862104814,23.060711185763473,0.0,1.0,0.0,0.0,1.0,Taxi
29.6,-0.013887180737633656,-1.6712553209990542,19.09118111913592,1.7344032236072102,-0.11523774323237002,115.40003662833755,22.698484979550262,0.0,1.0,0.0,0.0,1.0,Taxi
29.700000000000003,0.051218314114694956,4.907288213089548,18.178371620481958,1.6144505570865277,0.22714189564116552,115.4989031150451,23.13452571450679,0.0,1.0,0.0,0.0,1.0,Taxi
29.8,-0.10138819430962127,4.8040348016446375,19.720231843583747,1.6548390972243472,0.8619783822411277,115.31211614514336,22.44037701502045,0.0,1.0,0.0,0.0,1.0,Taxi
29.900000000000002,0.01013299327058926,-15.91319157629517,19.08876373194126,1.8045814843112398,0.05195669146757886,115.53169574852149,23.933843080720735,0.0,1.0,0.0,0.0,1.0,Taxi
30.0,-0.02834764376678117,15.00793145910995,18.171148280615782,1.698836407384617,0.19559129016571133,115.49880837280199,23.16674489919874,0.0,1.0,0.0,0.0,1.0,Taxi
30.1,-0.026348537014071804,-9.980502881336463,17.81002097571384,2.0523436804669206,0.14024975144083393,115.28719553545056,22.697882438574574,0.0,1.0,0.0,0.0,1.0,Taxi
30.200000000000003,-0.039769521136093326,-15.049760418637133,17.589618934389026,1.5825174920617096,-0.3977848179321315,115.55914701355255,22.956167037843198,0.0,1.0,0.0,0.0,1.0,Taxi
30.3,-0.1035964458599671,-12.054145770874747,17.824424220918267,1.8095713634549917,-0.17862678427702805,115.67584731734377,22.909250289748144,0.0,1.0,0.0,0.0,1.0,Taxi
30.400000000000002,-0.08661926586844582,13.52407987833311,17.317822416257442,1.5275741810555057,0.5677209374921457,115.5813323854129,23.09422774405371,0.0,1.0,0.0,0.0,1.0,Taxi
30.5,0.027850878255571938,-5.0869600606586785,18.784483189621586,1.8908020543418873,-0.29557659169171396,115.56802939913098,22.859395619731753,0.0,1.0,0.0,0.0,1.0,Taxi
30.6,-0.12903124616326075,6.469355025329084,18.618602578150437,1.8876741402544777,0.49306627350572935,115.42822101784617,23.426319399677627,0.0,1.0,0.0,0.0,1.0,Taxi
30.700000000000003,-0.054272490741800655,0.09877113986246637,18.25105633396986,2.225012173615567,-0.07554864368540659,115.25042266851267,21.465679510338987,0.0,1.0,0.0,0.0,1.0,Taxi
30.8,0.028344733954884023,26.24098266353793,18.705031185788773,2.035402414380355,-0.16918242370745487,115.42564790010249,22.519844222957364,0.0,1.0,0.0,0.0,1.0,Taxi
30.900000000000002,0.0021736671544286394,-4.284351984193736,18.15850347521238,1.5053324278522877,0.9088013952092546,115.42172032136955,22.8749628481822,0.0,1.0,0.0,0.0,1.0,Taxi
31.0,-0.07569425066276958,3.759148908206162,17.954383686878604,1.9388681427140773,0.019325949558650996,115.41514405949971,22.139017129595445,0.0,1.0,0.0,0.0,1.0,Taxi
31.1,0.04714047849591458,10.207355806813437,18.653118695702688,1.795347410558955,-0.6889253169146001,115.38943306535293,23.06366734629321,0.0,1.0,0.0,0.0,1.0,Taxi
31.200000000000003,0.05321044618849557,30.40690348892423,17.912299220266835,1.9440501146312168,0.06316065179921941,115.47012473245684,23.29983619391466,0.0,1.0,0.0,0.0,1.0,Taxi
31.3,0.07634026678185132,-12.67068395029978,18.882078843113145,1.6790779476322384,-0.969531865844277,115.37511941706441,23.800715064738238,0.0,1.0,0.0,0.0,1.0,Taxi
31.400000000000002,-0.016212941255584565,13.395214734882728,18.30204065458284,2.0016681687075017,0.5462320565981441,115.35514367144106,23.319950276980926,0.0,1.0,0.0,0.0,1.0,Taxi
31.5,0.12018651986290894,-23.81112479452861,19.53324309370214,1.8245469709985882,-0.8163402044195657,115.41594268354834,23.09609129071929,0.0,1.0,0.0,0.0,1.0,Taxi
31.6,-0.042715357190791975,-23.27017973306194,18.40626133783311,1.7183219862222727,-0.3687126385985074,115.42654219892813,23.164518084788607,0.0,1.0,0.0,0.0,1.0,Taxi
31.700000000000003,-0.13256383992089452,-46.882320821145775,17.642944514171802,1.6204382154242327,0.9050718435727487,115.38600973766233,22.63806551685706,0.0,1.0,0.0,0.0,1.0,Taxi
31.8,-0.11422508424282013,10.728609840752393,18.329774968565733,1.5728668005434097,-0.1168435850660903,115.57077264516363,22.569301402120185,0.0,1.0,0.0,0.0,1.0,Taxi
31.900000000000002,0.01092769201296975,3.9430429754435274,18.415710025551373,1.6603309990002049,0.3873288458497153,115.48491079725295,22.87673671260468,0.0,1.0,0.0,0.0,1.0,Taxi
32.0,-0.11284862504367713,41.40117012603687,18.137672870478035,1.7497484283258216,-0.16502616230847797,115.51057578692837,23.153869378921957,0.0,1.0,0.0,0.0,1.0,Taxi
32.1,0.09278076638736399,16.020672924543717,18.693571047189245,2.0130196450481224,0.24499723060311318,115.53220138624795,22.410785843743895,0.0,1.0,0.0,0.0,1.0,Taxi
32.2,0.09103105663568811,52.30025724716264,18.96081811500863,2.0848693383520214,-0.43603574289640296,115.39421130796109,23.31837568518305,0.0,1.0,0.0,0.0,1.0,Taxi
32.300000000000004,0.14865266119213583,-8.416967786304946,18.325575517942376,1.6059825924995188,-0.1091374520936952,115.6133549933354,23.03186999521898,0.0,1.0,0.0,0.0,1.0,Taxi
32.4,0.05069592745583902,-50.858119855145446,18.759302943281913,1.73606029768176,-0.6866835963659802,115.51282053129262,23.03380702098982,0.0,1.0,0.0,0.0,1.0,Taxi
32.5,-0.1632595426400394,-31.590796856590284,18.284813716484972,1.6457253308693183,0.11133696952839481,115.48966985491904,22.473494956288803,0.0,1.0,0.0,0.0,1.0,Taxi
32.6,-0.009301323090815846,-12.787610501621325,17.80600599167152,1.5465798103732222,0.40794737624319644,115.31930198362357,22.966666868893373,0.0,1.0,0.0,0.0,1.0,Taxi
32.7,-0.01324212505226785,41.476399669173276,17.083670599899495,1.861143912436045,0.0458132108894862,115.34491407253421,23.540623485695782,0.0,1.0,0.0,0.0,1.0,Taxi
32.800000000000004,0.04412245570582676,-0.1427622644215442,19.20505088180977,2.050238624685818,0.13440427247855144,115.49067467005068,23.35053151595711,0.0,1.0,0.0,0.0,1.0,Taxi
32.9,-0.010015134412923813,23.145397598389604,19.194259929486194,1.9974463463572734,-0.5419804799808995,115.33296112121826,23.035053497865654,0.0,1.0,0.0,0.0,1.0,Taxi
33.0,0.10248486293967991,-14.307819207575136,17.652424958298667,1.857906402682675,0.5208474156773385,115.3892483834394,22.507573219001255,0.0,1.0,0.0,0.0,1.0,Taxi
33.1,-0.027416640332049182,5.379089422494794,17.194757038671757,1.8795918128117934,0.4445268318036903,115.45357270193938,22.667158985112106,0.0,1.0,0.0,0.0,1.0,Taxi
33.2,0.016880312699549885,-16.814707410610158,18.035669759900664,1.727062307161227,0.32852105977915913,115.40308569383416,22.846214784805248,0.0,1.0,0.0,0.0,1.0,Taxi
33.300000000000004,0.018411325886628832,7.111612151813962,18.134215141798418,1.8448185579907088,-0.6201513801812342,115.51400698871373,22.689432716001054,0.0,1.0,0.0,0.0,1.0,Taxi
33.4,0.00814142042702036,-3.038066729718159,17.501208022046978,1.630600703026145,0.5058714550905594,115.53299743214109,23.300451330797454,0.0,1.0,0.0,0.0,1.0,Taxi
33.5,0.0016899790509588256,-10.669342159603856,17.969128915314787,2.167437540755399,0.24690214661866552,115.3329248353017,21.9725347665165,0.0,1.0,0.0,0.0,1.0,Taxi
33.6,-0.034935384911390706,-0.5884239941333043,19.02870085476816,2.145879793574328,-0.16589549245154625,115.39551584923953,22.46009263836471,0.0,1.0,0.0,0.0,1.0,Taxi
33.7,0.005199300456353584,-12.221161226587128,18.26389131205131,1.7011399584481004,0.03204743495234405,115.4082294307999,22.93454594544986,0.0,1.0,0.0,0.0,1.0,Taxi
33.800000000000004,-0.05941582708197708,-6.34706183618679,17.750016492232763,1.9580600823143899,-0.3149582382150239,115.41484324435828,22.339436376431486,0.0,1.0,0.0,0.0,1.0,Taxi
33.9,-0.06667069409232493,-17.085172103996076,18.494519130588557,1.8951018928296919,0.01682120037888308,115.47160189987773,22.327283575596713,0.0,1.0,0.0,0.0,1.0,Taxi
34.0,-0.08022656006362706,10.06095747163233,17.997457538815908,1.937142533058313,0.2310403025749808,115.1831520163322,23.212335451587876,0.0,1.0,0.0,0.0,1.0,Taxi
34.1,-0.009111039723815694,0.533870500050187,17.627678848455123,1.713422278159493,0.08071450877619603,115.43408630486977,22.606630508074655,0.0,1.0,0.0,0.0,1.0,Taxi
34.2,-0.06400134159207425,-16.4989568916296,17.233358310652402,1.5296139028699387,1.035652142178036,115.19252526213648,22.27965098836803,0.0,1.0,0.0,0.0,1.0,Taxi
34.300000000000004,-0.16272134452177534,30.61307460285151,18.57493551680402,2.0687700269088016,-0.0962648925538352,115.49074935367184,22.555702537356062,0.0,1.0,0.0,0.0,1.0,Taxi
34.4,0.14395433329044158,3.984735399410141,17.381390422369837,2.0568796543560692,-0.035567658237009504,115.3901908767752,22.509701500669482,0.0,1.0,0.0,0.0,1.0,Taxi
34.5,-0.04407766459502382,20.105154224202078,18.39073253899609,1.7825819518147124,-0.6495027737847724,115.45297091625605,23.665354322820253,0.0,1.0,0.0,0.0,1.0,Taxi
34.6,-0.062195573400765196,-42.196298907083566,19.44735776028914,1.4624211220093304,0.05291351903232422,115.41103276363151,22.243653066382628,0.0,1.0,0.0,0.0,1.0,Taxi
34.7,-0.06702716124497647,-4.8395334186252565,18.70324686914633,1.595178642849981,-0.1938525095899778,115.53003529723276,23.142209648479874,0.0,1.0,0.0,0.0,1.0,Taxi
34.800000000000004,-0.06827533168815035,-0.6614761805942382,18.300184301782256,1.9480779803234594,-0.4104582651928118,115.36498566637982,23.41961636124785,0.0,1.0,0.0,0.0,1.0,Taxi
34.9,-0.06550295430373664,2.0900812382237284,19.054977761786436,1.822019573334913,0.4391692724874709,115.40975823164814,22.758218207341937,0.0,1.0,0.0,0.0,1.0,Taxi
35.0,-0.05657675505385808,29.771612402596528,18.937491157659945,1.6924241751059566,0.4640101219630893,115.49634543077184,22.18970490075521,0.0,1.0,0.0,0.0,1.0,Taxi
35.1,0.08058273032483204,6.985351018344725,19.2848034123892,1.7868903042412818,0.10983024129121378,115.64542430660492,23.486691756585394,0.0,1.0,0.0,0.0,1.0,Taxi
35.2,-0.030576199212013256,32.48565281932724,17.839694857358566,1.7254665194522922,-0.1304123243932252,115.36204020016788,22.860472040265172,0.0,1.0,0.0,0.0,1.0,Taxi
35.300000000000004,0.10585150904277787,4.294451151564714,17.63134554482948,2.1516242000918386,0.29192132847342256,115.54830379844816,22.92680112490286,0.0,1.0,0.0,0.0,1.0,Taxi
