time_s,altitude_ft,vertical_speed_fpm,ias_kt,pitch_deg,roll_deg,heading_deg,throttle_pct,afterburner_on,gear_down,flaps_deg,speedbrake_pct,weight_on_wheels,label
0.0,-0.06558208774456445,-2.100787313750259,10.920112692754552,0.677851897991354,-0.9310196912404526,257.3481575700041,22.272252067741633,0.0,1.0,0.0,0.0,1.0,Taxi
0.1,-0.07258471212373198,42.39868984372314,11.260284346905921,1.1975081561310168,-0.7628611361329164,257.4242384746984,22.13963256645603,0.0,1.0,0.0,0.0,1.0,Taxi
0.2,0.1464113614740513,48.815339438249374,11.672846492308413,1.3156383478173304,-0.19237188939220726,257.12101282598337,23.048321009572792,0.0,1.0,0.0,0.0,1.0,Taxi
0.30000000000000004,0.17849460944668244,48.265483934484216,11.601879114857711,1.1949508094682861,-0.5413280284761748,257.3094960758249,23.30946308115837,0.0,1.0,0.0,0.0,1.0,Taxi
0.4,0.16874270754868909,-6.3418590528626595,11.737652250389212,1.4497565168526367,0.15913217449887174,257.2583193519357,22.88256727793565,0.0,1.0,0.0,0.0,1.0,Taxi
0.5,0.11470206620973798,-43.24816877877402,11.058848398809506,0.9597816105147882,-0.2394417007247782,257.339390810744,23.122013105401365,0.0,1.0,0.0,0.0,1.0,Taxi
0.6000000000000001,-0.037746234447187665,-38.0203890552823,11.504064893605618,1.1773044263181025,0.37765740519694463,257.3509640874929,23.564798423997,0.0,1.0,0.0,0.0,1.0,Taxi
0.7000000000000001,-0.021359237727722385,-45.7389971120949,11.648020416257424,1.2502335170688794,1.1069087495388221,257.2732315951141,22.709161750079645,0.0,1.0,0.0,0.0,1.0,Taxi
0.8,-0.11399291935073652,-34.15506697038272,11.250658509458507,1.153255087134023,-0.2886181052154912,257.22028049592404,23.050914023016183,0.0,1.0,0.0,0.0,1.0,Taxi
0.9,-0.20852156929910126,-3.591065415727106,10.468162086418166,1.2557178936753646,-0.24474466917222673,257.25437605948446,22.971918918384272,0.0,1.0,0.0,0.0,1.0,Taxi
1.0,-0.039314564806357935,46.187545457446866,10.906062678006714,1.2726042940479478,-0.823314084439461,257.2958390887635,22.236577919433984,0.0,1.0,0.0,0.0,1.0,Taxi
1.1,0.11694480793649778,71.6101026602603,10.758791634424758,1.2367060104504046,-0.1812870899677667,257.43917819208286,23.227301822738742,0.0,1.0,0.0,0.0,1.0,Taxi
1.2000000000000002,0.14952894400220018,-17.961913614220435,12.131914416694565,1.085559626800374,-0.19268533019445694,257.3234841305316,22.80414646819413,0.0,1.0,0.0,0.0,1.0,Taxi
1.3,-0.12912413287746013,-36.83775293365478,11.88350250231546,1.4401606696326972,0.5350999146809416,257.1944806130225,24.15452631060028,0.0,1.0,0.0,0.0,1.0,Taxi
1.4000000000000001,-0.06724395673177612,-19.161050765769136,11.383963785577244,1.572808113367716,-0.2486452103711272,257.09103942274226,22.73457036794119,0.0,1.0,0.0,0.0,1.0,Taxi
1.5,0.05372369017335447,5.9612760222545615,11.305426990849151,1.0763919122493097,-0.061410106259670555,257.2942178412809,21.676533802188732,0.0,1.0,0.0,0.0,1.0,Taxi
1.6,-0.09931775276618737,31.80575314227258,11.347855953354449,1.1097500889597676,0.5921062110483385,257.4814457870268,23.363594182265913,0.0,1.0,0.0,0.0,1.0,Taxi
1.7000000000000002,0.09178480897958674,-11.505087192112539,11.11298543079795,1.0533658679565308,-0.10391289851757747,257.039667972261,22.334827765171397,0.0,1.0,0.0,0.0,1.0,Taxi
1.8,-0.003801745787208244,4.28682178297407,11.858266949220447,1.0352826053793525,-0.020106427710650698,257.2115200016299,22.38082090160383,0.0,1.0,0.0,0.0,1.0,Taxi
1.9000000000000001,-0.07788364385131702,-15.30018979758781,11.386336350428083,1.3526123806121633,-0.8907322212105778,257.2324849540573,21.861504079109082,0.0,1.0,0.0,0.0,1.0,Taxi
2.0,0.015283859991647672,14.671438022871337,12.047651931566774,1.4674620633009212,0.11058905284600469,257.0267347838012,22.846663226509747,0.0,1.0,0.0,0.0,1.0,Taxi
2.1,0.06955544432714843,34.74465737436925,11.293161744873535,1.5323442733185952,0.4563213352939792,257.4225960707904,22.79509828472715,0.0,1.0,0.0,0.0,1.0,Taxi
2.2,0.09583964302052919,-22.594372947558572,11.112883021381784,1.2860951369821663,-0.18400862105990637,257.23802695432437,23.234028677532443,0.0,1.0,0.0,0.0,1.0,Taxi
2.3000000000000003,-0.09768800474614521,-3.0187080453613837,11.495208505159102,1.1075469276605627,0.975392150719183,257.22989678031445,23.147620258796703,0.0,1.0,0.0,0.0,1.0,Taxi
2.4000000000000004,0.05446190410034152,-35.637677187557536,12.025771636245072,0.9421892943176746,-0.5178163294349845,257.31826378822836,23.434332129048045,0.0,1.0,0.0,0.0,1.0,Taxi
2.5,-0.08234874291725845,0.8729180234652846,11.239203887445425,1.24214361563764,-0.22168195146406255,257.2961211007648,22.777612340022582,0.0,1.0,0.0,0.0,1.0,Taxi
2.6,-0.09332341462881878,-8.59074268112574,11.682808096809412,1.3504953378178866,0.22891538310395945,257.4327872288625,22.710553548346777,0.0,1.0,0.0,0.0,1.0,Taxi
2.7,0.011508190694712806,35.33756108744644,11.334052685186592,1.3749322660609455,-0.5530614978742718,257.2962928054444,23.477936197172394,0.0,1.0,0.0,0.0,1.0,Taxi
2.8000000000000003,0.0943390625199737,6.687486641374368,11.523640455368643,1.2325237759697354,-0.8015047202933654,257.20867471668555,23.102227491900077,0.0,1.0,0.0,0.0,1.0,Taxi
2.9000000000000004,-0.05988598142194699,-26.607696684845198,11.125003956739778,1.1812113283414647,-0.2684635916602046,257.28794931601874,23.791503764583457,0.0,1.0,0.0,0.0,1.0,Taxi
3.0,-0.12153029272951324,-26.461621228748555,11.535678213219708,1.489204066901702,-0.3605960498798639,257.24828092650455,22.27336569071252,0.0,1.0,0.0,0.0,1.0,Taxi
3.1,-0.037969043623769134,-28.393478905255808,11.116814772306368,1.3313508605583029,-0.09737011476169126,257.2953967485803,22.787912866467256,0.0,1.0,0.0,0.0,1.0,Taxi
3.2,-0.20185337594822608,5.898601593610681,10.914130791531738,1.1515444669294017,-0.03755530554905328,257.259025111184,23.781934478610523,0.0,1.0,0.0,0.0,1.0,Taxi
3.3000000000000003,-0.09203728476145988,6.126479465702346,11.15210078886818,1.0818266340960736,-1.215019904477038,257.1632179520359,22.469542278577226,0.0,1.0,0.0,0.0,1.0,Taxi
3.4000000000000004,-0.0073366462952574405,50.047157644605896,10.73602815446571,1.113653084850754,0.24088023540204798,257.3485702954613,22.091016458049506,0.0,1.0,0.0,0.0,1.0,Taxi
3.5,0.04838241227480333,26.07359151315985,10.922746640759897,1.2603154759755708,0.5065903055576411,257.40186912894956,22.527977721638102,0.0,1.0,0.0,0.0,1.0,Taxi
3.6,0.03833067280433933,-7.401155012905913,9.693779030499321,1.2055225670714695,-0.8714356110932256,257.3612380157392,23.002140929325602,0.0,1.0,0.0,0.0,1.0,Taxi
3.7,-0.04434242135978705,-13.780907202022071,10.805374731636352,1.3038852890446984,0.17907649593183514,257.1961369114624,22.256139328785775,0.0,1.0,0.0,0.0,1.0,Taxi
3.8000000000000003,-0.020522123735307065,-30.739086744907798,10.04173733935937,1.3558606339056287,-0.7750646831779189,257.1926507209155,22.60149116078054,0.0,1.0,0.0,0.0,1.0,Taxi
3.9000000000000004,-0.11536476092019972,42.64492056734422,9.527816494280414,1.4602580890800274,-0.3167852671314454,257.31058684474135,23.690310765734875,0.0,1.0,0.0,0.0,1.0,Taxi
4.0,0.168882181476934,-43.30356219810222,10.830075766479263,1.3364037994959947,-0.0391018743772856,257.19100414372065,22.4700230853305,0.0,1.0,0.0,0.0,1.0,Taxi
4.1000000000000005,-0.2370399347258182,42.71735373213661,11.197024792895053,1.2989815983302517,1.0147170926188978,257.37302195554105,22.049285014251666,0.0,1.0,0.0,0.0,1.0,Taxi
4.2,0.09822200774048322,-30.234016670951032,12.225707751091289,0.8171409806507834,-0.45580764808693497,257.41485144816716,23.032592228264154,0.0,1.0,0.0,0.0,1.0,Taxi
4.3,0.017712098122178735,52.810162454471566,10.784216694601279,1.5400813346204607,-0.12017599790608403,257.28256690020226,24.085156569062118,0.0,1.0,0.0,0.0,1.0,Taxi
4.4,0.027010877546539504,-28.267931847079808,10.91660258333113,1.3531292362620717,-0.359557282102678,257.1854144717299,23.359770475510587,0.0,1.0,0.0,0.0,1.0,Taxi
4.5,-0.04311765149491594,-14.755424345346581,10.873991471543741,1.094611116362707,0.27642104096392445,257.34112419774385,23.073627067059057,0.0,1.0,0.0,0.0,1.0,Taxi
4.6000000000000005,-0.05606502360455429,4.892750387668606,10.165372081261365,1.4367802589594652,0.28080973469202625,257.31850501145686,23.16975917196651,0.0,1.0,0.0,0.0,1.0,Taxi
4.7,0.0514746294848824,22.575780385904665,11.698326490791185,1.1505043625773832,-0.4269460588311016,257.179306154344,23.48968121061405,0.0,1.0,0.0,0.0,1.0,Taxi
4.800000000000001,0.06976125043460726,39.49171454854789,10.922327036808394,1.0719615040358614,-0.11143871115526749,257.26841281246266,22.607225880768507,0.0,1.0,0.0,0.0,1.0,Taxi
4.9,0.14139354913818503,2.326266492350804,10.72695299391842,1.529523432476001,0.10575610957598067,257.1699935524358,22.86050621836155,0.0,1.0,0.0,0.0,1.0,Taxi
5.0,0.06310596194663631,-4.193831247725644,12.471750721367602,1.3981863967264456,-0.03904573018435072,257.31424103484517,22.96843730892905,0.0,1.0,0.0,0.0,1.0,Taxi
5.1000000000000005,0.048792094195978936,-32.604845229738025,13.2174752016956,1.196381639484788,0.3907417626365992,257.3994118957544,22.46413012977256,0.0,1.0,0.0,0.0,1.0,Taxi
5.2,-0.021630677010505164,-64.93128481185713,11.451616476550795,1.4163332318396937,0.5515880372845339,257.31337858003815,22.8385140373506,0.0,1.0,0.0,0.0,1.0,Taxi
5.300000000000001,-0.2615504621126494,-38.117011476633884,12.37646448000283,1.3358056316434508,-0.19285862767530718,257.2271503577339,22.578081498059916,0.0,1.0,0.0,0.0,1.0,Taxi
5.4,-0.14179296318719056,11.715041064832226,11.078700883865498,0.9679543253142744,0.24379346865317772,257.3307699219265,22.539199028057507,0.0,1.0,0.0,0.0,1.0,Taxi
5.5,0.036944528313655876,49.0608126541693,11.175185485235959,0.9248774898224965,-0.05832957444549583,257.2492592461374,22.850613944291915,0.0,1.0,0.0,0.0,1.0,Taxi
5.6000000000000005,-0.016246398841802998,30.640240626246523,10.976086832456257,1.4658139829777492,-0.2393775986773663,257.3191296730579,23.112659323183465,0.0,1.0,0.0,0.0,1.0,Taxi
5.7,0.011408239944041958,5.985687171638678,10.908682338526345,1.297883853744001,-0.16358542892295264,257.31806965713906,23.229494815825085,0.0,1.0,0.0,0.0,1.0,Taxi
5.800000000000001,0.06687296417184917,17.00336077163999,11.127170267400098,1.2708585140301782,0.46789141129108675,257.2391739609119,23.216112460392207,0.0,1.0,0.0,0.0,1.0,Taxi
5.9,0.06877040501639685,-32.76824067344074,12.292807640056147,1.0174997903506908,-0.5017780482624886,257.30798278463476,22.776369461096863,0.0,1.0,0.0,0.0,1.0,Taxi
6.0,-0.15243296342316184,-39.85489023708357,10.05529547111085,1.2176175636404785,-0.9210934675259428,257.2262033581029,23.146194052663535,0.0,1.0,0.0,0.0,1.0,Taxi
6.1000000000000005,-0.1324014870135688,-44.31197179711017,12.541756511651935,1.0397704273582675,0.6065640424679024,257.3084663086462,22.82428500085407,0.0,1.0,0.0,0.0,1.0,Taxi
6.2,-0.15278945396915408,-29.289488416625947,10.839522732889648,1.3943363479192912,0.06754374416514357,257.172906964483,23.69592442553325,0.0,1.0,0.0,0.0,1.0,Taxi
6.300000000000001,-0.2988804055062917,40.06420028867603,11.615623438711125,1.1680180977438295,1.0020882485982794,257.25289910021456,22.886807624517854,0.0,1.0,0.0,0.0,1.0,Taxi
6.4,0.06791951442981119,47.63000185291011,11.709694740433505,1.371407412293658,-0.25879258750008527,257.28685447111286,22.61952699368641,0.0,1.0,0.0,0.0,1.0,Taxi
6.5,0.08536055529539631,87.07181343838194,11.450815892929937,1.4662538865167154,0.704172072704403,257.30158277773467,24.0374658141193,0.0,1.0,0.0,0.0,1.0,Taxi
6.6000000000000005,0.13647866168561792,-55.80234001291768,11.35048019734309,1.3769252664162843,0.15679421414103953,257.4676652608639,22.49992665862238,0.0,1.0,0.0,0.0,1.0,Taxi
6.7,-0.2110921856347773,-49.33093361787419,10.579938576344498,1.5659690215477262,-0.5771505235325844,257.2265252263362,22.87400529054589,0.0,1.0,0.0,0.0,1.0,Taxi
6.800000000000001,-0.1612941127939747,-29.925162778165426,11.302888591403542,1.2460740195009334,0.13756284812101902,257.23005055048407,23.654018007648432,0.0,1.0,0.0,0.0,1.0,Taxi
6.9,-0.013147152205209265,38.43048660359478,10.34508794203581,1.2555226357689524,0.1687162535744395,257.2688958038175,23.03333508635458,0.0,1.0,0.0,0.0,1.0,Taxi
7.0,-0.018939752616803487,19.79922335020161,10.6586020766169,0.9991984509392448,0.23681194368043593,257.2799834757841,22.977802594296442,0.0,1.0,0.0,0.0,1.0,Taxi
7.1000000000000005,-0.06229799604296674,17.868101805125473,12.082388210174136,1.7568077658228756,0.3789017371798434,257.1575277418108,22.989782264095204,0.0,1.0,0.0,0.0,1.0,Taxi
7.2,0.07619335682041802,35.238788374196005,11.449671848921579,1.317005285513289,-0.08904116705260165,257.25350214662035,23.26478472628688,0.0,1.0,0.0,0.0,1.0,Taxi
7.300000000000001,0.15725418925417645,48.654021864291366,10.942667622165994,1.3801844366610267,0.4135835779906815,257.3183282092964,23.231890804369392,0.0,1.0,0.0,0.0,1.0,Taxi
7.4,0.18097211327848997,-48.28583374924121,10.542423430329265,1.3946568086156155,0.6467032844200601,257.3219582006625,22.787181203288828,0.0,1.0,0.0,0.0,1.0,Taxi
7.5,-0.16523581192578818,-32.518932488377544,11.17951537063905,0.8990107008878718,-0.572550084099393,257.26750336731436,23.13551102637311,0.0,1.0,0.0,0.0,1.0,Taxi
7.6000000000000005,-0.00534047318771141,-41.765323307772874,10.382240869457753,0.9406306882961846,-0.7534447135715739,257.11322682833315,23.51183112078329,0.0,1.0,0.0,0.0,1.0,Taxi
7.7,-0.027854503260374558,19.237649699160304,11.591375546146265,1.4149078682401433,-0.4716395223550706,257.2712167887528,23.143645329055985,0.0,1.0,0.0,0.0,1.0,Taxi
7.800000000000001,-0.06904756342998679,-15.801094488146097,11.344241326201585,0.9576115717128832,0.04174884422137632,257.18725217426936,22.670262994739147,0.0,1.0,0.0,0.0,1.0,Taxi
7.9,-0.08434594562844201,-32.122171908431774,10.822827710012744,1.5527187353881367,-0.013350397744091285,257.34645526044346,22.57843120639011,0.0,1.0,0.0,0.0,1.0,Taxi
8.0,-0.18846536280253356,2.7370087409429735,11.429235571085382,1.5130925020078612,-0.018703435258539538,257.45903194247035,22.540699959234793,0.0,1.0,0.0,0.0,1.0,Taxi
8.1,-0.05536251972527204,14.085129053924296,10.323242114931558,1.0874294900019421,0.5087280695256651,257.2914342198469,23.2418636829678,0.0,1.0,0.0,0.0,1.0,Taxi
8.200000000000001,-0.013920300358820664,21.086193451299778,11.85119542974265,1.5856108645475808,0.1230373476675466,257.27029799248317,23.222203229259573,0.0,1.0,0.0,0.0,1.0,Taxi
8.3,-0.0830343955460348,-33.94032705270509,10.846798542805596,1.1134672812896653,-0.075880783644094,257.32895570324126,23.22390037584501,0.0,1.0,0.0,0.0,1.0,Taxi
8.4,-0.22506415498879762,29.55653193660935,12.094651221860593,0.8900400798480477,1.2641682704119852,257.2359395200208,23.403311809964492,0.0,1.0,0.0,0.0,1.0,Taxi
8.5,0.133862359324226,36.10156658473648,11.052313631304763,1.1383779461743124,-0.11698692120592319,257.2996225814859,22.686932785970534,0.0,1.0,0.0,0.0,1.0,Taxi
8.6,0.0974734373776475,31.128532864756306,11.404987413719892,1.5234729700369383,0.5283428957825389,257.2226930301372,23.764144579983437,0.0,1.0,0.0,0.0,1.0,Taxi
8.700000000000001,-0.06942149066501621,-53.53974657883585,11.7078342035884,1.5744322366876426,-0.7622532231283001,257.234797604895,23.242271864597935,0.0,1.0,0.0,0.0,1.0,Taxi
8.8,-0.1338363735699534,-5.417766801761,10.19744706282852,1.229289136530109,-0.027114862954826954,257.1410883204521,22.85408411903846,0.0,1.0,0.0,0.0,1.0,Taxi
8.9,0.07038460336884235,-0.10281943153841648,11.445198165492492,1.1287124307900374,0.7325319329410386,257.347011317157,23.621703825287412,0.0,1.0,0.0,0.0,1.0,Taxi
9.0,-0.06993558782270841,43.30182933938644,10.246173329660339,0.8991911750565182,0.23763638774822968,257.30008750771776,23.253825093228137,0.0,1.0,0.0,0.0,1.0,Taxi
9.1,0.08267277312697871,13.370352110366646,11.769514295228083,1.2876590553146696,-0.25087556334400407,257.4517112712747,22.764258317582062,0.0,1.0,0.0,0.0,1.0,Taxi
9.200000000000001,0.13723636392067548,6.623811930653081,10.940745823207386,1.2440412903179292,0.2792718786363246,257.3084785064955,23.72491405197436,0.0,1.0,0.0,0.0,1.0,Taxi
9.3,-0.0368165281694431,-6.308514510533205,10.40439647235284,1.2273654221210502,-0.3780317622988806,257.127960512316,23.142359300274673,0.0,1.0,0.0,0.0,1.0,Taxi
9.4,0.05113020057431257,-28.79761892931346,12.578830758465752,1.2677520067755408,0.06844430736198896,257.1697560876646,22.789386435487398,0.0,1.0,0.0,0.0,1.0,Taxi
9.5,-0.006751730725891934,12.129271608300732,11.03427987203073,1.2669960489711722,-0.3480622861841489,257.07692400063604,24.08683135833303,0.0,1.0,0.0,0.0,1.0,Taxi
9.600000000000001,0.023829829872060428,-17.934128331810726,12.038595082331478,1.6156518383973024,-0.06932453078779052,257.1572099915845,23.603680107894434,0.0,1.0,0.0,0.0,1.0,Taxi
9.700000000000001,-0.038540441084741195,10.184016449253392,11.674553828306708,1.598386061035494,-0.4178638517913442,257.28808649183327,22.904708431435303,0.0,1.0,0.0,0.0,1.0,Taxi
9.8,0.04416835152037489,-16.243856665907376,11.36289891486667,1.419739685011593,-0.3450494751413011,257.2271710009072,22.67693850930506,0.0,1.0,0.0,0.0,1.0,Taxi
9.9,-0.05738945345747657,-26.237578194967057,11.303026113933353,1.2124445303971583,-0.11011545659362326,257.21551940666563,23.737830793708117,0.0,1.0,0.0,0.0,1.0,Taxi
10.0,-0.16972833205957658,25.093573216051386,11.653669261092011,1.1969575012389826,-0.23100851660031707,257.23014723350695,23.152166659263077,0.0,1.0,0.0,0.0,1.0,Taxi
10.100000000000001,0.16963621760063163,-10.289725783620915,11.794250556191113,0.9216167917149041,-0.11879450692265207,257.0752792857752,23.26073669057065,0.0,1.0,0.0,0.0,1.0,Taxi
10.200000000000001,-0.10883808237558133,36.637155297839925,12.15986030466406,1.4274257761389333,-0.1070716417075649,257.25423932847593,22.815464361743345,0.0,1.0,0.0,0.0,1.0,Taxi
10.3,0.013457444429622857,-4.807324634877209,11.27978739990736,1.535701958305659,-0.22867240505753322,257.29725683813695,24.03078277921068,0.0,1.0,0.0,0.0,1.0,Taxi
10.4,0.14559959442624543,54.50801855593064,12.432265225790378,1.5131621435102078,0.3808917167004466,257.24672411955,23.78034604207124,0.0,1.0,0.0,0.0,1.0,Taxi
10.5,0.1637020104040717,26.01302833303262,10.400172871226237,1.085676756389169,-0.23933438997442422,257.1259230882464,22.761487562843776,0.0,1.0,0.0,0.0,1.0,Taxi
10.600000000000001,0.14352258609478577,-48.808397235195095,11.141995304278895,1.0121669904709332,0.01101124708331324,257.3343333771435,22.86671041869089,0.0,1.0,0.0,0.0,1.0,Taxi
10.700000000000001,-0.09844239174973024,-22.536025489417074,11.147259633524548,1.1520469642679052,-0.8757143337286837,257.1322797145831,22.8542713450983,0.0,1.0,0.0,0.0,1.0,Taxi
10.8,0.05102188295698609,-34.14091235097484,11.66593619838604,1.135599173185167,-0.6253130590537337,257.40591235599095,22.33546287031616,0.0,1.0,0.0,0.0,1.0,Taxi
10.9,-0.027181975660088637,47.86144032382004,11.433518305777358,1.3849192423384784,0.010029298258499901,257.03488011577747,23.41974535468014,0.0,1.0,0.0,0.0,1.0,Taxi
11.0,0.14086480986936978,22.160988533670004,10.535365891161641,0.9874747277635434,0.3150194555504201,257.3302655261904,23.656877407378293,0.0,1.0,0.0,0.0,1.0,Taxi
11.100000000000001,0.1618268256253359,29.648007905501682,11.360834592002789,1.2998379864863376,0.2997087413397475,257.2730059824461,22.45925224024213,0.0,1.0,0.0,0.0,1.0,Taxi
11.200000000000001,0.12105806386741957,-11.33870691373084,11.023586008699239,1.134806370065402,-0.3645848399738855,257.0933087686511,23.151550484612862,0.0,1.0,0.0,0.0,1.0,Taxi
11.3,0.08417127530071536,-51.21498632764477,11.186230510909263,1.42381938734931,0.672358616049598,257.26279623886217,22.3260009253365,0.0,1.0,0.0,0.0,1.0,Taxi
11.4,-0.09424810601288819,-36.20826109557191,10.930121212197129,1.411475345086683,-0.20425123381011862,257.1961178885182,22.902021483643576,0.0,1.0,0.0,0.0,1.0,Taxi
11.5,-0.05998324161044021,-2.3196413684155885,11.635266152915488,1.042863366711719,-1.233233243978697,257.4639646099945,23.780241883448056,0.0,1.0,0.0,0.0,1.0,Taxi
11.600000000000001,0.07257306845863723,34.35274704306481,11.424516598726887,1.3466927414579017,-0.011374032098218677,257.25242855953036,22.449072893415067,0.0,1.0,0.0,0.0,1.0,Taxi
11.700000000000001,0.07751562920243565,44.701813504844445,10.8949282485708,1.3133317271735632,0.13703276424488575,257.21355782130036,23.25406338525051,0.0,1.0,0.0,0.0,1.0,Taxi
11.8,0.16352582591378184,2.310894632308068,11.34488606195722,1.253417787342548,0.18062130874517077,257.36665502146457,22.362420420707117,0.0,1.0,0.0,0.0,1.0,Taxi
11.9,0.08412754162017738,6.779584381961854,11.7754795890076,1.1728965724216658,0.0814990550090737,257.2439161975411,23.794365516481637,0.0,1.0,0.0,0.0,1.0,Taxi
12.0,0.11141355111224474,-37.10047532035185,11.494670982949732,1.4108824334081351,-0.7046071454642305,257.2326676736553,23.05985487829081,0.0,1.0,0.0,0.0,1.0,Taxi
12.100000000000001,-0.02197655068797756,-20.525312149844034,11.672164058527422,1.2335691651819922,-0.3540736125789867,257.38956595324703,23.182444584731744,0.0,1.0,0.0,0.0,1.0,Taxi
12.200000000000001,-0.018499019129042955,-24.521232416661864,10.948275587284456,1.2798847188417555,0.9576950116732231,257.3912922632579,22.917107727152544,0.0,1.0,0.0,0.0,1.0,Taxi
12.3,-0.011192610971064762,-13.823168014905903,11.712144228513644,1.2848374611078779,0.11712321519692291,257.4158812015089,23.78224126664317,0.0,1.0,0.0,0.0,1.0,Taxi
12.4,-0.09109239076250727,5.565796073221759,11.437992732003943,1.5001235416559735,-0.35491617972430195,257.3346183181111,22.972245942854187,0.0,1.0,0.0,0.0,1.0,Taxi
12.5,0.009329961237065644,32.1721355389892,11.079111456853935,1.105574675126115,0.7094229201673148,257.3953937615886,22.930734750900452,0.0,1.0,0.0,0.0,1.0,Taxi
12.600000000000001,0.14966806672388105,39.59453360563614,12.17455343171476,1.4022171202146638,0.5170646457650817,257.2876060547726,23.103553926127844,0.0,1.0,0.0,0.0,1.0,Taxi
12.700000000000001,0.10688027726567323,6.09155735427413,11.644217831239574,1.2003614585074491,0.4312706612744449,257.47271509072834,23.149782384293168,0.0,1.0,0.0,0.0,1.0,Taxi
12.8,0.03978774800843611,-44.09717351776633,11.77762163388703,1.2711471645842332,0.3169138415804513,257.1419612348493,22.87632311502618,0.0,1.0,0.0,0.0,1.0,Taxi
12.9,-0.07081780086495082,-2.5934505895655633,10.401343461098241,1.212379752853025,0.56019240351132,257.28316556816833,22.36653053514292,0.0,1.0,0.0,0.0,1.0,Taxi
13.0,0.09391302431784523,-15.566018330644757,10.907681566749927,1.450123331238937,1.0423280544525886,257.2583087456037,22.537960516323235,0.0,1.0,0.0,0.0,1.0,Taxi
13.100000000000001,-0.038042343644787875,4.769278579922211,11.953459203798952,1.0687799574805528,0.4320067078612518,257.2790443763532,22.18217964931744,0.0,1.0,0.0,0.0,1.0,Taxi
13.200000000000001,-0.04697140796533998,-40.83614764607355,10.637420800458726,1.4488812805166587,0.41919030449265715,257.21079946191185,23.380912851168734,0.0,1.0,0.0,0.0,1.0,Taxi
13.3,-0.11026771391252271,10.351457450940819,12.466218572903328,1.0898224007213055,-0.2985158167350132,257.2802041319346,22.355477134543797,0.0,1.0,0.0,0.0,1.0,Taxi
13.4,0.013714943609916012,27.148091203910848,12.049814562520547,1.4091909992774452,1.2136473691678442,257.0105230865661,22.540025031235118,0.0,1.0,0.0,0.0,1.0,Taxi
13.5,0.08876904805421404,32.7522862363833,11.096706717728601,1.2947250534027406,-0.19013611094731311,257.2421620633156,22.78757952392064,0.0,1.0,0.0,0.0,1.0,Taxi
13.600000000000001,0.05349371726939359,32.63940815193899,10.816674200277415,1.3907932378433614,0.7850146483704643,257.26286305469307,23.194148016828805,0.0,1.0,0.0,0.0,1.0,Taxi
13.700000000000001,0.17691198436961075,7.6387959705395225,11.273873743598816,0.9356287929318965,0.43888677612986904,257.26356439878623,23.167930260164756,0.0,1.0,0.0,0.0,1.0,Taxi
13.8,0.12696302790691147,-9.509908020211247,10.467909677397111,1.3907537250644775,-0.26855750721751503,257.25259559916674,23.639586855358548,0.0,1.0,0.0,0.0,1.0,Taxi
13.9,0.005944177168337179,-69.09467264490905,10.60086208632271,0.9782210814524481,0.1205227158044449,257.02118095979574,23.569598437712745,0.0,1.0,0.0,0.0,1.0,Taxi
14.0,-0.1685613788549347,-12.07904933382622,11.338362212925134,1.523876793017783,-0.21064717872808777,257.2731813615278,22.189653064235554,0.0,1.0,0.0,0.0,1.0,Taxi
14.100000000000001,0.06656778123778018,-19.194585157486802,11.618657066540049,1.2014851297571187,0.2734276411103204,257.34713141478505,22.45801461580272,0.0,1.0,0.0,0.0,1.0,Taxi
14.200000000000001,-0.09002874861909703,51.132675315475524,11.660784493922243,1.0906013496699656,0.12845960153428015,257.2348168174574,23.252733794457512,0.0,1.0,0.0,0.0,1.0,Taxi
14.3,0.08710199772244273,-7.54132114782707,10.597850316385582,0.9489605425192496,-0.21029137900549597,257.23790165523064,22.69511818454896,0.0,1.0,0.0,0.0,1.0,Taxi
14.4,0.028861175498644667,30.178824220677665,11.196174984500432,1.4305051234643607,0.18317716693359967,257.3431056338454,22.580202098544287,0.0,1.0,0.0,0.0,1.0,Taxi
14.5,0.060865372484291115,-29.6436767941474,11.326432562709913,1.5092521195003885,1.0108642262196155,257.1928135742485,22.98822634621973,0.0,1.0,0.0,0.0,1.0,Taxi
14.600000000000001,-0.06111638624829446,13.07047856504177,11.157971833038738,1.362560322894684,0.4093555595248451,257.13166110022644,22.344748706747502,0.0,1.0,0.0,0.0,1.0,Taxi
14.700000000000001,0.09421356832385333,-20.725972653820524,11.472486493472472,1.0971925682593557,-0.6596292203894013,257.30325727320815,22.690477929904713,0.0,1.0,0.0,0.0,1.0,Taxi
14.8,-0.04276449078481169,-13.680368006508154,11.252987565703139,1.213692091065664,-0.5965731412206097,257.2969926011742,23.58224233207124,0.0,1.0,0.0,0.0,1.0,Taxi
14.9,-0.1295182262808354,-10.355093185770054,10.427590470272031,0.8218639145074575,0.3897436989977991,257.3745974136705,22.365972356331593,0.0,1.0,0.0,0.0,1.0,Taxi
15.0,0.0424381023950029,19.846341721961767,11.79706906442895,1.0893793181116125,0.34805546550831423,257.1772397778336,22.76968689717147,0.0,1.0,0.0,0.0,1.0,Taxi
15.100000000000001,0.05646721782499697,6.40302803667439,11.368060214278591,1.4815885403680054,-0.5659935771270107,257.1326044560409,23.03136492045102,0.0,1.0,0.0,0.0,1.0,Taxi
15.200000000000001,-0.09750308609746362,-58.49704558330649,11.428425947342507,1.2540283890767838,-0.5186557915051022,257.09006852160996,22.57958575194127,0.0,1.0,0.0,0.0,1.0,Taxi
15.3,-0.2500471255215297,-8.076115127527325,12.326518233481124,1.0415899133336781,0.6858936691525866,257.37284345239084,22.32693686970261,0.0,1.0,0.0,0.0,1.0,Taxi
15.4,0.016086642187360126,17.044126745819565,11.759743080211386,1.1930870473952788,0.751536125813865,257.2985696605606,22.543146273707052,0.0,1.0,0.0,0.0,1.0,Taxi
15.5,-0.012282452368365985,28.449710507253798,11.221521851186608,1.0366207501121065,0.28156706077362104,257.3276008594628,23.006948479750886,0.0,1.0,0.0,0.0,1.0,Taxi
15.600000000000001,-0.10779857298526091,-1.2955553622783214,11.934507365287265,1.3097966280782272,0.19032093367339126,257.3111587743515,23.360599872792847,0.0,1.0,0.0,0.0,1.0,Taxi
15.700000000000001,0.00960886537596835,16.299362348958642,12.940471181935127,1.133094735722189,-0.2309258276913206,257.1942021059151,22.474372455014397,0.0,1.0,0.0,0.0,1.0,Taxi
15.8,0.06921435937642706,68.87064810614349,11.379510048269987,1.459407267523831,0.4439977452997617,257.17515536296196,23.063058146349768,0.0,1.0,0.0,0.0,1.0,Taxi
15.9,0.2365546675454564,-1.8476597487561435,10.7450065857777,0.8686472353278334,0.11159827011974165,257.37776066472225,23.62087170980693,0.0,1.0,0.0,0.0,1.0,Taxi
16.0,0.0003705666321874609,-13.599196950952644,11.84618572579827,1.2530993513149797,0.5416234321979593,257.28074556828983,22.889895263372598,0.0,1.0,0.0,0.0,1.0,Taxi
16.1,0.0012183746216636766,-40.80027544369366,10.699934652510972,1.359504289853489,-0.03589114109386441,257.20549732738345,23.2539835304776,0.0,1.0,0.0,0.0,1.0,Taxi
16.2,0.032553290326987935,-13.854759656645541,10.602354873187146,0.9831879984298688,-0.23553899003156248,257.24058985116517,23.751400902817252,0.0,1.0,0.0,0.0,1.0,Taxi
16.3,-0.06890323165104041,-22.177608200305155,11.734475649675096,1.369116556584975,0.37024015233704416,257.22899544312236,21.996672816451685,0.0,1.0,0.0,0.0,1.0,Taxi
16.400000000000002,-0.10966966637986225,-38.346718055330435,11.618929182671087,1.2952820891703223,0.5155838120144376,257.2886645028233,23.501864619211666,0.0,1.0,0.0,0.0,1.0,Taxi
16.5,-0.1591802999496644,-0.823259719900077,11.6043723804266,1.0143830047033113,-0.16358500926902456,257.3346877599779,23.756702803062364,0.0,1.0,0.0,0.0,1.0,Taxi
16.6,-0.07301953025054096,18.017457189542775,10.52869725038262,1.2279693461864254,0.9008118752324767,257.34396188505366,22.910996724621175,0.0,1.0,0.0,0.0,1.0,Taxi
16.7,-0.019582380432148553,49.21041431393769,10.25653024141695,1.2080200915583048,-0.3532108437816595,257.2584445341206,23.239525564303552,0.0,1.0,0.0,0.0,1.0,Taxi
16.8,0.08687177162002391,77.3253368227202,10.662594027816082,1.5433049638116325,-0.7392572791919935,257.2069396099308,22.416385735818313,0.0,1.0,0.0,0.0,1.0,Taxi
16.900000000000002,0.3136071538630598,16.160676458952423,11.295686053293146,1.4949631357837647,0.5548367760389631,257.42725806986834,23.13737304768895,0.0,1.0,0.0,0.0,1.0,Taxi
17.0,0.061221001862613325,-41.87568080888753,11.016765038444666,1.0889157647874685,-1.065757032602878,257.4761620868162,23.124017231250367,0.0,1.0,0.0,0.0,1.0,Taxi
17.1,-0.12250663242441398,-57.0055993760431,10.649860964287123,1.32682347950456,-0.10552324987855442,257.1532019891274,22.732447691137867,0.0,1.0,0.0,0.0,1.0,Taxi
17.2,0.02857915698284414,12.155246701789485,11.111730088634173,1.1250781688529572,0.2911953480443392,257.247824324396,22.468838953327285,0.0,1.0,0.0,0.0,1.0,Taxi
17.3,0.12199723537156058,48.995504335480064,10.65859522704162,1.1873363067168698,-0.004386803638082273,257.2428892065009,22.747279329711287,0.0,1.0,0.0,0.0,1.0,Taxi
17.400000000000002,0.12247088925298613,-7.531497809471925,11.193862516269865,1.1644635524012399,0.24943620079197407,257.21501715567274,23.384982128664717,0.0,1.0,0.0,0.0,1.0,Taxi
17.5,-0.009078332064515682,12.923438261858783,10.92700926169753,1.1087327837476295,0.2173156356908852,257.17953329606803,22.67000866491853,0.0,1.0,0.0,0.0,1.0,Taxi
17.6,0.18661442668085426,-16.991872523022465,11.351757242873271,1.3711047757855006,0.09376641018227018,257.3395198422364,22.458575068899346,0.0,1.0,0.0,0.0,1.0,Taxi
17.7,0.03751152663787356,-10.935590594329605,11.542077596465132,1.0986786414667473,0.40819107674399546,257.36589003167387,23.155098047757736,0.0,1.0,0.0,0.0,1.0,Taxi
17.8,-0.06375628503616394,-11.317949113077674,11.023689605913978,1.510847522782943,0.48488883811389666,257.23433955575865,22.94967518793292,0.0,1.0,0.0,0.0,1.0,Taxi
17.900000000000002,0.13002468111546567,-2.5992094106447396,11.481850865769168,1.2201514262164903,0.37557966247355834,257.20447303614367,22.80190140035289,0.0,1.0,0.0,0.0,1.0,Taxi
18.0,0.02451547958464967,30.152265631117245,11.993176916927194,0.8676600311678628,-0.04082265825993234,257.17268260657966,22.17310277338689,0.0,1.0,0.0,0.0,1.0,Taxi
18.1,0.08700504311942209,-24.748423992020154,12.237573420775698,1.4025055618535325,-0.411292561851379,257.2658001482422,23.44482449321936,0.0,1.0,0.0,0.0,1.0,Taxi
18.2,0.006282561155364676,-43.337387370542224,9.745386242611758,1.0432051697307627,-0.16226930810442924,257.14826546145014,22.776558642978053,0.0,1.0,0.0,0.0,1.0,Taxi
18.3,-0.19217145726806165,6.962964218528138,10.502356206079808,0.8441092754588282,0.3030008387118657,257.32584691980355,22.996889501507034,0.0,1.0,0.0,0.0,1.0,Taxi
18.400000000000002,0.12181986421206262,-25.085166555763788,11.567492311567253,1.1457330670052153,-0.3041339623144929,257.1785548673299,22.241125792406045,0.0,1.0,0.0,0.0,1.0,Taxi
18.5,-0.11914327162345442,82.02773486356558,11.41869231723445,1.147732776365367,-0.04550125072319934,257.3400824357634,22.2320963245516,0.0,1.0,0.0,0.0,1.0,Taxi
18.6,0.21796721704976602,-14.064053499292688,11.280775338452122,1.4337142278379436,1.4964545808700171,257.22403095646814,22.742948284235453,0.0,1.0,0.0,0.0,1.0,Taxi
18.7,0.05149959671559894,46.86723464667395,10.223976899193342,1.1125274157449165,-0.4622652536140657,257.38558125607574,22.88907946019449,0.0,1.0,0.0,0.0,1.0,Taxi
18.8,0.11519290160991509,-50.16653320976306,10.179389456928362,1.4093503257258901,0.054594633547461136,256.9726304215618,22.684009828628803,0.0,1.0,0.0,0.0,1.0,Taxi
18.900000000000002,-0.032865448999049494,16.942154269251617,11.019771431910685,1.4629365264407355,-0.4311115043300856,257.27578345867835,23.07009208147238,0.0,1.0,0.0,0.0,1.0,Taxi
19.0,0.1362103680618568,-52.669913761515396,10.280034571658593,1.015120867561895,-0.047369729770770495,257.22469940492226,22.39068930953722,0.0,1.0,0.0,0.0,1.0,Taxi
19.1,-0.14815666719766213,2.4378296903010486,11.159012694641012,1.0078533357163268,-0.8025129192030044,257.3385100153232,23.098638111907732,0.0,1.0,0.0,0.0,1.0,Taxi
19.200000000000003,-0.02067630054754449,-35.30393819053206,10.728252910664951,1.1512839894845144,-0.12320218891877743,257.1714948084177,22.979510373112117,0.0,1.0,0.0,0.0,1.0,Taxi
19.3,-0.040309322890803724,16.072597341831727,11.924675295071818,1.3538995492195327,-1.0904779561413491,257.2367140682518,22.366414722141233,0.0,1.0,0.0,0.0,1.0,Taxi
19.400000000000002,-0.06779368048850366,43.78050536087545,10.468430963470603,1.4022216610206533,-0.046106755827400536,257.275121014198,23.069628124899552,0.0,1.0,0.0,0.0,1.0,Taxi
19.5,0.19822622625683262,1.965385050614221,10.59949222857547,1.476493192040906,-0.2864848238311927,257.13807242267285,23.187587884883452,0.0,1.0,0.0,0.0,1.0,Taxi
19.6,-0.030482397637732767,60.631974059567504,10.349363694436034,1.2464778991588994,-0.39013184119352157,257.48307637128755,21.96555676930347,0.0,1.0,0.0,0.0,1.0,Taxi
19.700000000000003,0.2353661898093337,2.9227120981950967,11.704251379823361,0.9762083387109903,0.3019498739300921,257.2956168619785,22.941128583169967,0.0,1.0,0.0,0.0,1.0,Taxi
19.8,0.2128397867478079,-21.595347149734238,10.086775493075288,1.0155972043078327,-0.1538434429100107,257.4664898081578,23.228629023924423,0.0,1.0,0.0,0.0,1.0,Taxi
19.900000000000002,-0.13845913338640412,-17.621608288157507,11.937422243795096,1.4758289722502382,-0.2542459174907906,257.208700974513,22.093624315472063,0.0,1.0,0.0,0.0,1.0,Taxi
20.0,0.14725814836854592,-42.180905184957425,11.57732297975769,1.162260077927052,-0.7380553849723999,257.26913389465085,22.925146497781103,0.0,1.0,0.0,0.0,1.0,Taxi
20.1,0.0019352608230205585,16.462733293086306,13.09505732403502,0.9741862268378769,0.04145204652047022,257.1915500950204,23.218275804590075,0.0,1.0,0.0,0.0,1.0,Taxi
20.200000000000003,-0.056145466920972824,-17.181082245186985,11.787858889411561,1.4638034994708065,-0.9066809681530522,257.4251167153127,23.201108832523172,0.0,1.0,0.0,0.0,1.0,Taxi
20.3,0.061352737142610775,10.307196347491105,10.949031421087755,1.2774562014544117,-1.045289082673361,257.2515150772256,22.95251973804153,0.0,1.0,0.0,0.0,1.0,Taxi
20.400000000000002,0.05347124256047586,9.477557230043407,10.664071470282156,1.1651864770417206,-0.6175045418855797,257.2932595678284,23.156236904926452,0.0,1.0,0.0,0.0,1.0,Taxi
20.5,-0.008757680770756006,0.8139166386598665,10.982925401601303,1.5369829342618713,0.2614879023519053,257.10913258350854,22.035262018267826,0.0,1.0,0.0,0.0,1.0,Taxi
20.6,0.06542232033590989,-14.03542019167905,11.385873773384315,1.6402660502547892,1.3104813889660782,257.4480882966393,22.950572175418404,0.0,1.0,0.0,0.0,1.0,Taxi
20.700000000000003,-0.0167058583979196,-34.399977187162655,10.799733358893576,1.45246767745479,0.02665371911274468,257.1969527052946,22.977048864130797,0.0,1.0,0.0,0.0,1.0,Taxi
20.8,-0.18075756670656953,-46.90122783035856,10.898208089973869,1.5367708110937652,-1.021448595860281,257.1222204880421,22.133915603089104,0.0,1.0,0.0,0.0,1.0,Taxi
20.900000000000002,-0.1690838188158831,23.198352728986055,10.72936325238515,1.321518922659738,0.16613500129240227,257.249461548819,22.807090914356994,0.0,1.0,0.0,0.0,1.0,Taxi
21.0,0.09928590524701053,27.246253566055206,12.07975551491558,1.107189150611948,-0.6978023543806705,257.4979496028634,23.51094547218137,0.0,1.0,0.0,0.0,1.0,Taxi
21.1,-0.04452629887629367,38.441759349348665,11.905374441247483,1.41962082006081,0.047886030462996,257.4029073004733,23.794223704456236,0.0,1.0,0.0,0.0,1.0,Taxi
21.200000000000003,0.023124977930860033,2.588276015467104,11.369281689523381,1.1741995752536907,0.3402145633833062,257.2801189719157,22.72358952642908,0.0,1.0,0.0,0.0,1.0,Taxi
21.3,0.11222728532434584,19.454152100608773,11.119293635878776,1.2637403559586888,-0.7130698370478735,257.14219003702397,22.956420394985518,0.0,1.0,0.0,0.0,1.0,Taxi
21.400000000000002,0.052744461626749985,-6.932038453751538,11.65738959332932,1.2779806544135053,0.6937212723062313,257.3281806217162,22.058109313607375,0.0,1.0,0.0,0.0,1.0,Taxi
21.5,-0.011535214337897844,-25.15870566472509,10.402562542001686,1.245205428291319,0.3078165895479883,257.24329625305256,22.7455621000691,0.0,1.0,0.0,0.0,1.0,Taxi
21.6,-0.013566242999279788,-12.459100840810017,10.672131838586509,0.9124093850817923,0.16324809179265856,257.2353008192889,23.350010827674364,0.0,1.0,0.0,0.0,1.0,Taxi
21.700000000000003,-0.009551042577300294,-19.757126653435847,10.594099492694728,1.7939844320437917,1.1246229023691265,257.2018560629531,22.771355842921206,0.0,1.0,0.0,0.0,1.0,Taxi
21.8,-0.11032084760507728,-18.0104611469789,10.934568470690971,0.9019961386206408,-0.38950309272279526,257.2611533790532,22.9814830727463,0.0,1.0,0.0,0.0,1.0,Taxi
21.900000000000002,-0.10361854873417449,-22.472391921542343,10.659687991036257,1.4542190927660594,0.36355138292841377,257.1977328026353,23.10606529208074,0.0,1.0,0.0,0.0,1.0,Taxi
22.0,-0.1219130021850122,0.5400660923591799,11.021911194662675,0.9744707743607972,1.3217807179719756,257.1496109489608,22.453027164973893,0.0,1.0,0.0,0.0,1.0,Taxi
22.1,-0.10762051714328158,13.173102452524326,10.35043228660952,1.163798231619776,-0.5316515757804665,257.31550480800365,23.01320046631505,0.0,1.0,0.0,0.0,1.0,Taxi
22.200000000000003,-0.037753036471553064,20.495072534838204,10.853998468460246,1.3439333730805993,0.32831238374525396,257.30690210925945,23.45070085915643,0.0,1.0,0.0,0.0,1.0,Taxi
22.3,-0.0194376395108214,21.82365464941112,10.965632915571485,0.9080828489855486,-0.010147334373470117,257.41564451742454,22.371013204374687,0.0,1.0,0.0,0.0,1.0,Taxi
22.400000000000002,0.001497756103773822,14.270269301726783,11.065118601891138,0.9015621580051147,-0.37012577107993466,257.31818772707845,22.72787915879125,0.0,1.0,0.0,0.0,1.0,Taxi
22.5,0.03359831003708064,25.743715660551487,11.443563389285083,1.1110048822431753,0.45266629216553356,257.1877050709122,23.46274327860531,0.0,1.0,0.0,0.0,1.0,Taxi
22.6,0.10928093879193586,4.402128611637257,11.772303642002871,1.125872777122963,0.672051963962754,257.11393190848867,23.57284486382142,0.0,1.0,0.0,0.0,1.0,Taxi
22.700000000000003,0.023508399161959917,-11.5144972577995,10.634831463195143,1.129500464606885,0.39400286288171743,257.32357006191296,23.294460301847952,0.0,1.0,0.0,0.0,1.0,Taxi
22.8,-0.023974176251917053,-44.74978280525024,10.377456253874783,1.1436445447116657,0.4272732943477621,257.33586886054263,23.334142501639395,0.0,1.0,0.0,0.0,1.0,Taxi
22.900000000000002,-0.11446797523431557,-4.6502115037153215,10.97921462715111,1.2622917152958075,-0.019492921204703372,257.1180930132423,22.913074912509998,0.0,1.0,0.0,0.0,1.0,Taxi
23.0,0.0002573416433831374,38.568755318222195,12.110038331141238,1.34923967150707,0.600976451313483,257.21535192910244,22.36232031056071,0.0,1.0,0.0,0.0,1.0,Taxi
23.1,0.16886960033919374,14.832590382522744,10.572302040370342,1.4652092726582417,0.5589872569879728,257.1502081827573,23.496647050116742,0.0,1.0,0.0,0.0,1.0,Taxi
23.200000000000003,-0.040305023321702,-0.24722407119033582,11.397953106982046,1.6260772775619152,0.42983724720176064,257.30422983188555,23.04342251591161,0.0,1.0,0.0,0.0,1.0,Taxi
23.3,-0.0009787787125687343,-17.280791210439098,11.116844941405022,1.344751887728971,-0.4399752120758659,257.16517619612637,23.72805737614146,0.0,1.0,0.0,0.0,1.0,Taxi
23.400000000000002,0.08246564428699803,-4.99513066045905,11.659133014715126,1.0175852771029938,0.18287565233858658,257.11885134522595,21.599502020538846,0.0,1.0,0.0,0.0,1.0,Taxi
23.5,-0.06528067662399746,19.088566554642075,10.697484304456792,1.3019933963974974,-1.0036145828872667,257.27332401445574,22.620237836935583,0.0,1.0,0.0,0.0,1.0,Taxi
23.6,0.09446405406064139,-7.134958732445753,11.04981175425372,1.3435793966703906,0.33188989685915876,257.1755618418704,23.195545349437314,0.0,1.0,0.0,0.0,1.0,Taxi
23.700000000000003,0.04679085062476901,26.264263363135143,11.027872553390699,1.1407945104601267,0.26584719541080176,257.324057726982,22.294024605008495,0.0,1.0,0.0,0.0,1.0,Taxi
23.8,0.06604064019167802,-14.087453037980943,11.067379969191936,1.3835444527334462,0.6175578001476983,257.35585622524854,23.07435228889073,0.0,1.0,0.0,0.0,1.0,Taxi
23.900000000000002,0.024026788870736445,-26.097082872612305,10.54631058639368,1.532657525971895,0.09883284203208728,257.33680294751616,22.47979434156707,0.0,1.0,0.0,0.0,1.0,Taxi
24.0,-0.08369456373829273,-25.253504727003588,11.600609822234002,1.3323682294772774,0.7119019191052183,257.24229623192923,22.36091747176173,0.0,1.0,0.0,0.0,1.0,Taxi
24.1,-0.06022688344334015,32.055153203576744,11.987266173157298,1.5152090974431869,-0.43467881819823156,257.13542461999543,22.83846300501545,0.0,1.0,0.0,0.0,1.0,Taxi
24.200000000000003,0.18430255488861996,28.661835309355933,10.856566323948222,0.9246622126089696,0.06084244035595889,257.3610236709301,22.95556553517631,0.0,1.0,0.0,0.0,1.0,Taxi
24.3,0.05961461280848671,5.34650734598443,11.645969910066428,1.1011359789447301,-0.2220631874849576,257.2724250880426,23.580513099728492,0.0,1.0,0.0,0.0,1.0,Taxi
24.400000000000002,-0.03349434671341821,-29.293298316682552,11.067713958935936,1.6166721990828314,0.24098111467601754,257.40252477263994,22.903571706887924,0.0,1.0,0.0,0.0,1.0,Taxi
24.5,0.03783606330520699,-9.248061412106756,10.974325076598204,0.9427219041248985,0.5681321556356935,257.51840161949804,23.40038620086439,0.0,1.0,0.0,0.0,1.0,Taxi
24.6,0.013374305747952706,5.001856503067083,11.713407464435514,1.1954226851191883,-1.059831719463955,257.2724948366133,22.13374679650905,0.0,1.0,0.0,0.0,1.0,Taxi
24.700000000000003,-0.008485064198083028,12.345047916405663,11.817636954741834,1.1631683348242983,-0.04604004923754857,257.17782663848504,22.83465456031136,0.0,1.0,0.0,0.0,1.0,Taxi
24.8,0.09956130288723507,24.931435843374175,11.515827858073328,1.3487932188102536,1.194303707537219,257.52934281451667,22.967716254253848,0.0,1.0,0.0,0.0,1.0,Taxi
24.900000000000002,0.13803148496482334,5.641832229069446,10.98555528964922,1.160154313759434,0.4261628933267391,257.32259299663815,23.65176457266456,0.0,1.0,0.0,0.0,1.0,Taxi
25.0,0.019724096947263944,-16.098320568075337,12.337035376598337,1.0918200642409215,-0.13913218504978256,257.20891476963175,22.144891350077405,0.0,1.0,0.0,0.0,1.0,Taxi
25.1,0.01906970004685813,-7.920405570722065,11.49449054154234,1.04339157671059,-0.44750823061829403,256.98986079906217,24.086701915376274,0.0,1.0,0.0,0.0,1.0,Taxi
25.200000000000003,0.09842945711121277,-7.685616102846635,10.29848794349615,1.46915859229674,0.9186020500046187,257.2096876393291,22.824808684269847,0.0,1.0,0.0,0.0,1.0,Taxi
25.3,-0.01870398356696944,-8.778223501731334,10.163727307942565,1.2285577150005629,0.002555895553551341,257.3345356083996,23.044297835951376,0.0,1.0,0.0,0.0,1.0,Taxi
25.400000000000002,-0.02482141746179875,-40.15536400579273,11.656264574741593,1.5748001778502654,0.8821743647165001,257.20758881298343,23.0360630464119,0.0,1.0,0.0,0.0,1.0,Taxi
25.5,-0.1023473629177511,4.012806025695156,11.91462041334922,1.3379402751099863,0.5917026840037625,257.17457303520587,22.78383153505451,0.0,1.0,0.0,0.0,1.0,Taxi
25.6,0.0013600465615061265,-6.279043289716607,11.334823437155203,1.287278627023681,0.724819744077238,257.3001020712459,23.974719051455082,0.0,1.0,0.0,0.0,1.0,Taxi
25.700000000000003,-0.05621663391038199,31.097091190240295,11.734396964611364,1.0908282529169715,0.4575068673368252,257.5054629857473,23.07727625930757,0.0,1.0,0.0,0.0,1.0,Taxi
25.8,0.053138093033450184,-4.808901537985349,11.083270857124013,1.4584610207800126,0.41513655009979333,257.15648076275215,23.86847169653518,0.0,1.0,0.0,0.0,1.0,Taxi
25.900000000000002,-0.022684461128420843,28.426042572614893,10.820651870936656,0.9731707055320244,-0.3724162949487302,257.3125330126368,22.363935383269872,0.0,1.0,0.0,0.0,1.0,Taxi
26.0,0.08591357895269225,-15.863010858003966,11.368474553503427,0.986019619108111,0.8965681655575317,257.3071936635729,24.345489493868172,0.0,1.0,0.0,0.0,1.0,Taxi
26.1,-0.02617696125656986,12.188118012263176,10.922052417246706,1.0934190568419204,0.5192376796685463,257.19303047916503,23.626435720346095,0.0,1.0,0.0,0.0,1.0,Taxi
26.200000000000003,0.03825612893289482,-45.40483308306034,10.6564128471053,1.7197848973285084,-0.08777861640944369,257.4364299158524,22.353237661305773,0.0,1.0,0.0,0.0,1.0,Taxi
26.3,-0.14111058646260968,9.831535710902841,10.799814254759706,1.4130080682112893,0.5250928796910856,257.3018306911599,22.81707224055637,0.0,1.0,0.0,0.0,1.0,Taxi
26.400000000000002,0.02298071729794414,-0.5387889252940156,10.09935940526278,1.6540048483532637,-0.6426348666399117,257.1571685759375,23.392474717926493,0.0,1.0,0.0,0.0,1.0,Taxi
26.5,0.03556218430642454,55.53536550480435,11.907288608396751,1.1178045212052306,-0.025562366192582956,257.26091976781163,22.706951258433623,0.0,1.0,0.0,0.0,1.0,Taxi
26.6,0.13656624106141188,-16.267990328923272,11.786486344102782,1.0747504437130015,0.4626946889174606,257.32823212821825,22.232006358783817,0.0,1.0,0.0,0.0,1.0,Taxi
26.700000000000003,-0.05835923434667245,-10.869141037004079,10.176291845932246,1.3709456606967605,0.37432933916152616,257.3412478272221,22.57270201137918,0.0,1.0,0.0,0.0,1.0,Taxi
26.8,-0.018783520878596097,-8.564609753527606,11.045242282667946,1.375451255307052,-0.41920271396394776,257.2979955781964,23.208242221551128,0.0,1.0,0.0,0.0,1.0,Taxi
26.900000000000002,0.09374319229377359,17.587697406234465,11.737386721444322,0.9358886933979962,1.0592203117088697,257.16778876231615,21.593983937212595,0.0,1.0,0.0,0.0,1.0,Taxi
27.0,0.02957925268449962,47.741573507918474,11.671895156099609,1.1116309713249475,0.7741470781013718,257.1588625468935,23.126737175297418,0.0,1.0,0.0,0.0,1.0,Taxi
27.1,0.21992434666099603,12.698121793978002,10.882037185474733,1.3833510896193362,0.14526466090735698,257.5231291819408,23.149291503459843,0.0,1.0,0.0,0.0,1.0,Taxi
27.200000000000003,0.15723380126366338,-12.195462008206235,11.712259411815692,1.3567689355370411,-0.07166276539965333,257.28881079664666,23.088151903592877,0.0,1.0,0.0,0.0,1.0,Taxi
27.3,-0.03139805735653175,-13.72074214907218,10.095418817007346,1.7605720021940443,0.3248743471718107,257.2515768282724,22.69763854137289,0.0,1.0,0.0,0.0,1.0,Taxi
27.400000000000002,0.1513206359156349,-31.87757234398013,11.786852063154788,1.2546086246001178,-0.20289222938303697,257.3299097029101,23.02547187098713,0.0,1.0,0.0,0.0,1.0,Taxi
27.5,-0.002154060456237504,9.31264009828312,10.579906813992322,1.4113638957028027,0.10871476494801795,257.1973585874065,22.73853461217019,0.0,1.0,0.0,0.0,1.0,Taxi
27.6,0.015165143134883608,-9.771062639304477,11.844193203538428,1.2943512957512042,-0.24204162488527176,257.3023516336614,22.8372600240847,0.0,1.0,0.0,0.0,1.0,Taxi
27.700000000000003,0.1024653227191123,27.874419166201708,11.695252876470326,1.042067836971149,-0.1755074607255883,257.2696986673044,22.25126699778679,0.0,1.0,0.0,0.0,1.0,Taxi
27.8,0.1372180353747708,0.922136243940713,10.982768631460663,1.5494767777707275,0.7176569536774134,257.4256815615179,23.32411727999816,0.0,1.0,0.0,0.0,1.0,Taxi
27.900000000000002,0.01977582435458694,-21.301359769409824,10.36615292087268,1.452330346190733,0.10546184758858158,257.33156192739455,22.95584313284451,0.0,1.0,0.0,0.0,1.0,Taxi
28.0,-0.004041476127937069,-19.3485531539355,11.001413926046189,1.124054006516643,-0.25560305481975487,257.32518801453466,22.654604494504106,0.0,1.0,0.0,0.0,1.0,Taxi
28.1,0.04047526960509306,-20.666079701656553,10.627514920948968,1.198068913614317,-0.28673458268864865,257.2839402116542,23.98645914053676,0.0,1.0,0.0,0.0,1.0,Taxi
28.200000000000003,-0.08355457415369608,-18.452761164740824,12.005065379318541,1.2871228477486572,-0.17896176155154836,257.36650303155807,22.903380038036477,0.0,1.0,0.0,0.0,1.0,Taxi
28.3,-0.09630528195164145,-13.501745091170562,10.180568786142443,1.0058991194708489,0.2893408858519558,257.2785410831026,23.50752938720343,0.0,1.0,0.0,0.0,1.0,Taxi
28.400000000000002,-0.02703345585076,42.68345276758607,11.839120266267168,0.9148780105218615,-0.04756650995570126,257.2291313498695,22.67071206224859,0.0,1.0,0.0,0.0,1.0,Taxi
28.5,0.12986268968423403,7.268771002616201,11.782167515326798,1.093143858555896,0.1914724591424586,257.3290992275254,22.616281022411744,0.0,1.0,0.0,0.0,1.0,Taxi
28.6,-0.05996142693856069,6.699949740679261,11.50333916295178,1.3647048922931166,-0.10954182230106088,257.36268327261405,23.372218570679994,0.0,1.0,0.0,0.0,1.0,Taxi
28.700000000000003,0.0064662928526360705,-2.492083268090383,11.253921931500162,1.3267355504223832,0.6080951752321863,257.23508561548886,23.05293593204903,0.0,1.0,0.0,0.0,1.0,Taxi
28.8,0.11740227334378191,38.9787552749236,10.624973587000163,1.346265171001493,-0.05920663384539271,257.1971735342431,23.926676416553597,0.0,1.0,0.0,0.0,1.0,Taxi
28.900000000000002,0.1349323494360571,-14.926251394800772,10.95423917893692,1.5162156777311004,-0.07157453774907618,257.1357246943753,23.522750197259644,0.0,1.0,0.0,0.0,1.0,Taxi
29.0,-0.06816496412136802,-12.902744641191015,10.914332610049302,1.4353020628257782,-0.4711643263038898,257.189218314709,23.241586066451113,0.0,1.0,0.0,0.0,1.0,Taxi
29.1,0.05288855013782656,-24.29927091363935,11.554594262567667,1.2720101683346452,0.3940232135497113,257.1341689962537,23.882652944122867,0.0,1.0,0.0,0.0,1.0,Taxi
29.200000000000003,0.01343599486786005,7.22740894575411,11.326229318969178,1.198236631943448,-0.23915156751754058,257.29936038946505,22.51315254819472,0.0,1.0,0.0,0.0,1.0,Taxi
29.3,-0.03202791939259772,15.757405113215773,11.256293543470813,1.1735043920025272,0.148101902324806,257.2942085355014,22.78677097642517,0.0,1.0,0.0,0.0,1.0,Taxi
29.400000000000002,0.13167557570390517,10.440952662904985,10.505022538107422,1.352307757199847,0.1089431132887811,257.0202247762189,22.90331485413696,0.0,1.0,0.0,0.0,1.0,Taxi
29.5,0.06564075818238473,-7.208502511852795,11.568221989489057,1.2760904267239073,-1.1296714125091927,257.26196243454547,23.401819799645963,0.0,1.0,0.0,0.0,1.0,Taxi
29.6,-0.06807043195186195,-42.15467504158452,10.830368287074915,1.0343884849575098,-0.4544186062450589,257.30692255259964,22.324042897659268,0.0,1.0,0.0,0.0,1.0,Taxi
29.700000000000003,-0.07909779950401769,-31.37215559776246,10.924885050478082,0.8842308504370637,0.005521079343992009,257.49807358131716,22.527579099309072,0.0,1.0,0.0,0.0,1.0,Taxi
29.8,-0.09122001980642785,-20.265781110451858,10.935336017824918,1.0877548009397875,0.7861763189797906,257.36810314712443,22.526006997400412,0.0,1.0,0.0,0.0,1.0,Taxi
29.900000000000002,-0.1693993375041215,34.72405337080961,11.542650576954765,1.3675533839496228,-0.03513916344776627,257.2454239804033,23.959023832769766,0.0,1.0,0.0,0.0,1.0,Taxi
30.0,0.09452246735003006,32.35711703059444,11.228216205675704,1.6087729786785263,-0.3603322956861449,257.23403129966914,23.16992720951712,0.0,1.0,0.0,0.0,1.0,Taxi
30.1,0.07056556534654407,54.993227285698914,10.646603987190721,0.8564537180755347,0.0017185520208024526,257.35574288358623,22.127380089145202,0.0,1.0,0.0,0.0,1.0,Taxi
30.200000000000003,0.10556679892437282,-4.846317526569128,11.38847729246574,1.4485270077476975,0.04451712126188693,257.34940011656704,22.796499646105023,0.0,1.0,0.0,0.0,1.0,Taxi
30.3,0.07029087971718416,-40.84934631321202,11.374380583436647,1.2797877049268793,-0.40314258763339544,257.28345225566295,22.562246334187385,0.0,1.0,0.0,0.0,1.0,Taxi
30.400000000000002,-0.13368116621951628,-13.239584983918496,10.722753438754529,1.3797038282560257,-0.44921033078549294,257.2998695130709,23.327919066554674,0.0,1.0,0.0,0.0,1.0,Taxi
30.5,0.03936887400478007,-0.8126591944687421,11.366835315972375,1.0936094150235407,0.20041456246493947,257.3114942328673,22.222198010651645,0.0,1.0,0.0,0.0,1.0,Taxi
30.6,0.0662275837448402,4.396104785842496,10.124119111488563,1.2082561622946701,-0.7323970200523922,257.28659949310577,23.2525381957219,0.0,1.0,0.0,0.0,1.0,Taxi
30.700000000000003,-0.11170064229030408,13.629735952470488,11.167241393479385,1.1302225526445189,0.5488525164837006,257.4221130732558,23.177903521349652,0.0,1.0,0.0,0.0,1.0,Taxi
30.8,0.10751755376713222,7.476321507746232,11.67264818491286,1.1665020920328886,0.062146494740412075,257.36105481470986,22.37215636739978,0.0,1.0,0.0,0.0,1.0,Taxi
30.900000000000002,0.10360919128357107,50.66475454157371,11.03920774569088,1.3674255296305728,-0.3150603281559756,257.1176767053515,23.702880898584556,0.0,1.0,0.0,0.0,1.0,Taxi
31.0,0.14162313041756422,8.908190199623897,11.321529407384114,1.19821904012784,-0.7202075458037543,257.1757925250299,22.298839634318814,0.0,1.0,0.0,0.0,1.0,Taxi
31.1,0.15205850476525146,-14.79563706041381,10.946981636579016,1.000558780143732,-0.6724263786036644,257.33387599234584,22.20154644002744,0.0,1.0,0.0,0.0,1.0,Taxi
31.200000000000003,0.02963100598150177,-36.02986245726583,11.781432352871112,1.174691351040687,-0.4893297583266215,257.3354389934466,22.917207796342076,0.0,1.0,0.0,0.0,1.0,Taxi
31.3,-0.038526181868765184,-66.66760735757555,10.529780135488856,1.2217277401821642,-0.1976144209143945,257.3730825314285,22.431327094232174,0.0,1.0,0.0,0.0,1.0,Taxi
31.400000000000002,-0.18127953202262656,-2.1541477456975664,11.025133013745425,1.4725449259006158,-0.8045406162122524,257.12983408456785,22.22883301140199,0.0,1.0,0.0,0.0,1.0,Taxi
31.5,0.01886026725301365,-12.068044841254965,11.509685703426594,1.30471519804248,0.4383923909495812,257.19311548450037,22.889400844852425,0.0,1.0,0.0,0.0,1.0,Taxi
31.6,-0.09886640607504027,55.657338733725986,11.661257752587659,0.8541367358354546,-0.8329777602806243,257.1906131404985,23.79458935043396,0.0,1.0,0.0,0.0,1.0,Taxi
31.700000000000003,0.09700716164600307,-16.00941249173483,10.763802985642373,0.8955797114436681,-0.5206676424596481,257.3382276165255,22.0633554277706,0.0,1.0,0.0,0.0,1.0,Taxi
31.8,-0.06118679520566074,19.509664657207775,11.553862825558982,1.5830747171874733,0.2290885912830976,257.1612986346986,23.07795354378406,0.0,1.0,0.0,0.0,1.0,Taxi
31.900000000000002,-0.001318082789001648,-1.250153242458019,10.785104537970575,1.0139517078056488,-0.7951007436663631,257.25880580450644,22.899485418016308,0.0,1.0,0.0,0.0,1.0,Taxi
32.0,0.09075639543371272,-27.888822073403304,10.272284718030384,0.9518345823247994,0.021130324380574817,257.2306877870915,22.887456940342677,0.0,1.0,0.0,0.0,1.0,Taxi
32.1,-0.20063090557267751,-3.633344944272802,11.70434925161772,1.2940114221903767,-0.5021502257674205,257.4012949796696,22.81366325579976,0.0,1.0,0.0,0.0,1.0,Taxi
32.2,-0.019484807510365937,-22.572726843603892,10.046461965536773,1.0841317305608391,0.46678166107021707,257.21982771159674,22.914175932177802,0.0,1.0,0.0,0.0,1.0,Taxi
32.300000000000004,-0.022107238784307037,49.25085315720639,12.180466890020321,1.4158179826640294,0.49187181038593114,257.22610316178543,22.911755385105288,0.0,1.0,0.0,0.0,1.0,Taxi
32.4,0.04562336021335414,-1.9321951709915552,12.023383902813404,0.9428291005077588,0.5429490270260269,257.29799827778356,21.928213614032,0.0,1.0,0.0,0.0,1.0,Taxi
32.5,-0.02914578336532401,-18.015143967126033,10.282823545787977,1.3130166638565908,-0.3113113938761222,257.2782803630748,23.75716579245015,0.0,1.0,0.0,0.0,1.0,Taxi
32.6,-0.11218295861993749,-0.9276015737069088,11.484151860026675,1.2325339008059963,0.37008375093278073,257.2971836929611,22.016790082046438,0.0,1.0,0.0,0.0,1.0,Taxi
32.7,0.04098535234481933,16.391538065491563,11.811855742879384,1.139638627595974,0.11479742932274196,257.24960192192384,22.70257171886189,0.0,1.0,0.0,0.0,1.0,Taxi
32.800000000000004,0.05281190696213354,10.979071540472049,10.81449358604764,1.4457024028642191,0.16448746805626058,257.2755210754523,23.170995238308773,0.0,1.0,0.0,0.0,1.0,Taxi
32.9,-0.05728760091757754,20.026210512131254,11.451913083266053,1.0973993148204537,0.7239943505378746,257.21568192323036,22.91675621212551,0.0,1.0,0.0,0.0,1.0,Taxi
33.0,0.14111640490547528,-7.355926176405404,11.98322383392847,1.6288714311152845,0.9173040964848684,257.45774664315513,24.071511171042093,0.0,1.0,0.0,0.0,1.0,Taxi
33.1,0.016032276080106225,6.708880704042534,12.192831519579826,1.4058611962678256,0.09991427279496125,257.2114713576624,23.25341106914494,0.0,1.0,0.0,0.0,1.0,Taxi
33.2,-0.023743197397365155,-63.13475243967795,10.896981101513216,1.376191874847895,0.8716565671669756,257.2695440316038,22.897884914575407,0.0,1.0,0.0,0.0,1.0,Taxi
33.300000000000004,-0.17455735729291477,-3.556545143644655,10.538538874128806,1.3937949948706712,-0.03551507498252184,257.3730476185458,23.612385652207948,0.0,1.0,0.0,0.0,1.0,Taxi
33.4,-0.0017504496381173442,18.902216458677714,11.479598082982603,0.981027731629714,-0.8991602119434607,257.3417796799008,22.862594428864362,0.0,1.0,0.0,0.0,1.0,Taxi
33.5,0.07076788489602313,59.639801083091946,11.889099571240937,1.3981801649752688,-0.5565509594740761,257.08388526536714,22.595123273618935,0.0,1.0,0.0,0.0,1.0,Taxi
33.6,0.12364164812254466,4.975920456461796,10.257016478813599,1.148513526633762,0.11272415347515781,257.2308710307691,23.706700108385206,0.0,1.0,0.0,0.0,1.0,Taxi
33.7,0.02312915264419135,-18.50580832077726,10.851349680443205,1.1974611648151934,-0.08625260028492833,257.27407497999457,23.175837078950142,0.0,1.0,0.0,0.0,1.0,Taxi
33.800000000000004,-0.02176115670786345,-49.65635342092556,9.891952873601458,1.491651747759349,-0.8410129683273448,257.3495888719309,22.46525372081064,0.0,1.0,0.0,0.0,1.0,Taxi
33.9,-0.12464011898208345,-36.84530455368793,12.128441327413956,1.1977313567266585,0.21796167601662228,257.20088987107965,23.5266973152792,0.0,1.0,0.0,0.0,1.0,Taxi
34.0,-0.1610973701242486,6.349806031504964,11.507063214207303,1.7172844231744793,0.17454611899688313,257.3802444226651,22.71770037726009,0.0,1.0,0.0,0.0,1.0,Taxi
34.1,0.00998787344966107,-9.334867015580343,11.36963452734117,1.5203260065251598,-0.620928900707867,257.2448905514909,23.92638072117156,0.0,1.0,0.0,0.0,1.0,Taxi
34.2,-0.17131445405998547,7.969982069269002,10.949507720170688,1.7285323774527361,1.0018053665974054,257.2045808070468,23.044137801283437,0.0,1.0,0.0,0.0,1.0,Taxi
34.300000000000004,-0.12124745977790388,2.0708088455273432,10.660512101644116,1.4816669956113706,0.13735672819195976,257.1353773328617,22.90672452421869,0.0,1.0,0.0,0.0,1.0,Taxi
34.4,0.020341917677297483,22.093177925582438,11.83157450256961,1.6688467692397677,1.2943072314382953,257.300846399476,22.42365412495454,0.0,1.0,0.0,0.0,1.0,Taxi
34.5,-0.06084856443207357,41.78010880107766,10.521751724920126,1.1279359644543603,0.5159876396437444,257.2471223718728,23.027476526905097,0.0,1.0,0.0,0.0,1.0,Taxi
34.6,0.08765308422748413,-4.807655003310233,11.319424630064791,1.412218500842464,0.32533085508646853,257.16345187013326,23.348436509502868,0.0,1.0,0.0,0.0,1.0,Taxi
34.7,-0.0036963573392539625,-15.44824361675199,10.820331359240663,1.0166920946901652,-0.5464859658392976,257.32594434044904,23.61875708727412,0.0,1.0,0.0,0.0,1.0,Taxi
34.800000000000004,-0.13808978251583381,22.22974654248942,11.699312928694251,1.388262059580971,0.0057315312512402,257.22510375105526,22.7763461715202,0.0,1.0,0.0,0.0,1.0,Taxi
34.9,0.19880181693993093,-4.737019658458166,11.709300806323299,1.1307422503437135,-0.10039635673006989,257.31624071768533,23.031352776149742,0.0,1.0,0.0,0.0,1.0,Taxi
35.0,-0.027381455631545062,25.168797314746033,10.607371725326143,1.2929728272448822,-0.649007864013774,257.27375522985926,22.9922116693233,0.0,1.0,0.0,0.0,1.0,Taxi
35.1,-0.012245795942103923,-62.655840414051056,11.241145670298884,1.175941490680025,-0.19241543859673013,257.43265459801614,23.75610422979917,0.0,1.0,0.0,0.0,1.0,Taxi
35.2,-0.11447738513032468,27.804872970090628,9.713186260300871,1.276442705431169,0.7324955362705371,257.2374901636872,23.6459665329979,0.0,1.0,0.0,0.0,1.0,Taxi
35.300000000000004,0.11164290921890777,-11.319753537497354,11.666874649148863,1.2282054663135584,-0.30871402917532914,257.5091229869183,22.93457829700149,0.0,1.0,0.0,0.0,1.0,Taxi
