time_s,altitude_ft,vertical_speed_fpm,ias_kt,pitch_deg,roll_deg,heading_deg,throttle_pct,afterburner_on,gear_down,flaps_deg,speedbrake_pct,weight_on_wheels,label
0.0,0.05447032702875979,-51.536631025011275,8.43590729567297,0.6157893162887936,0.94816305639941,296.58400578955457,12.882556855107984,0.0,1.0,0.0,0.0,1.0,Taxi
0.1,-0.11731844305461114,-20.144542460760622,8.808229424234035,0.7940992190204529,0.07690228789548544,296.53457448299685,12.617885051539414,0.0,1.0,0.0,0.0,1.0,Taxi
0.2,-0.04625238527504333,7.830711038636497,7.718344366511985,0.4839908647361311,-0.45742247189587654,296.65593119233563,12.682211769660322,0.0,1.0,0.0,0.0,1.0,Taxi
0.30000000000000004,0.09362388222194226,50.223591620986525,8.39768060777622,0.8774433873578567,0.12904872845320361,296.46897151587154,13.74216756346831,0.0,1.0,0.0,0.0,1.0,Taxi
0.4,0.13379951505032148,-0.7377977613771852,8.562859567226223,1.2119564751495986,0.24306645172338323,296.52140874804775,13.128206315015968,0.0,1.0,0.0,0.0,1.0,Taxi
0.5,-0.049941374081929266,-37.68380252975231,8.380142869352532,0.969455167657152,0.008338836594834505,296.4936744842628,13.102492843912868,0.0,1.0,0.0,0.0,1.0,Taxi
0.6000000000000001,-0.09479513042681932,-49.37942476039055,8.002873426966563,0.8305092825433229,0.1683152108427064,296.54595913075605,11.881684696959736,0.0,1.0,0.0,0.0,1.0,Taxi
0.7000000000000001,-0.11309760875163127,10.685229598793711,7.215771113791763,0.7320935356992155,-0.32257378488294314,296.4612802327715,12.787335646044815,0.0,1.0,0.0,0.0,1.0,Taxi
0.8,0.003484773912039315,11.909409781202308,7.641333912077949,0.8575882164700805,-0.044852656786643685,296.46901505210326,13.346627743997203,0.0,1.0,0.0,0.0,1.0,Taxi
0.9,-0.035248081520807745,12.545911783387114,8.48527591081314,0.8390184613135707,-0.19999989496905737,296.4375692457928,14.04262366759515,0.0,1.0,0.0,0.0,1.0,Taxi
1.0,-0.05036804983469567,41.60193419570745,8.983636464293529,0.7074301948589821,-0.3366032765133399,296.5287247902735,12.951753658570473,0.0,1.0,0.0,0.0,1.0,Taxi
1.1,0.21149444489057656,7.639383467193099,9.127984880783213,0.6310541883643137,0.013709088174080607,296.5225203346274,12.609288414616062,0.0,1.0,0.0,0.0,1.0,Taxi
1.2000000000000002,0.002948835815157749,-28.475807071897975,8.229625063620324,0.9119779064279495,-0.689039836578509,296.6780037831393,13.538541227392418,0.0,1.0,0.0,0.0,1.0,Taxi
1.3,-0.19274708519418557,-10.813479686150336,8.147488277351368,0.4389941732881275,0.2784911672538832,296.5595841786451,10.356016551312162,0.0,1.0,0.0,0.0,1.0,Taxi
1.4000000000000001,0.15742704645982486,0.3979143488155472,8.634064788950727,0.8800838005926677,-0.075119382278983,296.5143431225995,12.295867561280112,0.0,1.0,0.0,0.0,1.0,Taxi
1.5,0.004938407559235489,77.02517679519572,8.395244456611914,0.7234121338194207,-0.43798477029190414,296.31191544003775,12.130593404179635,0.0,1.0,0.0,0.0,1.0,Taxi
1.6,0.19237879878179306,-44.874382759793,8.434708244325666,0.9105550835331662,-0.11943410594747593,296.43878871758375,13.047732910825962,0.0,1.0,0.0,0.0,1.0,Taxi
1.7000000000000002,-0.06694486733914011,-23.506935338756183,7.729001320728326,0.5707309197479847,-0.0726003735672084,296.49658099586713,12.323512984343095,0.0,1.0,0.0,0.0,1.0,Taxi
1.8,-0.1125962691345454,11.868713822116376,9.45480628858234,0.6932836115684701,-0.6524249215265725,296.62221323708866,13.189097002118501,0.0,1.0,0.0,0.0,1.0,Taxi
1.9000000000000001,0.25172236789237495,15.58751320405213,8.682589229994862,0.9541082797453999,-0.031597501114454675,296.46119726026177,13.453635569934518,0.0,1.0,0.0,0.0,1.0,Taxi
2.0,0.010992698681120511,57.13225335043333,9.220328246541285,0.6231704600700821,-0.3044605755360835,296.51293062021284,13.341954038424218,0.0,1.0,0.0,0.0,1.0,Taxi
2.1,0.17306499761762123,-22.38529090006719,8.054819149790427,0.9465105043242723,0.5099984784478239,296.5268994915224,12.931647262531406,0.0,1.0,0.0,0.0,1.0,Taxi
2.2,0.13979591339203898,-35.55489891337391,7.671013564382207,0.7792551310607015,-0.6125102914382151,296.5521071552994,13.147192995994422,0.0,1.0,0.0,0.0,1.0,Taxi
2.3000000000000003,-0.1667817958857491,-27.309416092192038,8.87846953265334,0.6757069533206775,0.025657222460727647,296.4629583546907,13.504869884001682,0.0,1.0,0.0,0.0,1.0,Taxi
2.4000000000000004,0.03651791715666097,-1.8143821385742858,7.852138958496613,0.7711441962833983,0.80834490756692,296.4135347382354,12.439620822031209,0.0,1.0,0.0,0.0,1.0,Taxi
2.5,0.13072400269916748,5.699532628991193,8.9164364726185,0.543350826494829,0.08174166072944655,296.57035536410615,12.973186927479354,0.0,1.0,0.0,0.0,1.0,Taxi
2.6,-0.13828413274079318,-23.06646407665121,8.165154001811986,0.6524436731597667,0.03100302122791372,296.38816204881346,12.842978584368568,0.0,1.0,0.0,0.0,1.0,Taxi
2.7,-0.07881440322659511,-28.081654013314278,7.928453801265387,0.8782095857500084,0.6139105224746862,296.54640020405964,12.57345413384319,0.0,1.0,0.0,0.0,1.0,Taxi
2.8000000000000003,-0.009684267367403944,19.81614638964785,7.744051069508814,0.6824957600268088,-0.06870461741859776,296.5341752316873,13.41018914626644,0.0,1.0,0.0,0.0,1.0,Taxi
2.9000000000000004,-0.03920340079255396,14.438261092213343,8.756220420875547,0.5583721460707288,0.23991223740939324,296.65218916085735,12.252558024162916,0.0,1.0,0.0,0.0,1.0,Taxi
3.0,-0.006623097765528431,11.631787715292683,8.521397778991156,0.986802366461113,-0.07733167249248417,296.55565498680676,13.556115510624181,0.0,1.0,0.0,0.0,1.0,Taxi
3.1,0.04847467120905943,-12.077984659595637,9.19987369008846,0.7907692248920143,-0.4487188184759006,296.33165293659397,12.670699177224277,0.0,1.0,0.0,0.0,1.0,Taxi
3.2,-0.09959332409053222,-32.25267389606317,8.406535787698097,0.80897752363746,-0.05886684699110727,296.60564148157505,13.937392675824581,0.0,1.0,0.0,0.0,1.0,Taxi
3.3000000000000003,-0.16788646724584436,-25.931117026758898,8.087749552706768,0.8588039624180651,-0.5631365485655249,296.55483987485877,12.597585537777132,0.0,1.0,0.0,0.0,1.0,Taxi
3.4000000000000004,-0.08118091392473513,49.96101432901218,9.012431309491262,1.08302825533708,-0.36224692116878593,296.4134916348937,12.689790550787345,0.0,1.0,0.0,0.0,1.0,Taxi
3.5,0.1502117475545286,15.883602533710103,7.922483161097647,0.78207639601444,0.26093549453386156,296.5880011094806,13.22375598864518,0.0,1.0,0.0,0.0,1.0,Taxi
3.6,-0.08846845457729388,21.06083717860987,7.984394173141589,0.691887700039477,-0.2515750889187923,296.5347271096284,13.023332905268212,0.0,1.0,0.0,0.0,1.0,Taxi
3.7,0.024123271968314174,-50.963286999850254,9.26778074581449,1.1403623927189261,-0.1946619243263051,296.3586424480254,13.280847448358323,0.0,1.0,0.0,0.0,1.0,Taxi
3.8000000000000003,-0.10460468744472268,37.601408850481455,8.395565381343742,0.5788521636382356,-0.18979304342035816,296.6339792730429,13.044856223860757,0.0,1.0,0.0,0.0,1.0,Taxi
3.9000000000000004,0.09953858967511336,-22.1616111469894,8.660870402879539,0.4421929002722797,-0.2903842222987655,296.65767279864167,12.472917772432817,0.0,1.0,0.0,0.0,1.0,Taxi
4.0,-0.08668478376663284,3.615896859091045,8.496213887783567,0.6230344063242883,0.36740958306532207,296.2900123098266,12.938633826382642,0.0,1.0,0.0,0.0,1.0,Taxi
4.1000000000000005,-0.08652520314926747,-4.386335877696301,7.297756567904439,0.888698340343337,-1.0308149380310896,296.4135665488076,12.77485888191674,0.0,1.0,0.0,0.0,1.0,Taxi
4.2,0.07760691028663187,-19.29541768750791,7.80882031712032,1.0113405935874784,0.7714419349841375,296.56421192691516,12.113447660142658,0.0,1.0,0.0,0.0,1.0,Taxi
4.3,-0.18316187220417238,-3.3923182255021254,9.122812622743032,0.9209855975465004,-0.5931717966520276,296.583515815239,13.22077376657228,0.0,1.0,0.0,0.0,1.0,Taxi
4.4,-0.10348679427677808,-31.47336084988964,8.036823941079513,1.035731279510214,0.4542016009158058,296.53970490754364,13.462984867490139,0.0,1.0,0.0,0.0,1.0,Taxi
4.5,-0.0797598939628163,37.29104328230153,9.05815685233768,0.7796144214439709,-0.5508089689161503,296.435365777721,12.93639785572058,0.0,1.0,0.0,0.0,1.0,Taxi
4.6000000000000005,0.0032933442073352706,30.985736477429857,7.741278910645469,0.8923811897290574,-0.9249159326933976,296.50320603629325,12.03186505072788,0.0,1.0,0.0,0.0,1.0,Taxi
4.7,0.05144188811037123,19.096717371541548,7.764646783482171,0.7008407800843687,0.5242395630107846,296.5493004105108,12.03430911810948,0.0,1.0,0.0,0.0,1.0,Taxi
4.800000000000001,0.015723692894891447,-16.509873628185666,8.692134199267146,0.9703510328920861,0.09225811521125757,296.4156557365957,11.461429200009725,0.0,1.0,0.0,0.0,1.0,Taxi
4.9,-0.07925602393359307,-12.834388998564984,9.20069324931195,0.48316516241472046,0.378789354847396,296.37286542999504,12.205175041861539,0.0,1.0,0.0,0.0,1.0,Taxi
5.0,-0.01273005688245371,6.121606413960984,7.7177864374275025,0.8470769593346108,0.30693820454708065,296.5142144850836,12.971404726365074,0.0,1.0,0.0,0.0,1.0,Taxi
5.1000000000000005,0.046331724964696355,35.0781939374781,8.024363939046715,1.1543751632810644,0.3785540166976554,296.5068449825268,13.211167168590249,0.0,1.0,0.0,0.0,1.0,Taxi
5.2,0.09613494575379739,9.44637317613629,7.373265076943442,0.7400556330683252,-0.1362523180553757,296.6388870244368,13.308583818184795,0.0,1.0,0.0,0.0,1.0,Taxi
5.300000000000001,0.034501808998227725,13.775452308622036,7.54838932192525,0.9502413658221118,0.6980307284511744,296.68003263757237,12.140227325616811,0.0,1.0,0.0,0.0,1.0,Taxi
5.4,0.11520898650780652,-59.93409029850884,8.323952715547417,0.6745601429351196,-0.9556673168322298,296.50674251960936,13.40109551234853,0.0,1.0,0.0,0.0,1.0,Taxi
5.5,-0.2035355057387468,-43.12981769601604,8.874308179580588,0.9242335907938158,-0.24497338567599575,296.6994491374312,13.023066881605484,0.0,1.0,0.0,0.0,1.0,Taxi
5.6000000000000005,-0.1811472794818524,-40.80003181755464,9.09734871865253,1.1025863830224947,0.7075246231500104,296.50075109123395,13.022581373597024,0.0,1.0,0.0,0.0,1.0,Taxi
5.7,-0.08879117257996662,67.51252611859628,8.757430763406939,0.8425937349780649,0.25861048855823676,296.5054407611274,13.349698720936612,0.0,1.0,0.0,0.0,1.0,Taxi
5.800000000000001,0.13402712485423468,50.634073043682584,7.502716649146742,0.8718400298239721,0.3067381393144166,296.5173604634663,12.614564632558475,0.0,1.0,0.0,0.0,1.0,Taxi
5.9,0.07202308573656055,8.711640584935234,7.769771906209607,1.1829729139781973,1.0220914767193203,296.45426495949516,13.377624571426729,0.0,1.0,0.0,0.0,1.0,Taxi
6.0,-0.04523296965529042,-47.266419576200995,7.717823122376596,0.8690341619595678,0.709760945952771,296.67189851945864,12.616369344488286,0.0,1.0,0.0,0.0,1.0,Taxi
6.1000000000000005,-0.10230497302677029,-17.612604170670966,8.540385582226964,0.8975903470695482,0.27462462122299364,296.5481089719558,12.754173680564067,0.0,1.0,0.0,0.0,1.0,Taxi
6.2,-0.016039935116794284,-0.40051617984671256,8.855931107249376,1.1370618588625823,0.28963048770655064,296.35724323649595,12.761204177692534,0.0,1.0,0.0,0.0,1.0,Taxi
6.300000000000001,-0.047235550554523976,20.18870911975281,8.34808825649594,0.6802827823669761,0.64683478877304,296.4356501091147,11.962517249838754,0.0,1.0,0.0,0.0,1.0,Taxi
6.4,-0.0013614274280062358,-35.70108679001031,7.932750613036667,0.6737268848114883,0.2282485021657599,296.396797341461,12.826641518943585,0.0,1.0,0.0,0.0,1.0,Taxi
6.5,-0.19454536906684583,4.361204076950784,8.342942127281361,1.134232944113468,0.01573159074745639,296.2943381659768,13.469799251360278,0.0,1.0,0.0,0.0,1.0,Taxi
6.6000000000000005,-0.025429530169770072,7.070528181409421,8.209409759077424,0.4897304740289238,0.24244188269961497,296.64516367601345,13.08489369766296,0.0,1.0,0.0,0.0,1.0,Taxi
6.7,0.033991213479040855,66.04175261716559,8.098108821390905,0.6554963155038666,0.0007563753984191326,296.59319155886305,12.71575827643956,0.0,1.0,0.0,0.0,1.0,Taxi
6.800000000000001,0.13566339401898206,9.673413694265458,8.1366773138915,0.6512785173749418,0.33419347060256144,296.60067985606906,13.052771061624318,0.0,1.0,0.0,0.0,1.0,Taxi
6.9,0.022937538301557224,7.6447459119927075,9.184382752169531,1.0013299423756337,0.06338930785615035,296.4681131305613,13.053217564270133,0.0,1.0,0.0,0.0,1.0,Taxi
7.0,0.0722149430390044,-48.048223481916914,7.6722939798652385,1.189487445934322,0.43489822417264734,296.54853678759946,12.53775315488538,0.0,1.0,0.0,0.0,1.0,Taxi
7.1000000000000005,-0.1045777233906025,-23.055065514205182,8.53542454042431,1.2317108643560577,0.6738763069951654,296.4934003565497,12.971200898930048,0.0,1.0,0.0,0.0,1.0,Taxi
7.2,-0.09233778926946871,15.296945667470894,8.232098645550781,0.7130876261827934,-0.17384929908863841,296.4981608434,12.783067205927619,0.0,1.0,0.0,0.0,1.0,Taxi
7.300000000000001,0.1486996713763588,69.51737777905872,8.62988774025807,0.8737310802692358,0.5863866394866453,296.5642638387583,13.000324081944196,0.0,1.0,0.0,0.0,1.0,Taxi
7.4,0.24300916550469098,21.36506267851392,8.313551707726313,0.8345999205632127,0.30111419233504627,296.52983316573534,12.463148115187968,0.0,1.0,0.0,0.0,1.0,Taxi
7.5,0.014487524123100826,1.5380265483531208,8.933967120572811,1.0266503876493531,0.2935723625704743,296.45436289674467,13.489757777887466,0.0,1.0,0.0,0.0,1.0,Taxi
7.6000000000000005,0.1563898041181244,-20.274129804180266,9.502948757724011,0.54690091283281,-0.3180223237415043,296.3969686712953,13.303144905030152,0.0,1.0,0.0,0.0,1.0,Taxi
7.7,0.14163851648378964,25.141257427609982,8.020484660342145,0.5669787840255665,0.19456022054831779,296.49838695734763,13.051588985627667,0.0,1.0,0.0,0.0,1.0,Taxi
7.800000000000001,0.14019381126115069,-43.50425758120042,7.81855515454685,1.4118263083719746,0.3102990771400121,296.4873564824959,13.84433407585006,0.0,1.0,0.0,0.0,1.0,Taxi
7.9,-0.06113148378787773,-31.513603248385227,7.970578691949514,0.7333981574524476,0.5599015871915534,296.4438409935027,12.84678433279386,0.0,1.0,0.0,0.0,1.0,Taxi
8.0,-0.015929499758136526,-59.85282557049394,8.571038874367465,0.5729145833769509,-0.34820674044269534,296.3697108921526,12.96928227958626,0.0,1.0,0.0,0.0,1.0,Taxi
8.1,-0.15907031659131907,-21.24209124963689,9.820707059967527,0.6831039725095346,-0.42953390778533435,296.5128146125685,12.754726588564553,0.0,1.0,0.0,0.0,1.0,Taxi
8.200000000000001,-0.16734194003606223,43.22036717515994,7.561695869679879,0.9354167485794747,0.10291573345352382,296.5366857335332,12.7877519333265,0.0,1.0,0.0,0.0,1.0,Taxi
8.3,0.20017233611766316,50.188238345063745,9.21141067944909,0.7234241712190363,0.007073885022679578,296.59901243708214,12.54150793203588,0.0,1.0,0.0,0.0,1.0,Taxi
8.4,0.09187087513399961,18.366716685064336,7.991926252285718,0.8480145241924002,-0.03685457771361507,296.45849922151046,12.269461621735461,0.0,1.0,0.0,0.0,1.0,Taxi
8.5,-0.07550835661074058,-44.550359769024226,8.248850234589954,0.6377704054312017,-0.18459805708528623,296.31695991203185,12.33610061758593,0.0,1.0,0.0,0.0,1.0,Taxi
8.6,-0.02257946272745799,-4.476176033487121,8.183656559964744,1.1398797405869314,0.07952920199022781,296.59033819545334,13.167138980412068,0.0,1.0,0.0,0.0,1.0,Taxi
8.700000000000001,0.06948999496656395,-3.6636087307234484,7.457812490488975,0.39420685084706886,0.20360800032748072,296.34360055254615,13.038702245160044,0.0,1.0,0.0,0.0,1.0,Taxi
8.8,-0.0938264002643579,21.050977700634693,7.280412685200947,0.7469409796120486,-0.48749777240891445,296.5543556101808,13.156181878916145,0.0,1.0,0.0,0.0,1.0,Taxi
8.9,0.08267542577571542,-13.106158717881248,7.939610538028218,0.9231381801306732,-0.5686385010362854,296.5456621668187,12.436550107787278,0.0,1.0,0.0,0.0,1.0,Taxi
9.0,0.003959201377157682,21.9062433721292,8.329766494788876,1.1113424650782067,-0.07481633716851933,296.5593486534942,13.05471251644792,0.0,1.0,0.0,0.0,1.0,Taxi
9.1,0.0157048165962881,-34.80020873731964,8.244629975750678,0.7086247278676374,-0.6278845091258819,296.5501794943401,13.043522403605426,0.0,1.0,0.0,0.0,1.0,Taxi
9.200000000000001,-0.09132561791088281,-29.88335687502938,8.86921056916735,1.0851644230560342,0.5026426003720785,296.4030152511398,13.721384524041822,0.0,1.0,0.0,0.0,1.0,Taxi
9.3,-0.14545758299798928,-18.584811485209908,8.071802063917408,1.0377995085554537,0.1933693435545031,296.7405854247363,12.822270360044289,0.0,1.0,0.0,0.0,1.0,Taxi
9.4,-0.07721924082976148,36.446089905262845,7.543536098936512,0.9334214533079535,0.8973780076462361,296.5026736147297,12.884667523796326,0.0,1.0,0.0,0.0,1.0,Taxi
9.5,0.09090483161543135,35.666772967622556,8.105063259449478,0.7341921762427559,-0.9752624693107977,296.5979375854706,12.681725200397585,0.0,1.0,0.0,0.0,1.0,Taxi
9.600000000000001,0.032876281840123436,16.029207110244403,9.099661842997927,0.7195727273729158,-0.7966088122875591,296.60649492691323,12.915864450622458,0.0,1.0,0.0,0.0,1.0,Taxi
9.700000000000001,0.0029267947214604703,21.339755826882136,8.797387838082233,0.6476220373955871,0.2011166493681855,296.6178298947706,12.783222833542967,0.0,1.0,0.0,0.0,1.0,Taxi
9.8,0.19760361074984192,-31.11420534862657,9.43362223137971,0.7595065364090563,-0.08781262244455348,296.64334668457695,13.117889549449023,0.0,1.0,0.0,0.0,1.0,Taxi
9.9,-0.12269474490300954,-19.15832708801869,8.958426873946564,0.9133865742594648,-0.7940267690691503,296.6511279952846,12.386345715911487,0.0,1.0,0.0,0.0,1.0,Taxi
10.0,-0.09286484071863309,-37.59205719153849,9.037417605534086,1.1178014910562266,0.42315364642741443,296.53511888807543,13.566191385353573,0.0,1.0,0.0,0.0,1.0,Taxi
10.100000000000001,0.00964332479214942,19.843284612751848,8.231147737086637,0.918561528174093,-0.45879565393733274,296.49451980727224,12.82626727472546,0.0,1.0,0.0,0.0,1.0,Taxi
10.200000000000001,-0.023478321839250353,41.08568015236899,7.802961638731454,1.116983098150718,0.1411132181633344,296.7356623495126,13.030509191653833,0.0,1.0,0.0,0.0,1.0,Taxi
10.3,0.11256356004321177,-21.017083499940952,10.129537670200998,0.6240491828068817,0.44844242760412917,296.52675625843995,12.489428823356453,0.0,1.0,0.0,0.0,1.0,Taxi
10.4,-0.09544209270755542,63.92222875517046,8.93293669622337,0.8137190698449067,0.4316915245163875,296.38044750028416,13.146504523731757,0.0,1.0,0.0,0.0,1.0,Taxi
10.5,0.29613282193660184,-4.691085870817204,7.440750293885553,0.6819679946743177,-0.443608060292804,296.52453860813876,12.357129921809168,0.0,1.0,0.0,0.0,1.0,Taxi
10.600000000000001,0.08910813068912572,8.191781172095096,8.652381167866867,0.6711024898803779,0.0881068076963754,296.4618603739268,12.818975027445035,0.0,1.0,0.0,0.0,1.0,Taxi
10.700000000000001,-0.05448318684707999,-76.49841477086932,9.217910290913238,1.1744832450824132,0.7214374796972701,296.5072634497192,12.68334878356581,0.0,1.0,0.0,0.0,1.0,Taxi
10.8,-0.08635925191774475,-20.41677101564237,8.242573192436339,0.9367965599435256,-0.06679396408240967,296.3498602615946,13.372707978162259,0.0,1.0,0.0,0.0,1.0,Taxi
10.9,-0.012975724389086183,13.24644102822979,8.996270513426255,0.5966127278518836,0.24271847380885944,296.54915780118483,13.38537293749777,0.0,1.0,0.0,0.0,1.0,Taxi
11.0,0.011749018294068934,30.308240507445323,8.638952452489976,0.7201377347383598,0.2848305529986615,296.4587329089791,13.461509888691314,0.0,1.0,0.0,0.0,1.0,Taxi
11.100000000000001,0.06518195061948183,10.413841819430546,7.872547020815301,0.9699597066378307,0.4359185025245145,296.5436575964868,13.008615534858711,0.0,1.0,0.0,0.0,1.0,Taxi
11.200000000000001,0.039093484708066506,13.865026821826277,9.18929976649318,0.44189815952827394,0.8343274001483165,296.363845570388,12.675210693670804,0.0,1.0,0.0,0.0,1.0,Taxi
11.3,0.08107415240320028,-4.0527476124269475,7.432346874673512,0.7025793587972966,0.6033126910295737,296.40545676349257,13.435141075952842,0.0,1.0,0.0,0.0,1.0,Taxi
11.4,0.044918212557347056,5.068323647957989,8.197302384888037,0.9198921221293579,0.07355689783222114,296.4215308923141,12.622113192270177,0.0,1.0,0.0,0.0,1.0,Taxi
11.5,0.06443510294785641,20.478265822994832,7.6790451652645855,0.9158684853173391,0.11547117265392748,296.48904794398754,13.483578983923001,0.0,1.0,0.0,0.0,1.0,Taxi
11.600000000000001,0.18346548151817438,1.1551536516456338,8.872203168856402,1.1191514602578536,0.5716803009014645,296.56494539851724,12.69484844724312,0.0,1.0,0.0,0.0,1.0,Taxi
11.700000000000001,0.05069398081557517,-10.49538678307969,8.78358676290442,1.307741095384606,0.03626918876391687,296.47683011977597,13.085716572755985,0.0,1.0,0.0,0.0,1.0,Taxi
11.8,0.011958169032457907,-49.74209865393291,8.629747045174335,0.5926181210879828,0.05035462881433263,296.4883551235123,12.429752472912853,0.0,1.0,0.0,0.0,1.0,Taxi
11.9,-0.06524501175149024,-14.784255339338126,8.92657061636162,0.8678097917770182,0.28692356531312885,296.60466395923174,13.18665185814749,0.0,1.0,0.0,0.0,1.0,Taxi
12.0,-0.0232272958811155,-20.285754633421615,9.230107893003199,0.9007894886523116,-0.5708615279715262,296.4685780754195,13.39807072330918,0.0,1.0,0.0,0.0,1.0,Taxi
12.100000000000001,-0.0894706041346502,-0.895368635501591,8.856204247926875,0.8697194585476155,0.29842619683895466,296.6370703059431,12.56303627372703,0.0,1.0,0.0,0.0,1.0,Taxi
12.200000000000001,-0.06972185492899824,-1.8842011650502073,8.768917851412782,0.660672426625264,0.3356701323352686,296.4315745191668,12.962172405584205,0.0,1.0,0.0,0.0,1.0,Taxi
12.3,-0.03264830170636659,17.709810300981655,7.8588425719062265,0.7586022699156075,-0.21052269162908488,296.41083260350206,12.980246916293884,0.0,1.0,0.0,0.0,1.0,Taxi
12.4,-0.0009215526297419749,13.671747828664486,8.553908687644142,0.7174203393860986,0.4280264663475835,296.5305333912637,13.089739831132768,0.0,1.0,0.0,0.0,1.0,Taxi
12.5,-0.0013631157856758569,18.59781431818872,7.724525339792695,0.6983315756703778,0.2830919347243498,296.5982957115963,12.223137789729769,0.0,1.0,0.0,0.0,1.0,Taxi
12.600000000000001,0.06034076988457696,-14.948385169655301,7.655853446547242,0.7218806221703279,-0.2850608175874994,296.555680337947,11.914075819879947,0.0,1.0,0.0,0.0,1.0,Taxi
12.700000000000001,-0.07566347847801852,-4.5546372957549295,8.334917857792187,0.6494110466663596,0.5292221395128699,296.4335599892229,12.88465922322887,0.0,1.0,0.0,0.0,1.0,Taxi
12.8,-0.024136302264450543,15.65027390083128,8.406388077010517,0.6479476035046792,-0.3509097121264924,296.54866655835974,12.811010020714685,0.0,1.0,0.0,0.0,1.0,Taxi
12.9,0.13859213938873333,32.12516268006908,7.368397910601896,0.9827159579801598,0.582641895110289,296.54779602179815,12.869166747500472,0.0,1.0,0.0,0.0,1.0,Taxi
13.0,0.08496233492232684,-3.289747069938471,8.807787485108403,0.6565897198900652,0.6962634555443855,296.7209548459082,12.607531129764295,0.0,1.0,0.0,0.0,1.0,Taxi
13.100000000000001,-0.040585037614142956,-23.355559161615343,8.314365775917604,0.8267689467431302,0.39253221793562537,296.5205562418614,13.895933145730524,0.0,1.0,0.0,0.0,1.0,Taxi
13.200000000000001,0.021814343580656564,16.124409910805493,10.06341763753592,0.9192428168943366,-0.39870725595273154,296.4111930549302,12.34279297476304,0.0,1.0,0.0,0.0,1.0,Taxi
13.3,0.16558438447635426,-11.254419645566022,7.175624322276368,0.9136385937997713,0.3994641609927174,296.57530701770406,12.797806947302183,0.0,1.0,0.0,0.0,1.0,Taxi
13.4,-0.09685713584197309,8.770151991440565,9.334276172066678,0.4764006944599562,0.11443975638012185,296.5504930050695,13.333217946742504,0.0,1.0,0.0,0.0,1.0,Taxi
13.5,0.06566510353785937,-55.25342750024178,7.381164021013014,0.5695341183535676,0.7619106024376829,296.55242967674485,13.150778654622219,0.0,1.0,0.0,0.0,1.0,Taxi
13.600000000000001,-0.11068275302485463,4.2804618154274605,8.74292967290439,0.8015706416631933,0.0690347686115141,296.50980681329804,12.201479698673106,0.0,1.0,0.0,0.0,1.0,Taxi
13.700000000000001,-0.07545482676483581,41.90327295119959,8.563504130371339,0.5735585497656226,0.544324914953857,296.44418677394606,12.795034235816967,0.0,1.0,0.0,0.0,1.0,Taxi
13.8,0.27518146829385726,39.28639052522107,9.537360505740747,0.8240668841266952,-0.26304440552336744,296.5654125274127,12.134208397332719,0.0,1.0,0.0,0.0,1.0,Taxi
13.9,0.08574919960125067,20.095496195865266,7.921012561979699,1.0538310312504784,-0.01377402565089255,296.49663423441325,13.051563580736442,0.0,1.0,0.0,0.0,1.0,Taxi
14.0,0.02502265421449046,-80.09646374446707,8.607569808009867,0.8746898712754138,0.42547963184055154,296.44471030665295,12.232809045739437,0.0,1.0,0.0,0.0,1.0,Taxi
14.100000000000001,-0.1253008504284781,-29.590523024061966,8.556366405752193,0.3383753376511908,-0.6536548221606413,296.4893462118589,12.366338280947458,0.0,1.0,0.0,0.0,1.0,Taxi
14.200000000000001,-0.062203415519059196,-5.646457527301396,8.703568355696673,0.7816100979723465,-0.2654606587915357,296.37538243793915,12.446967276423287,0.0,1.0,0.0,0.0,1.0,Taxi
14.3,-0.003209633422016559,3.0751899075760036,9.71695698658128,1.1478680824936223,-0.09833625658530837,296.6830847938138,12.507152681891936,0.0,1.0,0.0,0.0,1.0,Taxi
14.4,-0.10992490089059809,33.86842171414076,8.340163622089076,0.5299175847110451,0.14301245670243745,296.4662530999391,12.534027500968625,0.0,1.0,0.0,0.0,1.0,Taxi
14.5,0.10713869305164457,0.8491172940157318,8.960053208562467,0.8523992185033619,-0.3743153063113976,296.44590600141134,12.50110670054387,0.0,1.0,0.0,0.0,1.0,Taxi
14.600000000000001,0.001035953048062071,36.16555156488058,8.570740622681212,0.6554324267480827,0.46032683580381456,296.6394036732056,13.178035856025309,0.0,1.0,0.0,0.0,1.0,Taxi
14.700000000000001,0.07090285693380476,-9.28765674426324,9.346245861393045,1.0747812829430285,0.19410834728748408,296.3753914180079,13.176995745905215,0.0,1.0,0.0,0.0,1.0,Taxi
14.8,0.06070040933032838,-6.664421334343001,8.486534844584822,1.0992112601690436,0.6399539695996905,296.4276805864266,12.757786717367381,0.0,1.0,0.0,0.0,1.0,Taxi
14.9,-0.03228615362365292,17.63322991283808,8.277258497587619,0.7568294759455291,-0.2021652633859002,296.3021268375935,12.869159639146321,0.0,1.0,0.0,0.0,1.0,Taxi
15.0,0.15906900649799516,-18.001402810958155,8.017896533883569,1.0407058166247047,0.04548864246414517,296.5971425276705,13.293205745714335,0.0,1.0,0.0,0.0,1.0,Taxi
15.100000000000001,-0.02930660472446239,-6.06864973658864,8.204597115036153,0.8262968206687544,-0.39507398574007524,296.46361229454556,13.733154744533993,0.0,1.0,0.0,0.0,1.0,Taxi
15.200000000000001,-0.06262940230659612,-44.032350119267754,9.3771547793716,0.8294386328018438,-0.8906248771565308,296.4678816351418,12.995635736685978,0.0,1.0,0.0,0.0,1.0,Taxi
15.3,-0.0610927440983436,6.666588378579969,8.750719255747937,0.8412063713842849,0.4858098782745889,296.5563066823346,13.096804589947475,0.0,1.0,0.0,0.0,1.0,Taxi
15.4,0.004026337168437466,-19.323554964422993,8.018271735779336,1.097235734947685,0.30524527914782834,296.4027177230306,12.897954447317451,0.0,1.0,0.0,0.0,1.0,Taxi
15.5,-0.15924717712871106,17.065010481999895,8.544313962344823,0.9151136107733645,-0.6945149239091097,296.57019232244875,13.22539999634187,0.0,1.0,0.0,0.0,1.0,Taxi
15.600000000000001,0.024232308311655914,-14.983290909773254,8.059586154070217,0.5820786722125478,-0.4167897440467836,296.51034503782034,13.104560270507264,0.0,1.0,0.0,0.0,1.0,Taxi
15.700000000000001,-0.07089011738042877,26.58034502865421,8.659397663984617,0.7966838754794294,0.35053674272469315,296.40316157658106,12.683482888076869,0.0,1.0,0.0,0.0,1.0,Taxi
15.8,-0.02634545198543998,-15.583326158859611,8.365607402909182,0.8361660766487682,0.04201893793806284,296.5050493443798,13.001114250418562,0.0,1.0,0.0,0.0,1.0,Taxi
15.9,-0.053684322482642134,10.949740620583142,7.961295485140371,0.7774689872646501,0.8724758506001369,296.5381862176898,12.954566024319012,0.0,1.0,0.0,0.0,1.0,Taxi
16.0,-0.016141414277513057,19.53026790744261,8.489473115190325,0.7761714305873995,0.5310933715691947,296.5088407856356,13.016254455260102,0.0,1.0,0.0,0.0,1.0,Taxi
16.1,0.07130588755177307,0.3084662647671763,7.62052883092427,0.6577367524843574,-0.3584618892368808,296.59008563093755,13.517371484368256,0.0,1.0,0.0,0.0,1.0,Taxi
16.2,-0.052141991158806245,11.232726908373984,8.921865090222388,0.6381083304039725,0.05200486907065506,296.5100928353745,13.106612358177294,0.0,1.0,0.0,0.0,1.0,Taxi
16.3,0.04002222026435687,-44.33856441395193,7.91001434279631,1.0243449337324864,0.5796518999478293,296.56561248349067,12.829817628476519,0.0,1.0,0.0,0.0,1.0,Taxi
16.400000000000002,-0.15038693451798657,-1.1880826772631703,8.147770964531025,1.0084413732627358,1.2016151406282738,296.4892529943686,13.513091031952202,0.0,1.0,0.0,0.0,1.0,Taxi
16.5,-0.058082404545122084,-16.948993100529055,9.101405413979649,0.826940886773368,-0.6039303054777779,296.39287976158187,12.683313786568187,0.0,1.0,0.0,0.0,1.0,Taxi
16.6,-0.04472274523828838,40.22854097548702,8.194372204498018,0.9749194156041837,0.09303513577957073,296.4942093029882,12.617971138197646,0.0,1.0,0.0,0.0,1.0,Taxi
16.7,0.05075577035944856,-17.135099448417833,9.222707630169271,0.6437641348222282,-0.08318995737968927,296.4658839307299,12.851323076567846,0.0,1.0,0.0,0.0,1.0,Taxi
16.8,-0.1437579017872112,8.555831089829868,7.453686061509831,1.039489982497553,-0.40115130312239217,296.4904570196061,12.179146749563792,0.0,1.0,0.0,0.0,1.0,Taxi
16.900000000000002,-0.0019435897891390054,-27.86666643723359,8.146832413933005,1.0019478787058773,-0.06885893605489093,296.74415751577544,12.698246592397544,0.0,1.0,0.0,0.0,1.0,Taxi
17.0,-0.08857756182671933,-18.870523469643047,8.795882882195972,0.7655283218349545,-0.010145123545265679,296.5204493040319,12.734025049598706,0.0,1.0,0.0,0.0,1.0,Taxi
17.1,-0.23811051913542639,5.157138788742562,8.891950098251131,0.7356239300424975,0.8331683474420312,296.52160590160383,12.85395669827311,0.0,1.0,0.0,0.0,1.0,Taxi
17.2,0.023842104154573822,38.39129481214818,9.024569594832263,0.7739930556010836,-1.0847350030758933,296.50217977973034,12.13813750471219,0.0,1.0,0.0,0.0,1.0,Taxi
17.3,0.10337891223402161,56.005083365313425,8.192709318712824,0.5740644160491408,0.05464418565974702,296.55886684795416,12.628154790462265,0.0,1.0,0.0,0.0,1.0,Taxi
17.400000000000002,0.041914897691140755,2.370989614430919,8.001053891928837,0.8083057819087213,-0.3612598433430645,296.5534407396756,12.656913574989982,0.0,1.0,0.0,0.0,1.0,Taxi
17.5,0.035697052226728435,-41.43720073400798,6.970571509861751,1.0028348383237895,0.535414246192292,296.51819466748043,13.670792224156722,0.0,1.0,0.0,0.0,1.0,Taxi
17.6,-0.10380709143601825,-20.430229350377918,8.366736634369643,0.5428151205867258,0.0816477365088723,296.6094666629692,13.818331492705468,0.0,1.0,0.0,0.0,1.0,Taxi
17.7,-0.06023624906074881,5.634557635104495,8.058863068596231,0.7883892029564783,-0.4148244651246272,296.41744069429717,12.498034453162338,0.0,1.0,0.0,0.0,1.0,Taxi
17.8,0.06386984040225091,34.5398836976669,8.74901613765953,0.7057880708165601,0.33315043131000066,296.4294320356764,13.856640837622995,0.0,1.0,0.0,0.0,1.0,Taxi
17.900000000000002,0.06889232705231625,5.381242489207016,8.001470653221977,0.7885694980471057,-0.444963697236187,296.4942846638721,12.973810062599105,0.0,1.0,0.0,0.0,1.0,Taxi
18.0,-0.033330036614713725,46.02077646924605,8.408420250248438,0.6326904054299678,0.1962631479680908,296.3352436961751,12.379987527663584,0.0,1.0,0.0,0.0,1.0,Taxi
18.1,0.2939737227484812,11.302317873832896,7.3360022577926784,1.0065185682885311,-0.34849435405736245,296.577893127519,13.032023367969344,0.0,1.0,0.0,0.0,1.0,Taxi
18.2,0.1254039164214807,-3.5485975885515444,9.441447739409146,0.8238723825198252,0.35446373540960024,296.42605798673844,13.298038672939068,0.0,1.0,0.0,0.0,1.0,Taxi
18.3,-0.05107302455747148,-81.32494445384837,7.613179596382229,0.865997941531777,1.1117422003358668,296.5158244368324,12.109061805156353,0.0,1.0,0.0,0.0,1.0,Taxi
18.400000000000002,-0.11265099952076066,-15.846903806991307,8.573831030553432,0.9720245023169576,0.16664537248698255,296.48785660960607,12.686508573893473,0.0,1.0,0.0,0.0,1.0,Taxi
18.5,0.04616939738652415,16.073380548635214,7.589161898745495,1.219043493550827,-0.12073244837348424,296.38192811044655,13.695029633054652,0.0,1.0,0.0,0.0,1.0,Taxi
18.6,0.029293878185704565,53.7387918522737,8.336304778072309,0.5816409797202667,0.315387400863893,296.6293306217026,12.798112856665746,0.0,1.0,0.0,0.0,1.0,Taxi
18.7,0.15604295974060778,-7.852483138840872,8.490540417315628,0.7675346975414725,0.4428886330775365,296.5878532438461,13.650508084493088,0.0,1.0,0.0,0.0,1.0,Taxi
18.8,0.006906981692319739,-2.13138272997869,8.456590214638256,1.1499818950712801,-0.4547602162981451,296.47326216190083,12.841431097978797,0.0,1.0,0.0,0.0,1.0,Taxi
18.900000000000002,0.018636964535811068,-35.8601891947657,8.510512456764026,1.2152353889425824,0.16791563095691855,296.41571153268194,13.259143629809765,0.0,1.0,0.0,0.0,1.0,Taxi
19.0,-0.023257986233220774,5.30419322760893,7.476566366940321,0.408273743033407,0.2787185723327927,296.57660137749235,13.725109957176517,0.0,1.0,0.0,0.0,1.0,Taxi
19.1,0.03342794783036435,-21.856668621225566,7.719342120204185,1.133669789502792,0.12345874758898394,296.55041363966257,13.174002586290733,0.0,1.0,0.0,0.0,1.0,Taxi
19.200000000000003,-0.09064637857031682,-14.096202282421977,9.485954432895246,0.5468218356402734,-0.05351647606650797,296.56937815770266,11.96644265562217,0.0,1.0,0.0,0.0,1.0,Taxi
19.3,-0.09373899764533068,-4.236609133826953,9.462363023895444,0.8608116604330338,-0.1934256490470578,296.6168380777524,12.42044080575236,0.0,1.0,0.0,0.0,1.0,Taxi
19.400000000000002,0.01224490216122959,38.42500009522767,8.232019469743488,1.0861809781738931,0.23443408294644433,296.5986363779855,12.131341929438548,0.0,1.0,0.0,0.0,1.0,Taxi
19.5,0.10147862190582149,4.4819196527331115,8.112688489987702,0.5456859749309404,-0.20302194687157446,296.46019884622297,12.978958019483187,0.0,1.0,0.0,0.0,1.0,Taxi
19.6,-0.07132939938166513,-14.36093332277499,8.3882798157055,1.1605110578021542,0.002315920131906053,296.398958233689,12.983164095294258,0.0,1.0,0.0,0.0,1.0,Taxi
19.700000000000003,-0.05955976445264536,-27.52422852442204,8.20494572889404,1.1145155656441332,0.3164416246848808,296.4880896184833,13.013942366304414,0.0,1.0,0.0,0.0,1.0,Taxi
19.8,-0.03614252071628869,7.357142478261412,9.575688450153342,0.7161826031315586,0.23560438134892445,296.5613331940224,12.63210070028706,0.0,1.0,0.0,0.0,1.0,Taxi
19.900000000000002,-0.034543686990358057,22.37170421873247,8.577588280752876,0.8927983518887422,0.3420459409717133,296.53121016160003,13.402713339065686,0.0,1.0,0.0,0.0,1.0,Taxi
20.0,0.052298756641017,-24.07205739293838,8.6626258412245,0.9771007716033321,0.2417860343542351,296.42308409620387,12.99516340609003,0.0,1.0,0.0,0.0,1.0,Taxi
20.1,-0.1565028076809806,18.68529285953765,9.347803833388408,0.8238084981953758,0.2164283353993556,296.5166541888676,12.486337152497375,0.0,1.0,0.0,0.0,1.0,Taxi
20.200000000000003,0.05888277730733019,6.796062625502795,8.148933935854037,0.7723185794432327,0.30012593192202147,296.496815737298,12.853623871536053,0.0,1.0,0.0,0.0,1.0,Taxi
20.3,0.08627906976853097,37.241292980008105,8.475077765581675,0.8846589014016486,0.12899517791914422,296.6427428924635,12.620499017833993,0.0,1.0,0.0,0.0,1.0,Taxi
20.400000000000002,0.029703657219059917,-38.14201362345799,7.808698651501512,0.7790504171534329,-0.16147587053113538,296.4613997857981,12.550951683256963,0.0,1.0,0.0,0.0,1.0,Taxi
20.5,-0.13182729080995972,-23.63589264078404,8.550759469926176,0.6186987516822675,0.1470700873160743,296.63058535997607,13.610704901319657,0.0,1.0,0.0,0.0,1.0,Taxi
20.6,-0.03190039343538918,-14.59761076905213,9.061990009810646,0.7756906830984919,-0.41101304186846066,296.42906501610537,12.823542520892618,0.0,1.0,0.0,0.0,1.0,Taxi
20.700000000000003,-0.0432843966262007,64.73373260317571,8.663766701760705,0.7240544785576212,0.0966564213813392,296.53082853853743,13.471222245654173,0.0,1.0,0.0,0.0,1.0,Taxi
20.8,0.1918413722059189,-8.259091547101397,8.126825973824282,0.6078832236043453,0.19760281995609555,296.4647863269689,12.082333175782924,0.0,1.0,0.0,0.0,1.0,Taxi
20.900000000000002,-0.0731958511708961,29.932204692344786,8.86881414417343,0.6843549657199006,-0.7784272962858189,296.48192491845623,12.543856567944868,0.0,1.0,0.0,0.0,1.0,Taxi
21.0,0.10637662683552329,-58.04039636460035,8.706314367770421,1.028304209058433,-0.6036179947183097,296.40722206735813,12.685595631650893,0.0,1.0,0.0,0.0,1.0,Taxi
21.1,-0.09836060961708282,0.7984700421840737,8.737716667495896,0.9808255672140708,-0.3102040077169268,296.4597218384731,12.440487579691155,0.0,1.0,0.0,0.0,1.0,Taxi
21.200000000000003,-0.0692035009599757,-14.524130171121682,8.951252280507669,0.7450242939077707,-0.653899547467024,296.43413983122764,12.567299621608125,0.0,1.0,0.0,0.0,1.0,Taxi
21.3,0.03375597597991493,9.189274956939778,9.038682554461285,1.052648302311502,-0.21573942049278286,296.37956575306987,12.679486119470813,0.0,1.0,0.0,0.0,1.0,Taxi
21.400000000000002,-0.05241423483238388,9.674689425725411,7.80456475095058,1.1049353421788846,-0.13404687075845834,296.6946432327193,11.418382531915217,0.0,1.0,0.0,0.0,1.0,Taxi
21.5,-0.0208300538313486,-8.67795591065269,7.797416588479468,0.7825530113393443,-0.21497145861460712,296.6343792041025,12.66801627003771,0.0,1.0,0.0,0.0,1.0,Taxi
21.6,-0.009633803573348483,37.99503929396004,8.624014165874604,0.9996153364255078,-0.3986535903358484,296.40190361807254,12.09602574598091,0.0,1.0,0.0,0.0,1.0,Taxi
21.700000000000003,0.13756096163741635,10.258000504941615,7.59572350608418,0.8279246844152931,0.49040021589885485,296.4860497149116,13.125531945780642,0.0,1.0,0.0,0.0,1.0,Taxi
21.8,0.030459948693359502,3.0719026844992783,7.5078803195320365,0.7615003744885066,0.4290245828122845,296.48919794917174,12.482831364063308,0.0,1.0,0.0,0.0,1.0,Taxi
21.900000000000002,0.005725709849147942,23.31728084309302,8.855631379800013,1.055921374881359,0.14447923207258406,296.49253112501515,13.040605098867013,0.0,1.0,0.0,0.0,1.0,Taxi
22.0,0.25414736585288145,-3.692390267894458,8.324364094677446,0.8438059617361924,0.3261057033734422,296.5016198724911,13.415976317063283,0.0,1.0,0.0,0.0,1.0,Taxi
22.1,0.011997997353887221,-10.754283828499155,8.03950462237664,0.7975190578711798,-0.1537232122588606,296.2429408893221,12.911893899468753,0.0,1.0,0.0,0.0,1.0,Taxi
22.200000000000003,-0.04804570929334784,-39.48962134059072,8.600908042693346,0.9300241515753818,-0.02067113248215422,296.72664172433065,12.39583721480429,0.0,1.0,0.0,0.0,1.0,Taxi
22.3,0.056699259149927864,-0.168390069025205,8.813235020166221,0.9336334086590364,0.17859700950116966,296.3550671518568,13.15831312111001,0.0,1.0,0.0,0.0,1.0,Taxi
22.400000000000002,0.011156047008761215,65.93918895157192,8.722103391826037,1.0902761563145287,0.42068900273886445,296.5978051130369,12.796730646600572,0.0,1.0,0.0,0.0,1.0,Taxi
22.5,0.2816502354645118,-15.902792199009403,9.03775396177863,0.7286231977296129,-0.06535729032919307,296.6299881528853,12.613018233136634,0.0,1.0,0.0,0.0,1.0,Taxi
22.6,-0.022814701845119138,3.092865422521759,7.1429147655323035,0.660831592802194,0.8799436869292135,296.39520249787665,12.13992878328654,0.0,1.0,0.0,0.0,1.0,Taxi
22.700000000000003,0.026620374121370027,-75.2251873700728,8.164898295031449,0.7697068055276833,0.6696214769784787,296.4347557246392,13.186128114112675,0.0,1.0,0.0,0.0,1.0,Taxi
22.8,-0.09447570138585219,-20.1754972342428,8.349915020579923,1.1395842978902193,0.011438306651285323,296.62476103986137,12.163404783310686,0.0,1.0,0.0,0.0,1.0,Taxi
22.900000000000002,-0.12369218801633314,-24.19001932854498,7.582192548393137,0.7805339964084455,-0.34124495707815194,296.5839894960644,12.895615907090159,0.0,1.0,0.0,0.0,1.0,Taxi
23.0,-0.09432972252135488,20.765186370415496,8.631592089207999,0.855036506345348,-0.55845154100536,296.58759965814545,13.35911067121071,0.0,1.0,0.0,0.0,1.0,Taxi
23.1,0.009350230466225308,-27.762943530400054,8.696580560740488,1.0450933627736583,0.46148486642122044,296.5714622497393,13.371617680271392,0.0,1.0,0.0,0.0,1.0,Taxi
23.200000000000003,-0.2625069056683334,-3.7088615197316037,9.010508878891825,0.8228258349232507,-0.316285819873607,296.4742495902334,13.21412040957885,0.0,1.0,0.0,0.0,1.0,Taxi
23.3,-0.11287403012001292,15.810841804280747,8.185520105151522,0.6284727633622693,-0.120244688724687,296.4087588921361,13.082331529824392,0.0,1.0,0.0,0.0,1.0,Taxi
23.400000000000002,0.08840443948762905,48.11524264856419,8.771795405689327,0.8135259908614273,-0.42704025620217745,296.62156154823197,13.97485151429889,0.0,1.0,0.0,0.0,1.0,Taxi
23.5,-0.02193069242551242,19.79025500772461,8.192193985440634,0.36125375758056283,-0.4832127148129717,296.3794479161329,12.503149008167284,0.0,1.0,0.0,0.0,1.0,Taxi
23.6,-0.013922755081389824,-22.81510796365784,8.880379480209193,1.2796747242525732,-0.03923933361162352,296.4914202171303,11.967272514627656,0.0,1.0,0.0,0.0,1.0,Taxi
23.700000000000003,-0.025671100330660137,-5.539498993034641,8.748942838559014,0.8603670992830662,-0.5811085370319817,296.53233522076755,12.051360157886538,0.0,1.0,0.0,0.0,1.0,Taxi
23.8,-0.0496281873906856,-0.363226887305494,8.774494011427164,1.0740782292521567,1.2521928035964265,296.52378105422713,12.00218937585676,0.0,1.0,0.0,0.0,1.0,Taxi
23.900000000000002,-0.015738889517917267,10.6968748319445,8.276383627461296,0.8039408868145292,-0.04056381198645516,296.4161696309561,12.331749357071741,0.0,1.0,0.0,0.0,1.0,Taxi
24.0,0.027813273829062388,25.03625144596778,8.983998574806272,0.5418558289070627,-0.4607967049035488,296.42180549837803,12.914781221217071,0.0,1.0,0.0,0.0,1.0,Taxi
24.1,0.07555306983915332,5.365046206975085,9.042351690363374,0.6557244026531824,-0.5854620738236486,296.4487787521829,13.45180484460298,0.0,1.0,0.0,0.0,1.0,Taxi
24.200000000000003,0.011086341516958186,6.795004702631615,7.638304095343471,0.5359056173336414,0.14850217734351895,296.58225151859415,12.38488608196701,0.0,1.0,0.0,0.0,1.0,Taxi
24.3,0.0617882973422205,0.5732651234802599,8.908835923983318,0.8183018714330078,-0.752113927566922,296.44355684721336,12.96041084313349,0.0,1.0,0.0,0.0,1.0,Taxi
24.400000000000002,0.07841939545655466,-34.407009192463285,8.326830297948067,0.6824520582063206,0.2079409126304513,296.76322067480567,12.07465620226579,0.0,1.0,0.0,0.0,1.0,Taxi
24.5,-0.1609487044453582,16.506502328340122,8.531634303421177,1.1773731427133327,0.5001910807181427,296.5727908835977,13.4567822694597,0.0,1.0,0.0,0.0,1.0,Taxi
24.6,0.14432080898392116,-21.447653323315468,8.267222654386735,0.36872315336269224,0.6681646659246304,296.4100196931105,12.720271257477641,0.0,1.0,0.0,0.0,1.0,Taxi
24.700000000000003,-0.02881887116002262,33.11385970139661,8.2723959462232,0.8036249159267739,0.27076455938496785,296.5820403226114,13.179935515881517,0.0,1.0,0.0,0.0,1.0,Taxi
24.8,0.004620594061624912,-14.343809243617613,8.973480338159144,0.7799305381080236,0.6967618311621702,296.4763000466992,12.920935988087875,0.0,1.0,0.0,0.0,1.0,Taxi
24.900000000000002,0.0726017627658331,10.08260151204023,7.754457102931928,0.9791966701109944,0.5281130501514897,296.35539441719277,13.540107201982323,0.0,1.0,0.0,0.0,1.0,Taxi
25.0,0.02159413640017853,12.151403456780145,8.638056507815723,0.7320787409111501,-0.08704055900906842,296.3145610112383,13.2889090359653,0.0,1.0,0.0,0.0,1.0,Taxi
25.1,0.06537761134552565,17.193985497912237,8.604344847135913,1.0543836059886211,0.503333725442349,296.40861051372235,12.850873726360032,0.0,1.0,0.0,0.0,1.0,Taxi
25.200000000000003,0.1585716902553943,7.6924920311600955,8.958079118696109,1.0403825540333005,0.3211567111794476,296.47375733562035,12.54241728690339,0.0,1.0,0.0,0.0,1.0,Taxi
25.3,0.06005659655597902,-12.252778141639636,9.007602497509886,1.1107717757706386,0.27282428337003134,296.37812854267315,13.05519781561983,0.0,1.0,0.0,0.0,1.0,Taxi
25.400000000000002,0.004113720637327488,-29.88619369687537,8.80269975578773,0.993386190137914,0.350461232832361,296.5771593162574,12.3823543737314,0.0,1.0,0.0,0.0,1.0,Taxi
25.5,0.009140721771017463,-15.704904140932712,7.841839758835219,0.8171752475088827,-0.031163238467675387,296.5085392522773,11.831739765873593,0.0,1.0,0.0,0.0,1.0,Taxi
25.6,-0.01846792414868453,13.96518268229647,8.251876493717575,0.9990769540851046,-0.19813411935879552,296.62108720646256,12.721708493274665,0.0,1.0,0.0,0.0,1.0,Taxi
25.700000000000003,0.07393963404880985,13.696958504536562,8.794474942553276,0.7766032338174891,0.2663294051660155,296.36789195865003,13.007779811764282,0.0,1.0,0.0,0.0,1.0,Taxi
25.8,0.07762551429370029,30.60983343892684,8.468126671433865,1.0331394846031066,0.17361623633502044,296.5497847277529,12.893883881876256,0.0,1.0,0.0,0.0,1.0,Taxi
25.900000000000002,0.13458124304594968,-25.76631231999474,8.458089695581304,0.9518077284355001,0.24100876366716736,296.60415252485313,12.438307546357688,0.0,1.0,0.0,0.0,1.0,Taxi
26.0,-0.0548919275511638,28.81018060083649,9.043947968215255,1.1174362395625421,0.162179850354165,296.55469685464277,12.092028535955425,0.0,1.0,0.0,0.0,1.0,Taxi
26.1,0.2216764172978828,-45.28618253886245,7.815493916134989,0.9427123962284041,-0.06795978745362323,296.52892195161417,12.86715351164401,0.0,1.0,0.0,0.0,1.0,Taxi
26.200000000000003,-0.09184966964836254,32.04102140731589,8.20220025258439,0.6467464090426895,-0.17177902545026838,296.32728911495667,13.931796978055294,0.0,1.0,0.0,0.0,1.0,Taxi
26.3,0.10531317948541566,-56.32152255387148,8.243792577908556,1.1534683360262894,-0.7179343160069386,296.3867998418043,13.250875645949247,0.0,1.0,0.0,0.0,1.0,Taxi
26.400000000000002,-0.0599311954714746,20.15668398821489,8.39702242366766,0.7930216443447845,-0.040595476970537406,296.33798020004906,12.407201863030988,0.0,1.0,0.0,0.0,1.0,Taxi
26.5,0.008933750292711947,3.38829146209887,7.45238890578472,0.8229589327115557,0.5238971882629716,296.59382789272,13.07450445446209,0.0,1.0,0.0,0.0,1.0,Taxi
26.6,0.12225463679591003,41.4640826770972,9.758983536431428,0.8318289315758273,0.1758725957798262,296.6735392435228,14.066055966952218,0.0,1.0,0.0,0.0,1.0,Taxi
26.700000000000003,0.14738921791401144,8.375171317861984,8.259511971755057,1.0571433276370348,-1.188186944258531,296.47504723882105,12.018561915085293,0.0,1.0,0.0,0.0,1.0,Taxi
26.8,0.050809606882021886,-13.214938157571396,9.318469744087016,0.4780688320653554,0.2989000991088224,296.5544137587128,12.891024741798072,0.0,1.0,0.0,0.0,1.0,Taxi
26.900000000000002,0.056179946008053074,-15.523516302415851,9.631360969245979,0.48351371256273823,-0.4562544791696754,296.397844369297,12.89571467993279,0.0,1.0,0.0,0.0,1.0,Taxi
27.0,0.0697716364019322,-5.623142500002654,9.047753316192063,0.9406763821646882,-0.8422573840499057,296.5512156797213,13.353539849750824,0.0,1.0,0.0,0.0,1.0,Taxi
27.1,0.02269389438200864,-25.194701652374984,8.649049643610219,0.7225891368427286,0.4304986769094631,296.39249644218216,13.744311858543197,0.0,1.0,0.0,0.0,1.0,Taxi
27.200000000000003,-0.06979356225382181,-44.264444298497324,7.921281592810023,1.266805693440499,-0.14170274146575748,296.5256796328565,13.126205010290962,0.0,1.0,0.0,0.0,1.0,Taxi
27.3,-0.1515505850905544,-18.526274605689707,8.576277455652265,1.0061108506120595,-0.07257066897861492,296.68938963285177,12.768699255935037,0.0,1.0,0.0,0.0,1.0,Taxi
27.400000000000002,-0.06993747864643989,20.50506857481344,9.003358316876588,1.0203349157044466,0.4686941424694713,296.6398512349315,12.089832268710309,0.0,1.0,0.0,0.0,1.0,Taxi
27.5,0.03273178062024539,52.32392691187505,8.324258573345807,0.5232730529756511,0.34663737637491177,296.5412034994041,12.640377572487735,0.0,1.0,0.0,0.0,1.0,Taxi
27.6,0.11006904946882085,28.615942283042813,8.911163207690816,0.5635590962052013,-0.6785857474758281,296.30465901305774,12.474782995598169,0.0,1.0,0.0,0.0,1.0,Taxi
27.700000000000003,0.07314223276877421,-11.633991018928619,9.4165281949115,0.8205291356700026,-0.4019124312196683,296.3617397853859,13.409409845526625,0.0,1.0,0.0,0.0,1.0,Taxi
27.8,-0.025438174474397703,-44.93480281877854,8.421125153138021,1.1714578173271186,0.23618697999110685,296.68011813352246,13.173256821594888,0.0,1.0,0.0,0.0,1.0,Taxi
27.900000000000002,-0.11460496462507186,-41.14079201365971,8.401176075783724,1.2122588649138928,-0.8644788115812795,296.57491971405307,13.175432367291865,0.0,1.0,0.0,0.0,1.0,Taxi
28.0,-0.1325617272995243,-6.365459481702217,8.929389857449767,1.1204424941104485,0.9673599982039403,296.46925841813754,13.443993495134663,0.0,1.0,0.0,0.0,1.0,Taxi
28.1,-0.05726547188290879,22.89798211380192,8.445061129643713,1.102733196889397,0.294317979145922,296.5645611171758,12.000591153931502,0.0,1.0,0.0,0.0,1.0,Taxi
28.200000000000003,-0.00011505405606225216,10.511570952464483,7.783127868088067,0.9877081666112977,0.17416533533088022,296.446890000499,13.837763170804537,0.0,1.0,0.0,0.0,1.0,Taxi
28.3,-0.0800038725372019,17.69810697387562,9.35569920752895,1.0045378382007437,0.14709499629041445,296.5321249113524,12.858790979294975,0.0,1.0,0.0,0.0,1.0,Taxi
28.400000000000002,0.031225062986469317,-30.710993260011673,7.734486573228439,0.9129348821882581,-0.06750158187120996,296.2838539668469,11.81484342137593,0.0,1.0,0.0,0.0,1.0,Taxi
28.5,-0.15367002035612062,13.141679581703878,8.143874768888267,0.6793247907671707,0.36548254684988307,296.49046534859895,13.364299563325291,0.0,1.0,0.0,0.0,1.0,Taxi
28.6,-0.014295474628682532,-19.51670450412743,8.06181226760005,0.5702375451734298,0.32185831323833053,296.4354664297664,13.854721874716292,0.0,1.0,0.0,0.0,1.0,Taxi
28.700000000000003,-0.06635845953416786,57.45752588783724,8.493562885444836,0.6754686119903975,0.39740472943345573,296.56901525839874,13.313908306408164,0.0,1.0,0.0,0.0,1.0,Taxi
28.8,0.13361760908306552,-6.466472544712114,9.539304420568753,0.6320194579483804,-0.6980270109193747,296.5345781950018,13.372951153855293,0.0,1.0,0.0,0.0,1.0,Taxi
28.900000000000002,-0.04662783735224313,14.645461246007741,8.507145657973727,1.0191768148538507,-0.2249937223393803,296.4634657248962,12.775953851151417,0.0,1.0,0.0,0.0,1.0,Taxi
29.0,0.0068688466958708285,-7.809001218054807,8.25253038861749,0.595465474242438,1.122495058019477,296.2363991761388,13.333371006157538,0.0,1.0,0.0,0.0,1.0,Taxi
29.1,0.09457260299279148,32.67252001364026,9.001797824705296,0.9333403847706389,-0.38023484013566095,296.5327242711751,13.014487260046442,0.0,1.0,0.0,0.0,1.0,Taxi
29.200000000000003,0.11673476271595813,-9.447000495340268,8.923456856126583,0.9187780971765138,-0.8430676206500372,296.4271770893231,13.04715230355441,0.0,1.0,0.0,0.0,1.0,Taxi
29.3,-0.0403661557808305,-12.3546269804828,7.8456354208241095,0.3388236147333642,0.5703702558679702,296.40188194025336,13.83366561475971,0.0,1.0,0.0,0.0,1.0,Taxi
29.400000000000002,0.032799468090377475,-10.323151617007133,8.03899841540247,0.5722236173749942,0.2087148422839996,296.5898381516646,12.912072635012994,0.0,1.0,0.0,0.0,1.0,Taxi
29.5,0.06511900463092248,19.732143816907396,8.359191835198796,0.8897657532641653,0.5035943847140708,296.4595312714521,13.169716544282991,0.0,1.0,0.0,0.0,1.0,Taxi
29.6,0.05829456330370646,-0.15764758589987812,9.359471587427988,0.586409039484244,0.2762388046186257,296.4671228154491,12.548453461771317,0.0,1.0,0.0,0.0,1.0,Taxi
29.700000000000003,0.03201123016087806,-64.00863807045658,8.436420483567161,0.6265941027702523,0.1817043106037451,296.3085417604591,12.695263932718978,0.0,1.0,0.0,0.0,1.0,Taxi
29.8,-0.2549241857213604,-1.5119533624702985,9.096980144854008,0.8499374008506839,-0.32456802071099683,296.3713056019975,12.879644015190014,0.0,1.0,0.0,0.0,1.0,Taxi
29.900000000000002,0.05073479649135503,9.13962115379677,8.41647615077473,0.8902878913752188,0.008313912485635427,296.67752360539157,12.299869954784747,0.0,1.0,0.0,0.0,1.0,Taxi
30.0,0.07770933592986196,82.33490086987364,8.071390240612539,0.7146085541737162,0.7245558626497166,296.4238950846037,12.552404557955438,0.0,1.0,0.0,0.0,1.0,Taxi
30.1,0.15675031862800778,-11.986707002002996,8.913947587885012,0.8065706245560533,0.39626666654363807,296.347045484055,12.292555517811193,0.0,1.0,0.0,0.0,1.0,Taxi
30.200000000000003,-0.009198738518659964,24.34210459630707,8.580399089046006,0.5177556536930371,-0.681301023940668,296.365731415234,13.048219577868784,0.0,1.0,0.0,0.0,1.0,Taxi
30.3,0.1994198589113973,-7.023037817028396,8.74653065362209,0.9609796070100297,-0.4276191307952646,296.37455207025937,12.315283463727729,0.0,1.0,0.0,0.0,1.0,Taxi
30.400000000000002,0.1216351295428658,-26.249457618983005,8.019140127011879,0.5069286651383544,-0.5907372283000388,296.40511082546595,12.938701598350864,0.0,1.0,0.0,0.0,1.0,Taxi
30.5,-0.140446026613575,-61.548955590849374,7.859573433134982,0.8219066485621589,-0.6130473450057548,296.58553700840105,12.566960851676015,0.0,1.0,0.0,0.0,1.0,Taxi
30.6,-0.10832491904284956,-23.161789668127188,8.871217119468504,0.8731356992961808,-0.08160387929814146,296.51626857493727,12.936890248937576,0.0,1.0,0.0,0.0,1.0,Taxi
30.700000000000003,0.0058261812022298515,37.76248699001681,8.272157893861731,0.9527649098847149,-0.5753781792316391,296.6126436051554,12.850659731517737,0.0,1.0,0.0,0.0,1.0,Taxi
30.8,0.04836640833650904,28.54973858149816,8.589084090341263,0.8019252978202566,-0.6770698911834587,296.63819697459405,12.909369720405044,0.0,1.0,0.0,0.0,1.0,Taxi
30.900000000000002,0.03442377386464123,15.589229156756431,7.7858741718786835,0.5272259490875404,0.22410558247255627,296.3343370748328,12.039174809130872,0.0,1.0,0.0,0.0,1.0,Taxi
31.0,0.083772326986012,-35.03145252339227,9.424059658722072,0.774898792967209,-0.26565613027469304,296.65356550363333,12.499340252043577,0.0,1.0,0.0,0.0,1.0,Taxi
31.1,-0.1267908542804523,-15.53578254926437,8.317406072048334,1.0236020790258429,0.9971438316322373,296.51540318592004,12.180727608472399,0.0,1.0,0.0,0.0,1.0,Taxi
31.200000000000003,-0.04325513888168064,-30.444330353538774,9.113699497383726,1.013462645933608,-0.11932090525204936,296.43441441871164,13.876867853774272,0.0,1.0,0.0,0.0,1.0,Taxi
31.3,-0.0684493247816819,37.31614816518189,8.3468473494893,0.8528522813984352,0.08595400705975634,296.3991362627645,13.08532851256535,0.0,1.0,0.0,0.0,1.0,Taxi
31.400000000000002,0.05978988654545719,6.465485763485053,7.947023061411385,0.9550289185435539,0.05636200897700739,296.48425102881356,13.023174344378772,0.0,1.0,0.0,0.0,1.0,Taxi
31.5,-0.010927710064255351,26.62639202918653,9.452043493251606,0.5409586956340917,-0.6149468298208031,296.5362007128225,12.18098530151785,0.0,1.0,0.0,0.0,1.0,Taxi
31.6,0.06468263536425076,-7.354062361907857,7.421357438044785,0.6778196455355394,0.49297175847270447,296.5985381788447,13.209777218086721,0.0,1.0,0.0,0.0,1.0,Taxi
31.700000000000003,0.023019574735917907,25.273078854612276,8.67160043272812,0.6266345979497188,-0.6495776654619628,296.6571389710856,13.523865860690368,0.0,1.0,0.0,0.0,1.0,Taxi
31.8,0.11543768420880603,-22.704528458509657,8.37625617938839,0.43653661116728604,0.10798574551928425,296.4221631681721,13.526730354924469,0.0,1.0,0.0,0.0,1.0,Taxi
31.900000000000002,-0.0488400069282975,-26.05143890904145,8.975526760005923,0.6982814668001788,-0.13531401822133937,296.63683272068954,12.817700456983422,0.0,1.0,0.0,0.0,1.0,Taxi
32.0,-0.10723761980928931,-22.359723618609422,7.949573220685158,0.8354705341191192,-0.7431096597649449,296.4876330219979,13.75774604670403,0.0,1.0,0.0,0.0,1.0,Taxi
32.1,0.0036390661157589725,33.069586475833894,8.053376574509361,0.6817207713110194,-0.786373738026306,296.6575733012487,12.310457796131534,0.0,1.0,0.0,0.0,1.0,Taxi
32.2,0.11650792545087199,50.25792679245463,9.481970111772615,0.5040708403503562,-0.3497080414240075,296.53745827485716,13.266160833424129,0.0,1.0,0.0,0.0,1.0,Taxi
32.300000000000004,0.14405201415298388,4.838326799456534,8.694665355775854,0.8253800846332822,0.29421590474543985,296.5318145379729,13.731333867127704,0.0,1.0,0.0,0.0,1.0,Taxi
32.4,0.027830700113041642,-60.72717186526577,8.94574875649554,0.8713614145989674,-0.6799804734054019,296.4166841922745,12.136528411992384,0.0,1.0,0.0,0.0,1.0,Taxi
32.5,-0.1871279338754568,-39.26421348276949,9.35050004626614,0.652975225226253,-0.38001558298945565,296.4645391935735,12.972959406458926,0.0,1.0,0.0,0.0,1.0,Taxi
32.6,-0.05226905326086358,-9.401228483865344,7.658657596871248,0.6908245266758156,0.30145557167213394,296.56989393662275,13.116617545070081,0.0,1.0,0.0,0.0,1.0,Taxi
32.7,-0.019175442306285057,64.44593193604447,7.757920380003299,0.8143075211540144,-1.4102483563080164,296.5120770429694,12.860679801914753,0.0,1.0,0.0,0.0,1.0,Taxi
32.800000000000004,0.13510172580476557,7.558718472395337,8.948734498119709,1.2892277098595613,-0.10987030640810407,296.47275223493295,13.035633771569136,0.0,1.0,0.0,0.0,1.0,Taxi
32.9,-0.014475460898886908,17.09184317421903,7.915627900479047,0.5914720404200204,0.8986732891508703,296.56322050518975,13.012653428290262,0.0,1.0,0.0,0.0,1.0,Taxi
33.0,0.06628377356481008,-37.383058555298355,8.699631653345179,0.541860040039112,-0.847464137036534,296.3239280554568,12.281257644010422,0.0,1.0,0.0,0.0,1.0,Taxi
33.1,-0.05181356697172621,-5.123825576545266,8.963596878049447,0.8366937343026318,-0.29963810026133186,296.5469528019066,12.581564401684362,0.0,1.0,0.0,0.0,1.0,Taxi
33.2,-0.04009458878161326,-5.071002869502166,9.032559850476503,1.2023863946769673,-0.34696584022921595,296.4769023380161,12.489683561261606,0.0,1.0,0.0,0.0,1.0,Taxi
33.300000000000004,0.04092875921729921,16.00328712182733,6.773356793411153,0.5610190546247755,-0.06626492667591743,296.41150567381044,12.798164386686176,0.0,1.0,0.0,0.0,1.0,Taxi
33.4,0.028202868637410408,30.606298868165226,8.2528442357704,0.8632414491357939,-0.05085936687494058,296.5305990716337,13.297729229765988,0.0,1.0,0.0,0.0,1.0,Taxi
33.5,0.11293690555921283,-30.10355300052575,8.718729470451947,1.007592879875742,0.6059897538165255,296.5146992334968,12.327021378559818,0.0,1.0,0.0,0.0,1.0,Taxi
33.6,-0.1095890057853296,-1.6256814647585003,8.230300281143032,1.1013663124467867,-0.2846114413592132,296.51420237656953,12.514478581585914,0.0,1.0,0.0,0.0,1.0,Taxi
33.7,0.020074461313617877,2.599202888819754,8.91085549391261,0.7507553319986587,0.36325236690485585,296.49700277913075,12.648349203870312,0.0,1.0,0.0,0.0,1.0,Taxi
33.800000000000004,0.12593292000331155,18.645212830815254,9.67916292167267,1.0034910947442564,0.21991242959420615,296.52789132288603,13.520195497308817,0.0,1.0,0.0,0.0,1.0,Taxi
33.9,-0.016362941631253385,-0.7349807753201709,7.8422759329398115,1.1777341678194244,-0.308685956250421,296.4064040591925,13.495255205039589,0.0,1.0,0.0,0.0,1.0,Taxi
34.0,0.01639955743701695,-54.43469740814015,8.662612744342123,0.8323500807092075,0.5302512544836363,296.51650315743393,12.999385976115176,0.0,1.0,0.0,0.0,1.0,Taxi
34.1,-0.1462405670373893,-5.846307861353762,8.044967719513009,0.9111515220790929,-0.4815935636872837,296.5996075456741,12.55449202257282,0.0,1.0,0.0,0.0,1.0,Taxi
34.2,-0.045594480938022215,-1.0429370486005236,7.185787696815024,0.6209361105786501,-0.4121959041535931,296.4208676401056,12.961872802410106,0.0,1.0,0.0,0.0,1.0,Taxi
34.300000000000004,0.01118487219401432,6.964425692516291,8.121155652869684,0.5184802422936452,-0.2698119359910904,296.58848867276663,13.749330942082139,0.0,1.0,0.0,0.0,1.0,Taxi
34.4,-0.11141843857480788,17.76324861970519,8.967273932076576,0.9084120971783357,-0.4950687678224997,296.6187346709348,12.79564665803287,0.0,1.0,0.0,0.0,1.0,Taxi
34.5,0.04322176216050373,-2.822009839423752,9.73889339858575,0.5655293477524563,-0.44594683480311076,296.30797167687706,12.640698501598768,0.0,1.0,0.0,0.0,1.0,Taxi
34.6,-0.002925177003104454,7.301346516311971,7.194043352368529,0.5250716085091611,0.6962112092727113,296.3691467271283,12.648078160301598,0.0,1.0,0.0,0.0,1.0,Taxi
34.7,-0.07491170599324802,15.353134112140092,8.49405628200631,0.7980680566250499,0.0078840030974888,296.39550438240144,13.483579848882762,0.0,1.0,0.0,0.0,1.0,Taxi
34.800000000000004,0.11998743272120418,23.56240809314356,7.34852944036543,0.6716598853372429,-0.7878525994596067,296.3350065375496,13.497944456372473,0.0,1.0,0.0,0.0,1.0,Taxi
34.9,0.11488686346261333,-3.10001088201741,9.25456434230434,0.8389752391969821,0.21701168003269714,296.58773557235475,13.434047162812648,0.0,1.0,0.0,0.0,1.0,Taxi
35.0,-0.0904117604033351,-30.91453359928981,9.21082546331037,0.6182995710857806,0.6599918227011516,296.69288259539667,12.728018356561524,0.0,1.0,0.0,0.0,1.0,Taxi
35.1,-0.034585235275244895,-6.921146332133181,9.118413029033675,0.8993682449616796,0.3288019387064733,296.80125533956675,13.09334245921782,0.0,1.0,0.0,0.0,1.0,Taxi
35.2,0.0802811318019474,66.05292179892105,7.771346626793873,0.8197145726191996,0.6784699506760818,296.50949874289927,12.047312634705133,0.0,1.0,0.0,0.0,1.0,Taxi
35.300000000000004,0.2398528485912701,7.304268664934682,8.302936740582913,0.9054461485994979,0.1175022454130976,296.4619643959095,12.353200170510243,0.0,1.0,0.0,0.0,1.0,Taxi
35.4,0.0019361080494284773,-20.70045009227214,8.171290211644274,0.8405747097861678,0.4612773309390166,296.39506493253407,12.717217146220483,0.0,1.0,0.0,0.0,1.0,Taxi
35.5,-0.02322111865941333,-24.51794676669743,7.884975778256807,0.771059200971641,-0.24687986165255058,296.3978759661443,12.205308276226807,0.0,1.0,0.0,0.0,1.0,Taxi
