time_s,altitude_ft,vertical_speed_fpm,ias_kt,pitch_deg,roll_deg,heading_deg,throttle_pct,afterburner_on,gear_down,flaps_deg,speedbrake_pct,weight_on_wheels,label
0.0,-0.07080234336107845,14.040124204661275,9.392011399216539,-0.29009053083942077,-0.8368950022074105,0.7589463929338081,12.773428429506561,0.0,1.0,0.0,0.0,1.0,Taxi
0.1,-0.02400192934554087,-4.173170735584731,8.734822269259263,-0.4787778332520335,0.7564150581505138,0.3752260044079776,12.52098483299126,0.0,1.0,0.0,0.0,1.0,Taxi
0.2,-0.0916681970390021,27.941010187464457,8.898099160844355,-0.43413789625024546,-0.9846308883247344,0.43057399385025974,11.360197376952442,0.0,1.0,0.0,0.0,1.0,Taxi
0.30000000000000004,0.06890270757624381,-5.150350046972496,9.049116646530292,-0.7522199822271014,0.28934398159142405,0.6750563112183272,12.266337322256067,0.0,1.0,0.0,0.0,1.0,Taxi
0.4,-0.04975367958040333,-4.223791119532073,9.117408131035294,-0.3626091289948944,-0.3344561913346588,0.4607288055455001,12.734115648990668,0.0,1.0,0.0,0.0,1.0,Taxi
0.5,-0.11278715263666246,13.292889293424329,8.232922510819044,-0.5482161411072513,0.5020190331103994,0.5247888419652327,12.381103038076988,0.0,1.0,0.0,0.0,1.0,Taxi
0.6000000000000001,0.13536715404336547,20.596419593253277,8.897153622082632,-0.5970351844690679,0.21051311188113356,0.5596001740136103,12.431551452215118,0.0,1.0,0.0,0.0,1.0,Taxi
0.7000000000000001,0.05322841838586302,32.46334943967653,9.085542492017511,-0.6092141680722686,0.48372765317788496,0.6156446257077732,11.8480941024054,0.0,1.0,0.0,0.0,1.0,Taxi
0.8,0.04952959456172012,-39.65548254154239,7.637644401717582,-0.33276834906451336,-0.35594013878160086,0.49489524388417294,12.19406548200003,0.0,1.0,0.0,0.0,1.0,Taxi
0.9,-0.06291025866434649,-13.037178761518897,9.07902745736028,-0.3632569668115403,0.7379311504144056,0.4671984741439701,12.974744133726865,0.0,1.0,0.0,0.0,1.0,Taxi
1.0,-0.011957475421731463,15.51621308738848,8.042555683962144,-0.5779938230474344,0.03783650352472202,0.5811889876066516,12.033611479064618,0.0,1.0,0.0,0.0,1.0,Taxi
1.1,0.12711065999866253,-3.6149081656937483,8.93066317883586,-0.5034237512573467,-0.15989618808132314,0.5814319534192691,12.669739364853822,0.0,1.0,0.0,0.0,1.0,Taxi
1.2000000000000002,-0.08098479949281523,-10.251486477790715,9.162410686842621,-0.7425820248949937,-0.223456481589565,0.5634000599457636,12.722325045429452,0.0,1.0,0.0,0.0,1.0,Taxi
1.3,-0.06321490781068505,18.994559032107635,8.635116232780765,-0.9121265992880865,0.8153728431265354,0.5333301953543241,12.428111972702393,0.0,1.0,0.0,0.0,1.0,Taxi
1.4000000000000001,0.22208345515920064,11.071524361176452,7.360808810294824,-0.41663164162559535,0.00435750459274327,0.3903097215185767,11.527986842016196,0.0,1.0,0.0,0.0,1.0,Taxi
1.5,-0.02562717768693303,43.011984819785845,8.329935887472264,-0.45395773049942073,0.6355603997966941,0.572468152444003,11.880741117234917,0.0,1.0,0.0,0.0,1.0,Taxi
1.6,0.1518450162882441,-49.00654252303381,8.543474525729655,-0.6749712272059936,0.20349210324873418,0.6716261390851059,11.854661413021248,0.0,1.0,0.0,0.0,1.0,Taxi
1.7000000000000002,-0.022949257455968472,-4.97098086568608,7.898137478752007,-0.7138977170936036,0.26069856952087633,0.5708468410823002,12.656777118008607,0.0,1.0,0.0,0.0,1.0,Taxi
1.8,-0.050482082015363465,-66.89204655873893,8.001565400014485,-0.6474623215312305,0.7889027556702112,0.7979915255974106,12.43642672864165,0.0,1.0,0.0,0.0,1.0,Taxi
1.9000000000000001,-0.18261521650545054,32.25621111450337,7.309461312147446,-0.6935496085485857,-0.15090129895112764,0.6804509119484123,11.64419450104323,0.0,1.0,0.0,0.0,1.0,Taxi
2.0,0.13833179811654836,-12.199823282349834,8.87092718640101,-0.6918341803776403,-0.507243416004266,0.5890790564985764,12.882585967933833,0.0,1.0,0.0,0.0,1.0,Taxi
2.1,-0.11148119842711268,25.532830060552186,8.263541555854767,-0.3873366455302607,0.6050289855269761,0.7699038515475536,11.381841417454341,0.0,1.0,0.0,0.0,1.0,Taxi
2.2,-0.054951066202689684,-25.492090043974557,7.890384453420171,-0.42386804846150605,0.5587529437067439,0.6487850375365838,12.477281614400974,0.0,1.0,0.0,0.0,1.0,Taxi
2.3000000000000003,0.01087134789667555,25.46587734270328,8.034303551856823,-0.7323155819440706,0.6456798992081682,0.5702529559820277,12.429175203210407,0.0,1.0,0.0,0.0,1.0,Taxi
2.4000000000000004,0.015848188286403705,12.818822013030674,7.271811934380533,-0.8297679237217184,-0.2130726795691075,0.6201797657352017,12.14832302994957,0.0,1.0,0.0,0.0,1.0,Taxi
2.5,0.009143043862463687,9.009416397885436,7.663597522337834,-0.6962266683965912,0.41379736347513246,0.4867347924237606,12.10262464271771,0.0,1.0,0.0,0.0,1.0,Taxi
2.6,0.05591842988610273,23.777496065150476,8.45051992746216,-0.8035898893730474,0.3816559812063494,0.6764412931676134,12.420152873124376,0.0,1.0,0.0,0.0,1.0,Taxi
2.7,0.1347356686121561,5.26638487114608,9.251146569647785,-0.5138707558313319,-0.6019115717571294,0.46726604040372877,13.08250570651856,0.0,1.0,0.0,0.0,1.0,Taxi
2.8000000000000003,0.03547496821819411,-15.085313832591325,9.070086255003714,-0.7830315853348934,-0.2304015196329572,0.6391462456852537,12.257568636925773,0.0,1.0,0.0,0.0,1.0,Taxi
2.9000000000000004,-0.019508139276853867,-26.495174185924537,7.768965665176657,-0.556976431203918,0.3968071802045932,0.6296524732655939,12.80871089522461,0.0,1.0,0.0,0.0,1.0,Taxi
3.0,0.0022597976825334534,2.6707254284455737,8.612583003947018,-0.9125628450080985,0.6906555158973663,0.8255966639133021,12.370452315058802,0.0,1.0,0.0,0.0,1.0,Taxi
3.1,0.048828595360422,-28.48850689446328,8.504966235592002,-0.019075254750215653,-0.3025535116441729,0.6240416966010685,12.837034348644726,0.0,1.0,0.0,0.0,1.0,Taxi
3.2,-0.16195067374917024,7.214153140308777,8.597443475851103,-0.37903857344155406,-0.250046978727587,0.4505938330556205,11.676276143337635,0.0,1.0,0.0,0.0,1.0,Taxi
3.3000000000000003,0.038330563384077324,-9.650112126859502,7.719869409481712,-0.8407003805969769,0.03748365543490776,0.606052732868136,12.6855913184507,0.0,1.0,0.0,0.0,1.0,Taxi
3.4000000000000004,0.0005780347261244794,27.072979982486956,8.513494588154929,-0.9157746893633529,-0.20448090521405776,0.6503478327555854,12.47409315017376,0.0,1.0,0.0,0.0,1.0,Taxi
3.5,-0.026585773836735483,-5.708333237090354,9.092461148532642,-0.7038195047913016,-0.3534305717750885,0.4628628255737226,13.170831501728664,0.0,1.0,0.0,0.0,1.0,Taxi
3.6,0.009788897198625562,-21.47651383217661,7.822277058245701,-0.2450654226214266,-0.0185896310866149,0.6734075905798704,12.496805718164238,0.0,1.0,0.0,0.0,1.0,Taxi
3.7,-0.10680453443475857,9.464996921569957,9.120692838523356,-0.6258679850958426,0.1651426018396646,0.543475737661538,12.67612879256558,0.0,1.0,0.0,0.0,1.0,Taxi
3.8000000000000003,0.02073921077111432,33.77668349751007,8.801595333841972,-0.6687666379728957,0.1797924268641156,0.41338766201954513,12.567448785755111,0.0,1.0,0.0,0.0,1.0,Taxi
3.9000000000000004,0.17867231468617595,14.449326003873034,8.532850808861498,-0.4925125296644356,0.9034900368503421,0.5020421834054218,12.17109398094214,0.0,1.0,0.0,0.0,1.0,Taxi
4.0,-0.03455790441539336,-13.592817385819247,8.890047141365523,-0.7121776155619997,0.30400256308238144,0.358066924829302,12.138746856849377,0.0,1.0,0.0,0.0,1.0,Taxi
4.1000000000000005,-0.04722487615798189,-29.19168184749638,8.855022970312504,-0.6808912911181275,-0.1920703645724593,0.9788470424996945,11.71589284258236,0.0,1.0,0.0,0.0,1.0,Taxi
4.2,0.03271390544869409,9.116114957360274,8.821305795058194,-0.562668790014485,-0.5079025423147852,0.4307380055427643,12.3778270462039,0.0,1.0,0.0,0.0,1.0,Taxi
4.3,0.011022670371408022,36.37802065898112,7.9243411565223125,-0.6996113372640556,0.5481364689021992,0.595887961134622,12.628112325561174,0.0,1.0,0.0,0.0,1.0,Taxi
4.4,0.13466522713692375,-2.9402823793815878,9.647632945830303,-0.622723416754617,0.06720293797717795,0.6738239516726594,11.870226105267665,0.0,1.0,0.0,0.0,1.0,Taxi
4.5,0.018012493551786166,-18.619456185427435,9.194397413247332,-0.5544554879176461,-0.024361053760474954,0.7209683120039472,11.583366233619193,0.0,1.0,0.0,0.0,1.0,Taxi
4.6000000000000005,-0.08207461055572912,-75.57059933466859,8.148416483031593,-0.3163443784431015,-0.7416395532673384,0.792130491944647,12.90087469641181,0.0,1.0,0.0,0.0,1.0,Taxi
4.7,-0.24318776953641913,-7.062417359761298,9.241984743737332,-0.7045507409838752,0.14255619209557938,0.6769333025346214,12.205331200709857,0.0,1.0,0.0,0.0,1.0,Taxi
4.800000000000001,-0.017299593247020274,0.29221656085802294,7.992768237017074,-0.27067192275895824,-0.667783515315881,0.5590921449351072,12.444538464682344,0.0,1.0,0.0,0.0,1.0,Taxi
4.9,-0.08061352775143893,63.577753771222916,8.638359113336014,-0.1439355356278308,0.3081875591219051,0.61230388469221,12.643196508943493,0.0,1.0,0.0,0.0,1.0,Taxi
5.0,0.07470099931969551,0.9092938712501019,8.850349779137417,-0.5167776143670257,-0.7729304217372543,0.6409323010185517,12.155275901151427,0.0,1.0,0.0,0.0,1.0,Taxi
5.1000000000000005,-0.012753123890769725,24.216083267139965,8.963145098636808,-0.6182869154881856,-0.3562296094518198,0.7569261364438944,12.145823407589866,0.0,1.0,0.0,0.0,1.0,Taxi
5.2,0.04046688858426092,-26.492124350075738,7.389499243735402,-0.41575066179363795,-0.28466447530214317,0.6360151758221377,12.355120563635664,0.0,1.0,0.0,0.0,1.0,Taxi
5.300000000000001,-0.05775962243068314,0.32210018988697914,8.830644557582726,-0.639131095471548,0.5348518347758934,0.2651035622513973,12.714850529749286,0.0,1.0,0.0,0.0,1.0,Taxi
5.4,-0.011142622941334798,-22.88451807310813,8.6712117905677,-0.8110715228410896,-1.0463526162089052,0.7136338770860675,11.892896800486703,0.0,1.0,0.0,0.0,1.0,Taxi
5.5,-0.0739557017812797,22.21154327334527,9.101524663528998,-0.5292173935622464,-0.42270538266070734,0.626419816810369,12.230167782241507,0.0,1.0,0.0,0.0,1.0,Taxi
5.6000000000000005,0.05329809393604325,-1.982535290045104,8.117065802664913,-0.39734037243722187,0.6410619508063773,0.5959113382142505,12.245040433586873,0.0,1.0,0.0,0.0,1.0,Taxi
5.7,-0.021055299391560287,56.156954555238855,8.006958388335548,-0.46280262259791727,-0.09267801394188584,0.6573212856342252,11.659653431927772,0.0,1.0,0.0,0.0,1.0,Taxi
5.800000000000001,0.2068290709949146,-22.65892286306767,8.221370557678583,-0.4413765338888188,-0.13965944614328182,0.49535718868065715,12.337676988091467,0.0,1.0,0.0,0.0,1.0,Taxi
5.9,-0.05999652037929503,29.22834522563279,9.136393377100976,-0.680624100854095,-0.09637700560260878,0.453027094281822,12.061923550666641,0.0,1.0,0.0,0.0,1.0,Taxi
6.0,0.12508642673660372,-62.8001234420338,8.451926066181892,-0.6050196302283565,0.34398032301196063,0.703242422904907,12.554772437287761,0.0,1.0,0.0,0.0,1.0,Taxi
6.1000000000000005,-0.10717154621525433,7.113388879467983,8.366961761875567,-0.7556497554691848,0.3850293458046568,0.4941828974118039,13.23809855546425,0.0,1.0,0.0,0.0,1.0,Taxi
6.2,-0.024429575981955068,-33.007677012212305,8.26574206635322,-0.2968993000554403,0.33008023173817047,0.6435888902838656,11.814449972397949,0.0,1.0,0.0,0.0,1.0,Taxi
6.300000000000001,-0.039951958324457755,29.555186703430454,8.621493820684528,-0.36206405129896746,0.2560043872099687,0.45810208701954025,13.326800324249897,0.0,1.0,0.0,0.0,1.0,Taxi
6.4,0.040604387301898,45.76156255732761,8.44714540696053,-0.6716304898886866,-0.20518669022459046,0.4140496224541721,13.275734455168127,0.0,1.0,0.0,0.0,1.0,Taxi
6.5,0.20437823680468303,21.2370268705716,9.640904642328818,-0.6559693081218018,-0.39838841918182794,0.5344355515920256,12.606705698470229,0.0,1.0,0.0,0.0,1.0,Taxi
6.6000000000000005,0.06623317602840031,6.104650876608836,9.627121673963579,-0.46422794220528335,1.298258314281638,0.6512847913268729,12.235361604973878,0.0,1.0,0.0,0.0,1.0,Taxi
6.7,0.0711276416849422,-29.681978102347987,9.176673384311385,-0.7916653398390989,-0.2507818964707351,0.6941481050463381,12.004517943515854,0.0,1.0,0.0,0.0,1.0,Taxi
6.800000000000001,0.055968346292943144,-2.063477549065449,8.41757486183959,-0.6415911131903684,-0.11373405988661141,0.62608658973096,12.321668343158933,0.0,1.0,0.0,0.0,1.0,Taxi
6.9,0.0559157882830731,-35.549183615344596,8.650510139246899,-0.5974106444031565,0.8511506635402505,0.4820979540047574,12.682285356186341,0.0,1.0,0.0,0.0,1.0,Taxi
7.0,-0.10661827639178077,-11.91545063192541,8.722453095025335,-0.5891150914645378,-0.3164498233573791,0.6047349638641322,11.62837111697299,0.0,1.0,0.0,0.0,1.0,Taxi
7.1000000000000005,-0.003608906866683906,-1.5707008020862088,8.348369092406873,-0.2699857754861014,0.11169779492438257,0.603246598509827,11.265120202588939,0.0,1.0,0.0,0.0,1.0,Taxi
7.2,0.04806228427264206,-14.063279352392726,8.509064633806338,-0.47290417753718766,0.41549244444746647,0.6609094653021543,11.986457956582521,0.0,1.0,0.0,0.0,1.0,Taxi
7.300000000000001,-0.1769346731537444,-14.14960215258965,8.716902832635261,-0.25425971285115007,0.13861366954305232,0.7414794148010628,13.051791990104983,0.0,1.0,0.0,0.0,1.0,Taxi
7.4,-0.07435691762963213,25.881830509826145,8.506725914341075,-0.6815744323618642,1.1087203168478619,0.6970627878972095,12.595765161164167,0.0,1.0,0.0,0.0,1.0,Taxi
7.5,0.1774714368217728,31.409275960078165,9.00105876404156,-0.7914202371070228,-0.2288356456409206,0.4123547795144873,12.584357814639855,0.0,1.0,0.0,0.0,1.0,Taxi
7.6000000000000005,-0.01988829335335353,29.588455449078015,7.177752599402861,-0.7613288657844198,0.15480191551072353,0.5093647574998386,11.512638440826397,0.0,1.0,0.0,0.0,1.0,Taxi
7.7,0.07358535961575799,-4.938423677410107,9.1825288433752,-0.7258263901644102,0.13150167691226236,0.6933063494407747,12.28820896651893,0.0,1.0,0.0,0.0,1.0,Taxi
7.800000000000001,0.15277931843472228,1.8936056144325306,7.730329274544397,-0.6698994007462143,-0.2170017158726681,0.5616761311843561,13.087333296315284,0.0,1.0,0.0,0.0,1.0,Taxi
7.9,-0.01042026528119086,7.223536885538347,8.47076587942733,-0.5310163290165082,-0.007280941032513237,0.7664489253963893,11.936762630552217,0.0,1.0,0.0,0.0,1.0,Taxi
8.0,0.10970304404344977,-52.54966109781407,7.922592956934809,-0.41980552460966003,-0.6738901062994779,0.5846891177904467,12.15250797207224,0.0,1.0,0.0,0.0,1.0,Taxi
8.1,-0.10996898705434799,-4.342249462653086,8.777658688564856,-0.35850629333321243,-0.4938149197735492,0.5483215642706227,12.634304293671924,0.0,1.0,0.0,0.0,1.0,Taxi
8.200000000000001,-0.03213151259445623,-44.5275617578697,8.41033673574242,-0.9007940204205898,-0.37420112750473195,0.8187715842590819,11.631287120018385,0.0,1.0,0.0,0.0,1.0,Taxi
8.3,-0.11293476474589864,35.99849646001198,8.561601556317584,-0.6996997808614328,-0.7187878374445099,0.5199188702352444,11.533050964747623,0.0,1.0,0.0,0.0,1.0,Taxi
8.4,0.07002349524571201,11.054286268778023,8.994076951791953,-0.4719099699876155,-0.10328098177750425,0.5365192878617222,12.187970115782559,0.0,1.0,0.0,0.0,1.0,Taxi
8.5,0.023139918749433996,-8.634648061476218,8.285551858462401,-0.6979092200275191,0.5801852580367037,0.6934815243257049,12.875747071629903,0.0,1.0,0.0,0.0,1.0,Taxi
8.6,-0.15610800505327965,-51.81300656346888,9.320446876136955,-0.5362035019057712,-0.7698204133809736,0.7332792443469884,12.232847660834265,0.0,1.0,0.0,0.0,1.0,Taxi
8.700000000000001,-0.1890415375716323,-29.746993090965642,8.375408296548494,-1.0317244040515852,0.2637233940568591,0.6350040269198303,11.31840959771353,0.0,1.0,0.0,0.0,1.0,Taxi
8.8,-0.12559504670539415,10.770964686080097,7.8498842823903425,-0.46595871459854726,0.44313965947743156,0.5726646771968262,12.07354232336781,0.0,1.0,0.0,0.0,1.0,Taxi
8.9,-0.1022531816228791,32.768953957380745,8.741389352405482,-0.5118145685108141,0.04613134462021892,0.4569899939285733,12.55620094592912,0.0,1.0,0.0,0.0,1.0,Taxi
9.0,-0.025196767784728503,53.107121672373296,8.550350697754736,-0.8638211601044883,0.13211292860911317,0.5813921022423187,12.132228376522772,0.0,1.0,0.0,0.0,1.0,Taxi
9.1,0.13994056165647237,7.827539179409499,8.953285129284593,-0.5939691703452278,-0.7647985769940887,0.5188292044215359,12.518899244794396,0.0,1.0,0.0,0.0,1.0,Taxi
9.200000000000001,-0.06311548572583152,4.811013119959687,8.797795825343291,-0.4838992469261472,-0.039225254439053545,0.46978157464064907,11.972030247227897,0.0,1.0,0.0,0.0,1.0,Taxi
9.3,-0.0011417021849299846,-10.360518488026358,8.96616160162406,-0.7491332530482061,0.10839100588525562,0.683671884667433,12.587400118378273,0.0,1.0,0.0,0.0,1.0,Taxi
9.4,0.08813796921634068,-14.44974658050719,8.608230860140935,-0.7142624537106418,0.8135813818510854,0.6735499000893697,12.446661742163851,0.0,1.0,0.0,0.0,1.0,Taxi
9.5,-0.1353642186283674,-2.984140504971345,8.525791776977673,-0.3482789569711874,0.17758402566968423,0.6191432873420695,11.254778507266076,0.0,1.0,0.0,0.0,1.0,Taxi
9.600000000000001,-0.01606240470978663,-5.573792385985179,9.181563085858134,-0.8241613254403273,-0.06721371936277547,0.8074842201160664,12.186480319665263,0.0,1.0,0.0,0.0,1.0,Taxi
9.700000000000001,0.06026900728641485,14.339599755141672,8.572547333107961,-0.7953314675986032,-0.1635627475396613,0.4923996411675944,12.478308414653354,0.0,1.0,0.0,0.0,1.0,Taxi
9.8,-0.06366621985265897,29.42918566231546,9.370772883566444,-0.5344682838640781,0.43873350473968875,0.46213636982542994,12.792218522610646,0.0,1.0,0.0,0.0,1.0,Taxi
9.9,0.13108352360179076,-45.98893551316737,8.718235410308464,-0.4127018123369167,-0.4212526292457928,0.47249166678500387,12.88006619275584,0.0,1.0,0.0,0.0,1.0,Taxi
10.0,-0.16967567027942193,29.287826493298244,8.80555496776141,-0.8041808350334317,0.5033108808793773,0.5685544176806161,12.750581292498312,0.0,1.0,0.0,0.0,1.0,Taxi
10.100000000000001,0.08277291261383234,-17.66788053616739,8.493601566760484,-0.4951258453964871,0.19419750096409832,0.5732518461728091,12.756152692313197,0.0,1.0,0.0,0.0,1.0,Taxi
10.200000000000001,0.04274412092095388,42.63192976676217,8.04349934668859,-0.47171637979591985,1.1694915634534522,0.4847189467396902,12.48814304601831,0.0,1.0,0.0,0.0,1.0,Taxi
10.3,0.04348397855438899,-4.179972172166764,6.770920755139399,-0.4812899905555222,0.24826355758940205,0.43769032167892874,11.774307720950109,0.0,1.0,0.0,0.0,1.0,Taxi
10.4,0.06187305175299862,9.544732519979078,9.670273019415765,-0.7352514002808395,-0.3335630161297399,0.5445923156127606,12.041735242007242,0.0,1.0,0.0,0.0,1.0,Taxi
10.5,0.09046778352084937,8.66976991099399,8.372085612255955,-0.49256763694679667,-0.1483188527315553,0.4806742855042785,11.66895959709839,0.0,1.0,0.0,0.0,1.0,Taxi
10.600000000000001,0.08683282810935905,-29.815614192280197,9.337718103042842,-0.7052776877294464,-0.19536634170464104,0.6905675646498821,13.628046928381067,0.0,1.0,0.0,0.0,1.0,Taxi
10.700000000000001,-0.0872050192084023,-16.31096722091378,8.114244727918202,-0.32435437014058344,-0.02909342426916487,0.669519201516664,12.768824093230977,0.0,1.0,0.0,0.0,1.0,Taxi
10.8,0.008912947416280521,-18.411237894631657,8.215224220835216,-0.6873733975623083,1.0867521184524664,0.5935623529950362,12.559798389331213,0.0,1.0,0.0,0.0,1.0,Taxi
10.9,-0.005223361363799195,25.79952291228518,8.50938044709664,-0.5289691610209776,-0.3937973553594551,0.710523981930578,11.902660233098574,0.0,1.0,0.0,0.0,1.0,Taxi
11.0,0.041792595353023675,-9.338589046091178,8.298781630046426,-0.6775806073430946,-0.40926433451965755,0.4881546723346446,12.29210463508173,0.0,1.0,0.0,0.0,1.0,Taxi
11.100000000000001,-0.03777999781417528,-8.407932677466913,8.955594582039563,-0.4389278892967374,0.3288944243772131,0.7050029779998681,12.172661976760212,0.0,1.0,0.0,0.0,1.0,Taxi
11.200000000000001,-0.04726302475113368,8.190078803011978,8.541381327012731,-0.6674727815295105,-0.31736092878923605,0.6643122061930171,11.402281919972957,0.0,1.0,0.0,0.0,1.0,Taxi
11.3,0.08274298936808365,-11.793975766084637,9.111010121956637,-0.18156344787393158,0.3397202231867993,0.49587822897768774,12.094845803804503,0.0,1.0,0.0,0.0,1.0,Taxi
11.4,-0.09674987664459839,37.948349946255384,8.565901521735238,-0.633930187848007,-0.27092646188407576,0.6711415038644191,12.390354286794562,0.0,1.0,0.0,0.0,1.0,Taxi
11.5,0.14247872498014333,-27.005315604381085,7.646277634160364,-0.4745765543274404,0.6897921951492114,0.43778086370872416,12.125435778039733,0.0,1.0,0.0,0.0,1.0,Taxi
11.600000000000001,-0.05228358865382168,5.8678960796234305,7.759170190110461,-0.5492775252681101,-0.6681027818505497,0.3962913571539275,12.826169429805017,0.0,1.0,0.0,0.0,1.0,Taxi
11.700000000000001,-0.06741039624648114,-18.288301557722917,8.729738285596605,-0.24566115145761203,0.14592507645148292,0.5554009791018757,12.741536335475772,0.0,1.0,0.0,0.0,1.0,Taxi
11.8,0.05103721719152883,34.63711077712386,9.014757545529333,-0.4671156621501793,-0.6281902291091633,0.5706474165137934,12.567271373201342,0.0,1.0,0.0,0.0,1.0,Taxi
11.9,0.12090196523179769,-1.2724118699506164,8.517493554345537,-0.4299729576995811,0.6851081602784914,0.680215134709556,12.332648946828469,0.0,1.0,0.0,0.0,1.0,Taxi
12.0,-0.07377245559623412,-38.18952755648016,7.446073373543547,-0.9306830322446933,0.041909049518489526,0.6358305804558881,13.135095624864393,0.0,1.0,0.0,0.0,1.0,Taxi
12.100000000000001,-0.13991042059087186,10.68405962416663,8.347759011639402,-0.860586699086846,-0.929416830826261,0.6000689140162194,11.971541050345966,0.0,1.0,0.0,0.0,1.0,Taxi
12.200000000000001,0.1743222633526309,20.03665405849374,8.430848307997485,-0.6795973905407723,0.26043892947461894,0.7220983675128423,11.682029258961219,0.0,1.0,0.0,0.0,1.0,Taxi
12.3,0.026410814696234658,14.587601404031801,8.733498259049842,-0.32201242731850643,-0.23657071883326541,0.5938366213799213,11.600489886558893,0.0,1.0,0.0,0.0,1.0,Taxi
12.4,-0.06697241357071276,-56.23294968371684,9.06561109322813,-0.6284290812753166,0.05300515026387667,0.6216526512380369,12.275415199133144,0.0,1.0,0.0,0.0,1.0,Taxi
12.5,-0.10684248506595316,-18.19586048974403,8.69983048398623,-0.38405233624744367,-0.05265623161500152,0.6548402268971927,12.287881380099618,0.0,1.0,0.0,0.0,1.0,Taxi
12.600000000000001,-0.0645684877524854,40.76625826953287,8.64266284245939,-0.34037661521048723,1.0562002559231514,0.5230347296048876,12.773137647946879,0.0,1.0,0.0,0.0,1.0,Taxi
12.700000000000001,0.1368588777769517,45.821567938390125,7.588028331509437,-0.743980578594708,-0.28018008250419935,0.6418066498130202,12.377326885042512,0.0,1.0,0.0,0.0,1.0,Taxi
12.8,0.12226535462599751,20.091175602378947,7.4596165653539135,-0.5647381370653212,1.0083441753318227,0.6309029314469967,12.067606336613606,0.0,1.0,0.0,0.0,1.0,Taxi
12.9,0.03588739025940942,0.6726852466332526,8.975990033423702,-0.31962790656832185,-0.34274352339072955,0.5551921992243365,12.842464024260673,0.0,1.0,0.0,0.0,1.0,Taxi
13.0,0.14022230401011804,12.410131733221212,8.445888975148224,-0.5941325582152601,0.35899746776342634,0.5105315425000185,12.996426853378104,0.0,1.0,0.0,0.0,1.0,Taxi
13.100000000000001,0.18431601329210365,-1.3104506513501188,9.033843656147498,-0.6874731624163417,-0.20116580813283033,0.4620267561583091,13.034723425875857,0.0,1.0,0.0,0.0,1.0,Taxi
13.200000000000001,0.029335137002658898,12.003305978420855,8.995165190689704,-0.42148570713022837,-0.318740347659059,0.543300849385048,11.582348683997202,0.0,1.0,0.0,0.0,1.0,Taxi
13.3,0.20023883390222236,-51.39414056263046,8.21819195692042,-0.5980114874118336,0.9723863779364773,0.565064758441622,12.52588873759947,0.0,1.0,0.0,0.0,1.0,Taxi
13.4,-0.07265468952104859,-19.287933042020704,7.793949205227562,-0.5395587668315142,0.8087521057625418,0.6232142418963917,12.027079976654807,0.0,1.0,0.0,0.0,1.0,Taxi
13.5,-0.06710452820744454,-59.04261001057626,8.290713160476901,-0.8341440274238348,-0.2776972569869205,0.6087326695404727,11.831999561817689,0.0,1.0,0.0,0.0,1.0,Taxi
13.600000000000001,-0.09497421615065887,7.050933861672732,8.254955563916528,-0.4646462084599231,-0.699938554810421,0.7063198135209063,12.045446752215407,0.0,1.0,0.0,0.0,1.0,Taxi
13.700000000000001,-0.03740002021268487,-16.309038518101243,8.257746277828073,-0.7153518156675377,-0.476626863030432,0.4248860991987158,12.745611502496947,0.0,1.0,0.0,0.0,1.0,Taxi
13.8,-0.14864972079795072,49.8011306370409,8.4039424594299,-1.1591332578774747,-0.445401930291811,0.655003354183691,11.986530307284708,0.0,1.0,0.0,0.0,1.0,Taxi
13.9,0.15403143703454564,11.06579344461529,9.612343198535466,-0.4225489798954626,0.0461529961321778,0.6665083906992777,12.181919513952485,0.0,1.0,0.0,0.0,1.0,Taxi
14.0,0.017928947010391574,31.74727652040856,8.226730665088562,-0.7649764192277971,0.8504570910725332,0.594008569568075,12.25974537062077,0.0,1.0,0.0,0.0,1.0,Taxi
14.100000000000001,0.010086661804092102,-73.78192676308929,8.164326490222278,-0.8363658475181925,-0.04844358098915694,0.7204842787399457,12.140613432440302,0.0,1.0,0.0,0.0,1.0,Taxi
14.200000000000001,-0.21487819678090073,2.7892169776498292,8.72608112265635,-0.5067966263345483,0.1346687338146056,0.6640057524866734,12.319434207352634,0.0,1.0,0.0,0.0,1.0,Taxi
14.3,0.0318750318986408,6.261174319286927,7.809082611994353,-0.5188395590842625,0.9680691422716883,0.6319763411967187,11.604403821783812,0.0,1.0,0.0,0.0,1.0,Taxi
14.4,0.041392533400526815,89.22693580986864,8.589959049184392,-0.6398964055244445,-1.2180552698349196,0.5833096445933847,12.720628795985858,0.0,1.0,0.0,0.0,1.0,Taxi
14.5,0.23125648226844256,-4.267518557058878,8.237832744261375,-0.7850426483756606,-0.5250771637650048,0.44414612343251747,11.795013829077032,0.0,1.0,0.0,0.0,1.0,Taxi
14.600000000000001,0.010537439113346448,7.766988761955038,8.092535772987175,-0.37482147879526073,0.16336047905824086,0.5533778031221459,12.572214092961307,0.0,1.0,0.0,0.0,1.0,Taxi
14.700000000000001,0.08022747721030205,-65.8048614670446,8.340269768264333,-0.7291232437838491,0.08407004173750315,0.5332554999354784,12.60708813985931,0.0,1.0,0.0,0.0,1.0,Taxi
14.8,-0.09776782506678043,-21.370029755672295,9.439560258373943,-0.39976134903400207,-0.9372519967887736,0.5479013390483942,12.26350695282936,0.0,1.0,0.0,0.0,1.0,Taxi
14.9,-0.09631270966501498,-27.387525874760126,8.456676779965457,-0.3987143986802919,-0.12270343174002499,0.5207750614716815,12.86900102638986,0.0,1.0,0.0,0.0,1.0,Taxi
15.0,-0.05671015216349854,11.531271169816153,9.261931884204316,-0.5383574103409754,0.6263967257652683,0.4388834536750892,11.439330404959563,0.0,1.0,0.0,0.0,1.0,Taxi
15.100000000000001,-0.04011146921769962,-4.2969622286515685,9.157557914939925,-0.6285897464643578,0.11072499578573353,0.6690992682825367,12.551371578238612,0.0,1.0,0.0,0.0,1.0,Taxi
15.200000000000001,-0.11779752080827277,7.055055413121441,8.028506004972146,-0.5969849178961585,0.08289244110946366,0.6989586320809167,11.670838828268888,0.0,1.0,0.0,0.0,1.0,Taxi
15.3,-0.021434875097891264,-10.059854574887405,7.878287704889446,-0.4362812162798533,-0.6010001865321958,0.562928891363697,13.05087027924136,0.0,1.0,0.0,0.0,1.0,Taxi
15.4,-0.09041074209213658,51.04505833929745,8.384090689284598,-0.4751896050199685,0.6289966535156625,0.43470442358506034,11.958803284590477,0.0,1.0,0.0,0.0,1.0,Taxi
15.5,0.13742777088821456,4.054222827036544,9.745405508518322,-0.34241449514836386,0.025678478224004223,0.5224065297220477,11.79985036905155,0.0,1.0,0.0,0.0,1.0,Taxi
15.600000000000001,-0.0011637609627084752,24.676974790693137,8.606434071448147,-0.7299611702750927,0.7849468375256557,0.680904620521801,11.985155265439422,0.0,1.0,0.0,0.0,1.0,Taxi
15.700000000000001,0.03297413186132918,-21.19333005420083,8.943357523622087,-0.827987782489747,-0.1910365967311765,0.6232398826881536,12.727894308215,0.0,1.0,0.0,0.0,1.0,Taxi
15.8,0.031461120617210465,-2.326428895050596,8.883819920540285,-0.9300298308448498,-1.3311099795063572,0.5935589798944534,11.874397046842144,0.0,1.0,0.0,0.0,1.0,Taxi
15.9,-0.012795905437961407,41.02460411040867,8.905964188473913,-0.5932450885485725,-0.5677770904470925,0.631161532055728,11.377222284409093,0.0,1.0,0.0,0.0,1.0,Taxi
16.0,0.2380971524133725,-18.07025237196469,8.511715385170158,-0.607732892840124,0.6361057329502599,0.5359788208418763,12.484694452290347,0.0,1.0,0.0,0.0,1.0,Taxi
16.1,-0.058890141242612964,-8.782891893408603,7.368249273062437,-0.3041315528899221,-0.5087844003207734,0.5600257291055755,11.911111968520128,0.0,1.0,0.0,0.0,1.0,Taxi
16.2,-0.05671036490500441,-61.44526167938334,9.361942631878845,-0.523494673935299,-0.16078166642152306,0.7143988699980355,11.959739034648793,0.0,1.0,0.0,0.0,1.0,Taxi
16.3,-0.06912915598354413,0.502004426519639,8.383537833605963,-0.7034016810582902,-0.8045142288226741,0.6659034012946563,12.431836345855714,0.0,1.0,0.0,0.0,1.0,Taxi
16.400000000000002,-0.0563801191100147,5.184167979434476,7.639323587090715,-0.9078959645322194,0.30302386164273415,0.41031881634165757,12.186394340078053,0.0,1.0,0.0,0.0,1.0,Taxi
16.5,-0.030789525007831955,43.671050582069455,9.77366781874974,-0.33501225737099216,-0.8373405044584029,0.7053778406759079,12.252400479609825,0.0,1.0,0.0,0.0,1.0,Taxi
16.6,0.1492260969268032,6.163071868144788,7.980554970096101,-0.7818703606633262,0.4148286500524486,0.4995784515347168,12.518961839071082,0.0,1.0,0.0,0.0,1.0,Taxi
16.7,-0.025564759769290686,-4.294772544187151,8.923791474565958,-0.5092486587875151,-0.1785823416441585,0.6758578180234167,12.753845995773647,0.0,1.0,0.0,0.0,1.0,Taxi
16.8,-0.052263387728767645,-36.29437891518544,7.146230727248644,-0.7201430594097737,-0.7378839980715385,0.7868147617841146,12.13726022733905,0.0,1.0,0.0,0.0,1.0,Taxi
16.900000000000002,-0.03224579764912394,32.079005117861726,8.732393437552322,-0.48204489414798557,0.3793844704785939,0.6415653289117813,12.473841893692725,0.0,1.0,0.0,0.0,1.0,Taxi
17.0,0.13483026582001803,20.665526009230167,7.893263378671595,-0.9583273610357838,0.07752347501183453,0.6162787380478676,12.113410795794094,0.0,1.0,0.0,0.0,1.0,Taxi
17.1,0.05106424231738327,46.988939965184365,9.494387979121122,-0.5286112789891527,0.7375616108630947,0.46699567224669636,12.920552377806718,0.0,1.0,0.0,0.0,1.0,Taxi
17.2,0.20269890217679798,-28.05828502326006,7.953811547548622,-0.5062654941753424,-0.027012155647464006,0.6255647414930081,11.832156873688628,0.0,1.0,0.0,0.0,1.0,Taxi
17.3,-0.005461159296282175,-18.133441116260112,9.384100131031303,-0.5456379653325741,-0.5794254510821445,0.6910525598166259,12.618265430148602,0.0,1.0,0.0,0.0,1.0,Taxi
17.400000000000002,-0.03960296326391719,-39.63400143054637,9.51672972939885,-0.5340946556067871,0.629719487198097,0.8154457652810265,11.658292600743549,0.0,1.0,0.0,0.0,1.0,Taxi
17.5,0.004528895024066244,2.6948204056231972,8.6517283934018,-0.1414219473721411,1.010080680436383,0.8566185600570293,12.709021075404479,0.0,1.0,0.0,0.0,1.0,Taxi
17.6,0.008012942731833917,14.272332103314609,8.374965737025883,-0.6591259139202361,0.2984886278056747,0.48628522478321656,12.285182457148995,0.0,1.0,0.0,0.0,1.0,Taxi
17.7,0.03175869725265595,39.072517903636815,9.158950565864304,-0.49899017719739625,0.21142223983328734,0.5515507175076095,12.854963807326225,0.0,1.0,0.0,0.0,1.0,Taxi
17.8,0.19989148454225045,15.234448646638683,8.677080634963138,-0.6649238790583435,0.13616376772375077,0.6609858252460299,12.480215244339988,0.0,1.0,0.0,0.0,1.0,Taxi
17.900000000000002,0.08418518596502744,-34.423713812349405,7.454495590328907,-0.4600043458661991,0.5477531382924504,0.7367251055355268,12.111225719122672,0.0,1.0,0.0,0.0,1.0,Taxi
18.0,-0.14035987180909093,-19.9173438570636,8.452216721871094,-0.12085986548428701,-0.7528739987089565,0.6673011440763048,11.27142364241671,0.0,1.0,0.0,0.0,1.0,Taxi
18.1,0.10030476525693253,-14.588926734479658,8.361996151173479,-0.5142590404933263,0.2598021237492745,0.53246181572149,12.02753509982179,0.0,1.0,0.0,0.0,1.0,Taxi
18.2,0.011240552292629265,25.463766349064915,9.603472705645345,-0.224262434073432,-0.04261452795925564,0.5924473524685823,12.087241075632683,0.0,1.0,0.0,0.0,1.0,Taxi
18.3,-0.013041040063766255,-5.5781864273779105,9.19367089648331,-0.6598183044384865,0.12768421956087328,0.7298303741744121,12.327829214139834,0.0,1.0,0.0,0.0,1.0,Taxi
18.400000000000002,0.07241383312004308,24.54254312270953,8.720396069031981,-0.5859868185755445,-0.5241111644380635,0.6757211443872961,13.207921219585929,0.0,1.0,0.0,0.0,1.0,Taxi
18.5,0.13395326790617704,4.665085713710951,8.470090898098261,-0.6938109587330834,-0.21691617264960766,0.4777083503628319,12.401789219204389,0.0,1.0,0.0,0.0,1.0,Taxi
18.6,0.010284388504788609,-36.44610207779608,9.467664515963207,-0.6732640466247423,-0.2448856784785783,0.5013818033291955,11.660335147080943,0.0,1.0,0.0,0.0,1.0,Taxi
18.7,-0.10981667726893718,-45.88074818043705,8.199696316584552,-0.6603598245261636,0.0002916125314373017,0.6767241471442276,12.259395011100185,0.0,1.0,0.0,0.0,1.0,Taxi
18.8,-0.09545047299600812,18.31183044000829,9.809903352789545,-0.7644743604287415,-0.5410391629679215,0.5146677063638663,12.25157781528614,0.0,1.0,0.0,0.0,1.0,Taxi
18.900000000000002,0.10184354070483013,28.83756051014276,7.502161189199728,-0.6947428881571669,0.5590059767777782,0.5320780325763508,13.106242015294336,0.0,1.0,0.0,0.0,1.0,Taxi
19.0,0.034371125281776695,32.54533840667565,8.40539915764666,-0.7233212183592349,1.0025314482966705,0.48864288401802014,12.486334798556708,0.0,1.0,0.0,0.0,1.0,Taxi
19.1,0.06727621903737019,-14.07711657097146,8.414925160789755,-0.7113459909093673,-0.600465287236274,0.3661054826311556,12.075786218590432,0.0,1.0,0.0,0.0,1.0,Taxi
19.200000000000003,0.031457957849972934,-0.7311079016458834,8.70382351660407,-0.5059409359540841,0.09780856991319958,0.6048545460051855,12.769680257151661,0.0,1.0,0.0,0.0,1.0,Taxi
19.3,0.030715585773547372,-40.287779296994756,8.044839191844927,-0.5992061987754758,0.37747621825877054,0.5736798282109135,12.947222023043889,0.0,1.0,0.0,0.0,1.0,Taxi
19.400000000000002,-0.1341626774476035,-21.535223623184688,8.721264064675095,-0.7061764170857645,-0.5389518285975308,0.5573897707479318,12.547624904720907,0.0,1.0,0.0,0.0,1.0,Taxi
19.5,-0.07621816026595041,7.760936563840417,7.896535980073582,-0.6271536931285039,0.08128118796974308,0.643694666867134,10.72569438192081,0.0,1.0,0.0,0.0,1.0,Taxi
19.6,0.06952026859274955,28.833118713007426,8.551464236508654,-0.23277849141456725,-0.6616145390840674,0.6813552393567761,11.696732397859117,0.0,1.0,0.0,0.0,1.0,Taxi
19.700000000000003,0.010002916117433721,1.1174247244525641,8.881464276167561,-0.5167182234499706,-0.1492936474171222,0.6159035087118241,11.968097906282708,0.0,1.0,0.0,0.0,1.0,Taxi
19.8,-0.07063103664368753,-20.64261711320876,8.236007450949991,-0.5426993845327426,0.14582539964120378,0.5476675752083793,13.359840861457693,0.0,1.0,0.0,0.0,1.0,Taxi
19.900000000000002,-0.033692816973294196,4.324137717152269,8.799761590140935,-0.21044035998367516,0.40799793714037186,0.44494113038422256,11.650494091422173,0.0,1.0,0.0,0.0,1.0,Taxi
20.0,0.031623604703195134,-0.13555244177275463,6.987386725026157,-0.5165105518952051,0.13311523381577153,0.5968874316433812,12.372019566353845,0.0,1.0,0.0,0.0,1.0,Taxi
20.1,-0.07130879885255122,-6.269958532622113,8.640831317129827,-0.41989475212323013,0.2552762346433606,0.6922102398917218,12.330370098277685,0.0,1.0,0.0,0.0,1.0,Taxi
20.200000000000003,-0.06504260963640467,-10.172246497655857,7.758063197042702,-0.5828549102027331,-0.24205448911248872,0.7323228660782206,12.27477840445874,0.0,1.0,0.0,0.0,1.0,Taxi
20.3,-0.01923762778508406,4.5491442441413215,9.556240472232703,-0.4937128637123738,0.27780378616364493,0.5553010566535477,12.122931797608011,0.0,1.0,0.0,0.0,1.0,Taxi
20.400000000000002,-0.04856307763184452,-0.33198929669448357,8.083937697782542,-0.3199916461068223,-0.5667384298778173,0.5128882911490109,12.99601452993228,0.0,1.0,0.0,0.0,1.0,Taxi
20.5,-0.066702556119877,25.75162872296632,8.798433952657756,-0.5729901832736541,-0.079180645121773,0.7067044045090256,12.935637549777933,0.0,1.0,0.0,0.0,1.0,Taxi
20.6,0.1095205158297476,21.29491300452371,8.986602730051473,-0.6666486588630093,-0.1958136385231899,0.610334808294283,11.950364797629005,0.0,1.0,0.0,0.0,1.0,Taxi
20.700000000000003,0.05791148739077408,7.606407170672388,7.529082669723067,-0.5752813804868387,-0.3166530371733462,0.48516073337890475,11.91179901553229,0.0,1.0,0.0,0.0,1.0,Taxi
20.8,-0.02867052026651499,-11.053332591737112,8.42195315324933,-0.5828352688543977,0.9614493238456104,0.6517039664182676,12.816190730078446,0.0,1.0,0.0,0.0,1.0,Taxi
20.900000000000002,0.054253852871062117,-33.21555989276717,8.455886054738095,-0.3920303358340248,-0.09813442455870747,0.5114107476426852,12.747992872889265,0.0,1.0,0.0,0.0,1.0,Taxi
21.0,-0.1081663120730617,9.429124564719691,8.418236329483083,-0.13443046709812168,-0.13121098948731344,0.39460357869961626,12.506442868694132,0.0,1.0,0.0,0.0,1.0,Taxi
21.1,0.018475102557083546,25.75545816426821,9.198843961183405,-0.6542657154233011,-0.0347681754048887,0.513460469228562,13.278153142800166,0.0,1.0,0.0,0.0,1.0,Taxi
21.200000000000003,0.18303114369240325,0.04660725895698192,8.976525599678865,-0.36090930435562263,-0.6503598972027352,0.544048482719063,11.034389499734575,0.0,1.0,0.0,0.0,1.0,Taxi
21.3,-0.1079332757782767,-3.4890187033880316,7.604191983084041,-0.8761756940613503,0.9561922054877943,0.6009174936262411,12.67609455716519,0.0,1.0,0.0,0.0,1.0,Taxi
21.400000000000002,0.0010300090401434783,-75.0424217313489,8.781017496104424,-1.1226140292311584,0.45578856691835945,0.6531963024201559,12.489433384257637,0.0,1.0,0.0,0.0,1.0,Taxi
21.5,-0.19218096496434112,85.03554497288285,8.803365978034497,-0.14645985049720756,0.23168529297754062,0.6895947148397568,13.005612142584551,0.0,1.0,0.0,0.0,1.0,Taxi
21.6,0.31724444908613775,-29.012752175139326,8.134138190365286,-0.4659679541208012,-0.062175367215714816,0.7186884246198701,12.500159145536198,0.0,1.0,0.0,0.0,1.0,Taxi
21.700000000000003,-0.14403375183555298,27.460508671689052,8.768426652325473,-0.33440621091206724,-0.3022464684634682,0.5897803918833233,12.238838383433293,0.0,1.0,0.0,0.0,1.0,Taxi
21.8,-0.05487842160589567,-62.5958154937878,7.52271231116864,-0.7551482907671896,-0.09998009737241376,0.5642076605977309,12.051709664035627,0.0,1.0,0.0,0.0,1.0,Taxi
21.900000000000002,0.004265371617198819,51.51384863989451,9.308273027028754,-0.4777903293374603,-0.8945262408213193,0.5846672411348095,12.372728700116252,0.0,1.0,0.0,0.0,1.0,Taxi
22.0,0.11353549136391974,18.05773686797065,8.391614824585085,-0.8270213826321264,-0.8654565337744942,0.4003461455988031,13.32032081211366,0.0,1.0,0.0,0.0,1.0,Taxi
22.1,0.03541026273395772,9.100333026458285,8.78182692869811,-0.4765982541881868,-0.6527270618405406,0.5590879477031194,12.466177705204078,0.0,1.0,0.0,0.0,1.0,Taxi
22.200000000000003,0.04976703674949038,8.300215523131476,7.8340064034066845,-0.6340541991078579,0.4201852852023974,0.73553414507046,12.053239378351686,0.0,1.0,0.0,0.0,1.0,Taxi
22.3,0.15503656897957724,6.0475308343151655,8.484709178891391,-0.7454871541842669,-0.6523790807000805,0.5174782898997705,12.878758662654125,0.0,1.0,0.0,0.0,1.0,Taxi
22.400000000000002,0.06564791690553368,-8.179880199020166,8.355046800573632,-0.7071800670078529,0.891672656666155,0.5980712128437631,11.827972675622142,0.0,1.0,0.0,0.0,1.0,Taxi
22.5,0.008867635754389681,-23.962570986776566,7.5290282793796575,-0.3841013766022675,-0.6694659187152413,0.5208257159978302,12.705729473383991,0.0,1.0,0.0,0.0,1.0,Taxi
22.6,0.035223714045694535,-0.7241410370838324,8.25641162635467,-0.7256838698720836,-0.1416549778089907,0.698258757106089,12.820020457303185,0.0,1.0,0.0,0.0,1.0,Taxi
22.700000000000003,0.062027211720114654,-4.49653723398544,8.802326727165351,-0.46028958238394396,0.22040531552363157,0.49484532680855864,11.679438983126465,0.0,1.0,0.0,0.0,1.0,Taxi
22.8,-0.013615050415537384,7.125337658480845,7.691690019420622,-0.6420218966546554,-0.2889789935733239,0.7443559176355166,11.903141052440773,0.0,1.0,0.0,0.0,1.0,Taxi
22.900000000000002,0.0708504023380989,-24.50290769783435,8.300144130066366,-0.4667374371757509,-0.6306984134477466,0.656839319565961,12.409938358090184,0.0,1.0,0.0,0.0,1.0,Taxi
23.0,-0.06048732676905697,42.83357652976421,8.061099009901767,-0.538002955387657,0.6483009043160531,0.5421535904117718,12.22195699608432,0.0,1.0,0.0,0.0,1.0,Taxi
23.1,0.20055283223328382,-50.026405912949535,8.005910792924988,-0.8288572604993696,0.48379781963981794,0.5543641882316024,12.755196557739282,0.0,1.0,0.0,0.0,1.0,Taxi
23.200000000000003,-0.17928162722664862,-20.12906716697803,7.655233380041938,-0.625878130839226,0.4159115597737293,0.8239133571009916,12.382980668724668,0.0,1.0,0.0,0.0,1.0,Taxi
23.3,-0.16113266260394696,-66.04972135035885,8.724224149779134,-0.19017390018504898,-0.34737800116479456,0.6969149728577122,12.391222308810558,0.0,1.0,0.0,0.0,1.0,Taxi
23.400000000000002,-0.1296957745185103,20.46400443719111,7.85404542920101,-0.6420837022906972,0.03196727599231738,0.6635426453832451,12.345274406092274,0.0,1.0,0.0,0.0,1.0,Taxi
23.5,-0.07696160504069291,39.097594213336485,7.531456498812313,-0.26606723359873213,-0.8398128222157454,0.544447746013418,11.969839802522937,0.0,1.0,0.0,0.0,1.0,Taxi
23.6,0.034355308462735615,25.610377604519016,8.948516329544145,-0.2553805523203846,-0.2371265855559337,0.5734347962118704,11.621282896529245,0.0,1.0,0.0,0.0,1.0,Taxi
23.700000000000003,-0.0016438864959150937,-17.37482422579305,9.22102248706817,-0.815612975730762,-0.21089822768255528,0.5654033570585284,12.314200381887288,0.0,1.0,0.0,0.0,1.0,Taxi
23.8,-0.163835726169658,-6.538857812029808,8.553927018453527,-0.1900583299026254,1.0941552948384239,0.5898144304467223,12.413405902580324,0.0,1.0,0.0,0.0,1.0,Taxi
23.900000000000002,0.0016610194025867228,12.74720538050587,9.75626608945475,-0.5398721718360487,-0.5831121187605088,0.6387027756376256,13.060273695506936,0.0,1.0,0.0,0.0,1.0,Taxi
24.0,0.06209214040661442,23.030026153172855,8.576037645845819,-0.4218748661489482,0.6044541296507672,0.6056621021545538,12.547253170354557,0.0,1.0,0.0,0.0,1.0,Taxi
24.1,-0.048685595403793566,26.784976123889347,8.5905762956962,-0.5531525062275398,-0.3566136717739425,0.8151431024897988,12.284267678151997,0.0,1.0,0.0,0.0,1.0,Taxi
24.200000000000003,0.1355859000220336,-14.040324707219854,8.78221065785286,-0.669871524244392,0.30193282981329667,0.5050865745795363,12.715651951924595,0.0,1.0,0.0,0.0,1.0,Taxi
24.3,-0.008109483129484701,41.161701602387204,9.435150838050554,-0.26945397360750145,0.20119615065092533,0.37044219367970754,12.678622650897438,0.0,1.0,0.0,0.0,1.0,Taxi
24.400000000000002,0.1571229126081426,-27.112555857450833,8.095635705553663,-0.38847190486612226,0.09108555443872605,0.5518355438377398,12.298882485427306,0.0,1.0,0.0,0.0,1.0,Taxi
24.5,2.3120734779589006e-05,-4.196386175109287,9.672448974003462,-1.003966382560339,0.17800089542736167,0.4584085451861597,13.00433541532124,0.0,1.0,0.0,0.0,1.0,Taxi
24.6,-0.029091414005030986,-44.1599960478084,9.080299418043392,-0.7812670193221447,-0.3704236251052396,0.5034251418475151,12.788787059691673,0.0,1.0,0.0,0.0,1.0,Taxi
24.700000000000003,-0.06367706763089924,-4.367717598226151,8.990206947757391,-0.3009263076559325,0.25208888647469313,0.6866454074678927,11.995688467999328,0.0,1.0,0.0,0.0,1.0,Taxi
24.8,-0.021815467256351005,-3.734000117371016,8.577053788625173,-0.516555545946266,0.22563048459987559,0.6150440733717915,12.033245209831398,0.0,1.0,0.0,0.0,1.0,Taxi
24.900000000000002,-0.0477614145918859,22.549680614500943,7.830239507470671,-0.06701543641887153,0.3207418692840019,0.6297197462374697,12.250693902062652,0.0,1.0,0.0,0.0,1.0,Taxi
25.0,0.04907133544160563,15.283339134660812,8.27594150424686,-0.2846006103779677,0.06527696659804819,0.6489150416112466,12.335285282041092,0.0,1.0,0.0,0.0,1.0,Taxi
25.1,0.05460122841695321,13.63746249902431,7.986295543077977,-0.36416119421441917,-0.45291114775014435,0.5806630218435771,11.720568857624324,0.0,1.0,0.0,0.0,1.0,Taxi
25.200000000000003,0.02042589790323579,-41.88431678960443,9.018882132223121,-0.458241902409606,0.12041950788520087,0.6910142937597925,12.471384487566759,0.0,1.0,0.0,0.0,1.0,Taxi
25.3,-0.16035024850641638,-26.015795775549293,9.690243581014556,-0.05802632804081154,1.0392699904890725,0.7723011517105078,13.144940745331597,0.0,1.0,0.0,0.0,1.0,Taxi
25.400000000000002,-0.07547775046079308,11.971873538398915,8.382626124153637,-0.18444336695781477,-0.12416458837977908,0.5098124666377544,13.225734947133736,0.0,1.0,0.0,0.0,1.0,Taxi
25.5,0.08028526559523055,44.41347829692882,8.756425179881026,-0.2230742309203827,0.6304136357735478,0.5250815683833139,12.871888120416243,0.0,1.0,0.0,0.0,1.0,Taxi
25.6,0.06171714297822788,25.547816585168075,9.362415441402883,-0.38233361533816446,0.029077120838710585,0.7694008153185905,12.90929754751851,0.0,1.0,0.0,0.0,1.0,Taxi
25.700000000000003,0.05226133246504749,13.559372261822316,8.255487339354499,-0.2519962948649123,-0.07016384957042233,0.6223341961911046,13.00456952798853,0.0,1.0,0.0,0.0,1.0,Taxi
25.8,0.14808212690434233,-11.367178665711842,8.008102832242384,-0.7851989052955128,-0.5428348525200548,0.6873812364683545,12.346676596886674,0.0,1.0,0.0,0.0,1.0,Taxi
25.900000000000002,0.004881249649668879,19.974346471374975,8.423477420417749,-0.4168453728616808,-0.4157700650814505,0.5640807782311299,13.109375457924596,0.0,1.0,0.0,0.0,1.0,Taxi
26.0,0.15213306482192254,-57.31300268206826,8.84563304581914,-0.36568588023613224,0.9134134599073261,0.4826834639039248,12.52846984800421,0.0,1.0,0.0,0.0,1.0,Taxi
26.1,-0.1384828865059988,-1.6759551311422645,8.095344339602846,-0.3723487635998597,0.6982987811632297,0.43972750537716365,12.280697220291472,0.0,1.0,0.0,0.0,1.0,Taxi
26.200000000000003,-0.0034985260060422375,-34.430012834634724,9.314907208427446,-0.6911965286897128,-0.496505202898638,0.38400009021609094,11.954045317447596,0.0,1.0,0.0,0.0,1.0,Taxi
26.3,-0.020016999351250855,5.6393444843845755,8.62935362766007,-0.4239669733734025,0.9585911038050955,0.550493709096088,11.95971050077872,0.0,1.0,0.0,0.0,1.0,Taxi
26.400000000000002,-0.11028616408407571,19.942382290765902,8.371508013356921,-0.6141322621671708,0.4335564141592174,0.6570818743169298,13.292785310258784,0.0,1.0,0.0,0.0,1.0,Taxi
26.5,0.09621338544778751,28.72883435521798,7.904509322212021,-0.21861510937931117,-0.5122754006366547,0.6086603926517569,12.419439877193948,0.0,1.0,0.0,0.0,1.0,Taxi
26.6,0.1236271724248393,15.565974873621267,8.048272013064974,-0.5730369609652768,0.39170599904795494,0.5969661264143156,12.073866832036815,0.0,1.0,0.0,0.0,1.0,Taxi
26.700000000000003,-0.032456289715969096,-23.725336444399485,8.658926798128576,-0.49031265829452136,0.2380218576475568,0.39503016059262563,12.023397209322692,0.0,1.0,0.0,0.0,1.0,Taxi
26.8,-0.022413296774209678,-16.389608652189178,8.81401609713935,-0.5916220273903862,-0.44835569251824675,0.4392702565751847,11.712971589276222,0.0,1.0,0.0,0.0,1.0,Taxi
26.900000000000002,0.041679129163893616,-7.6596325729541475,8.435948227140726,-0.6338582406770297,-0.02819505453844072,0.5823981702412766,12.576546619394135,0.0,1.0,0.0,0.0,1.0,Taxi
27.0,-0.07075445258073963,-39.02593259882063,8.857659884526617,-0.4851148214980645,0.15282512293912653,0.6108740374974104,11.563005388415336,0.0,1.0,0.0,0.0,1.0,Taxi
27.1,-0.21754295976831264,-23.564525667618607,8.29873387540884,-0.7438161409949691,0.4588582666314387,0.6512543575246923,12.031482727880537,0.0,1.0,0.0,0.0,1.0,Taxi
27.200000000000003,-0.07614349917419921,32.245362193660846,7.6629391687126995,-0.7097656251922851,-0.5561594161609423,0.7758478184904902,13.503552647547693,0.0,1.0,0.0,0.0,1.0,Taxi
27.3,0.09047235838756482,64.15452167524488,8.48282140355737,-0.2328548385587677,0.0019109657623333802,0.6381736421420783,11.911815780952374,0.0,1.0,0.0,0.0,1.0,Taxi
27.400000000000002,0.1032296486079119,-10.485998557475392,8.303986071924092,-0.6247844150680556,-0.07705542946352811,0.6620945179636237,12.190678739199294,0.0,1.0,0.0,0.0,1.0,Taxi
27.5,-0.12857349196157594,-3.70826847670511,9.266112180066782,-0.5521369599844521,-0.42533629206520884,0.5038422241648846,12.713573615385625,0.0,1.0,0.0,0.0,1.0,Taxi
27.6,0.07193101600403945,-38.21443841697207,8.742366504890173,-0.5568311688180462,0.5356325240449811,0.7736487941610903,12.936459626219534,0.0,1.0,0.0,0.0,1.0,Taxi
27.700000000000003,-0.08784254347694825,8.263902846492703,8.289177041629063,-0.9039598738116938,-0.5312226681107188,0.5769706972056383,12.269970128195988,0.0,1.0,0.0,0.0,1.0,Taxi
27.8,-0.08725397772911221,-4.5242457425932985,8.770997510668238,-0.900857092103366,-0.5100313394150731,0.6702707465318554,12.36301646844348,0.0,1.0,0.0,0.0,1.0,Taxi
27.900000000000002,0.04930978729107321,2.0197437343331472,8.690610935440011,-0.5303311021635757,-0.059892129664035065,0.6840395972775468,12.009934034424875,0.0,1.0,0.0,0.0,1.0,Taxi
28.0,-0.07774382480528227,-14.917905131157639,6.163984560413596,-0.719779857424675,-0.3891173724649331,0.6363402462239378,12.548341057429361,0.0,1.0,0.0,0.0,1.0,Taxi
28.1,-0.16184350338490017,27.80837394304257,8.266989790958483,-0.6760131503523292,0.14048376668347257,0.5753535405624461,12.441138112421251,0.0,1.0,0.0,0.0,1.0,Taxi
28.200000000000003,0.1883516570062863,17.29195070587636,7.371351018167942,-0.7384118032278042,-0.04494443182555773,0.49639189525203165,11.85831283991643,0.0,1.0,0.0,0.0,1.0,Taxi
28.3,0.008715928724099762,30.828512882014184,8.404887241377496,-0.5946184415475495,0.7186755666378729,0.6235573666764367,11.470624810050396,0.0,1.0,0.0,0.0,1.0,Taxi
28.400000000000002,-0.007700938974828985,-13.00293481190863,7.503294011218041,-0.6236254952081082,-0.4438588955178232,0.6240854899248234,12.282442138470422,0.0,1.0,0.0,0.0,1.0,Taxi
28.5,0.12333698294674339,-0.6512973861104996,8.188226133998816,-0.23124431183004346,-0.3710430053494564,0.5666587059019434,11.780512131471262,0.0,1.0,0.0,0.0,1.0,Taxi
28.6,0.0054594417935474975,18.791337563034656,7.8113229934431905,-0.6267829163876206,-0.22199743342414666,0.5255234752099796,12.472312750183441,0.0,1.0,0.0,0.0,1.0,Taxi
28.700000000000003,0.08625574884034454,-74.58704315696657,9.305180266792593,-0.45701531795530453,-0.012632681932428337,0.6494517905143766,11.572973362563548,0.0,1.0,0.0,0.0,1.0,Taxi
28.8,-0.2495982328380892,18.056575497684957,9.209158598501839,-0.14073105157562676,0.18035960908056947,0.5455141269500245,12.281524790778606,0.0,1.0,0.0,0.0,1.0,Taxi
28.900000000000002,0.09574231928197251,3.096143673947138,7.82200139294477,-0.8047930489143638,-0.39222383886089796,0.5630944661575654,13.117452256926986,0.0,1.0,0.0,0.0,1.0,Taxi
29.0,0.10173646721008048,76.07418839656427,7.621620273903331,-0.44453523640996234,-0.19996561303827998,0.5742992718971323,12.177274726081047,0.0,1.0,0.0,0.0,1.0,Taxi
29.1,0.1307727091447324,-35.7504328300469,9.346930917761803,-0.777611587506148,-0.20443308307440472,0.4477457181296245,11.750627321149741,0.0,1.0,0.0,0.0,1.0,Taxi
29.200000000000003,-0.08300984486826168,13.895586443854242,8.258218505563901,-0.3067140148640868,-0.6816618310686956,0.6278040274506225,11.98462830220038,0.0,1.0,0.0,0.0,1.0,Taxi
29.3,0.171214399429352,-42.17890539887668,8.645465874282742,-0.5677821814769448,0.1705660068089326,0.5169632942302655,12.66076399718437,0.0,1.0,0.0,0.0,1.0,Taxi
29.400000000000002,-0.08012181784965072,33.900199606394104,8.296669777260783,-0.43214242893487675,-0.21410615609828612,0.6044072852700992,13.424087037092864,0.0,1.0,0.0,0.0,1.0,Taxi
29.5,0.08649115316370909,-21.103483438344323,8.328028704419506,-0.493251418070632,0.1778790960533006,0.587175776044262,13.197697952705314,0.0,1.0,0.0,0.0,1.0,Taxi
29.6,0.06569698223763064,17.42421842045457,8.727376810202415,-0.3457072847140221,0.2788647995532167,0.531083788451383,12.035607769325534,0.0,1.0,0.0,0.0,1.0,Taxi
29.700000000000003,0.006999274252622408,27.16564695134738,8.382523038386706,-0.561486445402254,-0.8272920245977687,0.44821394482119103,13.195425479388504,0.0,1.0,0.0,0.0,1.0,Taxi
29.8,0.22231938792044625,-8.503143504277014,8.792044353204883,-0.39173340864878303,-0.3162145614139011,0.4827613224679794,12.73919596990679,0.0,1.0,0.0,0.0,1.0,Taxi
29.900000000000002,0.023181264716245834,-24.42677787623056,10.01392882377083,-0.5433566772028865,-0.3224439479320025,0.5063128386769904,11.147881187700952,0.0,1.0,0.0,0.0,1.0,Taxi
30.0,-0.11513461512853013,-46.67323058592862,7.992022258149101,-0.2505488539325722,-0.11061446244444445,0.6525974221989941,11.720997576049056,0.0,1.0,0.0,0.0,1.0,Taxi
30.1,-0.011046765009196578,-46.86121227894122,8.396793690311341,-0.415130046644238,-0.05056051026919991,0.643346011102949,12.110532081904909,0.0,1.0,0.0,0.0,1.0,Taxi
30.200000000000003,-0.21112479667846,9.388817957293009,8.90614909596313,-0.4664129191715633,0.05419721405289233,0.6238753308008427,11.6160553238451,0.0,1.0,0.0,0.0,1.0,Taxi
30.3,-0.06819052534206482,31.17581544483903,7.325586825191531,-0.4741386798774617,-0.7898321871601114,0.5003018490393174,11.974311075977834,0.0,1.0,0.0,0.0,1.0,Taxi
30.400000000000002,0.14483231221499882,25.90509458054625,8.795125324731632,-0.7014170553629655,0.9236641847071055,0.5901678148209157,13.150983490093811,0.0,1.0,0.0,0.0,1.0,Taxi
30.5,-0.08159932377572855,33.73335947591724,8.287762009752173,-0.8314447219776024,0.06583839065889945,0.6218608855009506,12.382863575717495,0.0,1.0,0.0,0.0,1.0,Taxi
30.6,0.10047627203752159,-21.346942552492134,8.822007018230186,-0.6332836843356636,-0.15137754305646609,0.7711348010438428,11.827016642946509,0.0,1.0,0.0,0.0,1.0,Taxi
30.700000000000003,0.03809759945253837,26.518010973301745,8.323215437286018,-0.2517256060747711,0.39462884926714853,0.7051335511472416,11.634905845809417,0.0,1.0,0.0,0.0,1.0,Taxi
30.8,0.05099073109078041,-17.7707907847192,7.787682591797214,-0.5479868786992431,1.1988731892111049,0.5911280303889725,11.943566739867922,0.0,1.0,0.0,0.0,1.0,Taxi
30.900000000000002,0.011622318113925821,-16.28853015703249,8.390253868385834,-0.5963162170077415,-0.7942734221197623,0.5818683511268432,13.043527702916187,0.0,1.0,0.0,0.0,1.0,Taxi
31.0,-0.04334505133262384,-25.556442880404333,7.989982815383443,-0.3677824560083047,-1.065096294311013,0.5576724858455009,13.057428651897041,0.0,1.0,0.0,0.0,1.0,Taxi
31.1,-0.07679148331124101,15.73945402528176,8.552202769865765,-0.37817717494025405,0.39538299016890127,0.65217766116848,12.132254574360523,0.0,1.0,0.0,0.0,1.0,Taxi
31.200000000000003,0.09031958824033486,-27.603705149661597,7.691483017778339,-0.8105294531197242,0.07187778362727637,0.4183916387424915,12.340166358580841,0.0,1.0,0.0,0.0,1.0,Taxi
31.3,-0.1813635770809316,50.61032566622115,9.28474524233984,-0.660703828485367,0.24818006484108254,0.5355090517234089,11.226681687882689,0.0,1.0,0.0,0.0,1.0,Taxi
31.400000000000002,0.17626014501986498,-21.588297614874964,8.533913872388533,-0.19469714621171108,-0.7950167044798034,0.6209978358689909,12.258388898359772,0.0,1.0,0.0,0.0,1.0,Taxi
31.5,-0.017621899834039743,14.746377128161447,9.318649190891671,-0.4739026802948906,0.011339011024333701,0.5208765322107638,12.515673204452385,0.0,1.0,0.0,0.0,1.0,Taxi
31.6,-0.10763169144012413,-31.01714859289439,7.877840717630809,-0.6093243974746925,-0.4746824012352036,0.6642600863000325,12.493712714432219,0.0,1.0,0.0,0.0,1.0,Taxi
31.700000000000003,0.021174402055393227,7.642328680309759,8.604207092163007,-0.8020740574590919,-0.6631358959243802,0.5917354067120755,11.4356885199688,0.0,1.0,0.0,0.0,1.0,Taxi
31.8,0.020589743567509304,5.944553592493776,8.725249784735357,-0.4786334732366366,0.2529887729550395,0.5052442603915779,13.098411005851599,0.0,1.0,0.0,0.0,1.0,Taxi
31.900000000000002,-0.07790892347765499,-20.324007383684606,8.780143350519012,-0.6588164159621062,-0.3786444334516411,0.7340410161725117,12.161357598695309,0.0,1.0,0.0,0.0,1.0,Taxi
32.0,-0.08044563486302954,-11.396181203152784,8.002117832434543,-0.72652892805222,0.17940266421353768,0.4559778249409874,13.578937997904008,0.0,1.0,0.0,0.0,1.0,Taxi
32.1,-0.03639116244825435,42.999330078699565,8.732882012887353,-0.6800933881872648,0.6085740039528648,0.8257620358532449,11.461148569125639,0.0,1.0,0.0,0.0,1.0,Taxi
32.2,0.13708772691584312,40.95069303824615,8.602113604659207,-0.7247128812675563,0.6688700576205325,0.5155786612742759,12.403142738039632,0.0,1.0,0.0,0.0,1.0,Taxi
32.300000000000004,0.12430783032820146,2.337630875206235,8.528019537913574,-0.4810824246492513,-0.4464961238332292,0.5265143033032587,12.18821534223946,0.0,1.0,0.0,0.0,1.0,Taxi
32.4,-0.024703008072222928,-12.089272965894109,8.107911724785016,-0.44193160058410863,-0.16163005878188805,0.5206014348805184,12.190434397125465,0.0,1.0,0.0,0.0,1.0,Taxi
32.5,0.07664136208637284,-30.61588174445642,8.363480701213296,-0.6176046211009419,0.05057275975482559,0.674931633634742,12.019785275395492,0.0,1.0,0.0,0.0,1.0,Taxi
32.6,-0.028771578394080368,10.145996598849335,8.148110404513341,-0.6845559655296135,0.1293731740032781,0.6750217401838086,12.199719944728969,0.0,1.0,0.0,0.0,1.0,Taxi
32.7,0.026026974922024017,-18.415185062493148,7.455081675663545,-0.7835785493711891,0.6594140908482033,0.5787897452370885,12.81509179973494,0.0,1.0,0.0,0.0,1.0,Taxi
32.800000000000004,-0.015434563226092633,28.422175751057924,8.269706699222397,-0.6362967678603779,0.21500309413064211,0.6136222967877529,12.441873034274495,0.0,1.0,0.0,0.0,1.0,Taxi
32.9,0.11333930036120954,14.359524417761714,8.725800727679754,-0.2975707792537896,-0.22039490046515747,0.5755160164361541,12.49168317338085,0.0,1.0,0.0,0.0,1.0,Taxi
33.0,0.09782459701083286,20.629730186780172,8.864335531983006,-0.3671487122093615,0.3252637843651014,0.6195601643641453,12.53382499363645,0.0,1.0,0.0,0.0,1.0,Taxi
33.1,0.08771408770780849,-64.45435224162821,7.13567731856296,-0.6941317172263402,0.1440255929860602,0.5880253643461515,12.341806346302583,0.0,1.0,0.0,0.0,1.0,Taxi
33.2,-0.2089324608469313,-37.46530264217928,8.98834725773688,-0.7183204371739392,0.839098769619109,0.4870340755539928,12.235689293238078,0.0,1.0,0.0,0.0,1.0,Taxi
33.300000000000004,-0.08950191620006331,-18.744217407762548,8.670064294331766,-0.3665384214063194,0.13783986403869827,0.5898460392840548,11.878431937094335,0.0,1.0,0.0,0.0,1.0,Taxi
33.4,-0.006006999331004017,44.358964608983364,8.328332653032845,-0.6112603288326196,0.37134480676191844,0.6326698459081399,11.104397429409754,0.0,1.0,0.0,0.0,1.0,Taxi
33.5,0.01286236219798575,25.449395284589837,7.677552429607958,-0.7517709199072564,0.40066247339971317,0.6026475322082092,11.79875054242084,0.0,1.0,0.0,0.0,1.0,Taxi
33.6,0.03774506022288609,-2.3809963212674603,8.384212738189502,-0.36451252400560663,-0.298800399651071,0.5599996884458847,12.390414726423767,0.0,1.0,0.0,0.0,1.0,Taxi
33.7,-0.017911980937341088,-14.723633803613039,9.48014001241842,-0.5794573206772584,-0.1625777516129846,0.5513045841380517,12.559640272390734,0.0,1.0,0.0,0.0,1.0,Taxi
33.800000000000004,-0.06075580682007921,13.190689141485208,9.145503315727883,-0.6931588102923938,-0.184291531451461,0.46420428522947077,11.695020513459065,0.0,1.0,0.0,0.0,1.0,Taxi
33.9,0.10369850593031237,18.433107539292468,9.102581354748878,-0.18995939468597456,-0.34721360875219576,0.6740153199239103,13.177772787644681,0.0,1.0,0.0,0.0,1.0,Taxi
34.0,0.0742535567591215,42.33410163230479,9.24853844700117,-0.6691613515700146,0.23030809226886426,0.7789096514088101,12.467940259227365,0.0,1.0,0.0,0.0,1.0,Taxi
34.1,0.15091470134144497,1.2326407240913941,8.60465229615382,-0.545206631299976,0.0068171726535112,0.6638233199342949,12.57498588776841,0.0,1.0,0.0,0.0,1.0,Taxi
34.2,0.10986170955076957,-12.872052190953468,9.400965500478641,-0.13064435635779165,0.21406971470765385,0.6240826807782582,12.534537498190994,0.0,1.0,0.0,0.0,1.0,Taxi
34.300000000000004,0.009893295804354385,-23.337686791070954,8.073393343957155,-0.6698883906099956,0.3427645418439201,0.7567583486153922,13.049597199688371,0.0,1.0,0.0,0.0,1.0,Taxi
34.4,0.03422626738609045,4.617077620573807,8.79886657200517,-0.846383804806154,0.47914178713509903,0.4848756689964375,12.679637922432352,0.0,1.0,0.0,0.0,1.0,Taxi
34.5,0.13294709765363882,7.46948154128431,8.169947246507087,-0.6046335195352761,0.5072123285279903,0.7245032988964795,12.594603343973478,0.0,1.0,0.0,0.0,1.0,Taxi
34.6,0.04724070351077615,5.782830616711195,8.403190054290297,-0.34562388926544074,0.7212707990854395,0.5171978039517171,12.717534382492524,0.0,1.0,0.0,0.0,1.0,Taxi
34.7,0.06314042046964664,-43.403235366046125,8.142448976272588,-0.8223148579645712,-0.6628975951808116,0.6082702870846219,11.434173428830917,0.0,1.0,0.0,0.0,1.0,Taxi
34.800000000000004,-0.08406907917659157,14.166379622388979,9.854616786133056,-0.7343011780645341,-0.2398196025852123,0.7465100440177821,12.111842100117274,0.0,1.0,0.0,0.0,1.0,Taxi
34.9,0.11807260162272126,-62.492223307728715,8.992219743479001,-0.5749964085725275,-0.41619657042290337,0.6337052338243438,12.478535321745781,0.0,1.0,0.0,0.0,1.0,Taxi
35.0,-0.2493206960689967,40.49064831140762,9.132407535889238,-0.5681996232731704,0.09219459210233286,0.5258450070462004,13.039811201661657,0.0,1.0,0.0,0.0,1.0,Taxi
35.1,0.1183841623804468,-16.86897753463234,9.842971578181507,-0.6501138887307526,-0.34715156844665146,0.5829129010797942,11.951692892524944,0.0,1.0,0.0,0.0,1.0,Taxi
