time_s,altitude_ft,vertical_speed_fpm,ias_kt,pitch_deg,roll_deg,heading_deg,throttle_pct,afterburner_on,gear_down,flaps_deg,speedbrake_pct,weight_on_wheels,label
0.0,0.14785399379928124,-39.23274615620559,21.229654001731213,-0.33670073207695483,0.8903259198458343,18.77330986872738,16.735032161895372,0.0,1.0,0.0,0.0,1.0,Taxi
0.1,0.01707817327859593,-6.019328783782996,22.273663536440623,0.09349806605153183,-0.21564240355874312,18.6148089009111,15.807000167869708,0.0,1.0,0.0,0.0,1.0,Taxi
0.2,0.11775734988036626,-49.420806072829784,22.776333219377886,-0.37675100827084557,0.38535295990577745,18.600683314649814,15.969665310311061,0.0,1.0,0.0,0.0,1.0,Taxi
0.30000000000000004,-0.09925003656486768,-17.20920089278044,22.486885943843,0.14551959056874664,0.38195518235322823,18.628505345602377,16.18895786677034,0.0,1.0,0.0,0.0,1.0,Taxi
0.4,-0.0689678311853063,-20.313347894521353,21.066225120477082,-0.0606363559438937,-0.8095010393643258,18.520723024094536,16.804249157034437,0.0,1.0,0.0,0.0,1.0,Taxi
0.5,0.01619061040775946,40.611806590444395,21.947088059283875,-0.03510403057726996,0.1420241648957255,18.732437077028692,16.560827768520646,0.0,1.0,0.0,0.0,1.0,Taxi
0.6000000000000001,0.10380899638735426,26.447101941163975,22.159958659699104,0.18921305999289503,0.2545974803624009,18.83085826462252,17.135418467076533,0.0,1.0,0.0,0.0,1.0,Taxi
0.7000000000000001,0.06326767852051354,-9.617063717855416,21.852387319979858,-0.029266720792049165,-0.020733151824232576,18.5803628909066,17.04090738740006,0.0,1.0,0.0,0.0,1.0,Taxi
0.8,-0.03189470818151767,-14.730987103704146,22.457407696492787,-0.19507967089531403,0.14023265053461803,18.791511976194045,16.307240513371838,0.0,1.0,0.0,0.0,1.0,Taxi
0.9,0.030154060868833484,-1.6191071404839026,21.399294189201395,-0.10000547425617096,-0.7484873652675149,18.579345009042527,15.738013660884604,0.0,1.0,0.0,0.0,1.0,Taxi
1.0,0.055172142818093975,29.67768133142522,21.178730333427033,-0.6933050183024966,0.03623024231372768,18.735604420612447,17.032234731625945,0.0,1.0,0.0,0.0,1.0,Taxi
1.1,0.11649369847560836,28.471815949532683,21.896090884702403,-0.05941390618928662,-0.05640214630816148,18.57689771422065,16.63524739928142,0.0,1.0,0.0,0.0,1.0,Taxi
1.2000000000000002,0.17251314061649686,-16.37382339741775,22.247850058272135,-0.08053771595831843,-0.5340773474892205,18.609184206053555,17.050621570420322,0.0,1.0,0.0,0.0,1.0,Taxi
1.3,-0.026696974168994816,-81.53100022103452,22.62986042067911,0.031203727691565777,-0.2533008876144292,18.61908009866829,16.832066780191912,0.0,1.0,0.0,0.0,1.0,Taxi
1.4000000000000001,-0.2911613026295643,-2.810924476967879,22.84118124282731,0.029946975578616183,0.4951593120053264,18.566590559151052,16.605255440367802,0.0,1.0,0.0,0.0,1.0,Taxi
1.5,0.15845851823165735,-11.060776761854763,21.494130493661807,-0.03764596453647501,-0.5600753143021635,18.548257989384183,16.832861614145003,0.0,1.0,0.0,0.0,1.0,Taxi
1.6,-0.08200085797826871,34.41496450381498,22.633157333709708,-0.4867511571866847,1.5255567598218744,18.85905513290362,16.98510494709347,0.0,1.0,0.0,0.0,1.0,Taxi
1.7000000000000002,-0.11908648011048953,-35.21365366470652,22.289666723310127,0.13122185769308736,-0.2516097763072979,18.759596573174292,17.432733487237773,0.0,1.0,0.0,0.0,1.0,Taxi
1.8,-0.017609750091875268,21.742625650157795,21.55332559388612,-0.022136497388205365,-0.7511008425843934,18.638071027783894,17.23347077018332,0.0,1.0,0.0,0.0,1.0,Taxi
1.9000000000000001,0.02671227027252023,35.71989042860417,21.858328812244274,0.05619008671871624,0.5774776667646792,18.768463525979428,16.087277620223364,0.0,1.0,0.0,0.0,1.0,Taxi
2.0,0.0595129720325313,5.829586880497924,22.703708997165513,0.1377717812148358,0.41001704510996534,18.73619667571296,16.484684093809488,0.0,1.0,0.0,0.0,1.0,Taxi
2.1,0.011538184310614312,-11.932522836279986,22.77177198574445,-0.11578176674464186,0.17237200704605932,18.646346847740006,16.615977584951768,0.0,1.0,0.0,0.0,1.0,Taxi
2.2,-0.032950343908879735,-25.995886342067774,21.130545157868134,0.36493502792493376,0.43088234089249483,18.62767812081529,16.997231838932617,0.0,1.0,0.0,0.0,1.0,Taxi
2.3000000000000003,-0.07046645967780762,-15.35458616592854,22.046033770419108,-0.16492975079261113,0.6466359743859923,18.672947695136713,17.419492140571872,0.0,1.0,0.0,0.0,1.0,Taxi
2.4000000000000004,-0.06523474651902843,-3.996971654798152,21.924860162869173,0.21039298963472947,-0.5485077522768134,18.45423810894124,16.77096660132961,0.0,1.0,0.0,0.0,1.0,Taxi
2.5,-0.052935202182870546,57.40396591695616,21.544235248053706,-0.09802395074334343,-0.41646701431377203,18.770439654084328,16.842865344235122,0.0,1.0,0.0,0.0,1.0,Taxi
2.6,0.21655336990697305,8.105499053530878,22.758237201466727,-0.052003908580944135,0.17622232891347167,18.77717698407872,15.95518880809496,0.0,1.0,0.0,0.0,1.0,Taxi
2.7,-0.02470725125137415,72.44887314966762,21.884589491763666,0.2681808968056748,0.47986664021983916,18.76527100185018,16.89311649875342,0.0,1.0,0.0,0.0,1.0,Taxi
2.8000000000000003,0.3093091635654675,-15.136788472976496,21.791083503636933,-0.0906383097067873,-0.35982263481871707,18.714854840030057,17.299497629917038,0.0,1.0,0.0,0.0,1.0,Taxi
2.9000000000000004,0.14086942754209053,5.764086844037489,22.61785418554623,-0.09001142631903182,-0.2178901979262431,18.768726774299125,16.511644694433134,0.0,1.0,0.0,0.0,1.0,Taxi
3.0,0.004113182968813279,-34.18786966197699,21.411022266986055,-0.18060317340959828,-0.22904486270005098,18.796706088287067,17.15111915911769,0.0,1.0,0.0,0.0,1.0,Taxi
3.1,0.1383698152555825,-63.23884299256028,21.943087770704103,0.2894254674974338,0.07053870079445414,18.63322168147789,16.666911922364513,0.0,1.0,0.0,0.0,1.0,Taxi
3.2,-0.1753247874207109,-2.7408280443279978,22.953071024038614,-0.35686814641785836,0.28808524278508363,18.77566464736458,16.16635925883657,0.0,1.0,0.0,0.0,1.0,Taxi
3.3000000000000003,-0.00959095725282673,-48.758377960934354,21.949224045700443,-0.09769819761635598,-0.6743868996375041,18.693816065736883,16.24183788513839,0.0,1.0,0.0,0.0,1.0,Taxi
3.4000000000000004,-0.1054220745490893,25.150634476356114,22.19518851134108,0.1217031135157087,0.5317841522369744,18.922792299274136,15.978136164813062,0.0,1.0,0.0,0.0,1.0,Taxi
3.5,-0.04957161503893036,-1.9512480558636653,22.231870319656835,0.1276410103508705,-0.744688777430128,18.58488323256961,17.33622009184713,0.0,1.0,0.0,0.0,1.0,Taxi
3.6,-0.019347197532145102,42.25098045829523,22.608726435412603,-0.1588948508890389,-0.05036880351553438,18.637512927811144,16.580409802692575,0.0,1.0,0.0,0.0,1.0,Taxi
3.7,0.10583282774238681,13.652099154859641,21.545040618979208,0.04309909200220011,0.1625790459035717,18.599066333605037,17.37824811207969,0.0,1.0,0.0,0.0,1.0,Taxi
3.8000000000000003,0.018688880735367806,-18.548867906353113,21.93045877906123,-0.025227410837977273,0.18541067151308058,18.556484257755926,17.273255771799754,0.0,1.0,0.0,0.0,1.0,Taxi
3.9000000000000004,-0.11209153706391072,-14.011298485548798,21.667388053412203,-0.027111007743981737,-0.45360982847009823,18.652750483274588,17.174127254113028,0.0,1.0,0.0,0.0,1.0,Taxi
4.0,0.03577633531464277,7.167600417450925,22.06881587990449,-0.1091927590949637,0.16809020802118307,18.561022612435295,17.017235084907856,0.0,1.0,0.0,0.0,1.0,Taxi
4.1000000000000005,0.054526882822622386,7.775958873930297,22.191352193337874,0.11679787443967474,0.20469590694824932,18.62711821732495,16.722918634990627,0.0,1.0,0.0,0.0,1.0,Taxi
4.2,-0.07321174269425927,-32.334270735224955,22.052788777920085,0.11996909227839744,0.5512197661311972,18.684645524161454,16.718401736221146,0.0,1.0,0.0,0.0,1.0,Taxi
4.3,-0.1258950183614821,6.392643305769529,21.269635678487262,-0.07292135317169278,0.48215378063944975,18.740861172903294,16.491521664653344,0.0,1.0,0.0,0.0,1.0,Taxi
4.4,0.08649009935146998,30.989180568253754,21.488459721530674,-0.09307508718313615,-0.2638901680854352,18.59761688520581,17.498640991176128,0.0,1.0,0.0,0.0,1.0,Taxi
4.5,0.08173416014700946,3.2708743546319,21.79434530077624,-0.2650397765361685,-1.0783698657508127,18.595389252847326,16.525919477567953,0.0,1.0,0.0,0.0,1.0,Taxi
4.6000000000000005,-0.10954064658832262,-33.44368715143097,22.353225125299982,-0.13850852745733988,0.3047891810602092,18.75151843055187,16.993337402207636,0.0,1.0,0.0,0.0,1.0,Taxi
4.7,-0.08072833640568494,-28.865040315085384,22.166247238632884,0.08399926531819901,0.3719117389169987,18.545545896326757,16.552309224139176,0.0,1.0,0.0,0.0,1.0,Taxi
4.800000000000001,-0.06259104142841751,10.38334888947602,21.51041601378889,-0.22199755982943856,-0.9718970723074545,18.56755431891105,17.160126832645993,0.0,1.0,0.0,0.0,1.0,Taxi
4.9,-0.05762390214094257,23.4286003260511,20.340329749260494,0.15324081250057756,0.19469538117490615,18.80290437631004,16.4995188068238,0.0,1.0,0.0,0.0,1.0,Taxi
5.0,0.03641466522457051,21.686025612343958,21.44821474736264,-0.32491686708608003,0.6959788299258663,18.764602408378778,17.087625793040534,0.0,1.0,0.0,0.0,1.0,Taxi
5.1000000000000005,0.045839086633302224,26.025371112227134,21.750873004181603,-0.22609379596312187,-0.24023358132146636,18.836327044656514,16.259749799068977,0.0,1.0,0.0,0.0,1.0,Taxi
5.2,0.07250295342019307,15.181057287415735,21.975284616606128,-0.11875988591124886,-0.40748338403300016,18.588576277678044,16.30353585424999,0.0,1.0,0.0,0.0,1.0,Taxi
5.300000000000001,0.11231995166164915,-11.300962666993561,21.38038080213087,-0.068214505372865,0.21576824324326593,18.58174021184584,17.031387360383874,0.0,1.0,0.0,0.0,1.0,Taxi
5.4,-0.010665726701665634,5.349727920314905,23.199826900990715,-0.14987979496681508,-0.6540212359957247,18.681797605738495,15.614242240470016,0.0,1.0,0.0,0.0,1.0,Taxi
5.5,0.09925159302176755,-14.892345784515514,21.62999490841644,-0.24002158273845828,0.12814053927845595,18.741837243197153,16.839532829345487,0.0,1.0,0.0,0.0,1.0,Taxi
5.6000000000000005,0.03785822273907153,-29.918860428730124,21.36655629359479,-0.14830791847810731,-1.2719109458130446,18.790462647814877,16.35426116448872,0.0,1.0,0.0,0.0,1.0,Taxi
5.7,-0.16026002884531626,-14.0406793372832,21.091975910994375,0.14628536353033517,-0.40683320504033027,18.819396482938544,17.427049608625435,0.0,1.0,0.0,0.0,1.0,Taxi
5.800000000000001,0.029048196335351523,-4.430425273315036,21.410235692856393,-0.18125242314071366,0.014298656139429058,18.859607350408908,16.57432128259625,0.0,1.0,0.0,0.0,1.0,Taxi
5.9,0.015706096372496325,36.04013890969829,20.536879348882398,-0.18640062994031284,0.45995458946118967,18.558065369923156,16.634734040066586,0.0,1.0,0.0,0.0,1.0,Taxi
6.0,0.0199406657031752,1.3666046399903937,22.077762462607378,-0.018368974634519034,-0.10116043336216789,18.401369955895007,17.137007272542,0.0,1.0,0.0,0.0,1.0,Taxi
6.1000000000000005,0.035881219535303474,-9.16497309296159,22.365857811205814,-0.3091994808331388,-0.6254261675072119,18.582010166879684,17.007588826920003,0.0,1.0,0.0,0.0,1.0,Taxi
6.2,-0.030118769092311627,-26.097617213863554,21.106289708447033,-0.011678133643394914,-0.1165315646517207,18.640768974008154,16.930813524708523,0.0,1.0,0.0,0.0,1.0,Taxi
6.300000000000001,-0.11054742036614258,-18.03225799916512,21.79012941501979,-0.10060293411497451,0.19406008807423486,18.66456138201022,16.28276986855724,0.0,1.0,0.0,0.0,1.0,Taxi
6.4,-0.054280070460522134,46.30211046058258,22.569936888884833,0.09002707730410606,-0.3231546521158228,18.768619605615356,16.882139175582974,0.0,1.0,0.0,0.0,1.0,Taxi
6.5,0.20139178321060125,19.01070848173818,22.296952317634666,-0.10018077755376799,-0.5554609975069104,18.704539546681474,15.783263805821964,0.0,1.0,0.0,0.0,1.0,Taxi
6.6000000000000005,-0.015493877957451718,-5.7795426722028465,21.939428592681715,-0.15127856337147094,0.47757773704175965,18.528419701716984,17.52672380884098,0.0,1.0,0.0,0.0,1.0,Taxi
6.7,-0.0831777838215364,-30.01329827110324,21.02514855194328,0.09606265967908653,-1.4043068511813146,18.643605133835592,17.288689473627915,0.0,1.0,0.0,0.0,1.0,Taxi
6.800000000000001,0.051325291855085026,50.36816390774491,21.571886243832044,0.04470936266717922,0.12800964389930128,18.747696741569257,16.062165487851026,0.0,1.0,0.0,0.0,1.0,Taxi
6.9,0.23634694158127278,48.45359290203884,21.254920614134278,-0.3373580377906461,0.23839586914605526,18.594369946279414,17.09073364272632,0.0,1.0,0.0,0.0,1.0,Taxi
7.0,0.1590901806886578,-27.364659651461647,22.437588537764732,-0.20926845898329663,-0.11601146003675389,18.926501857754886,17.582897838012855,0.0,1.0,0.0,0.0,1.0,Taxi
7.1000000000000005,-0.08549800640222321,-12.73717328528347,21.908165395633635,-0.19595823357122555,-0.1698628483697315,18.746793482053135,16.864239532388392,0.0,1.0,0.0,0.0,1.0,Taxi
7.2,0.1726610751548554,-34.68679505015221,21.536298394867792,-0.21639665066737326,-0.23185375115522958,18.68936334244438,16.742986560282112,0.0,1.0,0.0,0.0,1.0,Taxi
7.300000000000001,-0.014343794562103291,12.378789664284154,21.059292513005207,-0.48134744689592945,0.47022953721720484,18.550885037697697,17.103129551185305,0.0,1.0,0.0,0.0,1.0,Taxi
7.4,-0.02360405808080248,-22.439376536803206,20.946133896688,-0.11938857614430871,0.07385137204745632,18.6566900643773,16.932453745493873,0.0,1.0,0.0,0.0,1.0,Taxi
7.5,0.06046419247083939,19.72980884479323,22.082103675921562,0.20630630242274658,0.5483096132825314,18.60803318563319,15.483445024427818,0.0,1.0,0.0,0.0,1.0,Taxi
7.6000000000000005,0.08430524966186284,5.111606613800103,22.080953515076384,-0.17264847522999677,0.7933656047803856,18.925863897217482,17.075991797821032,0.0,1.0,0.0,0.0,1.0,Taxi
7.7,0.001953974988198036,26.072653455957568,22.12371888236122,-0.15715450303790335,0.12499763224060412,18.747626546729805,16.365791631098148,0.0,1.0,0.0,0.0,1.0,Taxi
7.800000000000001,0.19082745975062726,-36.19638436760055,20.981651305494303,-0.21307871738686981,-0.19461768746438932,18.60386144530662,17.035914348324752,0.0,1.0,0.0,0.0,1.0,Taxi
7.9,-0.09667667217613991,8.081547483480191,21.833742063168035,0.25319854598252334,-0.7882031182357386,18.616227022569092,16.984465942669324,0.0,1.0,0.0,0.0,1.0,Taxi
8.0,0.042361712405598995,-27.09573356613511,21.1252297857348,0.08913974263468438,0.9159375873649916,18.85065244508411,17.04363596463533,0.0,1.0,0.0,0.0,1.0,Taxi
8.1,0.05534879191995167,13.318081050430385,22.81473774215363,0.10183355390426616,0.14363651480698353,18.701517725295673,17.295911022904143,0.0,1.0,0.0,0.0,1.0,Taxi
8.200000000000001,-0.030086266923987977,-20.90956872303202,21.536116870128232,-0.10786581335474446,0.003384651705586783,18.63842003488128,16.833673370890985,0.0,1.0,0.0,0.0,1.0,Taxi
8.3,-0.0621861312095611,11.878233449902131,21.78066552441579,-0.16507645940252347,0.05500347911946009,18.681611023582207,15.255056966786661,0.0,1.0,0.0,0.0,1.0,Taxi
8.4,0.11473995916946232,-10.927615367753148,22.431275104828064,-0.26508969786968706,0.6306666886141122,19.070565632652347,17.344978763310518,0.0,1.0,0.0,0.0,1.0,Taxi
8.5,-0.08472434376275376,-16.399665421767565,22.08503210762295,0.047587053307345736,0.17991934290509967,18.671021430218275,15.802623146435073,0.0,1.0,0.0,0.0,1.0,Taxi
8.6,-0.14418445831839896,-38.26639951886107,21.08780235686145,0.03238962772940905,0.26954599018074565,18.73724228489357,16.645517446310382,0.0,1.0,0.0,0.0,1.0,Taxi
8.700000000000001,-0.07659203842484302,30.00577551325016,22.11878776094059,-0.4413544589927851,0.22753214062589874,18.731960601675326,17.025758391463707,0.0,1.0,0.0,0.0,1.0,Taxi
8.8,0.06530453380349703,49.08763519491472,22.106270942623997,-0.032491884038459776,-0.5122456997408429,18.638700258955964,16.933977337374603,0.0,1.0,0.0,0.0,1.0,Taxi
8.9,0.10125371765617458,-5.6241374469548004,22.260271067515664,-0.006879510248838691,-0.47954870770128,18.76258161924528,16.72942198936405,0.0,1.0,0.0,0.0,1.0,Taxi
9.0,-0.10471272565961705,-10.738530017759942,21.919684469087034,-0.191545442339831,-0.16101836416650495,18.798387280286363,16.348961677593145,0.0,1.0,0.0,0.0,1.0,Taxi
9.1,0.011611883714697343,-22.645180779917624,21.854984018081215,-0.005938265941551897,-0.7115596864272967,18.636982301806654,16.431740224466143,0.0,1.0,0.0,0.0,1.0,Taxi
9.200000000000001,-0.011972186243413525,18.871889139635837,22.362352151652082,0.04733474899871093,-0.4487817546628387,18.817677546057325,17.195636443030313,0.0,1.0,0.0,0.0,1.0,Taxi
9.3,-0.010353279961437844,-20.550045905643266,21.38033566344886,0.41081039550584497,-0.8377785646273164,18.715563925244794,16.75001847503776,0.0,1.0,0.0,0.0,1.0,Taxi
9.4,-0.09113834581351897,17.067757385028248,20.943427389962746,-0.1699857114999138,-0.8839233805634795,18.749082277201182,16.115901284115974,0.0,1.0,0.0,0.0,1.0,Taxi
9.5,0.07336660068172776,30.933280461579468,20.26599848038784,-0.08304779144220364,0.06804382767032027,18.609345512471066,16.80217961528868,0.0,1.0,0.0,0.0,1.0,Taxi
9.600000000000001,0.14431312234645952,30.20409527784389,21.95637763131727,-0.37989858828755174,-0.3180488168280935,18.64640963701663,16.483773201397252,0.0,1.0,0.0,0.0,1.0,Taxi
9.700000000000001,0.05988213057570049,-26.296900197907892,21.341052301797745,-0.15748749367155018,0.254511830833813,18.75528710299443,15.673567883807518,0.0,1.0,0.0,0.0,1.0,Taxi
9.8,-0.05811790030781172,-14.14917959150018,22.663793094427756,0.20943221027756104,-0.12070456980901671,18.82046443784958,16.707766727258022,0.0,1.0,0.0,0.0,1.0,Taxi
9.9,0.0735672243889586,-9.169266821312007,22.39876727494194,-0.05689513322454194,-0.002684174860182766,18.616596504555616,17.598721968715083,0.0,1.0,0.0,0.0,1.0,Taxi
10.0,0.014035796469140464,-2.6602333429206815,21.87582461686909,0.16540694879281548,-0.21316597549943006,18.531786577706953,16.81903605269989,0.0,1.0,0.0,0.0,1.0,Taxi
10.100000000000001,-0.07141906702241511,-37.647232678624185,22.377140769992838,0.1155106399502947,0.2412355489417512,18.690125924087567,16.96621631293622,0.0,1.0,0.0,0.0,1.0,Taxi
10.200000000000001,-0.11466893900416233,-44.12678716978392,22.22344608819567,-0.19147058798825312,-0.44015632109161307,18.73777929716215,16.582343129867777,0.0,1.0,0.0,0.0,1.0,Taxi
10.3,-0.20659813937977917,-6.4323743536322935,22.292974728199937,-0.022860075440484837,-0.05266688660048578,18.779766955388368,16.533637616861274,0.0,1.0,0.0,0.0,1.0,Taxi
10.4,-0.10358093879057657,9.28090510400544,22.602869603500547,-0.036982182517646726,-0.07709020746665286,18.668099983606226,16.739897480389256,0.0,1.0,0.0,0.0,1.0,Taxi
10.5,-0.06826441348413513,23.610137849468703,21.570648932095636,-0.32953073172911074,-0.06855206229838572,18.53762852340776,16.35711534934724,0.0,1.0,0.0,0.0,1.0,Taxi
10.600000000000001,-0.08854745013243565,50.22538844066438,21.668479400110805,-0.06079285360140038,-0.6665272976041028,18.553689719993088,15.868560221695073,0.0,1.0,0.0,0.0,1.0,Taxi
10.700000000000001,0.14754600341274535,22.915420544880817,21.492104880470958,0.06141382148017836,0.6728977825075879,18.669247904048632,17.653597682691363,0.0,1.0,0.0,0.0,1.0,Taxi
10.8,0.04631268924026894,5.128052321406979,22.217673445727602,0.18809051129180276,0.09660565135842995,18.777282859779802,17.22744037178035,0.0,1.0,0.0,0.0,1.0,Taxi
10.9,-0.06290718852540078,-41.15240450091951,22.209261999745358,-0.0556533267546682,-0.08221801269567404,18.716081587640303,15.93328249255398,0.0,1.0,0.0,0.0,1.0,Taxi
11.0,-0.05821601909185223,-14.315810040932627,21.755952834523978,-0.1631576148096309,0.1888182911913164,18.695195369049145,16.339691511967036,0.0,1.0,0.0,0.0,1.0,Taxi
11.100000000000001,-0.025266360964394233,-1.9809930721696947,22.241501181263715,0.34875990489348496,0.11381474054592321,18.76208481441381,15.894491577320004,0.0,1.0,0.0,0.0,1.0,Taxi
11.200000000000001,-0.07281215388624927,15.521762048857411,22.479840747548913,-0.16004124114645923,-0.4470685757153419,18.42259682913169,16.461964116357343,0.0,1.0,0.0,0.0,1.0,Taxi
11.3,0.019392791152434804,22.356913512724905,21.843358297767264,0.0857735811321631,-0.39724782824331384,18.693531865357613,16.508672490852117,0.0,1.0,0.0,0.0,1.0,Taxi
11.4,0.08651820659923028,-2.6082498008825135,21.881732660708952,-0.23397676916397378,-0.2032570571942601,18.597859426576747,17.173835188058295,0.0,1.0,0.0,0.0,1.0,Taxi
11.5,-0.08585340289066187,-1.2998818884498178,22.158628293842654,-0.04607557797350935,0.050986514148847716,18.598672840444863,17.537141731979396,0.0,1.0,0.0,0.0,1.0,Taxi
11.600000000000001,0.01289338171018569,-32.86922709792961,22.291635614181395,-0.060133008665356424,0.6996209361836194,18.590077402230918,16.805928126020536,0.0,1.0,0.0,0.0,1.0,Taxi
11.700000000000001,-0.07782792889041779,57.57947329088205,21.635571163359305,-0.29963649617060567,-0.2130901145894074,18.725891030762,17.128297819250527,0.0,1.0,0.0,0.0,1.0,Taxi
11.8,0.20204396356374832,-11.23185203220722,22.830584627844246,-0.14326458545179732,-0.4985259151816333,18.782947041498744,17.273910191562937,0.0,1.0,0.0,0.0,1.0,Taxi
11.9,-0.043265878450850434,67.64529992244753,22.046385593936286,-0.03374972249131129,-1.0184537425336135,18.771453205418652,17.215807259037014,0.0,1.0,0.0,0.0,1.0,Taxi
12.0,0.2603985707218199,-54.98596226329727,21.685731238132842,-0.15094518582686436,-0.6880002079775897,18.591118032462816,17.281559631441056,0.0,1.0,0.0,0.0,1.0,Taxi
12.100000000000001,-0.07288584775273806,23.12216275449688,21.72802100539863,0.008474998240161166,-0.18576521160440293,18.853272775445134,16.640424054565983,0.0,1.0,0.0,0.0,1.0,Taxi
12.200000000000001,0.0723449353216339,-27.62876294591295,21.975761880320377,0.32778126150536097,0.5402972948719936,18.674766345744786,16.916056714465498,0.0,1.0,0.0,0.0,1.0,Taxi
12.3,0.12225475599225506,35.82917890292752,22.646632276500632,-0.014942038491750784,0.2754104688984005,18.74459132673121,16.826677978047925,0.0,1.0,0.0,0.0,1.0,Taxi
12.4,0.10626004676189947,-8.839628524636462,22.022179743232083,-0.0008929225272643337,-0.11731573441992556,18.829736987809895,17.19720406599032,0.0,1.0,0.0,0.0,1.0,Taxi
12.5,0.02814679269845155,-8.584068556240137,21.768146863473895,0.06269968922183573,-0.9559946274674672,18.70308342085997,17.23675065954043,0.0,1.0,0.0,0.0,1.0,Taxi
12.600000000000001,0.07933441321105435,-2.8950283935317302,21.973098196366916,-0.4176987540345832,-0.9339877592798903,18.71672556057149,16.018213856870144,0.0,1.0,0.0,0.0,1.0,Taxi
12.700000000000001,0.09178490479424078,-21.927844001756295,22.4789527804827,0.3298405935943977,-0.29790444588840387,18.942855605753607,16.743143145039756,0.0,1.0,0.0,0.0,1.0,Taxi
12.8,-0.08149242731032995,-26.512136023681183,22.213607545378427,-0.26808874472021893,0.09109766825389091,18.646205212994516,17.258992751010116,0.0,1.0,0.0,0.0,1.0,Taxi
12.9,-0.05322626690735162,29.649255834325434,20.844512662955587,0.11555416540294405,-0.04146831650618498,18.522857391816785,16.1183845762801,0.0,1.0,0.0,0.0,1.0,Taxi
13.0,0.2400311839658679,-6.632585807444674,21.975673648605056,-0.11574571875662376,-0.44220848258389883,18.512003173466724,15.610882945503365,0.0,1.0,0.0,0.0,1.0,Taxi
13.100000000000001,-0.11465535634755337,12.655234394056118,22.191508392810317,-0.10576022205414107,-0.17000851576796513,18.761480375666792,16.783441274851512,0.0,1.0,0.0,0.0,1.0,Taxi
13.200000000000001,0.01004990506292891,-71.52592552996487,22.385517784373004,0.025355442312484197,-0.32840588270371873,18.771403350090452,16.212842206427705,0.0,1.0,0.0,0.0,1.0,Taxi
13.3,-0.1175984436839565,8.433281849066777,21.135314652731235,-0.11875918816037924,-0.0015808487770417859,18.796707068239584,16.68383138139032,0.0,1.0,0.0,0.0,1.0,Taxi
13.4,-0.07248894710221952,-46.383021929812884,22.28154759854567,0.09826224170588374,0.05995968361721703,18.68113138005731,16.887752476015084,0.0,1.0,0.0,0.0,1.0,Taxi
13.5,-0.22186520458613557,31.443561493405834,20.692784806448895,0.378270699269286,-0.3051236892740605,18.717195210245336,16.925704316611892,0.0,1.0,0.0,0.0,1.0,Taxi
13.600000000000001,0.039619363783072604,12.818918676964095,22.473243959118523,-0.20551400790770025,0.060407219647083836,18.581256655368293,16.55915044374525,0.0,1.0,0.0,0.0,1.0,Taxi
13.700000000000001,-0.008394353717399104,60.56251262489625,22.086247038274777,0.36462180085107043,0.6705994885512103,18.869278100702218,16.709948761241563,0.0,1.0,0.0,0.0,1.0,Taxi
13.8,0.08094735853834563,-2.9363801872878006,22.373059406394262,-0.24254873773385846,-0.3744382988077831,18.587520903496852,16.502831789937947,0.0,1.0,0.0,0.0,1.0,Taxi
13.9,0.024937462846633625,6.183832858781208,21.354784185273125,0.2700131174439657,-0.1563646452553609,18.757104393835505,16.66299355357763,0.0,1.0,0.0,0.0,1.0,Taxi
14.0,0.02252481057650696,8.418846525000333,21.96270095795093,-0.37502453586024653,0.5376031040581432,18.708253798058763,16.221862722299498,0.0,1.0,0.0,0.0,1.0,Taxi
14.100000000000001,0.1230415911633473,-0.2701104705640276,21.766493602921006,0.08742939497893099,0.008312390173392834,18.769665759925545,16.314057026384987,0.0,1.0,0.0,0.0,1.0,Taxi
14.200000000000001,0.02358691049381349,-1.6670472501181361,20.773834587940065,0.001570571962287312,0.33659645799854965,18.71315989464722,17.744514376145876,0.0,1.0,0.0,0.0,1.0,Taxi
14.3,0.01418957432591628,-46.144232467518115,22.36874980921546,0.033746902057394265,0.023814730739885104,18.60626074565181,16.324030624411776,0.0,1.0,0.0,0.0,1.0,Taxi
14.4,-0.10767957117424327,-16.935866242199655,20.943577291651472,-0.04030359475148547,0.7330921424203249,18.764002995655233,16.805915079779854,0.0,1.0,0.0,0.0,1.0,Taxi
14.5,-0.06109242071718479,-10.146968336543203,21.36195543755444,-0.17698979652996655,-0.05850197922179026,18.598857116820454,16.805399229966802,0.0,1.0,0.0,0.0,1.0,Taxi
14.600000000000001,-0.03654526735679974,2.097260972531501,22.848307699956862,-0.28633122757523466,-0.148838027942387,18.540289476185023,16.391540099840142,0.0,1.0,0.0,0.0,1.0,Taxi
14.700000000000001,-0.09719326631158576,27.473851089050346,22.357379222682955,-0.43543137353235434,-0.8446064538392338,18.62350054917539,16.99555338787743,0.0,1.0,0.0,0.0,1.0,Taxi
14.8,0.07627683472806696,-15.811341785847796,22.397858446584735,0.06678801298648214,-0.6115879754238991,18.780107980522644,17.07735319734097,0.0,1.0,0.0,0.0,1.0,Taxi
14.9,-0.11560197628603874,1.4346778580215858,22.233029304970156,0.03988986998741023,-0.26323152181613274,18.59864567321017,16.486173533754105,0.0,1.0,0.0,0.0,1.0,Taxi
15.0,-0.09001987702147783,-15.000848605447535,22.85853365335118,-0.12817141334769902,-0.36243754110325416,18.873394580022648,17.535796575617415,0.0,1.0,0.0,0.0,1.0,Taxi
15.100000000000001,0.0012725917008292631,19.08605907736792,21.397426403089987,-0.3721044793977329,1.602009888827471,18.652995699202506,16.36580172676075,0.0,1.0,0.0,0.0,1.0,Taxi
15.200000000000001,-0.020171680899199136,52.505197351166125,21.259986864160147,-0.09825037414378164,-0.267263448071015,18.841355909419633,16.904369776321857,0.0,1.0,0.0,0.0,1.0,Taxi
15.3,0.17250610973435282,15.187908238498602,22.522190674402772,-0.23086086146723814,0.6986729396187857,18.711693557649937,17.24007563889577,0.0,1.0,0.0,0.0,1.0,Taxi
15.4,0.0772121328933223,4.5743302217361235,22.815555894801342,-0.17675397844434668,-0.7800215116101913,18.608481631366544,17.07731127531575,0.0,1.0,0.0,0.0,1.0,Taxi
15.5,0.002699970209481502,-34.463222927601116,22.5942838431843,0.25937046489112386,-0.6508602938672384,18.783240922688606,17.50301458480792,0.0,1.0,0.0,0.0,1.0,Taxi
15.600000000000001,0.00018999509634724573,-15.070876847924547,21.460196023084126,0.18299826369623096,-0.24831245320883932,18.713190759256065,16.608613123234775,0.0,1.0,0.0,0.0,1.0,Taxi
15.700000000000001,0.0018577486536995689,24.614795296603244,22.649992621704506,0.18422169666722865,0.2889476358715945,18.63159209975089,16.30724685444374,0.0,1.0,0.0,0.0,1.0,Taxi
15.8,0.12577394669249772,-17.58410670386417,21.789600571189858,-0.3446058011542278,0.32015449647859284,18.588657914179123,16.771629214588895,0.0,1.0,0.0,0.0,1.0,Taxi
15.9,-0.08773053842297363,-36.93006983867486,22.088462176336925,-0.14292194242453432,0.5735733119149196,18.649640151070457,17.14705917437786,0.0,1.0,0.0,0.0,1.0,Taxi
16.0,-0.18279260053967478,-40.58716378504081,21.586613580484293,0.039980299777603936,-0.2787550302214008,18.808736569517578,17.202796460747123,0.0,1.0,0.0,0.0,1.0,Taxi
16.1,-0.0771618722327063,21.59469810334589,22.138055436745212,-0.016487786598029835,-0.36750762365414746,18.802340772733316,17.07160921176699,0.0,1.0,0.0,0.0,1.0,Taxi
16.2,0.020242952093755824,44.89510617853409,21.69479723235574,-0.31969805685991365,-0.3317764260675401,18.598911171904263,16.571690964922116,0.0,1.0,0.0,0.0,1.0,Taxi
16.3,0.04168293035299567,9.624245617863565,21.737992804042392,-0.17183015764284665,0.9183515053690887,18.51256108720696,16.781431745876873,0.0,1.0,0.0,0.0,1.0,Taxi
16.400000000000002,-0.02904064414338849,-8.424912686522582,21.041768502106986,-0.3852447821666457,0.6617917767890615,18.798175970302736,16.086317832327897,0.0,1.0,0.0,0.0,1.0,Taxi
16.5,-0.021881611338857094,-7.2250646245252526,21.66828331511413,0.3045367475581512,-0.04291188987390566,18.808648530819426,17.111189315361695,0.0,1.0,0.0,0.0,1.0,Taxi
16.6,0.005557607230369398,27.97539778218381,21.55417930932158,0.01542461428273894,0.1250486816815294,18.70965953305796,16.21181214186429,0.0,1.0,0.0,0.0,1.0,Taxi
16.7,0.11083634476753056,11.870963313145419,21.090849336266672,0.3345008461175961,0.07763430715368534,18.73261579161783,17.56199270741466,0.0,1.0,0.0,0.0,1.0,Taxi
16.8,0.03747320522686999,-30.550134717389994,22.36254369817885,-0.050240847820024,-0.5794293358567724,18.606336550661297,17.03913624852525,0.0,1.0,0.0,0.0,1.0,Taxi
16.900000000000002,-0.14719306635658055,-24.295215546555028,22.06267370449352,-0.2555115887587148,-0.1363840886005638,18.888580052821567,17.28298842896468,0.0,1.0,0.0,0.0,1.0,Taxi
17.0,-0.010639732965244534,32.05135657400504,21.819205024316492,0.1883516415246601,0.30881486177827466,18.5590505271972,16.28705181562555,0.0,1.0,0.0,0.0,1.0,Taxi
17.1,0.1977299880968952,44.24407150150512,22.131961534155426,-0.3397408016831321,-0.5396558506943454,18.739492430354005,17.14944099326841,0.0,1.0,0.0,0.0,1.0,Taxi
17.2,0.07402729115094506,14.154871215678908,21.850324746845434,-0.18402238111596067,0.5063623588474705,18.637950008024234,17.242656620655826,0.0,1.0,0.0,0.0,1.0,Taxi
17.3,0.06013462311314998,-38.63803612857378,20.718892531431543,-0.6367414279498735,-0.4873462757361186,18.708320028119374,17.43328123038577,0.0,1.0,0.0,0.0,1.0,Taxi
17.400000000000002,0.004539807454026273,2.2647169868619748,21.42180961986759,-0.1086351853086928,1.152900833858388,18.656675508419085,17.07202471628662,0.0,1.0,0.0,0.0,1.0,Taxi
17.5,0.08535087608525493,16.266330675184527,21.66787843755033,-0.26331182954086585,-0.5468793647772252,18.945959250208546,17.610147897810467,0.0,1.0,0.0,0.0,1.0,Taxi
17.6,0.14146627648907262,-0.3489890019863206,22.274002582132965,-0.1906822176159074,-0.45130675512300134,18.611481724930115,17.395303781647204,0.0,1.0,0.0,0.0,1.0,Taxi
17.7,0.002794862444094689,-6.9457586665762285,23.322641849227608,-0.18673894623196508,-0.6576462916902528,18.72623240844098,17.243289296298393,0.0,1.0,0.0,0.0,1.0,Taxi
17.8,0.0506220827523738,-40.86634255046056,21.56573445649044,-0.011511020496540979,-0.05780639786520881,18.667931124695997,16.720035876115254,0.0,1.0,0.0,0.0,1.0,Taxi
17.900000000000002,-0.06286543626323014,3.5341405181743872,22.098421062765667,0.3827385068517783,-0.30177441562038554,18.714967782810106,16.60813276022947,0.0,1.0,0.0,0.0,1.0,Taxi
18.0,0.020465565034966653,-19.9989887368592,22.36551532813917,0.19980100761852151,0.22831150455061383,18.669131778340727,16.34240123015908,0.0,1.0,0.0,0.0,1.0,Taxi
18.1,-0.04937286093192214,-2.2494927476178592,21.743824920900195,-0.15672856976230676,0.36700572060528336,18.644761270008985,15.96583357213938,0.0,1.0,0.0,0.0,1.0,Taxi
18.2,-0.0741129000013194,4.8532686708639075,21.863777355126054,0.06281930453380927,1.2249359179658759,18.599085530827836,17.449030375687006,0.0,1.0,0.0,0.0,1.0,Taxi
18.3,0.044731908389286236,31.32708569992197,22.626072107540157,0.08702297799362782,-0.08501569126991125,18.641822225418764,16.962732222028425,0.0,1.0,0.0,0.0,1.0,Taxi
18.400000000000002,0.10726256756768773,14.668388957354983,20.812724237053715,0.09274200682838615,-0.24961375715524034,18.65124661625856,16.912452071592515,0.0,1.0,0.0,0.0,1.0,Taxi
18.5,-0.0007709552145444361,-10.544630120204198,21.358638977785603,-0.47752233699265967,-0.36628431695857694,18.617882982062042,15.874215313827282,0.0,1.0,0.0,0.0,1.0,Taxi
18.6,-0.00799124221173472,4.695490558576992,21.73934676704702,-0.20902388375616865,0.7333344843960484,18.70386722334132,16.71772801334546,0.0,1.0,0.0,0.0,1.0,Taxi
18.7,0.13074002036057272,23.032134494618234,22.10651980546786,-0.07709009702154515,0.8537907078849233,18.523426674840834,16.34738563959571,0.0,1.0,0.0,0.0,1.0,Taxi
18.8,0.11438971725854677,4.767507451533272,22.055148809432932,-0.14029995699280556,0.13947843159623896,18.758589643737253,16.447217767138106,0.0,1.0,0.0,0.0,1.0,Taxi
18.900000000000002,0.01584629504593168,-14.916673377254293,23.09350409274397,0.26649807418420696,1.707539552079027,18.511944146421115,16.7906180704193,0.0,1.0,0.0,0.0,1.0,Taxi
19.0,0.056156653474301294,-30.673127310378295,21.7260561315914,0.1389603803841283,-0.697506158367078,18.72007678990144,16.307784153436355,0.0,1.0,0.0,0.0,1.0,Taxi
19.1,-0.038975919293344666,-13.255009110278195,22.45143191602482,-0.3454825767354273,-0.5034816937994903,18.73135811208391,16.332152587332757,0.0,1.0,0.0,0.0,1.0,Taxi
19.200000000000003,-0.050428750505459245,0.2011585277482292,21.54181862217121,0.022269993544396793,-0.913678781368844,18.717690309618092,16.662104272552885,0.0,1.0,0.0,0.0,1.0,Taxi
19.3,0.05716244611304249,12.03512030710939,22.173014365113712,0.0007137391865003825,0.702161917333665,18.49266302270496,16.634043950894124,0.0,1.0,0.0,0.0,1.0,Taxi
19.400000000000002,0.02119968224220234,15.552968282536932,21.08402587984249,0.1144622979663058,0.5794759693236365,18.732944805486227,16.61489983639643,0.0,1.0,0.0,0.0,1.0,Taxi
19.5,0.02733609090722547,32.620056859623816,21.460210018473255,-0.10472518043608793,0.14069265534708203,18.54179279466814,17.653810164162362,0.0,1.0,0.0,0.0,1.0,Taxi
19.6,0.22026273041116162,4.130316818199863,21.95112347844285,0.06320911964211945,0.451421830231579,18.753956894427063,17.057475503504655,0.0,1.0,0.0,0.0,1.0,Taxi
19.700000000000003,0.04185126633320172,-2.533118327727576,22.251230160261937,-0.05992345494376958,0.442244441458835,18.625606768544117,17.468003565086626,0.0,1.0,0.0,0.0,1.0,Taxi
19.8,0.014670499268587659,-55.61416469143095,21.90998494601434,-0.15776277838904243,1.0901170432483809,18.676428437425102,17.210663974787163,0.0,1.0,0.0,0.0,1.0,Taxi
19.900000000000002,-0.0578080930459931,-27.401260497820875,21.374953246310447,-0.09974111653521989,-0.3592111058754358,18.74681803038783,15.751089576689042,0.0,1.0,0.0,0.0,1.0,Taxi
20.0,-0.0951550361559026,-17.423974857023527,21.450058208540746,0.1176192539394324,-0.08067898327737914,18.544953147407625,16.972846167184468,0.0,1.0,0.0,0.0,1.0,Taxi
20.1,-0.07244937501652994,21.89833482960133,22.633215953362065,-0.10385201739311245,-0.1802338151320104,18.69764067665585,17.8403677333339,0.0,1.0,0.0,0.0,1.0,Taxi
20.200000000000003,0.0516835811020136,11.895652363985414,22.14732192807066,-0.33335781116999874,0.5916286091835953,18.593606090658625,18.08572106881352,0.0,1.0,0.0,0.0,1.0,Taxi
20.3,-0.035676774335975464,-0.21452883903894104,22.066615907167346,-0.034875029129641404,-0.3124537289335007,18.716323031501474,17.133505665834047,0.0,1.0,0.0,0.0,1.0,Taxi
20.400000000000002,-0.07352201921172459,25.450767494349787,22.539915365785806,0.19280477699852283,-0.20211287816214674,18.79179249021962,17.028498412715024,0.0,1.0,0.0,0.0,1.0,Taxi
20.5,0.17893741857376255,4.668333695730378,21.289079947162122,0.013462595243731917,0.7521258973756657,18.492891875736404,16.10691278009455,0.0,1.0,0.0,0.0,1.0,Taxi
20.6,-0.012335105857323489,50.11743553941873,22.41023357077724,-0.31686133249524956,-0.9757676709154014,18.643662429053393,17.949646570622342,0.0,1.0,0.0,0.0,1.0,Taxi
20.700000000000003,0.17706515848536913,-44.47578226018508,21.40584812920697,-0.16520882189762226,0.00823655791334282,18.602642850421944,17.4519074798263,0.0,1.0,0.0,0.0,1.0,Taxi
20.8,-0.04344149272716279,1.3929238644987787,21.855174542202914,-0.20022525151864565,0.4187470141230197,18.593746065871926,16.87859900124271,0.0,1.0,0.0,0.0,1.0,Taxi
20.900000000000002,-0.00537048653482954,-40.98948232087849,22.2766603200405,-0.06265282530454838,0.2326239817292702,18.755869583713206,16.599219328555257,0.0,1.0,0.0,0.0,1.0,Taxi
21.0,-0.027882253119023228,10.49669478175233,21.213217997076583,-0.4089282098869521,-0.11899368452317895,18.624205192588363,16.77888067616913,0.0,1.0,0.0,0.0,1.0,Taxi
21.1,0.00904198118159892,-19.06131551059708,21.511791067512906,-0.2063089946653418,-0.1653684379488556,18.74803780102252,16.778645451861035,0.0,1.0,0.0,0.0,1.0,Taxi
21.200000000000003,-0.10067706408781488,-13.028365235289236,21.787540253620563,-0.011684515589180475,-0.3292835626488118,18.592699063108057,15.628141614647019,0.0,1.0,0.0,0.0,1.0,Taxi
21.3,-0.09302407929546935,2.2130673449682803,22.406745610122165,-0.15976479479765895,-0.00799566816353507,18.5263026714631,17.069094072347298,0.0,1.0,0.0,0.0,1.0,Taxi
21.400000000000002,0.020107317906440384,-8.697104248131419,22.462408872505318,-0.09279804030011052,-0.13056586653398924,18.57495225810692,15.849131989218229,0.0,1.0,0.0,0.0,1.0,Taxi
21.5,-0.1441625853284719,47.96805590486997,22.10795736126218,0.14240436550672508,0.5362539918700574,18.8522829453471,15.747024727477848,0.0,1.0,0.0,0.0,1.0,Taxi
21.6,0.14681620022888056,3.6537638721284793,22.668239153849328,-0.3132119973487453,-0.010392417209382247,18.646122887726506,16.8988544059141,0.0,1.0,0.0,0.0,1.0,Taxi
21.700000000000003,0.03837613726708283,43.01719997216648,22.171398762920315,-0.06599478638690068,0.25335204400400396,18.61657185319018,16.297604870528406,0.0,1.0,0.0,0.0,1.0,Taxi
21.8,0.07092341453236055,-22.31010021329439,22.073154418270434,-0.1920732468985107,0.45885409031456625,18.617588199606473,16.763419497858003,0.0,1.0,0.0,0.0,1.0,Taxi
21.900000000000002,0.03526569916240864,-18.016318667920938,22.951954694226426,0.4465992999567394,-0.1671491765524778,18.816938995306543,17.786219823707704,0.0,1.0,0.0,0.0,1.0,Taxi
22.0,-0.05170545607252184,11.192698751900645,22.070181340226597,-0.3445525540255995,-0.25031329844379174,18.494975258982493,15.970884730973612,0.0,1.0,0.0,0.0,1.0,Taxi
22.1,0.1268869082918638,-12.24602396225995,21.776335314467527,0.4672862524431165,0.9557128872139828,18.619376356508553,17.64630409920411,0.0,1.0,0.0,0.0,1.0,Taxi
22.200000000000003,-0.025964420648891057,3.8366448597505816,21.67314910252738,-0.27740833244764673,0.49862840499898947,18.837034452550483,15.997392800425983,0.0,1.0,0.0,0.0,1.0,Taxi
22.3,-0.03252223177376889,-43.32187588022933,22.94008174779953,-0.21763413475675453,0.9978801885546644,18.622205751551178,15.936595169186319,0.0,1.0,0.0,0.0,1.0,Taxi
22.400000000000002,-0.08972247110928282,26.606795503843017,22.745694989712128,-0.1419035955564304,-0.12022527045981109,18.62614614058242,16.980358534920843,0.0,1.0,0.0,0.0,1.0,Taxi
22.5,0.10706955687032403,37.48632639376792,21.02813666508655,0.0815526897830061,-0.5387574234803195,18.721498869881884,16.239682327736006,0.0,1.0,0.0,0.0,1.0,Taxi
22.6,0.1549094001950707,16.81238359192947,21.846674195563896,-0.043974727486381704,-0.024076303533388476,18.6661291774559,17.243525815304178,0.0,1.0,0.0,0.0,1.0,Taxi
22.700000000000003,-0.0056605531496354685,-25.809861347434595,22.153860219787056,0.11641654056970574,-0.7128482339885996,18.60376572251249,16.958653240150774,0.0,1.0,0.0,0.0,1.0,Taxi
22.8,-0.021979749866848957,-33.09280439086497,21.796622651299266,0.009604468434724893,0.40017136195435615,18.679517211845337,16.74736381481039,0.0,1.0,0.0,0.0,1.0,Taxi
22.900000000000002,-0.010554621759254125,-1.90814149091554,22.1986985262172,-0.005304881728210857,-0.1418283855582256,18.586795345301596,16.551384502256326,0.0,1.0,0.0,0.0,1.0,Taxi
23.0,-0.015201260604213167,-17.874332585783907,22.534777540603773,0.033480201732353304,0.4975647801217085,18.637001933513375,16.909074056874726,0.0,1.0,0.0,0.0,1.0,Taxi
23.1,-0.11135141279576849,16.642806157996073,22.980306151192224,0.25477797862878565,-0.36118131545919574,18.747342837656333,17.7357300734181,0.0,1.0,0.0,0.0,1.0,Taxi
23.200000000000003,0.07265940903072624,5.112367312215426,22.297490190655516,-0.15700066680541086,-0.3149629946205678,18.80514002865027,16.49362912911653,0.0,1.0,0.0,0.0,1.0,Taxi
23.3,0.010360575956863956,43.42129166344531,22.634715488533605,-0.0753719842369877,-0.02374288043279458,18.57424669188191,16.243423029389586,0.0,1.0,0.0,0.0,1.0,Taxi
23.400000000000002,0.10575504552145808,-9.258211708942293,22.142857242569065,-0.07208918237176389,-0.2565820695615336,18.628869379983087,17.16800921675177,0.0,1.0,0.0,0.0,1.0,Taxi
23.5,0.026368350486014755,-28.849700187899305,21.92396560869513,-0.1783228152436861,-0.18854342248258563,18.73774264316546,16.646184945800485,0.0,1.0,0.0,0.0,1.0,Taxi
23.6,-0.1338879249826326,7.927860056578406,22.946850352600368,0.11003641095513447,-0.43983007449593065,18.778508256283885,16.12215852669598,0.0,1.0,0.0,0.0,1.0,Taxi
23.700000000000003,0.14539434580435004,-9.188687664454582,22.624182059384705,0.10343876493526769,0.13327283013972313,18.69046695309305,16.89312738787769,0.0,1.0,0.0,0.0,1.0,Taxi
23.8,-0.019575087836258196,18.625978420131613,22.498476218830152,-0.2998329223352634,0.44155932337785864,18.64659307989308,16.748068607734826,0.0,1.0,0.0,0.0,1.0,Taxi
23.900000000000002,-0.04075803288197459,-55.31849892221074,22.194417968048253,-0.14335893414621098,0.28131839455716057,18.671181739148494,16.9461403651961,0.0,1.0,0.0,0.0,1.0,Taxi
24.0,-0.1311981488067037,45.08646855293023,22.14126443050779,-0.1457823758460936,-0.0731345015623859,18.71402641284476,16.162850020795208,0.0,1.0,0.0,0.0,1.0,Taxi
24.1,0.20585725492839294,10.578437775755921,21.628679709544063,-0.2585071511976743,0.2506110062513204,18.852414976484,17.110483880912852,0.0,1.0,0.0,0.0,1.0,Taxi
24.200000000000003,0.012134155996804962,34.135039556398574,22.380467189124523,-0.37883650098532407,0.06281957348038866,18.706689957409992,16.650987016197544,0.0,1.0,0.0,0.0,1.0,Taxi
24.3,0.039477048975289135,-41.41960253847178,20.994090957224085,0.2663156876130818,-0.1862010094009209,18.616346127968768,16.944587270813745,0.0,1.0,0.0,0.0,1.0,Taxi
24.400000000000002,-0.0012407577639659832,-6.731263434016562,22.567796917580814,-0.2501543204838838,0.09912656832855901,18.72070977060224,16.418600808921997,0.0,1.0,0.0,0.0,1.0,Taxi
24.5,-0.02152216117327789,-0.849614279660365,21.463119795690197,0.17933153718834247,0.13158301663453648,18.678366521866906,17.512786547546483,0.0,1.0,0.0,0.0,1.0,Taxi
24.6,0.03522897757698726,-5.765464875473665,22.30477276540691,0.22776053127809787,-0.7857316358735971,18.489294534083285,16.710419116994178,0.0,1.0,0.0,0.0,1.0,Taxi
24.700000000000003,-0.030068082141334353,17.77629397353312,21.027354421155046,-0.005165181516294061,-0.16290053896060136,18.537344104390286,16.654193918225175,0.0,1.0,0.0,0.0,1.0,Taxi
24.8,0.06735930869438767,-5.9730403891801815,21.706663608012242,0.08013100675912906,-0.7464593217290522,18.50813217877817,16.634836218799663,0.0,1.0,0.0,0.0,1.0,Taxi
24.900000000000002,0.0053637756310863025,15.179176738533501,23.065011596516573,-0.02024295050394718,0.03568264503970203,18.727952914607272,17.271951303421247,0.0,1.0,0.0,0.0,1.0,Taxi
25.0,0.045827801551333106,-39.37321882952805,22.271778017876915,-0.1790411712150449,0.039537094604259124,18.763404829422768,17.138652141201483,0.0,1.0,0.0,0.0,1.0,Taxi
25.1,-0.1295067854532526,20.905939070217972,21.961180011828226,-0.026089086645811103,-0.04948544360698018,18.58746160307402,16.77577778182205,0.0,1.0,0.0,0.0,1.0,Taxi
25.200000000000003,0.10989347098217613,19.08953003724403,22.509073095777776,-0.025979411363924898,-0.6484460995931537,18.715016551762915,16.30880201065218,0.0,1.0,0.0,0.0,1.0,Taxi
25.3,0.14127545173755324,24.308046832160894,21.74925635460573,-0.05135360921083569,0.1479067778727005,18.615676570776657,16.337074401585173,0.0,1.0,0.0,0.0,1.0,Taxi
25.400000000000002,-0.007966551292448157,-38.43525694970293,22.064864250258516,-0.29703431089752114,-0.7532376083192783,18.668921503166587,16.327577452099934,0.0,1.0,0.0,0.0,1.0,Taxi
25.5,-0.08228281376633856,-23.79743393845078,21.572742780829316,0.05569198560293753,-0.15968588548822218,18.625667858013685,17.225404272670453,0.0,1.0,0.0,0.0,1.0,Taxi
25.6,0.022288282045299312,7.932261868870996,21.464844087757633,0.07954544108173425,0.31892379794842524,18.710165031411748,16.627093056894473,0.0,1.0,0.0,0.0,1.0,Taxi
25.700000000000003,0.03169475805190677,44.95735429901521,22.739449816894975,-0.07393670237309441,-0.01456187677026837,18.813483185716336,17.31111689686752,0.0,1.0,0.0,0.0,1.0,Taxi
25.8,0.14250395772873742,4.671671018708214,21.93215452932143,-0.053334795095096296,-0.10166308339180101,18.571793593003576,16.03563818500191,0.0,1.0,0.0,0.0,1.0,Taxi
25.900000000000002,0.04564663713884033,10.401824137523844,21.56857003581853,0.3108124344136486,0.08499656642556686,18.888630150202857,15.951096820274264,0.0,1.0,0.0,0.0,1.0,Taxi
26.0,0.08370387873952595,-41.32939627932415,22.613042282483708,-0.41077571251994416,-0.7565250554935717,18.768583760776608,16.962305139349166,0.0,1.0,0.0,0.0,1.0,Taxi
26.1,-0.06414302366788338,-7.4227518182311245,22.100196087721688,0.3842355538810159,-0.02426552134912305,18.588267817537712,17.261870222810373,0.0,1.0,0.0,0.0,1.0,Taxi
26.200000000000003,0.008532878047684668,24.809454619419757,22.428272101334866,0.24266682436999704,-0.4994394531481024,18.652771102205293,16.661677187615147,0.0,1.0,0.0,0.0,1.0,Taxi
26.3,0.20775115183662468,44.05545393792346,21.903340380921236,0.11081687869296097,-0.3765689378448229,18.64090819109566,16.882023011678303,0.0,1.0,0.0,0.0,1.0,Taxi
26.400000000000002,0.15613424602173387,-10.389769152254766,21.98267900417793,0.274323384680795,-0.028319942055440517,18.55655811202803,16.033142008364592,0.0,1.0,0.0,0.0,1.0,Taxi
26.5,-0.043415967713589236,-55.41114578367797,22.606581431075078,-0.30217465644430785,-0.2938603567514446,18.658455864021676,16.021534099518792,0.0,1.0,0.0,0.0,1.0,Taxi
26.6,-0.06930457708176523,-48.156989993578605,22.179475994424845,-0.22680526255928832,-0.2777403180052887,18.64904328596674,16.098655043259775,0.0,1.0,0.0,0.0,1.0,Taxi
26.700000000000003,-0.0846507039461592,-0.5148044438724236,22.806717865166114,-0.1449827405559439,0.15346948639677954,18.634792270935463,17.066551522022827,0.0,1.0,0.0,0.0,1.0,Taxi
26.8,-0.045989989932951406,41.35148917965578,21.887208636856073,0.12138896234456278,-0.06147701208733355,18.47797754835858,16.215554881926206,0.0,1.0,0.0,0.0,1.0,Taxi
26.900000000000002,0.1374528688165136,15.348324066829226,21.541641441089187,-0.13927426647003507,0.5085284127845244,18.648114049245862,16.21761880761112,0.0,1.0,0.0,0.0,1.0,Taxi
27.0,-0.00790908361201311,6.578622617488738,22.54354183823448,-0.2225574384765312,-0.05532796326449105,18.662696440942966,16.55870012420553,0.0,1.0,0.0,0.0,1.0,Taxi
27.1,-0.013096876845507753,3.5740171009730375,22.08145101865959,-0.21763903514786853,-0.045682428083466585,18.640946380490334,17.758780777246514,0.0,1.0,0.0,0.0,1.0,Taxi
27.200000000000003,0.15532295432137877,12.054654222449317,22.98942063163523,-0.13461820332799382,-0.39337260856901235,18.97990043807357,16.984548036240493,0.0,1.0,0.0,0.0,1.0,Taxi
27.3,0.05236418750023341,-36.36383679773605,22.54959765085548,-0.2644970627945471,0.23086808201998626,18.66165793835893,16.24413625479074,0.0,1.0,0.0,0.0,1.0,Taxi
27.400000000000002,-0.1949160608341881,-52.82635591917593,20.81350250357513,-0.04344802313053079,-0.4226250090225425,18.577452538743046,17.62677844832269,0.0,1.0,0.0,0.0,1.0,Taxi
27.5,-0.10880882527450098,-3.7594898291701404,21.381141366749766,-0.15321514355759228,-0.4247626318320835,18.7221887169664,17.219882790883773,0.0,1.0,0.0,0.0,1.0,Taxi
27.6,0.033566738354382626,63.63432908180156,21.690645115693997,-0.2940725555473061,0.10363550189678528,18.756044755391315,16.309232429470796,0.0,1.0,0.0,0.0,1.0,Taxi
27.700000000000003,0.12325558457481965,-1.1228240480185339,21.946726004854227,-0.16463494390982625,0.4666497940124689,18.717868545966894,16.298828530108704,0.0,1.0,0.0,0.0,1.0,Taxi
27.8,-0.1144229455145937,-30.694235069824302,22.054859684853245,-0.18150479076506543,-1.466567436379834,18.750722905369003,16.751286335721158,0.0,1.0,0.0,0.0,1.0,Taxi
27.900000000000002,-0.11990443699473895,7.300276185272963,22.34482761358857,-0.11334372707309251,0.06674099459543156,18.8359256663976,16.76906368050794,0.0,1.0,0.0,0.0,1.0,Taxi
28.0,0.1597569655011844,54.63783201137468,21.664824906942183,0.09469501527875865,0.2173889600047073,18.838140694517904,16.71297646503928,0.0,1.0,0.0,0.0,1.0,Taxi
28.1,0.15876621454227957,24.346516742844628,21.628985975128188,0.19044105688934287,0.6790816969992705,18.659998026978826,17.238620143842432,0.0,1.0,0.0,0.0,1.0,Taxi
28.200000000000003,0.0018281467194840803,-20.12933000924726,21.769015734597883,0.137636944069168,-0.3238131667501118,18.692038523436338,16.93613274638481,0.0,1.0,0.0,0.0,1.0,Taxi
28.3,0.05911031545494803,-19.036012990057333,20.413906992102245,0.19941463241373836,-0.32099915405024854,18.622964518641766,16.42489218374228,0.0,1.0,0.0,0.0,1.0,Taxi
28.400000000000002,0.06358614959199282,15.897711339347211,22.887191760753755,-0.052781018637220026,1.155608554283095,18.736999887643947,16.578459194756242,0.0,1.0,0.0,0.0,1.0,Taxi
28.5,0.08131670341622006,0.8461239710176601,22.063448642562214,-0.23116715370807708,0.7270672224954512,18.607238895036005,17.969535242250036,0.0,1.0,0.0,0.0,1.0,Taxi
28.6,0.06334093531003625,0.13318368733813646,22.073388958615283,0.08147555157299809,-0.5421273249246337,18.818602033869297,17.836786655824508,0.0,1.0,0.0,0.0,1.0,Taxi
28.700000000000003,0.06425206802868343,-9.126870784682863,22.17334169214191,0.16504813229521764,-0.35470712649720093,18.661368991760185,16.172664538373763,0.0,1.0,0.0,0.0,1.0,Taxi
28.8,0.035682349492805666,24.39083444932004,22.13825567542265,-0.19048849520846417,-0.2472014816770586,18.636787128260266,17.325422689628656,0.0,1.0,0.0,0.0,1.0,Taxi
28.900000000000002,0.18529510755663636,-33.49986164801735,21.528180583273173,0.21482652190002022,-0.07976975463131397,18.653376671659487,16.553310293735294,0.0,1.0,0.0,0.0,1.0,Taxi
29.0,-0.1032472402114034,-4.920586730188599,22.11465544995201,0.06199993298240668,-0.15744361182565317,18.705956804612015,16.45612890728974,0.0,1.0,0.0,0.0,1.0,Taxi
29.1,0.011079415841862618,-23.957204027975934,21.829780354200608,0.022068203442292003,0.27904823344826807,18.661959844498085,16.33095195116659,0.0,1.0,0.0,0.0,1.0,Taxi
29.200000000000003,0.0655090874167566,23.26448674506869,22.597605773579065,0.10804127337817016,0.7900382650083326,18.65397044477669,15.735910434315251,0.0,1.0,0.0,0.0,1.0,Taxi
29.3,0.013075193513939945,11.257914486196062,21.805120761030583,-0.2180001192275048,-0.4005633509033333,18.81218698109234,16.82932104401824,0.0,1.0,0.0,0.0,1.0,Taxi
29.400000000000002,0.06736898827284282,10.990827745466655,22.53224777119049,-0.16448272105727105,-0.3031677987458459,18.6611678617748,15.931842497886436,0.0,1.0,0.0,0.0,1.0,Taxi
29.5,0.12046322614408977,-0.5442330122167741,23.55295397812672,0.08185069084588159,0.028818491166566065,18.703906293592695,16.26743359191871,0.0,1.0,0.0,0.0,1.0,Taxi
29.6,0.010354028452855962,-32.97654519230877,23.232018787581918,-0.2380715025616148,-0.6771736171761819,18.585634143808818,17.32478489933977,0.0,1.0,0.0,0.0,1.0,Taxi
29.700000000000003,-0.09751373768870115,-28.478747041291495,21.881266528430128,-0.2836983627350521,-1.2166242630030173,18.765952231778954,17.242984605643414,0.0,1.0,0.0,0.0,1.0,Taxi
29.8,-0.021930509062367827,-17.914313424964806,21.61418707595518,-0.05047042929576628,0.05463490870888514,18.583191463747426,17.132195335890813,0.0,1.0,0.0,0.0,1.0,Taxi
29.900000000000002,-0.07921753867196818,66.00051630074869,21.815350492343654,0.22512441783853204,-0.37209437809765633,18.606346193110483,16.6943923377357,0.0,1.0,0.0,0.0,1.0,Taxi
30.0,0.2324888438150422,-11.2799971276116,22.102016550171243,-0.0376990846177947,0.508974001870483,18.720924354601436,16.6112618355789,0.0,1.0,0.0,0.0,1.0,Taxi
30.1,-0.07833049470042591,21.927894418871258,23.06210293039167,-0.0069722801346212004,-0.6077941554679054,18.58319069586122,16.692734172303062,0.0,1.0,0.0,0.0,1.0,Taxi
30.200000000000003,0.030421933422388005,-65.90656540430273,21.76999146025111,0.07427853108602417,0.017403127470689464,18.69060801357574,17.6447250907967,0.0,1.0,0.0,0.0,1.0,Taxi
30.3,-0.09704398320647147,3.7902619520879193,20.698028078303103,-0.31908099727957057,-0.5674657907340638,18.614357806559156,17.050238396347307,0.0,1.0,0.0,0.0,1.0,Taxi
30.400000000000002,-0.05937918493998641,-9.355356947158723,21.83574337842888,0.2533013528580281,-0.452283549415119,18.707105059714877,16.983128133434125,0.0,1.0,0.0,0.0,1.0,Taxi
30.5,-0.01635485131340569,6.977849455215167,21.37285693006825,-0.17398785555255533,-0.14970970835184225,18.651232383331433,16.452316252048842,0.0,1.0,0.0,0.0,1.0,Taxi
30.6,-0.06215473593039572,34.54310148552043,21.830238920830684,-0.008988685172571578,0.30978503059876744,18.699469099674502,16.702311096936793,0.0,1.0,0.0,0.0,1.0,Taxi
30.700000000000003,0.11333632248761563,-5.356005627427801,22.28705100657186,-0.29562854092025753,0.7668411219465846,18.91824048277539,16.673628331155573,0.0,1.0,0.0,0.0,1.0,Taxi
30.8,-0.04313487945054481,5.3170764469116065,22.422549699505048,-0.12469847231391411,0.24040646058299445,18.5898393074458,17.234685713124794,0.0,1.0,0.0,0.0,1.0,Taxi
30.900000000000002,-0.0355693536958378,-36.24501225555601,21.919602978302244,0.3838330026944273,0.29740029125398065,18.7183055793152,16.418964507516087,0.0,1.0,0.0,0.0,1.0,Taxi
31.0,-0.06788873879016451,16.307217008845637,21.71927280901668,-0.5751644218914793,-0.33033834580118276,18.810966544939163,16.711603070763356,0.0,1.0,0.0,0.0,1.0,Taxi
31.1,0.03840120559368329,-34.10874966352706,21.586457112887263,-0.07735552603639456,0.8697183375876829,18.607375606369203,17.330806956877158,0.0,1.0,0.0,0.0,1.0,Taxi
31.200000000000003,-0.2061131020134732,9.076448804290862,21.282036170120538,-0.27700416540295286,-0.30977988207685686,18.687982845256556,16.869357759278795,0.0,1.0,0.0,0.0,1.0,Taxi
31.3,-0.022506494768710264,4.361883972722164,22.76770962286744,-0.2408463173721894,-0.16639575290485636,18.644059320935753,16.479498431841314,0.0,1.0,0.0,0.0,1.0,Taxi
31.400000000000002,0.06021062545729405,42.92549245858617,21.588618934587615,0.20928923853840925,-0.04416419090967834,18.749758762729414,16.836400888329624,0.0,1.0,0.0,0.0,1.0,Taxi
31.5,0.00851436027945761,14.97035408925261,20.493038183644718,0.33160258452454067,0.12845312167917033,18.754067054267637,17.036959336897883,0.0,1.0,0.0,0.0,1.0,Taxi
31.6,0.0523452756775527,-8.784621199591028,21.589111592148548,-0.2761306282915419,-0.3616917434344114,18.58418371273251,17.084112799781405,0.0,1.0,0.0,0.0,1.0,Taxi
31.700000000000003,0.01628751945933882,-1.1728489564278022,21.6028025864214,0.08877120728465329,0.3408574730139264,18.7288618241588,16.126193200754212,0.0,1.0,0.0,0.0,1.0,Taxi
31.8,0.002650115497318508,0.8411780520448625,21.34381863098636,-0.12358293862496267,0.32761813246945604,18.655216792865303,15.999223594664764,0.0,1.0,0.0,0.0,1.0,Taxi
31.900000000000002,0.05655116593777692,-53.77895680447123,22.77656370268928,-0.20064120656143097,-0.021871679382776274,18.697401686374917,17.401977965891092,0.0,1.0,0.0,0.0,1.0,Taxi
32.0,-0.2526072645630174,8.231050796927368,21.740067855076596,-0.06353027087924404,-0.31050248905022737,18.785385882601418,16.443088266247337,0.0,1.0,0.0,0.0,1.0,Taxi
32.1,0.04380536948195524,-10.96885585023083,22.17771391886789,-0.0032509978412995633,-0.9869580729818401,18.620758710307825,16.89388725100549,0.0,1.0,0.0,0.0,1.0,Taxi
32.2,0.001706886686622695,52.09838027904794,21.52398359438847,-0.18458163880988404,0.1022652486896368,18.608323701595964,16.564679015034706,0.0,1.0,0.0,0.0,1.0,Taxi
32.300000000000004,0.007884636832222182,8.726701958917916,22.770426263327494,0.11081380248880429,-0.04337461722609078,18.641303994003465,16.47866950212602,0.0,1.0,0.0,0.0,1.0,Taxi
32.4,0.08743887927654474,-1.6207863143155568,21.059792366015284,0.2858659764298147,-0.310743883562533,18.673274105553105,16.247212719749996,0.0,1.0,0.0,0.0,1.0,Taxi
32.5,-0.006397044884955185,-2.9956459279938445,21.83908870288663,-0.22295555927809563,0.14519162327160837,18.745395739146034,16.824022684938857,0.0,1.0,0.0,0.0,1.0,Taxi
32.6,-0.007093592807747129,-42.064719305381416,22.00357447024774,-0.07864483661524724,0.7105593387078541,18.657076922484066,16.517484825859295,0.0,1.0,0.0,0.0,1.0,Taxi
32.7,-0.12288471725036243,4.433217851182055,22.84622379632069,-0.0647765355745893,-0.27376646162816654,18.68964953822308,15.922067045875394,0.0,1.0,0.0,0.0,1.0,Taxi
32.800000000000004,0.015769044370955,-4.186866594177483,21.489856072615353,-0.3458368333642353,-0.027109246151685,18.769977842914955,16.623614273650464,0.0,1.0,0.0,0.0,1.0,Taxi
32.9,-0.028027925778634638,7.4230115348173555,22.23830959767348,-0.230543087618836,-1.5762781487781692,18.636206627964782,17.391665087247404,0.0,1.0,0.0,0.0,1.0,Taxi
33.0,-0.08576965957627575,-19.728769390469775,22.108988543408856,-0.28997007033386074,-0.20640008720110053,18.576060571438063,16.26690350025709,0.0,1.0,0.0,0.0,1.0,Taxi
33.1,-0.08287480258139397,-15.64545579844962,22.41942206664345,-0.30570352018801505,0.3399055037656923,18.602485118272796,17.506508117973503,0.0,1.0,0.0,0.0,1.0,Taxi
33.2,-0.10625520477088282,-6.5973159479835735,22.792170560002827,-0.0922603572567369,0.5662322632911004,18.587645898020128,16.888972761214358,0.0,1.0,0.0,0.0,1.0,Taxi
33.300000000000004,-0.11875623931619371,-0.972816230155992,22.490693063154964,-0.045087803539735065,-0.04874202663968103,18.74421273965288,17.66517305377405,0.0,1.0,0.0,0.0,1.0,Taxi
33.4,-0.08773888373217403,42.67577369941608,21.975698352105155,-0.08458075096400491,-0.08916581167369897,18.689015075958707,17.30231293388249,0.0,1.0,0.0,0.0,1.0,Taxi
33.5,0.10712366372619744,12.117812898356297,21.921957454091693,-0.2045985976389133,0.19065714992708907,18.555963074955173,16.262039598510587,0.0,1.0,0.0,0.0,1.0,Taxi
33.6,-0.05816717482441236,16.507160159019694,22.606520843181798,-0.14265493271841334,0.853052427707462,18.531710853310017,16.68663477432723,0.0,1.0,0.0,0.0,1.0,Taxi
33.7,-0.005203082937075672,-38.94996069391492,20.536577566729807,-0.28989386505542925,0.22110588537889647,18.74908688181023,16.281309093063943,0.0,1.0,0.0,0.0,1.0,Taxi
33.800000000000004,-0.08762613974337721,-2.85738296644419,20.315964819780998,-0.03907338562473742,-0.014026987062427942,18.70635619472108,17.168184743320797,0.0,1.0,0.0,0.0,1.0,Taxi
33.9,-0.07245408965663337,18.740154467617156,20.587564598103384,0.04758280198614724,-0.39612396727104393,18.625016641004606,17.550405048265105,0.0,1.0,0.0,0.0,1.0,Taxi
34.0,0.08849768940101004,-8.8727778472068,21.62063220119772,0.004452397066119357,-0.3674982323114165,18.82617080844284,16.1257424797899,0.0,1.0,0.0,0.0,1.0,Taxi
34.1,-0.1319900289794113,13.886982345071623,22.846377092679695,-0.03518319468878797,-0.07330970637644571,18.63534771031169,16.687566220845415,0.0,1.0,0.0,0.0,1.0,Taxi
34.2,-0.0030191779312753442,-42.50637005155775,22.212277099322332,0.26378597385541913,-0.5764580216633189,18.59849829029406,16.309990336930994,0.0,1.0,0.0,0.0,1.0,Taxi
34.300000000000004,-0.12403416085677882,60.11201956094698,21.691657302158056,-0.030310031744169297,-0.39774209215593387,18.5709794391297,16.31237825681085,0.0,1.0,0.0,0.0,1.0,Taxi
34.4,0.16857006882532355,-6.017763053269903,20.81222991190171,0.1208027932876718,-0.8159237925860356,18.727795560017853,16.956437611994424,0.0,1.0,0.0,0.0,1.0,Taxi
34.5,-0.03310799319762494,14.496385832365588,22.009853326627322,-0.016386785856713326,0.3356051442252941,18.549490197808666,18.029903067046273,0.0,1.0,0.0,0.0,1.0,Taxi
34.6,-0.05155223169495097,-76.82341747896065,22.170759657037973,0.00037332016442821747,0.37977223134290794,18.891542544968843,17.00193712730535,0.0,1.0,0.0,0.0,1.0,Taxi
34.7,-0.21554701856947978,29.862756978032152,22.521184821207026,-0.08466611714948663,-0.22877371086134488,18.69072917411671,16.175331022559472,0.0,1.0,0.0,0.0,1.0,Taxi
34.800000000000004,0.11620579169253571,3.5393381193493525,21.519087493602857,-0.030940832859292937,-0.13367443381768898,18.67005728491506,17.288103156051864,0.0,1.0,0.0,0.0,1.0,Taxi
34.9,-0.033855541098204316,78.27656999975109,22.31565522248601,-0.2226915023859546,0.481537997049227,18.709391657166634,16.2562462086989,0.0,1.0,0.0,0.0,1.0,Taxi
