time_s,altitude_ft,vertical_speed_fpm,ias_kt,pitch_deg,roll_deg,heading_deg,throttle_pct,afterburner_on,gear_down,flaps_deg,speedbrake_pct,weight_on_wheels,label
0.0,0.006882781499784979,15.056101647240675,8.900981045072328,1.9400143559873757,-0.3590458368639867,40.49083633784704,10.893533909182175,0.0,1.0,0.0,0.0,1.0,Taxi
0.1,0.05706978699058723,2.721519236276316,10.472869386762177,1.8556018121352975,-0.015450974989891212,40.50501819312217,10.14582731918792,0.0,1.0,0.0,0.0,1.0,Taxi
0.2,0.020490377681166558,16.235738831187813,10.071312175538417,2.0199414106494786,-0.10160964680989364,40.366184633744524,9.966328807328825,0.0,1.0,0.0,0.0,1.0,Taxi
0.30000000000000004,0.08806147565572403,1.7185009900199446,9.548516880662506,2.009371986420088,0.3272384191996172,40.45591612230538,11.646382314119744,0.0,1.0,0.0,0.0,1.0,Taxi
0.4,0.06566229194068694,-6.193012399074985,9.136992963295288,1.7050104911391013,0.16301661734471154,40.31166013006788,11.13211153253067,0.0,1.0,0.0,0.0,1.0,Taxi
0.5,-0.01047468431420838,6.984458413806273,10.01457632560261,1.8918879162092033,0.3917420986125276,40.429109497834645,10.658261808106303,0.0,1.0,0.0,0.0,1.0,Taxi
0.6000000000000001,0.12298376772475537,19.505095676792177,11.554635143591481,2.452798754927862,-0.25890538209678093,40.43562450611745,11.066935718242096,0.0,1.0,0.0,0.0,1.0,Taxi
0.7000000000000001,0.1631877703246478,-2.596830933204984,9.17100346780961,1.926079951266234,0.13528554019666708,40.42157725136991,10.312163554055397,0.0,1.0,0.0,0.0,1.0,Taxi
0.8,-0.023458838980233314,-2.955659793813988,9.78964428677504,2.0795610397919426,0.3879287964803523,40.580011007804785,10.59377661171748,0.0,1.0,0.0,0.0,1.0,Taxi
0.9,0.1082054687556854,-19.934678469683746,10.995091166910527,1.7559420838681106,0.2530581678322735,40.677414684585756,10.97401376997114,0.0,1.0,0.0,0.0,1.0,Taxi
1.0,0.06351437797622904,15.839020552185135,10.835521493441094,2.0115981225338166,0.018157667578012435,40.37407512087782,10.876502801619528,0.0,1.0,0.0,0.0,1.0,Taxi
1.1,0.05573626378069233,-33.91899383017961,10.36655753727612,1.6743270416928449,-1.2970804970153371,40.393015194643226,10.834395241718283,0.0,1.0,0.0,0.0,1.0,Taxi
1.2000000000000002,-0.061389500395212675,-0.9867298028275068,9.432901739974216,2.0077910524768425,-0.5915893324746943,40.43604374531702,11.371048324464102,0.0,1.0,0.0,0.0,1.0,Taxi
1.3,0.05858072896209146,-5.2205389683339325,10.486022838539677,2.031465260647777,0.2249052288674422,40.31529710924235,10.782776071196366,0.0,1.0,0.0,0.0,1.0,Taxi
1.4000000000000001,0.029633568939022626,17.76067064897767,10.824262345900205,1.7578940136369665,0.38169797779812453,40.39654097334267,11.304715481469714,0.0,1.0,0.0,0.0,1.0,Taxi
1.5,0.027413852849675614,-29.511793833961423,10.745726148109048,1.7462628686944193,-0.277252243002133,40.41578131724151,10.709349125905735,0.0,1.0,0.0,0.0,1.0,Taxi
1.6,-0.0889782402077157,18.747066256547498,10.655629600904494,1.720045129877673,0.24310162374729433,40.465025926767,11.367673063530985,0.0,1.0,0.0,0.0,1.0,Taxi
1.7000000000000002,0.12336890022176006,-24.2337381847606,10.870533395280635,1.5830637033434387,0.41875474374007166,40.61013221475537,10.9809148709886,0.0,1.0,0.0,0.0,1.0,Taxi
1.8,-0.09375483807412748,14.629768267003977,10.16413488358895,2.0053267486792015,0.7710869791519286,40.41667615693797,11.18128950880828,0.0,1.0,0.0,0.0,1.0,Taxi
1.9000000000000001,-0.015829398872695893,-10.89236805777982,11.098264953291832,1.7291239399719163,0.43984215296025825,40.46309857284689,10.947303942974163,0.0,1.0,0.0,0.0,1.0,Taxi
2.0,0.06890705993286092,1.4725581404850583,10.570747147447939,1.996220978368999,0.1678971300954979,40.37350008757966,11.357642627337915,0.0,1.0,0.0,0.0,1.0,Taxi
2.1,-0.08639204737170222,-24.13563384325983,10.146445184657367,1.9707270021682608,-0.09117633458147391,40.44707863173767,10.740126320320048,0.0,1.0,0.0,0.0,1.0,Taxi
2.2,-0.13650756808899508,-7.0627476776062155,9.30661213189647,1.9622109149021252,0.36018931609889826,40.33733761387617,10.445969430943544,0.0,1.0,0.0,0.0,1.0,Taxi
2.3000000000000003,0.03359332154482981,22.374282325551075,10.582331065534154,2.018473823105082,-0.007871588224428759,40.6081671335063,10.944231674349547,0.0,1.0,0.0,0.0,1.0,Taxi
2.4000000000000004,0.025479364256053127,9.499002656757392,10.06074598646947,1.8265497426070987,-0.02684805854226047,40.501743859505325,10.9117681937536,0.0,1.0,0.0,0.0,1.0,Taxi
2.5,-0.08901255480520814,-23.803257339597298,9.836536914667501,1.4235191466978212,0.5968179137651932,40.55298137227891,11.01377733545584,0.0,1.0,0.0,0.0,1.0,Taxi
2.6,-0.08542296515315673,-29.722449761787647,8.971975279413439,1.7275379936222717,0.09439665838412738,40.38687470269866,10.0355914932299,0.0,1.0,0.0,0.0,1.0,Taxi
2.7,-0.12313288455288514,20.56560058242738,9.551137421086347,1.991315161623722,0.15638808361749623,40.3147810517093,10.393942071939783,0.0,1.0,0.0,0.0,1.0,Taxi
2.8000000000000003,0.01381544810692871,36.206369049867945,9.216933370236603,1.636734220093628,0.11144332611165723,40.578493025044054,10.35061592135934,0.0,1.0,0.0,0.0,1.0,Taxi
2.9000000000000004,0.09560888009618294,-18.98640915661022,10.600126468859138,2.0744805455200286,0.204293194631967,40.26053741682,10.30810301915814,0.0,1.0,0.0,0.0,1.0,Taxi
3.0,-0.2180649303359362,-6.441161657451128,10.489912968726863,1.875129340138623,-0.3310085739537554,40.3881259562458,10.971859493743857,0.0,1.0,0.0,0.0,1.0,Taxi
3.1,-0.01839036018032691,-26.5342680353238,9.557776516206856,2.239055206237748,0.28471806356597773,40.37497878893453,11.614855689833743,0.0,1.0,0.0,0.0,1.0,Taxi
3.2,-0.03706246008043604,29.600128017242216,9.399286318552043,1.9842568082910623,0.47582844852764067,40.506704565646146,11.308872986530796,0.0,1.0,0.0,0.0,1.0,Taxi
3.3000000000000003,-0.07006429024972516,-1.0711750122607941,11.07157609726337,1.922486574554518,0.3021547462363247,40.65689968919662,10.636345214958219,0.0,1.0,0.0,0.0,1.0,Taxi
3.4000000000000004,-0.023746235241630928,14.281710269433198,9.756450947973269,1.4873743718195638,-0.25245437803029214,40.471520551546064,9.848431012890561,0.0,1.0,0.0,0.0,1.0,Taxi
3.5,0.034346091266729904,21.639049142869784,9.750487587101166,1.7946367300695951,0.6347048723169819,40.347175133725386,10.675711741090069,0.0,1.0,0.0,0.0,1.0,Taxi
3.6,0.03813095546462371,-15.308901374646998,9.278255546078887,2.035750849657329,-0.3386472487228827,40.497626925595284,11.342852628800417,0.0,1.0,0.0,0.0,1.0,Taxi
3.7,-0.10029074211486598,-22.34175667178843,8.51993265296816,1.691771294558351,0.29138887876849645,40.5094685416268,10.751078997083342,0.0,1.0,0.0,0.0,1.0,Taxi
3.8000000000000003,-0.07736269209221229,10.809375815399662,10.097016533357317,1.9776125649509084,0.1236748890622241,40.358598836100214,11.563911686495455,0.0,1.0,0.0,0.0,1.0,Taxi
3.9000000000000004,0.09217783454162197,16.607450704285554,10.358282957277744,1.7802796973410082,-0.11129895107131238,40.42453030382393,9.969789735086492,0.0,1.0,0.0,0.0,1.0,Taxi
4.0,-0.017253488593438265,26.16506896985236,10.441415531430655,1.69707892257853,-0.5476512862534538,40.349128649892634,11.370042037804422,0.0,1.0,0.0,0.0,1.0,Taxi
4.1000000000000005,0.05346265275704946,-45.43819928674886,10.741838042463936,2.221594122930386,-0.2943647610692194,40.31752162972424,11.021241214494882,0.0,1.0,0.0,0.0,1.0,Taxi
4.2,-0.1350131618921224,30.770233813418844,9.886364701965478,1.9722483719709842,0.2429953902586234,40.434413312280526,11.134110887970298,0.0,1.0,0.0,0.0,1.0,Taxi
4.3,0.13659768047365592,21.986860510233768,10.924728701051068,2.034314570556124,-1.0886846377863708,40.50571670942776,10.520852429432898,0.0,1.0,0.0,0.0,1.0,Taxi
4.4,0.16339695530821824,29.765182573721216,9.405261863168537,1.807934554113488,1.2721152174165877,40.372227440172196,10.97846635601882,0.0,1.0,0.0,0.0,1.0,Taxi
4.5,0.013812750976483613,-56.279897605672396,10.787962221707618,1.6736774725365904,-0.15191114868287012,40.474974826628454,10.050070006414181,0.0,1.0,0.0,0.0,1.0,Taxi
4.6000000000000005,-0.14480180755470606,-23.9101520893783,9.661621761927565,1.622473817381087,0.1925572931593427,40.35211100176173,10.779742000431956,0.0,1.0,0.0,0.0,1.0,Taxi
4.7,0.04384619486132668,-12.749520123978549,10.296297971279454,1.6226240239498049,0.5458588393324584,40.43146812547559,11.211175462105293,0.0,1.0,0.0,0.0,1.0,Taxi
4.800000000000001,-0.04993484964340917,17.967463949653087,9.915029045389295,2.145807628301631,0.2162465792654856,40.471049734702206,11.004193557199203,0.0,1.0,0.0,0.0,1.0,Taxi
4.9,-0.05496448780644066,-12.126366737440378,10.594542328005751,1.610875174483433,-0.296548842236228,40.475876850247914,10.441292414992583,0.0,1.0,0.0,0.0,1.0,Taxi
5.0,-0.01678563882587523,3.2488981341694516,11.102133699267554,1.9727156936023904,-0.5782748569902493,40.5702921950608,10.440583147694566,0.0,1.0,0.0,0.0,1.0,Taxi
5.1000000000000005,-0.03369035897256193,33.297487438701154,8.172127727505107,1.9951630910480656,-1.4657629702879764,40.39080898977005,10.356437936376857,0.0,1.0,0.0,0.0,1.0,Taxi
5.2,0.11152294938706511,35.188193426050255,11.005750228157167,2.22650054384535,0.6611963918649739,40.45357958305635,11.03050274512292,0.0,1.0,0.0,0.0,1.0,Taxi
5.300000000000001,0.15915532830437606,23.097986740278476,10.852687898417667,1.8333805659730613,0.45051661318654657,40.39238676366688,10.024754293916239,0.0,1.0,0.0,0.0,1.0,Taxi
5.4,0.08179957472883044,-54.34848055487339,10.228927623310625,1.7549114051246089,-0.7752670177791924,40.65686514257726,10.679688319453787,0.0,1.0,0.0,0.0,1.0,Taxi
5.5,-0.16021945338730184,-6.102470549950898,10.655546638880454,1.7071393333982445,-0.3831025467480661,40.523917915480524,10.784431579838763,0.0,1.0,0.0,0.0,1.0,Taxi
5.6000000000000005,0.12864297555462154,7.246501941297026,10.89773392645739,1.665240270949038,0.7214995318810475,40.46274835226052,10.599158573140441,0.0,1.0,0.0,0.0,1.0,Taxi
5.7,0.11803208443531554,48.218585177252294,10.719859663339873,1.6091057231431496,-0.02935580748415907,40.38887661226977,10.252885119095653,0.0,1.0,0.0,0.0,1.0,Taxi
5.800000000000001,0.0808734724989596,-47.9033826921661,9.731468824514856,2.0262127969795727,0.39688798220746846,40.40566723515349,11.15882894527159,0.0,1.0,0.0,0.0,1.0,Taxi
5.9,-0.11087393790620897,6.477710414950688,10.720399280025193,1.839576026454077,0.1640264243225278,40.46164896792686,11.822814774546405,0.0,1.0,0.0,0.0,1.0,Taxi
6.0,0.15042063651006896,-32.89250618692595,9.456410994808431,2.0260026133708395,0.3633075743076712,40.376065484700916,11.642091961101992,0.0,1.0,0.0,0.0,1.0,Taxi
6.1000000000000005,-0.08358905843567019,11.689162245437037,9.660440511130192,1.9153004185621352,0.27080050015869966,40.46576610678369,10.787318986449844,0.0,1.0,0.0,0.0,1.0,Taxi
6.2,-0.052428126679023836,-27.367803638135808,9.77250891023761,1.6063842674901394,0.2096847079354966,40.41212832573393,9.584680006731974,0.0,1.0,0.0,0.0,1.0,Taxi
6.300000000000001,0.01358161831938988,21.95016210637732,9.857164545022876,1.8590149680600876,-0.8848945588746476,40.28349241539331,10.76278597914723,0.0,1.0,0.0,0.0,1.0,Taxi
6.4,0.026161752096216358,-8.199250768794391,10.388721712053064,1.752300574573669,-0.8028520496473792,40.4084366339261,10.208451661887278,0.0,1.0,0.0,0.0,1.0,Taxi
6.5,-0.09342438052299583,-17.115219247447346,9.38744799888881,1.6737765115983072,-0.03847002016546034,40.40086999491945,10.720535043339455,0.0,1.0,0.0,0.0,1.0,Taxi
6.6000000000000005,-0.07199447791784691,-8.25336117413211,10.642838460089605,1.6296853163063816,-1.0162860916058436,40.32746987749334,11.220893417041266,0.0,1.0,0.0,0.0,1.0,Taxi
6.7,-0.015105053774444242,78.73885327752946,10.475534886469761,1.910261093953862,0.7392554541972943,40.48207324408611,11.20708122177135,0.0,1.0,0.0,0.0,1.0,Taxi
6.800000000000001,0.30026988586465136,47.86480471295394,9.993793632428952,1.8852884048891727,-0.018298166282333158,40.483407893905394,10.014754651447333,0.0,1.0,0.0,0.0,1.0,Taxi
6.9,0.16732954564692273,-26.86343613048156,9.81940506778301,2.1593871076752156,-0.20674699229720833,40.38022124567556,10.450468526214264,0.0,1.0,0.0,0.0,1.0,Taxi
7.0,-0.14942223442685204,-70.87333099569771,8.935055479504731,1.6908502409605346,-0.24362221677726273,40.255691292614245,11.434368958684347,0.0,1.0,0.0,0.0,1.0,Taxi
7.1000000000000005,-0.05409676911383718,-48.536858285503,11.239695086461044,1.6220248666385841,0.4444921453576585,40.4664617356658,10.581640727745576,0.0,1.0,0.0,0.0,1.0,Taxi
7.2,-0.07535474578059224,29.613433220912327,10.081113030236404,1.7753496708982262,-0.6949426418130864,40.43693103619381,10.07677136230844,0.0,1.0,0.0,0.0,1.0,Taxi
7.300000000000001,-0.0013550683222904132,19.05863839123139,10.390946607570967,1.5446867240581208,0.006576467110868975,40.44751275287297,10.541012795817236,0.0,1.0,0.0,0.0,1.0,Taxi
7.4,0.04119642284231978,-32.71922919165116,10.41809254436501,2.14833101496442,0.2651698745667811,40.62752071732103,11.057248008850944,0.0,1.0,0.0,0.0,1.0,Taxi
7.5,-0.238950891738848,-7.781561958838793,10.1998857199681,1.7899541947679503,-0.5366329587774062,40.417001983310854,11.439783615742403,0.0,1.0,0.0,0.0,1.0,Taxi
7.6000000000000005,-0.040262878116484345,-10.617887760051161,10.662998269199251,1.8524919284426735,0.2764134390443994,40.387924856839334,10.41952900165835,0.0,1.0,0.0,0.0,1.0,Taxi
7.7,-0.011893015957936006,47.32881291311901,10.78368135170196,1.8962334864004091,-0.11755860303689392,40.45530500405556,11.924359867543734,0.0,1.0,0.0,0.0,1.0,Taxi
7.800000000000001,-0.002306827173252936,-8.591437231836295,9.896817636544776,2.144812163701122,-0.39935503637470815,40.14755221786328,10.230026555772472,0.0,1.0,0.0,0.0,1.0,Taxi
7.9,-0.08322006427566582,16.92549646077501,10.096619469731502,1.6764854832601523,-0.7287217720393895,40.33242629942691,11.072309364229621,0.0,1.0,0.0,0.0,1.0,Taxi
8.0,0.07273446634593904,7.275231288883987,10.35075608726758,1.9390890283940867,0.3461310219254499,40.51581214656761,11.800451353630809,0.0,1.0,0.0,0.0,1.0,Taxi
8.1,0.03406932927116701,58.19765810781112,10.34724617066313,1.8582820003954728,0.11533035659741843,40.42564222892304,10.73149680926281,0.0,1.0,0.0,0.0,1.0,Taxi
8.200000000000001,0.2077682262633898,-9.055675835774394,9.678819768311877,1.618084324059064,0.14247484076032665,40.47985583738847,10.403493061984678,0.0,1.0,0.0,0.0,1.0,Taxi
8.3,0.02745608716706707,-0.6077283567276409,10.348760410004763,1.6515200651021598,0.6161127951768232,40.55739304362669,10.87120589207093,0.0,1.0,0.0,0.0,1.0,Taxi
8.4,0.031030687487528803,-64.83294402703235,10.846567345722887,1.9759529702782141,0.19935346995828637,40.40528071905908,10.151610604497774,0.0,1.0,0.0,0.0,1.0,Taxi
8.5,-0.116396493871772,-27.934405249100283,11.234072804368854,1.8312826105537705,0.24346571693733685,40.45236190446201,10.090392449580747,0.0,1.0,0.0,0.0,1.0,Taxi
8.6,-0.11221593907843436,2.5980701262038983,10.476308664001213,1.836278106560817,-0.7915625304928902,40.49634662647122,10.746505541364572,0.0,1.0,0.0,0.0,1.0,Taxi
8.700000000000001,0.044021038118548295,66.97150013128773,11.041559842823448,1.8442458670656754,1.0052010565415006,40.65717022225175,10.647460967418693,0.0,1.0,0.0,0.0,1.0,Taxi
8.8,0.21846100678466662,0.44302416085168755,10.78915698966204,1.4959465563973509,-0.05117409956541166,40.57608329958612,10.277540952567563,0.0,1.0,0.0,0.0,1.0,Taxi
8.9,-0.11000081827417595,-4.824881134726411,10.207096889674498,1.7921752990404298,0.3007331026551622,40.507718214644456,10.182261065279075,0.0,1.0,0.0,0.0,1.0,Taxi
9.0,0.019896632444916226,-52.90214798782019,10.342286924982483,1.7318776413198094,0.2917541198093452,40.41517815466102,10.282211927859585,0.0,1.0,0.0,0.0,1.0,Taxi
9.1,-0.046049733154434364,16.950624422423257,10.190730942885986,1.737850688050967,-0.26909944840350014,40.54706552569269,10.765626132704321,0.0,1.0,0.0,0.0,1.0,Taxi
9.200000000000001,-0.02524769616205968,-31.553338986288594,10.642015612615674,2.251147132673695,-0.6909756880644301,40.574202764999825,11.418333134164865,0.0,1.0,0.0,0.0,1.0,Taxi
9.3,-0.13787006248652675,0.5510979895748562,9.774196833873779,1.8185966053424898,-0.031617839529553465,40.55766961541963,10.766828847600735,0.0,1.0,0.0,0.0,1.0,Taxi
9.4,-0.043294243206560085,32.152631441294446,11.157148306264459,1.7642857397996452,0.28628157190760894,40.21458465459364,11.440071155347846,0.0,1.0,0.0,0.0,1.0,Taxi
9.5,0.13551546104441253,19.44316150178508,10.75056016890217,1.922803793404352,-0.7062171532477286,40.431616951064996,10.667247977586026,0.0,1.0,0.0,0.0,1.0,Taxi
9.600000000000001,-0.04065425497760137,31.258295638309036,9.13312023304104,1.6637413449269554,-0.27776621615015995,40.6198496294586,10.566280178286707,0.0,1.0,0.0,0.0,1.0,Taxi
9.700000000000001,0.11299723498498507,-8.204003850797157,10.037481691480194,1.7558340894455902,-0.4173235015000773,40.66824341878112,10.646957092294752,0.0,1.0,0.0,0.0,1.0,Taxi
9.8,0.09449544179042672,-19.342610062068832,9.453310141886737,1.7524473517085204,0.42619976619249306,40.368459602242524,10.104732537742379,0.0,1.0,0.0,0.0,1.0,Taxi
9.9,-0.13736730528794555,-66.74045597664367,10.717061895460906,1.7483988540060111,0.4505604243324191,40.533350037746004,10.507669236394696,0.0,1.0,0.0,0.0,1.0,Taxi
10.0,-0.2207050448982334,10.620977371585363,9.89947513200319,2.2740876124249882,0.3089536185153645,40.365038623246505,10.447336011779491,0.0,1.0,0.0,0.0,1.0,Taxi
10.100000000000001,0.14760032864835348,-9.599998026903345,10.17005116386866,1.5425072793399282,0.5204299280260387,40.603910880407284,11.215846149747893,0.0,1.0,0.0,0.0,1.0,Taxi
10.200000000000001,-0.18536729542246233,54.37032556552487,10.678930700788312,2.0377856767991323,0.272841914996759,40.273107321659324,10.540729115769954,0.0,1.0,0.0,0.0,1.0,Taxi
10.3,0.05114658292939095,-4.033248454434594,10.584460741929998,1.8008619146341818,0.8496995564655366,40.677565031886616,10.99283616978454,0.0,1.0,0.0,0.0,1.0,Taxi
10.4,0.12743408637618048,60.384621669602076,9.92093055476091,2.2002638984103022,0.17699157047098837,40.439855546929266,10.216933882480216,0.0,1.0,0.0,0.0,1.0,Taxi
10.5,0.11655581292554802,-25.57318414599102,10.119911089304672,2.052909542590172,0.8135041551846582,40.45411302994523,10.46630089244511,0.0,1.0,0.0,0.0,1.0,Taxi
10.600000000000001,-0.07671933780056422,-58.198831293271304,10.858748042641583,1.5573164679322509,-0.2906843007456557,40.373851300266324,11.796155096704755,0.0,1.0,0.0,0.0,1.0,Taxi
10.700000000000001,-0.16356007009017615,6.753095112916384,10.733287398722265,1.97338542138171,-0.08558972280868547,40.36835417942956,11.571246811497444,0.0,1.0,0.0,0.0,1.0,Taxi
10.8,0.15032128849012982,-12.463336821473272,9.873591948807078,1.8720381592717052,-0.4676686385103107,40.50891354377154,11.152665045053325,0.0,1.0,0.0,0.0,1.0,Taxi
10.9,-0.13903602190793077,48.457483633539404,9.626904877111732,2.152587798901828,0.23225881866577738,40.46864219482876,9.822184111963782,0.0,1.0,0.0,0.0,1.0,Taxi
11.0,0.07872734807752076,-6.316699583257226,10.12561304183117,1.7789286791702206,-0.33039018527866154,40.45096474556186,11.083616266821968,0.0,1.0,0.0,0.0,1.0,Taxi
11.100000000000001,0.11873779057384358,30.34329034277272,9.51947628915133,2.010902789982234,-0.5255475002406799,40.526338181574715,10.774781283366366,0.0,1.0,0.0,0.0,1.0,Taxi
11.200000000000001,0.012680429805932775,-19.583575301335745,10.759899281846769,2.07975245740375,-0.22909857820697924,40.58164173722702,10.845855739658477,0.0,1.0,0.0,0.0,1.0,Taxi
11.3,-0.019190528429158013,-7.485580441153407,10.432783224842618,1.6382391843054636,-0.27141882363133474,40.70539585989815,10.496650180231397,0.0,1.0,0.0,0.0,1.0,Taxi
11.4,0.08130988836807651,-20.06648510794483,9.806548950711461,1.8670570064059087,0.6076307348430833,40.41811481389294,10.837354031929527,0.0,1.0,0.0,0.0,1.0,Taxi
11.5,-0.08765199573379141,12.92430706993927,10.773638576073978,1.906290998103819,0.25959735379092613,40.3131745348191,10.748872146892428,0.0,1.0,0.0,0.0,1.0,Taxi
11.600000000000001,0.04543100692053828,-12.930761836653621,10.400658857300183,1.6880571958186426,0.9959016792293249,40.426188592969595,10.915207541073793,0.0,1.0,0.0,0.0,1.0,Taxi
11.700000000000001,0.01665607918480834,59.391186391829955,9.121783655957005,1.8570404478049345,-0.606148314924168,40.35729028571353,10.924222910051983,0.0,1.0,0.0,0.0,1.0,Taxi
11.8,0.20930393622535834,-35.21976613126147,9.517031431472097,1.585830983680561,0.38832486822661405,40.34840451695476,10.378165909186894,0.0,1.0,0.0,0.0,1.0,Taxi
11.9,-0.1306678237357691,5.731598937292669,10.643477551274268,1.9437030115378617,-0.8234156683586744,40.404687812004454,10.760311741940747,0.0,1.0,0.0,0.0,1.0,Taxi
12.0,0.045314073871271635,-64.2504599393496,10.246145677101673,1.8045187546697183,-0.20656057360121083,40.28293634731159,10.86842260454722,0.0,1.0,0.0,0.0,1.0,Taxi
12.100000000000001,-0.11194836347138969,24.65109252995082,10.511808308100022,2.236475610035411,0.42464784099350666,40.40330003219617,11.404043120992496,0.0,1.0,0.0,0.0,1.0,Taxi
12.200000000000001,-0.007412361086015057,-16.05285967247552,10.04712192341131,1.7240015444030043,-0.26008265998967955,40.53948253997987,10.893274232927547,0.0,1.0,0.0,0.0,1.0,Taxi
12.3,-0.034950224491106,4.999473888057369,10.73647645423564,1.915367311208266,0.4892854538761583,40.409378167670184,10.352555815718736,0.0,1.0,0.0,0.0,1.0,Taxi
12.4,-0.08695099403110287,9.074744838239821,10.382014644463322,1.9511898371332375,0.4258749951934419,40.55702471442771,11.716050074977305,0.0,1.0,0.0,0.0,1.0,Taxi
12.5,0.037961363105184005,13.52776191936656,9.474619126153831,2.2473884720176223,0.42403708196309053,40.44550026308514,10.63547175264769,0.0,1.0,0.0,0.0,1.0,Taxi
12.600000000000001,0.032688585105726746,36.59848756092662,10.703783674840974,1.8502158917831304,0.905277908146061,40.395699125412534,10.904757189883188,0.0,1.0,0.0,0.0,1.0,Taxi
12.700000000000001,0.09604144377353019,3.4605601570200357,9.546006924523878,1.919006768734537,-0.1191049937617306,40.52477384781571,10.662443125952098,0.0,1.0,0.0,0.0,1.0,Taxi
12.8,0.05526416389028415,-0.2628499474429831,10.685656793354097,1.682484034779222,-0.46167524361713896,40.34630018417721,10.471957291507877,0.0,1.0,0.0,0.0,1.0,Taxi
12.9,0.031374335368511794,3.2752923478906433,10.469945990859959,1.9592717496077101,0.9801674949040174,40.70153735648125,10.850877165230344,0.0,1.0,0.0,0.0,1.0,Taxi
13.0,0.11241790551298336,-12.639555631431948,11.258063486032583,1.7574314333225853,-0.24822902710673878,40.46406992153493,10.030710761184961,0.0,1.0,0.0,0.0,1.0,Taxi
13.100000000000001,-0.00793361426687564,-1.822502107687259,10.379768829131038,1.918190535801821,-0.4866212612956086,40.54071140346781,10.886956269302944,0.0,1.0,0.0,0.0,1.0,Taxi
13.200000000000001,0.022261824830075452,-24.718386165874303,9.31600140391132,1.9452108469929232,-0.06122278038327553,40.3812408527275,11.25308308928228,0.0,1.0,0.0,0.0,1.0,Taxi
13.3,-0.011174025316388196,35.650115939414455,9.775403681217279,1.8439892873172685,0.015863214743902843,40.51269976865677,10.438484355083025,0.0,1.0,0.0,0.0,1.0,Taxi
13.4,0.1703169654301966,-6.46201564861092,11.0304172994965,1.6460003914866694,0.6194117646166942,40.50637669659545,10.347763627244664,0.0,1.0,0.0,0.0,1.0,Taxi
13.5,-0.010048253412979224,-15.123283242289524,8.294566387932116,1.7435070766572878,0.019968640358945484,40.508107120550164,9.884881456228591,0.0,1.0,0.0,0.0,1.0,Taxi
13.600000000000001,-0.0867904415278359,-82.04701353297571,9.873043837308304,2.25755171608425,0.17166678805034497,40.497928092257666,10.624442470132227,0.0,1.0,0.0,0.0,1.0,Taxi
13.700000000000001,-0.23991810223468205,37.173307437831596,9.023022747837977,2.0343219255348224,0.4581995916585146,40.31345422292492,10.044604637654071,0.0,1.0,0.0,0.0,1.0,Taxi
13.8,0.17581828377617872,31.266799183677836,11.30868704563088,1.923616452131482,-0.3552289097759323,40.41235583561115,11.773929946617757,0.0,1.0,0.0,0.0,1.0,Taxi
13.9,0.06954355439055324,64.10357564425907,9.482638203777558,2.0851967764207076,-0.13288209532484935,40.59429005895362,10.86082742144224,0.0,1.0,0.0,0.0,1.0,Taxi
14.0,0.08059977598661328,-12.983658287402747,10.899958788402932,2.0432049819287967,0.5850766017473664,40.335356778856465,10.838027606455315,0.0,1.0,0.0,0.0,1.0,Taxi
14.100000000000001,0.11089999233916492,-16.97726899658645,10.275789568050072,1.9331067824204229,0.8738958130923685,40.49687941305558,10.010410211906294,0.0,1.0,0.0,0.0,1.0,Taxi
14.200000000000001,-0.01534279059237907,-25.031699174932402,9.668751153859917,1.5265560127822964,-0.14436641095106528,40.38019722958376,11.489708086042143,0.0,1.0,0.0,0.0,1.0,Taxi
14.3,-0.0445587198880488,-31.260968683853665,10.458670046188125,1.8437546071626036,0.5461180891528638,40.36632580335299,10.829411760055345,0.0,1.0,0.0,0.0,1.0,Taxi
14.4,-0.04540485108010344,22.33908334594875,9.618547787054563,2.093433189143667,1.0225068978595098,40.34395624522898,11.033634828607287,0.0,1.0,0.0,0.0,1.0,Taxi
14.5,0.09635262613736464,1.3714427063438184,9.639879777274288,1.65130084153461,0.22317087650789733,40.29854594086862,10.209203634890565,0.0,1.0,0.0,0.0,1.0,Taxi
14.600000000000001,-0.037701506356329774,7.0429996221484314,10.062416040128424,1.9126773510972561,-0.010862915593890127,40.55346477450996,10.973974828056678,0.0,1.0,0.0,0.0,1.0,Taxi
14.700000000000001,-0.01018985296936134,-21.261675000879936,10.05473753774124,2.2681531261262404,0.5094729329740052,40.41387002413569,10.84165789309822,0.0,1.0,0.0,0.0,1.0,Taxi
14.8,-0.009955748867035086,-15.35558355505687,9.843349681091421,2.2777195251176536,1.0672409423628009,40.293755375537785,10.315386464054198,0.0,1.0,0.0,0.0,1.0,Taxi
14.9,-0.11447942413161415,26.425699377522943,9.677675919688333,2.062570726775789,0.06888157621280382,40.48308334105701,10.693942853320438,0.0,1.0,0.0,0.0,1.0,Taxi
15.0,0.12193864391825336,19.429655989361258,9.722380704624024,1.9323320975612865,-0.2356125038388364,40.56990209868417,9.908361838499768,0.0,1.0,0.0,0.0,1.0,Taxi
15.100000000000001,0.08719253107977121,32.235117845686425,11.148813141875086,1.6195664404991965,-0.4796116093765066,40.5910771738242,9.835153604984143,0.0,1.0,0.0,0.0,1.0,Taxi
15.200000000000001,0.04669616509681797,-42.63553180951792,9.808619456058636,2.011038340729038,0.2183029506512114,40.50159539139395,10.62356932344548,0.0,1.0,0.0,0.0,1.0,Taxi
15.3,-0.0912390151293363,-12.215935489618559,9.830258380541808,2.1693095780387637,-0.44916161626703793,40.31459988398905,10.957808930961127,0.0,1.0,0.0,0.0,1.0,Taxi
15.4,0.026112853631678347,6.54423216984181,10.065807935219494,1.8743732229835985,-0.2601087621469636,40.58094853058668,10.93202262612673,0.0,1.0,0.0,0.0,1.0,Taxi
15.5,0.07941732594602696,48.26880744588468,10.491261537085462,1.7856261721442928,0.3641337373353173,40.59954038464599,11.07982297046541,0.0,1.0,0.0,0.0,1.0,Taxi
15.600000000000001,0.1501050221000871,-7.858274862255598,9.954756591906607,1.8640948532012827,0.5544014845123042,40.5010113716433,11.420370123243494,0.0,1.0,0.0,0.0,1.0,Taxi
15.700000000000001,-0.013178520679599699,-4.124193831020456,10.439436584079552,1.9682247135165676,0.26494074588629934,40.45025298845002,10.19891506973253,0.0,1.0,0.0,0.0,1.0,Taxi
15.8,0.05879635679092463,-21.833347708005025,11.150975136395935,1.6281843181894609,0.5632755143662205,40.419581281389526,10.830551152413424,0.0,1.0,0.0,0.0,1.0,Taxi
15.9,0.04093828356006192,-17.961388234035194,8.500183336007927,2.0057770724515254,0.556649527829453,40.547487732925845,10.899322129657591,0.0,1.0,0.0,0.0,1.0,Taxi
16.0,-0.10298546184977571,-14.830335529803575,9.409353248005766,2.0301792734714863,0.2559022768751503,40.619063761595896,11.758342321212654,0.0,1.0,0.0,0.0,1.0,Taxi
16.1,-0.015355320858093269,-8.08105257598282,10.518566806217475,1.7719637498770324,-0.6380913711539966,40.30375392615133,10.299065221591317,0.0,1.0,0.0,0.0,1.0,Taxi
16.2,0.0005330206801477752,67.83841800182215,10.475276368104801,1.819425381662889,-0.11592966524840319,40.385686326242705,9.935062462767858,0.0,1.0,0.0,0.0,1.0,Taxi
16.3,0.2362066281593349,15.078431487903297,10.254521511809418,1.8419657417014752,-0.04058889271314354,40.61170027286346,10.110405640771646,0.0,1.0,0.0,0.0,1.0,Taxi
16.400000000000002,0.06003683658142315,19.922672754796853,9.945668885818563,1.9977877516264266,0.5316421089871387,40.570799284730356,11.401078508619326,0.0,1.0,0.0,0.0,1.0,Taxi
16.5,0.10014638445413196,-44.77845836521694,9.44747696071629,1.646617653828951,-0.461389749689807,40.40989942735513,10.258295243302937,0.0,1.0,0.0,0.0,1.0,Taxi
16.6,0.012314336333250148,-74.1305882656953,9.151987314503694,1.5577417395091968,-0.2818543833018461,40.28410580548581,10.835410293456775,0.0,1.0,0.0,0.0,1.0,Taxi
16.7,-0.3106161047470535,-23.29467500217814,10.6098029327803,2.023701631417156,-0.3042053847048213,40.412446090012395,10.463723483259278,0.0,1.0,0.0,0.0,1.0,Taxi
16.8,-0.016326990556758823,11.060290110163159,10.058447834459788,2.1331904976055904,0.2052238781200785,40.44899085585894,10.57729669615318,0.0,1.0,0.0,0.0,1.0,Taxi
16.900000000000002,0.06761578688406585,39.13745351061551,9.735338444469978,2.179097166736015,0.061219005673816024,40.46523006957443,10.711289897450389,0.0,1.0,0.0,0.0,1.0,Taxi
17.0,-0.11492883719397601,16.71113448006911,11.605666636455293,2.158389629153983,-0.8015192821002407,40.466958752049095,9.664360424127763,0.0,1.0,0.0,0.0,1.0,Taxi
17.1,0.0672286818435866,-18.789773978750876,10.145345780951649,1.9160794566636188,0.16213472721772498,40.627627043169184,11.26645995519676,0.0,1.0,0.0,0.0,1.0,Taxi
17.2,-0.02633308300968867,5.333746946408624,10.447032671503965,1.7319762865188877,-0.6045802197199318,40.41790366005421,11.479887160810655,0.0,1.0,0.0,0.0,1.0,Taxi
17.3,-0.088260102461933,-27.234889922490385,11.24731060361863,1.901601688619774,-0.4962873677664291,40.49271399530943,10.219748928214248,0.0,1.0,0.0,0.0,1.0,Taxi
17.400000000000002,-0.06894576776886545,4.514195843698921,10.859936620688476,2.2960347395627423,0.3944357415491294,40.53133080636371,11.197666704788404,0.0,1.0,0.0,0.0,1.0,Taxi
17.5,-0.003762103791194166,-7.342441211535646,10.649772069545156,1.759529345880519,0.3758565628468783,40.39736573388882,11.391128849602994,0.0,1.0,0.0,0.0,1.0,Taxi
17.6,-0.12497230851961134,-11.138158803153102,10.628323863455195,1.6977452434258407,0.12600944533213848,40.511811514665055,10.64978366948294,0.0,1.0,0.0,0.0,1.0,Taxi
17.7,-0.12463656178463108,2.4086073569565323,9.608854693242332,1.6787385093827853,-0.08327370763412044,40.35972630896015,10.601436921345366,0.0,1.0,0.0,0.0,1.0,Taxi
17.8,0.008280932993588395,27.615400722074956,9.381365639348374,2.0706074606395797,-0.5032909883049177,40.47308544800899,11.39637344633077,0.0,1.0,0.0,0.0,1.0,Taxi
17.900000000000002,0.013104695090763344,26.430924718615334,9.784465960559647,2.0570737590664026,-1.182742069660914,40.457800139463416,10.329944045429864,0.0,1.0,0.0,0.0,1.0,Taxi
18.0,0.007518061808445497,-3.422295205333718,10.72245814674249,1.8813409325540176,-0.8149480707484557,40.41007682502533,10.86356628217828,0.0,1.0,0.0,0.0,1.0,Taxi
18.1,-0.008830543033080292,19.206110722327313,10.523266600483188,1.726500699767675,0.342399615446261,40.491680589546434,11.22244822102449,0.0,1.0,0.0,0.0,1.0,Taxi
18.2,0.10913524870239982,19.006207853069785,9.783199881161607,1.5712717183749536,0.2946738392512381,40.53968428843899,10.901419320560693,0.0,1.0,0.0,0.0,1.0,Taxi
18.3,0.10254910107379432,6.817506102346688,10.497993559102074,2.121408976346601,1.1954847939229107,40.530416294112,10.99579588342982,0.0,1.0,0.0,0.0,1.0,Taxi
18.400000000000002,0.025256987478653056,-39.728559173660905,9.541799272978947,2.1175088732745286,0.20155030347110447,40.40191658314018,10.640282622057736,0.0,1.0,0.0,0.0,1.0,Taxi
18.5,-0.0895075471659048,15.605748178921223,9.045407807518462,2.14053238813578,0.4798030129011925,40.53927969700061,10.85153114382703,0.0,1.0,0.0,0.0,1.0,Taxi
18.6,0.18057784196840035,-8.752725556257005,10.007896927737322,1.713179476790526,-0.7480674224122305,40.40139296396973,11.12273066228131,0.0,1.0,0.0,0.0,1.0,Taxi
18.7,-0.018506640302632077,9.937030571047238,9.906903176345633,1.6003790200241557,0.5990721884780368,40.43098647451336,10.976790093338742,0.0,1.0,0.0,0.0,1.0,Taxi
18.8,-0.03982239431066868,-29.404949605973204,9.919686008674333,1.7064013973126915,-0.1325948505328169,40.40954360288555,10.775187442320355,0.0,1.0,0.0,0.0,1.0,Taxi
18.900000000000002,0.03355309393853424,-3.6698468823432626,10.905728188756283,1.5856523804216218,0.2083544457327008,40.48921046497867,10.798142632968304,0.0,1.0,0.0,0.0,1.0,Taxi
19.0,-0.03685587471434846,-26.41750835064094,10.851182132643391,1.8459652322845752,-0.140892040982197,40.37310329487701,10.519991583367247,0.0,1.0,0.0,0.0,1.0,Taxi
19.1,-0.17190993606387342,15.07470889203592,10.19405402268229,1.8036438616129102,0.44482567668433504,40.27294927820674,11.201140801194283,0.0,1.0,0.0,0.0,1.0,Taxi
19.200000000000003,0.10892663839871386,-0.783694646220089,10.301881175899885,1.966436921408409,0.669986231348786,40.59954433177501,10.804476799433697,0.0,1.0,0.0,0.0,1.0,Taxi
19.3,-0.040774347945448895,52.44188996634724,9.987447640853135,1.8228438758155852,0.7242545654854904,40.49591355397291,10.597474193973294,0.0,1.0,0.0,0.0,1.0,Taxi
19.400000000000002,0.09029951376786272,-19.55869997322908,11.121554368100835,1.8250078177167692,1.1791169585806673,40.47594749690461,10.353821705593715,0.0,1.0,0.0,0.0,1.0,Taxi
19.5,0.011133138532568388,14.959333955490516,10.822451312047232,2.0498974097252494,0.023576162247437325,40.29068891245106,10.765035399739574,0.0,1.0,0.0,0.0,1.0,Taxi
19.6,0.03402232183200359,-44.23651043134438,10.221511391258035,1.971346389162567,-0.727974016450711,40.363540751522805,10.285935353042259,0.0,1.0,0.0,0.0,1.0,Taxi
19.700000000000003,-0.13088303838885926,7.121756702832651,10.910767467855555,1.967367317622628,-0.33871273610277947,40.43527240795004,10.778495994752772,0.0,1.0,0.0,0.0,1.0,Taxi
19.8,0.04674192204673155,-16.33798579215259,9.157257342284781,1.9282416272938467,0.07285237936834131,40.40548581053969,10.431616300131505,0.0,1.0,0.0,0.0,1.0,Taxi
19.900000000000002,-0.04766760712875944,43.355498477901996,10.465928574234407,2.017342315317795,0.4998301776731545,40.56152357821804,10.87188173946093,0.0,1.0,0.0,0.0,1.0,Taxi
20.0,0.08589445400065063,0.8839525501551767,10.219063615984547,1.7956406600021695,0.041607906709795806,40.358171450866166,12.050744942287633,0.0,1.0,0.0,0.0,1.0,Taxi
20.1,0.05116168479750734,13.53858823471929,9.922767159078225,1.7984115963883176,-0.6308466506450756,40.34692619574065,10.837206533092074,0.0,1.0,0.0,0.0,1.0,Taxi
20.200000000000003,0.0200253340448369,-5.762605672784184,10.363406366334905,1.9798709202677505,-0.2941790176107786,40.42351107487286,10.856140441997459,0.0,1.0,0.0,0.0,1.0,Taxi
20.3,0.05708142563672961,-13.390223824118664,9.953107851695727,2.4179502420142724,0.2848462622320091,40.314901060378816,10.56948247506638,0.0,1.0,0.0,0.0,1.0,Taxi
20.400000000000002,-0.015789434323086066,20.699407780192725,10.62821438097545,1.7042144068261944,0.17243756510250247,40.394286041231226,10.724865342821749,0.0,1.0,0.0,0.0,1.0,Taxi
20.5,0.12352237294580044,-16.82721788288546,10.086561475252621,1.813920905845225,0.07783792766979496,40.432751382353445,10.819180179249093,0.0,1.0,0.0,0.0,1.0,Taxi
20.6,-0.02705466377769779,6.6518867122631065,10.087153628085066,1.6253632697305358,-0.2554641356415559,40.431112064809724,11.265489615600773,0.0,1.0,0.0,0.0,1.0,Taxi
20.700000000000003,0.017469999238229367,-26.750346443487654,10.87384509097698,2.0496589673523555,-0.4430373922553279,40.480480211428244,10.948064403935685,0.0,1.0,0.0,0.0,1.0,Taxi
20.8,-0.010229359271637919,35.944415234505975,10.708001933191944,1.9244636291858817,-0.9396038279311301,40.376436702660726,11.288133926797679,0.0,1.0,0.0,0.0,1.0,Taxi
20.900000000000002,0.152667412394832,44.337363142676544,8.802414732480182,2.0484800353120853,-0.9549298541477746,40.46288035622297,11.101744431404292,0.0,1.0,0.0,0.0,1.0,Taxi
21.0,0.239156814951612,8.960143470690696,9.354351686366071,2.1204406567130327,-0.39199972607643024,40.33217902877061,11.099614421734758,0.0,1.0,0.0,0.0,1.0,Taxi
21.1,0.034571358081815474,-1.5311239934197733,9.821332215445109,1.4121941133766351,0.6149363479093534,40.52445353413333,10.800954445600498,0.0,1.0,0.0,0.0,1.0,Taxi
21.200000000000003,0.14501179242773304,-47.57240548994372,10.817184457698703,1.867924263412918,-0.9286436171912458,40.335011410081165,10.800554266727003,0.0,1.0,0.0,0.0,1.0,Taxi
21.3,0.0012947875018933116,-9.790355657533945,9.966047241752204,1.2694746878383296,0.11136480485191169,40.461959010657495,11.716902212298182,0.0,1.0,0.0,0.0,1.0,Taxi
21.400000000000002,-0.014380420205854387,-22.187003727880974,9.914121066610535,1.8058420755583293,-0.5782885097781985,40.39946232173793,11.150434675557793,0.0,1.0,0.0,0.0,1.0,Taxi
21.5,0.034076773788328046,6.14674645025296,10.264121573221408,1.9615221188760559,-0.7126290929388233,40.47442492483839,11.85464250265741,0.0,1.0,0.0,0.0,1.0,Taxi
21.6,0.032028519753158,8.53047820752356,9.365037392490462,1.8601818494305766,0.4756659905857763,40.48844680575411,10.859748868153076,0.0,1.0,0.0,0.0,1.0,Taxi
21.700000000000003,0.028271970831763304,8.534525252868136,10.645090473791193,1.973204841818789,-0.06329528243669783,40.431819498507764,10.25325589956131,0.0,1.0,0.0,0.0,1.0,Taxi
21.8,0.07674940005266861,1.281526223019026,10.840067756277463,2.0173977339207614,0.12518081044963392,40.51540711261862,10.11572437110848,0.0,1.0,0.0,0.0,1.0,Taxi
21.900000000000002,0.03843615086825301,10.966906523595574,11.222631853245165,2.0167480223175835,-0.19060397506246024,40.35088276321193,11.398285517216172,0.0,1.0,0.0,0.0,1.0,Taxi
22.0,0.08310650344974106,-30.109877929426307,10.267471796923454,1.9999111666201517,-0.5016971526796373,40.48327956953972,9.809627257631714,0.0,1.0,0.0,0.0,1.0,Taxi
22.1,-0.07379998959446299,-13.175959634721673,10.716857812365516,2.0094632241054775,-0.7663785887231136,40.39771195785505,10.931034574292148,0.0,1.0,0.0,0.0,1.0,Taxi
22.200000000000003,-0.02744364730535541,-21.67089419445036,10.339742563485656,2.161901418313034,1.019391838518968,40.47021610655804,10.42282279785,0.0,1.0,0.0,0.0,1.0,Taxi
22.3,-0.02524796752251078,18.0167808669501,10.74405331066219,2.007716498322671,-0.5987723414944341,40.52193226723659,10.452537736812962,0.0,1.0,0.0,0.0,1.0,Taxi
22.400000000000002,0.01628391474028743,-16.14466955113674,9.84342237053989,1.9385779110164296,0.16722538584864158,40.51323498103477,10.295363843724441,0.0,1.0,0.0,0.0,1.0,Taxi
22.5,-0.1081669950610392,30.948820426509382,10.768097397708189,1.99443997587096,-0.7069947489457934,40.50215359724268,10.124645203916858,0.0,1.0,0.0,0.0,1.0,Taxi
22.6,0.1294961346100361,-17.292510362282794,10.532487272945769,2.0844149728695527,-0.6856541215178539,40.44953552106051,11.226695987692551,0.0,1.0,0.0,0.0,1.0,Taxi
22.700000000000003,-0.07017863707112658,27.919774289936196,10.148756709328827,1.7006983354669785,0.6455322780797508,40.439921604431845,9.90631716961907,0.0,1.0,0.0,0.0,1.0,Taxi
22.8,0.031431876388641734,-28.056266274954023,10.09055763659389,2.097467130397287,0.4791406913026571,40.40605070131227,11.235026630319467,0.0,1.0,0.0,0.0,1.0,Taxi
22.900000000000002,-0.010785196764734111,26.01746828732344,10.003694927686439,1.8700136003994021,-0.20063899383825248,40.40502257509979,10.912875722528533,0.0,1.0,0.0,0.0,1.0,Taxi
23.0,0.059908704365490534,20.840603815515724,10.842576478648207,2.028867232747557,1.2200337573471405,40.33128073484363,11.662427445610662,0.0,1.0,0.0,0.0,1.0,Taxi
23.1,0.1356348954662203,-4.75163155449783,9.979269604427234,1.797877723770799,0.04456694797420714,40.274316723027255,11.099322530193618,0.0,1.0,0.0,0.0,1.0,Taxi
23.200000000000003,-0.03454335453722332,7.354099244119638,11.063382013806256,2.1416818331389114,0.5574507116690656,40.5197943570588,10.981176546949179,0.0,1.0,0.0,0.0,1.0,Taxi
23.3,0.09667920058608868,-18.985113165820557,9.724378266462809,2.068460630010037,0.47291680311480505,40.601795304037125,11.002312547684246,0.0,1.0,0.0,0.0,1.0,Taxi
23.400000000000002,0.04070932963711746,-7.741350548405822,10.472576242271032,1.6786217728987631,0.09838060805639863,40.58903445161286,10.539449019999937,0.0,1.0,0.0,0.0,1.0,Taxi
23.5,-0.07325010727925248,-14.150968884638141,10.772216766829006,1.4939968670630186,0.07280190544593279,40.24799216773147,10.754011895142586,0.0,1.0,0.0,0.0,1.0,Taxi
23.6,0.0259243561628979,-14.402493391583725,9.965643438760852,1.8085320730906822,-0.5837607142238377,40.5099493858778,10.586333884216051,0.0,1.0,0.0,0.0,1.0,Taxi
23.700000000000003,-0.03130313732080125,35.979515109049494,10.329387362830776,2.0057368109711313,0.5191767335800396,40.3803475955084,10.961332932256813,0.0,1.0,0.0,0.0,1.0,Taxi
23.8,0.10664746826599494,-10.813106947693058,10.92996241474347,1.574977993941176,0.6808575216607766,40.57115407626486,11.172620793745573,0.0,1.0,0.0,0.0,1.0,Taxi
23.900000000000002,-0.028141178575567433,-7.821401381310097,9.689198790648096,1.9853899854046753,0.50932978995688,40.47733138454771,10.406442467023348,0.0,1.0,0.0,0.0,1.0,Taxi
24.0,-0.07041014422735177,2.5600414628482278,10.216499347010783,2.384918150879245,0.2228349236010566,40.53130702853065,10.887839759787813,0.0,1.0,0.0,0.0,1.0,Taxi
24.1,0.11944767558023604,-12.049606992501566,10.922466987259142,2.0169007464124094,0.31864634779036827,40.49970165926618,10.191684755372643,0.0,1.0,0.0,0.0,1.0,Taxi
24.200000000000003,-0.08838921353807533,3.625857153180488,10.888346563979338,1.830586999149042,-0.22853692860206629,40.44697346584195,10.60033894189306,0.0,1.0,0.0,0.0,1.0,Taxi
24.3,-0.0522808584614494,-36.25611973705143,9.7621178099452,1.7370611689450233,0.5036308107340594,40.36199319855689,10.62598722299431,0.0,1.0,0.0,0.0,1.0,Taxi
24.400000000000002,-0.06183292310502119,3.7695976425600684,10.885757668316819,1.883509789578295,-0.540428191214533,40.47509683008985,10.840734631379192,0.0,1.0,0.0,0.0,1.0,Taxi
24.5,-0.06954122532527506,25.094586990797385,9.53210313203942,2.135876850167628,0.13817486081793218,40.48622358606684,10.51381110646315,0.0,1.0,0.0,0.0,1.0,Taxi
24.6,0.07319207649253745,17.44937202127954,10.537098238270385,1.8076301289339558,0.7156354088074754,40.474169197968536,10.164681412152465,0.0,1.0,0.0,0.0,1.0,Taxi
24.700000000000003,0.02541393700137641,38.44272772627857,9.116190968806826,1.7749105996038677,-0.08722020904639055,40.383991035735335,11.190073889980427,0.0,1.0,0.0,0.0,1.0,Taxi
24.8,0.12267241330611772,-51.62064814089672,10.553920886151415,2.080271009513067,-0.4819287024429688,40.43562763693615,10.793377646610928,0.0,1.0,0.0,0.0,1.0,Taxi
24.900000000000002,-0.1849111642119462,-10.066448627945789,9.49919805267968,1.9776110826985491,0.23416793418031218,40.512678954655314,11.627103718661596,0.0,1.0,0.0,0.0,1.0,Taxi
25.0,-0.02491830613835258,-36.15066179771069,9.078804986590095,1.7508306841547414,-0.1688823427375184,40.579417064167274,11.492858796843937,0.0,1.0,0.0,0.0,1.0,Taxi
25.1,-0.05808089568243579,33.30397810240704,10.105330643816734,1.6726424368518114,1.6278039306790884,40.62934072422064,10.571750804510332,0.0,1.0,0.0,0.0,1.0,Taxi
25.200000000000003,-0.018391273699911125,31.161919447006742,9.792866238491582,1.3552532501588885,0.0038046063039107163,40.373355997192675,10.131144807224288,0.0,1.0,0.0,0.0,1.0,Taxi
25.3,0.13089129109668105,30.32915687730232,10.238330432419518,1.9021889998418007,-0.6874835078330543,40.39893204234676,10.283104909544994,0.0,1.0,0.0,0.0,1.0,Taxi
25.400000000000002,0.09356488870407571,-37.27670671041514,11.13059740273734,1.8833845969595326,0.5748773584107387,40.33279871337305,11.252898589438482,0.0,1.0,0.0,0.0,1.0,Taxi
25.5,-0.20477480725198693,-56.31869018324454,10.522234368423646,2.0095333252849916,-0.5811437808547786,40.61142451974655,11.158281631618317,0.0,1.0,0.0,0.0,1.0,Taxi
25.6,-0.1507021598195418,-3.9032496932158076,10.873068020001584,2.0085759446507963,-0.38302862167675894,40.58516748338758,11.510263662823638,0.0,1.0,0.0,0.0,1.0,Taxi
25.700000000000003,0.07404864023799655,27.448606638204726,11.0015808640464,1.6537757042428756,-0.04617843818865304,40.58751624663404,11.046223216212459,0.0,1.0,0.0,0.0,1.0,Taxi
25.8,-0.06753177406096339,24.396406251171765,10.357942323329365,1.8365088122072657,0.1028152017616557,40.38884840276495,10.476406213846214,0.0,1.0,0.0,0.0,1.0,Taxi
25.900000000000002,-0.028720128563683084,-31.35572710277651,10.187478030471125,2.024500234051173,-0.22510547651405108,40.41695970000944,11.609693806671618,0.0,1.0,0.0,0.0,1.0,Taxi
26.0,-0.0827299952758861,-22.019958798817342,9.492171320411078,1.939042982406611,-0.2754009381913841,40.46545410056791,10.364697462088232,0.0,1.0,0.0,0.0,1.0,Taxi
26.1,-0.17763156805505023,1.3557183771109134,10.785699289845848,2.117823648893632,-0.09931256341302015,40.37904218658133,11.426451275021972,0.0,1.0,0.0,0.0,1.0,Taxi
26.200000000000003,-0.021941536678128648,10.921008761534287,10.738978588227063,1.7897037878588982,0.14972595096492286,40.5096622902214,10.488994038749794,0.0,1.0,0.0,0.0,1.0,Taxi
26.3,-0.028124951468214806,47.41380323106075,9.630760882610629,1.946890660554767,-0.6998894661729018,40.512056361497514,10.96358721696002,0.0,1.0,0.0,0.0,1.0,Taxi
26.400000000000002,0.0594374481002534,23.154155491558726,10.654894224862872,1.7361300197639822,-0.6114319230465357,40.57124508169136,11.454259329420415,0.0,1.0,0.0,0.0,1.0,Taxi
26.5,0.09382924077966487,20.799674632860643,9.808851187240828,1.8674219700752002,0.5676528156449384,40.435138226861056,11.38509389054009,0.0,1.0,0.0,0.0,1.0,Taxi
26.6,0.0758734216960883,-6.299208273311199,10.668720426952895,2.1543154278344425,-0.6464740920114608,40.49685305505079,10.606754880244067,0.0,1.0,0.0,0.0,1.0,Taxi
26.700000000000003,0.02794140673369729,-34.07579566157527,11.246277582534645,1.6241398294230411,-0.3072613539487801,40.562022404035645,11.676156150959637,0.0,1.0,0.0,0.0,1.0,Taxi
26.8,-0.07654973752821159,-20.292231511573178,10.293357888521832,2.082996332912898,0.6914631723790942,40.450888116918065,9.944794765062138,0.0,1.0,0.0,0.0,1.0,Taxi
26.900000000000002,-0.025587735861777695,-24.73293290681347,11.44687503346027,1.7547892339554072,0.36166447412566166,40.277986516987255,10.830216398379978,0.0,1.0,0.0,0.0,1.0,Taxi
27.0,-0.09572325780037017,36.91955200989846,10.283971416057685,1.7254613094176225,-0.261539087609381,40.21712817122324,10.023646772001078,0.0,1.0,0.0,0.0,1.0,Taxi
27.1,0.10804802252128061,20.512430331063474,9.589300807447447,1.757979146503653,0.038752521072458156,40.45003003494003,10.58339536665683,0.0,1.0,0.0,0.0,1.0,Taxi
27.200000000000003,0.07697441579353959,39.08213539791087,9.227519036676018,1.8052672073469849,-0.29459730534427164,40.682422461635156,10.431106601837582,0.0,1.0,0.0,0.0,1.0,Taxi
27.3,0.09968741918918407,-11.137224094760796,8.269556363637726,1.8340447492113505,-0.6855021535758654,40.27673334298436,10.516140819665956,0.0,1.0,0.0,0.0,1.0,Taxi
27.400000000000002,0.0523619020474765,-46.131482337097395,11.82244723532606,2.020978406242855,0.8034493364859148,40.46249320809699,11.32123265072297,0.0,1.0,0.0,0.0,1.0,Taxi
27.5,-0.15368299589194753,0.41979239495793763,10.31321157151679,1.6614600447360408,0.10521021007717071,40.380264181551695,10.079837824981787,0.0,1.0,0.0,0.0,1.0,Taxi
27.6,0.10178638116397361,1.4863289302899503,10.318626553552624,2.121510972801394,0.13762936448797963,40.23124439114713,10.39998250282627,0.0,1.0,0.0,0.0,1.0,Taxi
27.700000000000003,0.05979354669892611,62.11087137973281,10.054267860021406,2.0261293556045676,0.01579528392797918,40.49886944432933,10.696276586569597,0.0,1.0,0.0,0.0,1.0,Taxi
27.8,0.15687136100671636,14.964400958015796,9.120136220030805,2.0692903319023057,-0.18704745921231064,40.284028840181236,11.480473933745278,0.0,1.0,0.0,0.0,1.0,Taxi
27.900000000000002,0.17660838595405245,-0.20372071331194283,9.515539699411695,1.731683863137135,0.019872019942852818,40.33911489902596,10.257558559212478,0.0,1.0,0.0,0.0,1.0,Taxi
28.0,0.058774943132366246,-11.2779206755943,10.652785813816108,1.6880017929918623,0.14630639360882608,40.44870501547075,11.586724325401228,0.0,1.0,0.0,0.0,1.0,Taxi
28.1,0.10048175762874473,-71.22945715109353,9.919487448363403,2.223607649800594,0.3798861470860887,40.438049212936846,11.404778341633891,0.0,1.0,0.0,0.0,1.0,Taxi
28.200000000000003,-0.17953889980141527,-17.969564199647348,10.609265820877912,1.729906416454248,-0.4750520357387154,40.60917255844055,11.007069205753732,0.0,1.0,0.0,0.0,1.0,Taxi
28.3,-0.03107287786587054,-34.63622253401528,10.207039626824237,1.4933096049936574,-0.7294244512558097,40.524234337493624,10.828512974834581,0.0,1.0,0.0,0.0,1.0,Taxi
28.400000000000002,-0.07269935504133176,69.88789542262413,9.538721234995213,2.15368668354086,-0.7904412022611114,40.503704521659074,11.629211376669124,0.0,1.0,0.0,0.0,1.0,Taxi
28.5,0.16990057731170524,65.46983706487721,10.48269439910429,2.109136936230861,0.04593148942551187,40.59588423202945,10.760951171179094,0.0,1.0,0.0,0.0,1.0,Taxi
28.6,0.29627630745851535,41.33279848155367,10.124362596655292,1.94031050360895,0.643377680867418,40.45930114297363,10.315612096736205,0.0,1.0,0.0,0.0,1.0,Taxi
28.700000000000003,0.13396463736643643,-37.83466494964156,10.398757354873949,1.5173398887957847,-0.40307155712189463,40.46705473418916,10.82736955864671,0.0,1.0,0.0,0.0,1.0,Taxi
28.8,-0.019272747436502667,-71.7075122914281,10.100943275413869,1.7470689071706529,-0.624826713710555,40.439419553584,10.626324948288415,0.0,1.0,0.0,0.0,1.0,Taxi
28.900000000000002,-0.0622612539986253,-42.82813529327533,10.786912790877027,1.8726932915959436,0.00024088490838180618,40.525942358812244,10.739909056138563,0.0,1.0,0.0,0.0,1.0,Taxi
29.0,-0.08017603909994035,-2.665589758975287,10.640874761187296,1.9931141205106648,0.11637940852839751,40.385893827114444,10.350898758016822,0.0,1.0,0.0,0.0,1.0,Taxi
29.1,-0.03260069623137921,8.283417952115103,10.151031644750564,1.8257083476474736,0.6543787661069156,40.559504018895495,10.152806434392167,0.0,1.0,0.0,0.0,1.0,Taxi
29.200000000000003,-0.0208441642380499,25.17689033754357,9.274908177266882,1.9351605664161253,-0.12459510754027495,40.51911943225633,10.785957949494088,0.0,1.0,0.0,0.0,1.0,Taxi
29.3,0.04570841258777739,35.12452212819624,10.15591559476148,1.5646624833845946,-0.22186930680999895,40.47507775966875,10.86142399763483,0.0,1.0,0.0,0.0,1.0,Taxi
29.400000000000002,0.14302191440960188,39.57490305501333,10.045418612298555,1.8347469447478755,-0.13789285686882982,40.610908442145046,11.414361481884796,0.0,1.0,0.0,0.0,1.0,Taxi
29.5,0.17703035103701664,-13.976422282739824,9.52098880302198,1.6809004984120142,-0.40778462572512725,40.42661061084158,10.67383306039438,0.0,1.0,0.0,0.0,1.0,Taxi
29.6,-0.024173698825921873,5.618270906965459,10.727068560499204,1.878188390242608,-0.0018329092233273538,40.46840244561787,9.888594688872253,0.0,1.0,0.0,0.0,1.0,Taxi
29.700000000000003,0.17111326894442905,-46.77406020619913,10.203823301126931,1.5797823764561423,0.3454373774964435,40.224368664666656,11.731568768862894,0.0,1.0,0.0,0.0,1.0,Taxi
29.8,-0.05683994999397921,21.332644591228945,9.235572406792025,2.0542967818148563,0.5198024248275945,40.54607838628618,10.45835317281807,0.0,1.0,0.0,0.0,1.0,Taxi
29.900000000000002,0.08248952413022266,-45.46018294571329,10.560808012528074,1.6798271652262047,-0.31848583822274235,40.632063388244546,9.844823354174997,0.0,1.0,0.0,0.0,1.0,Taxi
30.0,-0.05618764578413757,2.5842915492154037,9.8730838036123,1.7748287662781232,0.37208981151117954,40.472262334334914,10.419435001119828,0.0,1.0,0.0,0.0,1.0,Taxi
30.1,-0.04391849224790231,4.686684586539997,10.167721788517307,2.002635358208365,-1.404753185669139,40.43795668005612,10.84147475081599,0.0,1.0,0.0,0.0,1.0,Taxi
30.200000000000003,0.10592294706292255,24.92737122283356,9.935941528392362,1.6781118642123334,0.46957229446510507,40.21777652249773,11.096143365022522,0.0,1.0,0.0,0.0,1.0,Taxi
30.3,0.06844921033003011,9.160169293792846,9.611447575449686,2.129914381209874,0.6093862440136679,40.498940912475405,11.59025623710098,0.0,1.0,0.0,0.0,1.0,Taxi
30.400000000000002,0.0018823542210617888,-43.536076506643774,11.073630281413607,2.0431510089825946,-0.1029844589446104,40.50503639153055,11.637732491172246,0.0,1.0,0.0,0.0,1.0,Taxi
30.5,-0.11175743547029643,-15.467900630238018,10.528154937171385,1.8554823883116873,0.45961173877179606,40.431423429793085,11.446168281453867,0.0,1.0,0.0,0.0,1.0,Taxi
30.6,-0.008890292821160118,40.51277785823548,9.2921360085444,1.7607303546255024,0.5278862664120991,40.52127963892798,10.951391032712058,0.0,1.0,0.0,0.0,1.0,Taxi
30.700000000000003,0.20444624351223906,10.746993963224327,10.275789415530854,1.77350820412799,-0.2884776372313237,40.458675377435554,11.411641326165768,0.0,1.0,0.0,0.0,1.0,Taxi
30.8,-0.05802246565417497,5.152059196819955,10.58224219037391,2.1907517439233803,-0.4817069202991397,40.57995351889741,11.68891101129174,0.0,1.0,0.0,0.0,1.0,Taxi
30.900000000000002,0.016870003162939472,-43.86500066143606,9.985256939639116,1.895740158245217,-0.14976280446185633,40.59693665088702,11.058411268404774,0.0,1.0,0.0,0.0,1.0,Taxi
31.0,-0.0148787597949415,43.28588548470534,10.2431587865812,1.503484964685612,-0.21847227709143482,40.486390225477976,9.723385748312449,0.0,1.0,0.0,0.0,1.0,Taxi
31.1,0.15840696176935157,0.48139120787699596,9.995588274190812,1.8479012067834648,-0.31471718696242584,40.404837187779094,10.620207431801289,0.0,1.0,0.0,0.0,1.0,Taxi
31.200000000000003,0.019276959202324265,1.1137568472225254,9.433801042246104,1.7299465223887838,-0.32038357781289434,40.47093311913039,10.830136803377293,0.0,1.0,0.0,0.0,1.0,Taxi
31.3,-0.009309975558829066,-22.191728824785184,10.38714748706441,1.9117509395191263,0.33132241864379136,40.36682975374816,11.518862480738727,0.0,1.0,0.0,0.0,1.0,Taxi
31.400000000000002,0.04744831764542548,-6.584339036661341,11.554875153931901,1.95425719772291,0.7582489465976702,40.56941416285997,10.973331468255209,0.0,1.0,0.0,0.0,1.0,Taxi
31.5,-0.013644735980982578,-24.722627249812945,10.108246214455344,1.9372645926062533,0.17809986592720656,40.5212114117993,12.045066955978587,0.0,1.0,0.0,0.0,1.0,Taxi
31.6,-0.13292311180789393,-33.06330485907757,10.132493226212292,2.08765449342289,0.49413222984818045,40.466477697357845,11.409728288958522,0.0,1.0,0.0,0.0,1.0,Taxi
31.700000000000003,-0.1178682066499625,-24.457696662122345,10.780187109721526,1.6901778449490372,1.250798243246689,40.55189832705656,10.721462781918616,0.0,1.0,0.0,0.0,1.0,Taxi
31.8,-0.13593321929159446,31.900038064302873,10.660509819434152,2.15172073827939,-0.359758465802959,40.39289283407902,11.418970103484853,0.0,1.0,0.0,0.0,1.0,Taxi
31.900000000000002,0.026577078513620286,22.177592250091198,9.653412097100633,1.8517694368997994,-0.21589484907214188,40.44870212926679,10.277985495041085,0.0,1.0,0.0,0.0,1.0,Taxi
32.0,-0.006980245399506655,25.258991842020748,10.530758352495313,1.8884981506798184,-0.5546389700366362,40.46626076281194,11.414238322768483,0.0,1.0,0.0,0.0,1.0,Taxi
32.1,-0.009638260081490858,22.095295170868102,10.068580803700545,2.1517103383362977,-0.10468787766563144,40.43224004843438,11.072642227449007,0.0,1.0,0.0,0.0,1.0,Taxi
32.2,0.13705355436796066,-6.144498389862274,10.481857906449125,1.8359681074263574,-0.27826481283827365,40.34424743299763,10.326870963182913,0.0,1.0,0.0,0.0,1.0,Taxi
32.300000000000004,-0.037702737348818155,-3.434959669447983,10.723854212189718,1.9436888312385727,-0.6145791221020362,40.54874464326895,11.074520356519498,0.0,1.0,0.0,0.0,1.0,Taxi
32.4,-0.0268130584287309,-4.3684220087102785,9.964527323826989,1.7696484770015795,-0.050009922048816276,40.55332688283852,11.129280027016183,0.0,1.0,0.0,0.0,1.0,Taxi
32.5,0.11521144432440916,10.29321116888861,10.537965279807112,2.0589936857349125,-0.2751516615500265,40.46633141583868,10.459171206908882,0.0,1.0,0.0,0.0,1.0,Taxi
32.6,0.013763318495624772,33.75739409918405,10.541637000512893,1.8270185337097247,-0.06869938286411631,40.474289272980855,9.498630972611469,0.0,1.0,0.0,0.0,1.0,Taxi
32.7,0.1419739120671892,-14.889285282626401,10.108753267579726,1.7963287038247755,-0.43214603548070635,40.33039048348064,11.129587787787228,0.0,1.0,0.0,0.0,1.0,Taxi
32.800000000000004,0.040765017911276985,-12.464878592192706,8.91004270310484,2.1171429011636813,0.7858218295505383,40.377685484180745,11.52295468893381,0.0,1.0,0.0,0.0,1.0,Taxi
32.9,-0.048561074465338944,-39.630776578887314,10.208943491969922,1.8276867193725352,-0.3196237308570222,40.68941609333319,10.822121972715893,0.0,1.0,0.0,0.0,1.0,Taxi
33.0,-0.056179970827247516,30.398433008638545,10.029841619748328,1.9573667861150414,0.10019055358859436,40.348481614936304,10.58189459580203,0.0,1.0,0.0,0.0,1.0,Taxi
33.1,0.19275718295446959,9.212481962671745,10.606937476741834,1.6901859278404379,1.645650761700429,40.47097175041648,11.448986727783897,0.0,1.0,0.0,0.0,1.0,Taxi
33.2,-0.0024986646519803207,12.578922539706312,9.043303760579883,2.0105484808157827,-0.5726778854435486,40.55559720715087,11.061624820142878,0.0,1.0,0.0,0.0,1.0,Taxi
33.300000000000004,0.006714641871283917,-50.42170357632312,9.842706250950089,1.8362408515521573,-0.4175052231385793,40.30771822887988,10.900281073840233,0.0,1.0,0.0,0.0,1.0,Taxi
33.4,-0.05935133492714613,-33.794120961248105,9.88038791672296,1.5601963501836518,-0.8067779017379069,40.597539847319126,10.359489472693006,0.0,1.0,0.0,0.0,1.0,Taxi
33.5,-0.171469269458221,-1.6235570851418732,9.439109048388426,2.1211859617708755,0.33465987986931667,40.35320269002864,10.947913450798941,0.0,1.0,0.0,0.0,1.0,Taxi
33.6,-0.001403143554425619,1.3905903515826001,9.946416387961525,1.8411427005847356,0.38823848012618345,40.454248772261906,10.824444019592722,0.0,1.0,0.0,0.0,1.0,Taxi
33.7,-0.05239838316923328,25.20823094772585,10.313780527943141,1.6853461500865483,-0.024131220034781128,40.42811127127516,10.79077988295935,0.0,1.0,0.0,0.0,1.0,Taxi
33.800000000000004,-0.045428114719591906,1.9920360724788253,10.317043753165699,2.0608686383471,1.2422420399625693,40.44630895935046,10.693666530551479,0.0,1.0,0.0,0.0,1.0,Taxi
33.9,0.00855703680796838,2.258270181920011,10.243466481749543,2.2161344676189985,-0.5641381978158214,40.40118989464537,10.917503976805866,0.0,1.0,0.0,0.0,1.0,Taxi
34.0,-0.04110703225963336,18.428787349470436,10.206505198543319,1.8021118521169273,-0.9790523795211427,40.46012178583902,10.166928998075385,0.0,1.0,0.0,0.0,1.0,Taxi
34.1,0.04671582202776015,-9.839049661494222,11.534328251116177,1.5079542063035418,0.028359517260933068,40.438300962791175,10.511651737853542,0.0,1.0,0.0,0.0,1.0,Taxi
34.2,-0.04063821149950286,13.759662626338004,9.77216053934818,1.9674597749647873,-0.0665446868839388,40.390954107275206,12.076903518112452,0.0,1.0,0.0,0.0,1.0,Taxi
34.300000000000004,0.02769128087205652,-23.580440842978646,10.554330300541764,2.278015218760685,-0.09057063927384072,40.387144748065566,10.47336542708325,0.0,1.0,0.0,0.0,1.0,Taxi
34.4,-0.07118638218713322,3.91552955231881,10.11531565239598,1.8578469293329707,-0.8180032690115209,40.30051442442124,10.833984337976885,0.0,1.0,0.0,0.0,1.0,Taxi
34.5,-0.021060563737908936,2.3907102695804987,9.010675585013612,1.9001880341072146,-0.1766050690010418,40.46670237515383,11.066701085681178,0.0,1.0,0.0,0.0,1.0,Taxi
34.6,0.039644832219958896,10.432110034361335,9.698295786045442,2.066193479772654,-1.2517976267128212,40.50667427017822,10.271239613153009,0.0,1.0,0.0,0.0,1.0,Taxi
34.7,-0.019025832015326677,-2.3803438032953976,8.877235886433704,2.031484054996058,-0.6932269596612255,40.44888035865483,10.5777848269912,0.0,1.0,0.0,0.0,1.0,Taxi
34.800000000000004,-0.032962282754386056,-29.57987068848166,10.505670287080706,1.7484610845796846,0.3662795652582945,40.332299915240526,10.008988620005455,0.0,1.0,0.0,0.0,1.0,Taxi
34.9,-0.10825452122244952,-8.091361545467096,9.85572772575528,1.8289880566616419,0.04336917835546688,40.506712796788975,11.039572423889558,0.0,1.0,0.0,0.0,1.0,Taxi
35.0,-0.0594826397426623,45.08036023373418,10.730802469484628,2.0934712365165398,-0.22307630203844087,40.500771377258445,10.25860428403362,0.0,1.0,0.0,0.0,1.0,Taxi
35.1,0.19243951841428464,33.261405819594465,9.372124496340728,2.1508488147413716,1.3536327352652051,40.462748761950536,11.539899499952153,0.0,1.0,0.0,0.0,1.0,Taxi
35.2,0.05805250787552261,16.038341812056043,10.996962508043454,1.7699353750879097,-0.25659870348678965,40.41013841061505,10.731945175264942,0.0,1.0,0.0,0.0,1.0,Taxi
35.300000000000004,0.020709069317617707,-53.450744192110704,10.302749406484395,1.9881052538390491,-0.6386543899239475,40.3928469373152,11.398134383348141,0.0,1.0,0.0,0.0,1.0,Taxi
35.4,-0.07481420254626903,4.463098693813407,10.204510848243752,1.9034906103866454,-0.18821309286935822,40.43598515288801,10.857328947387149,0.0,1.0,0.0,0.0,1.0,Taxi
