time_s,altitude_ft,vertical_speed_fpm,ias_kt,pitch_deg,roll_deg,heading_deg,throttle_pct,afterburner_on,gear_down,flaps_deg,speedbrake_pct,weight_on_wheels,label
0.0,-1.4330141506159042,-454.3110122473875,174.47464181941976,2.1079429414640263,-1.0271004374393022,293.9567393046598,36.665528429630086,0.0,1.0,16.21088686809934,19.973489156768792,0.0,Landing
0.1,-2.947384191440529,-593.6007820572896,174.4081405301239,2.032615291453973,-0.7669657010849051,293.58231567746907,36.5637674153282,0.0,1.0,16.21088686809934,19.973489156768792,0.0,Landing
0.2,-4.401018060902352,-905.5835502803706,172.90243478849405,2.0821230265014705,-0.7651373731054075,293.66729974222017,36.42111880346193,0.0,1.0,16.21088686809934,19.973489156768792,0.0,Landing
0.30000000000000004,-5.960931902017757,-901.3703633341435,174.69285181138963,2.0618369260659932,-0.8872514403368589,294.01760123845247,36.68300837853449,0.0,1.0,16.21088686809934,19.973489156768792,0.0,Landing
0.4,-7.454236008111247,-910.4856048674029,173.42096932337793,1.9523299062493815,-0.907752456418183,293.87900161457856,36.596552031652976,0.0,1.0,16.21088686809934,19.973489156768792,0.0,Landing
0.5,-8.953446085239367,-895.0707305314978,174.1229998966434,2.027603098742495,-1.0932781499854505,293.62269300907224,36.48539630535305,0.0,1.0,16.21088686809934,19.973489156768792,0.0,Landing
0.6000000000000001,-10.436285554675246,-894.4828046389322,172.36334033796336,2.073926783735207,-0.5797175332379347,293.805077342359,36.41346180283039,0.0,1.0,16.21088686809934,19.973489156768792,0.0,Landing
0.7000000000000001,-11.926650031305908,-886.7060914088676,172.74623457949616,2.1305183495176965,-0.7744335534613366,293.9064206772043,36.317654466889344,0.0,1.0,16.21088686809934,19.973489156768792,0.0,Landing
0.8,-13.386976542283705,-885.0605138476162,171.24329708162566,2.163898000669896,-0.5783540972582312,293.8066134956001,36.25300040567711,0.0,1.0,16.21088686809934,19.973489156768792,0.0,Landing
0.9,-14.861588123913327,-881.4747768216336,172.29621902525489,2.240345616971462,-0.8899836846356644,293.89450175183583,36.25096596724366,0.0,1.0,16.21088686809934,19.973489156768792,0.0,Landing
1.0,-16.334023915414075,-887.9991483523612,170.97735557298935,2.2046909946197255,-0.522126715522206,293.5619767516431,36.57316290227374,0.0,1.0,16.21088686809934,19.973489156768792,0.0,Landing
1.1,-17.82697228404551,-892.6581875723929,174.09493613823176,1.934340870336406,-0.8887246210997445,293.93449279456524,37.103262913763864,0.0,1.0,16.21088686809934,19.973489156768792,0.0,Landing
1.2000000000000002,-19.32487906177529,-888.9632002864531,172.42327443963268,2.0774057126152106,-0.9528306811220574,293.8061680377584,36.67291069539466,0.0,1.0,16.21088686809934,19.973489156768792,0.0,Landing
1.3,-20.77883991684634,-888.8257783286896,172.06916148491737,1.9120892452983562,-0.5373604195521168,293.8050861000761,36.21776993301837,0.0,1.0,16.21088686809934,19.973489156768792,0.0,Landing
1.4000000000000001,-22.27110117568896,-883.6394437344843,173.81757543841255,2.1076003081154986,-0.9038829840771783,293.736903643353,36.65800308610997,0.0,1.0,16.21088686809934,19.973489156768792,0.0,Landing
1.5,-23.743076280447713,-909.6871621460913,171.9967044635871,2.0487725488159767,-0.358746632169805,293.90057697090424,36.13961243703063,0.0,1.0,16.21088686809934,19.973489156768792,0.0,Landing
1.6,-25.327275727576797,-916.9146353605505,172.17058100967645,2.0887287533742342,-0.840814261251235,293.7433094791247,36.166651122774,0.0,1.0,16.21088686809934,19.973489156768792,0.0,Landing
1.7000000000000002,-26.85567435249171,-922.1315361974342,173.09305197947455,1.9685005479957864,-0.6283491565723442,293.8417655374765,36.96430548463042,0.0,1.0,16.21088686809934,19.973489156768792,0.0,Landing
1.8,-28.353733961434884,-925.2861468772708,172.07439606645923,2.495688876298303,-0.7810468857318716,293.94105880954044,36.0356755011484,0.0,1.0,16.21088686809934,19.973489156768792,0.0,Landing
1.9000000000000001,-29.95370646196315,-909.8642848805766,171.08514765491665,2.391613750566649,-0.6472414077683637,293.7015429188458,36.224482195813835,0.0,1.0,16.21088686809934,19.973489156768792,0.0,Landing
2.0,-31.404995776894594,-926.5932523876955,173.33032556494638,2.3056456865788126,-0.6298743430596306,293.9279420065643,36.648698068285796,0.0,1.0,16.21088686809934,19.973489156768792,0.0,Landing
2.1,-32.98670022337336,-894.0659793912404,172.79022278617663,2.1301231189138763,-0.41606799534327266,293.83351169081675,36.50896717315855,0.0,1.0,16.21088686809934,19.973489156768792,0.0,Landing
2.2,-34.42403635891935,-880.8632167043612,173.7350680112708,1.9627082225071915,-0.6901567811622175,293.5914977271095,36.5056276123542,0.0,1.0,16.21088686809934,19.973489156768792,0.0,Landing
2.3000000000000003,-35.8093118604164,-861.4605030234998,174.73847996567414,2.4525178773474505,-0.5864566893234413,293.74211620000733,37.532283931027635,0.0,1.0,16.21088686809934,19.973489156768792,0.0,Landing
2.4000000000000004,-37.29400273849086,-879.204391837392,172.40200351659695,2.0855887434996663,-0.9964596321974175,293.81865491505437,36.76183280565716,0.0,1.0,16.21088686809934,19.973489156768792,0.0,Landing
2.5,-38.82005831810631,-912.6879820978417,172.62650813546432,2.1861244294119566,-0.4895196692127117,293.8201543924217,36.66576082149537,0.0,1.0,16.21088686809934,19.973489156768792,0.0,Landing
2.6,-40.37275177090561,-900.8763285877918,171.9450004253478,1.9779101199975424,-0.7990705348693566,294.1203735474378,36.82379723085917,0.0,1.0,16.21088686809934,19.973489156768792,0.0,Landing
2.7,-41.79838438142982,-872.7157033913785,172.61663026032832,2.2922878144552414,-0.6802991203866077,293.795797246931,36.21882157821531,0.0,1.0,16.21088686809934,19.973489156768792,0.0,Landing
2.8000000000000003,-43.183636835063204,-855.5002156178048,171.78215575783892,2.373112658886906,-0.9968570254893047,293.6142003321213,36.88157572234618,0.0,1.0,16.21088686809934,19.973489156768792,0.0,Landing
2.9000000000000004,-44.65025284899463,-872.680211913763,173.48824718687038,2.289039641792864,-0.8203579299569398,293.48086722329913,36.03003078297713,0.0,1.0,16.21088686809934,19.973489156768792,0.0,Landing
3.0,-46.161785440998635,-916.6507709469115,171.9642449370195,2.286419182447808,-0.96390382562233,293.7903728118656,36.634460875054174,0.0,1.0,16.21088686809934,19.973489156768792,0.0,Landing
3.1,-47.76689068979776,-927.2772023652536,173.74936290008375,1.692783869505249,-0.6946969400781494,293.8623294684778,36.76764295664511,0.0,1.0,16.21088686809934,19.973489156768792,0.0,Landing
3.2,-49.2866388608209,-943.544445702419,170.994697283217,2.145901147849977,-0.8856487601867313,293.89519722977127,36.55778279890209,0.0,1.0,16.21088686809934,19.973489156768792,0.0,Landing
3.3000000000000003,-50.87950766951073,-892.5755749286012,174.86621418843518,2.490867098427136,-1.2580010039878586,293.8304104549659,36.87174050694794,0.0,1.0,16.21088686809934,19.973489156768792,0.0,Landing
3.4000000000000004,-52.22976856444077,-894.7792101564077,172.48684944468786,2.4600386201654776,-0.7359240543600513,293.6692306968696,36.30725792178165,0.0,1.0,16.21088686809934,19.973489156768792,0.0,Landing
3.5,-53.76053491160294,-882.3856522758277,174.20658575870164,2.2546218658846904,-0.6313821641645553,294.1321979553388,36.57112459763225,0.0,1.0,16.21088686809934,19.973489156768792,0.0,Landing
3.6,-55.29143593088987,-915.9285245796709,172.46340465430106,2.1830917747686605,-0.7748670990502843,293.6648012337413,36.712617298544195,0.0,1.0,16.21088686809934,19.973489156768792,0.0,Landing
3.7,-56.80941118733912,-909.7192521340176,172.45694447099606,1.861586192903393,-0.9115568115257968,293.6404066003147,36.62457371798558,0.0,1.0,16.21088686809934,19.973489156768792,0.0,Landing
3.8000000000000003,-58.30913117227303,-902.7087877264606,172.90585279824344,2.4113569933881713,-0.8451606230052982,293.8800926888921,36.29824780991994,0.0,1.0,16.21088686809934,19.973489156768792,0.0,Landing
3.9000000000000004,-59.80497986952217,-910.160368996418,173.18586168468372,2.211743016499055,-0.4379238783523013,293.6601388112971,36.59385287266877,0.0,1.0,16.21088686809934,19.973489156768792,0.0,Landing
4.0,-61.36021303232121,-901.2862531265824,172.3319469908543,2.61322475671079,-0.4455901069280411,293.7741489318378,35.948579708694815,0.0,1.0,16.21088686809934,19.973489156768792,0.0,Landing
4.1000000000000005,-62.81556243790594,-912.5712614658227,171.14096639079983,1.7949883605529542,-0.7225858342620528,293.68604702141613,36.379927066651895,0.0,1.0,16.21088686809934,19.973489156768792,0.0,Landing
4.2,-64.36783617685128,-897.2152200545452,171.6645205097642,2.38845775329919,-1.0446917948850574,293.73491162763924,36.27125005558164,0.0,1.0,16.21088686809934,19.973489156768792,0.0,Landing
4.3,-65.84628913259394,-899.7921131036634,173.38042862029545,2.2418466032938644,-0.981616633310564,293.96037334875814,36.70635827339426,0.0,1.0,16.21088686809934,19.973489156768792,0.0,Landing
4.4,-67.31452300342426,-893.5660431684995,174.13488978289865,1.9748112474506012,-0.8639755170850931,293.98765265961833,36.78037328349687,0.0,1.0,16.21088686809934,19.973489156768792,0.0,Landing
4.5,-68.83566639269378,-920.9145943235825,171.97899443030903,1.8572035952907366,-1.2284609185789075,293.54976341766314,36.37167253955215,0.0,1.0,16.21088686809934,19.973489156768792,0.0,Landing
4.6000000000000005,-70.45086210421185,-939.3328206033344,173.68259529150802,2.402604439012223,-0.7666685158986704,293.8007296002646,36.18557604414433,0.0,1.0,16.21088686809934,19.973489156768792,0.0,Landing
4.7,-72.01118710644093,-940.873476018362,172.9661863458218,1.994019001738206,-0.48431937240543477,293.80136935141843,36.34891994595261,0.0,1.0,16.21088686809934,19.973489156768792,0.0,Landing
4.800000000000001,-73.54003377278559,-917.7047931111446,172.62089651267138,2.020200527223109,-0.8083413053397752,293.85551352480115,36.842465676189555,0.0,1.0,16.21088686809934,19.973489156768792,0.0,Landing
4.9,-75.03938606976757,-916.0528739086858,171.4228561126748,2.224829034937569,-0.6272716063901929,293.89453879548364,36.58101834300207,0.0,1.0,16.21088686809934,19.973489156768792,0.0,Landing
5.0,-76.59145147598436,-900.3369696461077,174.22639545972052,2.2921033132260016,-0.9348286355571302,293.93795818594185,36.53867088742369,0.0,1.0,16.21088686809934,19.973489156768792,0.0,Landing
5.1000000000000005,-78.04171862101613,-901.1448889936929,173.32268069254025,1.9978830297984753,-0.948069048771812,293.72336464959506,36.56061208506043,0.0,1.0,16.21088686809934,19.973489156768792,0.0,Landing
5.2,-79.54511051473604,-905.2777110997282,173.7157685923433,2.312144110208169,-0.671301402420553,293.80559573484675,36.093321990371116,0.0,1.0,16.21088686809934,19.973489156768792,0.0,Landing
5.300000000000001,-81.117840031483,-894.8500261008263,172.02370804056235,2.4043500799999666,-0.850507489775941,293.70702152278454,36.757932350820674,0.0,1.0,16.21088686809934,19.973489156768792,0.0,Landing
5.4,-82.51596875152026,-892.6607503937447,171.7715235386345,2.076916428407223,-0.7671268088907539,293.983194406811,36.84405472656905,0.0,1.0,16.21088686809934,19.973489156768792,0.0,Landing
5.5,-84.00841426670476,-880.6562843761354,172.080554740002,2.377910192636519,-0.9309341639648117,293.964302841561,36.33575310195481,0.0,1.0,16.21088686809934,19.973489156768792,0.0,Landing
5.6000000000000005,-85.52112145336368,-897.8278927064538,171.8745650164991,2.321292451788628,-1.1217557786677288,294.0109639263761,37.02215222760063,0.0,1.0,16.21088686809934,19.973489156768792,0.0,Landing
5.7,-87.00510821505253,-897.0532444867844,174.1485445840979,2.085527400745415,-0.9500786424405143,293.8201194280633,36.21205540668039,0.0,1.0,16.21088686809934,19.973489156768792,0.0,Landing
5.800000000000001,-88.49368048913868,-884.8863273984733,171.70685929785216,2.112669234182482,-1.1340573486429963,293.8998982110313,36.40383292816078,0.0,1.0,16.21088686809934,19.973489156768792,0.0,Landing
5.9,-89.94555309035604,-878.5343233933845,173.84118720782195,2.1111897803267565,-0.7315850968312776,293.6688593088179,36.592861027762545,0.0,1.0,16.21088686809934,19.973489156768792,0.0,Landing
6.0,-91.39777983201945,-887.2756525755962,173.54988076052123,2.0122518168867134,-0.8996823316788308,293.8615198870475,36.660717946621055,0.0,1.0,16.21088686809934,19.973489156768792,0.0,Landing
6.1000000000000005,-92.93005875201666,-908.6408536108082,171.74002921775596,2.1071660414414226,-0.6532958269061276,293.95517985978347,36.690683106560094,0.0,1.0,16.21088686809934,19.973489156768792,0.0,Landing
6.2,-94.48875735841008,-922.9762879337328,171.9227286061882,2.319887133544693,-0.9918014952922404,293.75117459793046,36.247449377395085,0.0,1.0,16.21088686809934,19.973489156768792,0.0,Landing
6.300000000000001,-96.01266127168812,-925.3655065248695,173.81519512848035,2.026234808280524,-0.5393636595847375,293.6292394716934,37.15689545052395,0.0,1.0,16.21088686809934,19.973489156768792,0.0,Landing
6.4,-97.55688628464101,-921.6834194481521,174.0737660049508,2.020310383226918,-0.6756479198862589,294.05821325794636,36.64945123510771,0.0,1.0,16.21088686809934,19.973489156768792,0.0,Landing
6.5,-99.09717445565084,-902.489559988544,173.51931359644914,2.0306224178196,-0.6855988447289462,293.9035071978649,36.393156248332986,0.0,1.0,16.21088686809934,19.973489156768792,0.0,Landing
6.6000000000000005,-100.52510907163084,-872.6446035742641,171.9887010771617,2.284280514832581,-0.8079644754689695,293.7105998688503,36.22096197361006,0.0,1.0,16.21088686809934,19.973489156768792,0.0,Landing
6.7,-101.92010930251233,-879.9060562849348,172.27127883738387,2.2827302991618383,-0.8581416429666187,293.79711956630626,36.423823920178094,0.0,1.0,16.21088686809934,19.973489156768792,0.0,Landing
6.800000000000001,-103.49670473707552,-897.3142845855847,170.76505912024203,2.3423965117995387,-0.7131965491388557,293.8204477011067,36.0864191910831,0.0,1.0,16.21088686809934,19.973489156768792,0.0,Landing
6.9,-105.01168049455876,-903.8452783376925,173.3022186165504,2.072842608185524,-0.9081277938788367,293.773695149853,36.903261240150755,0.0,1.0,16.21088686809934,19.973489156768792,0.0,Landing
7.0,-106.43933569420079,-899.4098731319582,174.50736435655696,2.1603994225879934,-1.0906645828873558,293.87197439696797,36.26199491529878,0.0,1.0,16.21088686809934,19.973489156768792,0.0,Landing
7.1000000000000005,-107.99375410273531,-888.7839508492306,172.71133623476547,2.0412549376958316,-0.6803196472919065,293.72243246654784,37.02607475844109,0.0,1.0,16.21088686809934,19.973489156768792,0.0,Landing
7.2,-109.45560024880491,-913.48800007911,173.04586499957583,2.0458236171416084,-0.6412157838725412,293.9047115805281,36.33093085174748,0.0,1.0,16.21088686809934,19.973489156768792,0.0,Landing
7.300000000000001,-111.00677569459634,-912.4752695743382,170.90174522382205,2.097951407377708,-0.7742827117329324,293.7236751201267,36.08187719284114,0.0,1.0,16.21088686809934,19.973489156768792,0.0,Landing
7.4,-112.556130450607,-922.6388362790516,172.18685246498475,2.3577764777381245,-0.7412355345574424,293.6211948685243,36.34459901513475,0.0,1.0,16.21088686809934,19.973489156768792,0.0,Landing
7.5,-114.06879443020017,-916.9655202336288,171.78308922752623,2.248874660647311,-0.8915160131981951,294.0589761586216,36.32854921670627,0.0,1.0,16.21088686809934,19.973489156768792,0.0,Landing
7.6000000000000005,-115.59160329576449,-897.6661501411342,172.91144245201278,2.29780138965721,-0.8687756768216066,294.1176284522138,36.11037783330445,0.0,1.0,16.21088686809934,19.973489156768792,0.0,Landing
7.7,-117.04446120131267,-897.2007278909359,172.6224039271301,2.4602268614708285,-0.38046424587538197,293.7977653245598,36.73203405530082,0.0,1.0,16.21088686809934,19.973489156768792,0.0,Landing
7.800000000000001,-118.55479806965485,-893.5739013325843,170.85797971516104,2.079891559268411,-0.7075363610949417,293.9140528989759,36.10437618565581,0.0,1.0,16.21088686809934,19.973489156768792,0.0,Landing
7.9,-120.05947280242741,-908.9663961028749,172.59604286914072,2.064460626336415,-0.6991962372149374,293.57266433527025,36.88488767180754,0.0,1.0,16.21088686809934,19.973489156768792,0.0,Landing
8.0,-121.58929318182705,-913.9870690963335,173.2086526155455,2.1153384302698632,-0.6840991566454823,293.82266737828877,36.55070891724532,0.0,1.0,16.21088686809934,19.973489156768792,0.0,Landing
8.1,-123.12473341513652,-900.9301729821772,172.38175260075667,2.105338449963226,-0.7535094161315906,293.4742869709778,36.43489592420348,0.0,1.0,16.21088686809934,19.973489156768792,0.0,Landing
8.200000000000001,-124.5641236673383,-887.6310550822495,172.56181772466223,1.8531894495691277,-0.9152079776273042,294.18961068855594,36.25134450018516,0.0,1.0,16.21088686809934,19.973489156768792,0.0,Landing
8.3,-126.0274484572383,-881.2359660028307,174.14998494059896,1.8876472266262119,-1.2940767257907204,293.5529607623225,36.912825393054355,0.0,1.0,16.21088686809934,19.973489156768792,0.0,Landing
8.4,-127.53091324515067,-890.9537471873023,172.57627022174287,2.176093754109496,-0.7187745368163458,293.83382536915667,36.5992524243391,0.0,1.0,16.21088686809934,19.973489156768792,0.0,Landing
8.5,-129.0188924032748,-900.4268048356124,173.7671256133403,1.8438237789060283,-0.9067289256721591,293.99193580478914,36.577831516543085,0.0,1.0,16.21088686809934,19.973489156768792,0.0,Landing
8.6,-130.52958248141636,-912.0340587720619,172.0588684843047,2.060939188459732,-0.8901827919931766,293.92333757458573,36.22059571010679,0.0,1.0,16.21088686809934,19.973489156768792,0.0,Landing
8.700000000000001,-132.09108353901098,-911.9915589122967,173.43890069417031,2.089254085489814,-0.8551632703867988,293.7424797024256,36.1194159501449,0.0,1.0,16.21088686809934,19.973489156768792,0.0,Landing
8.8,-133.5788501978363,-903.3114026617568,174.85969641642598,1.920770430222734,-0.6527600213676237,293.7005091485287,36.6138184760615,0.0,1.0,16.21088686809934,19.973489156768792,0.0,Landing
8.9,-135.04613949472514,-885.2223760524794,175.32736720794054,2.1134495139366862,-0.6409185177525107,293.7666363497808,36.73534983534993,0.0,1.0,16.21088686809934,19.973489156768792,0.0,Landing
9.0,-136.51719541927338,-874.9429230412319,173.7945610625139,1.8909334635884765,-0.697551510025405,293.90885966816575,36.86324226738251,0.0,1.0,16.21088686809934,19.973489156768792,0.0,Landing
9.1,-137.95356481304245,-860.0921555548553,173.95063401965223,2.3268442539497474,-0.934542181826364,294.0113880702204,36.4394070414151,0.0,1.0,16.21088686809934,19.973489156768792,0.0,Landing
9.200000000000001,-139.34660027249942,-873.708894330889,174.22993444650345,2.0895322296174315,-0.7423716426273297,293.90739843815254,36.79013937978208,0.0,1.0,16.21088686809934,19.973489156768792,0.0,Landing
9.3,-140.88573989092782,-886.671794217733,173.26378910976743,2.0520927141179075,-1.0265438696735654,293.87138271451295,36.526851666865404,0.0,1.0,16.21088686809934,19.973489156768792,0.0,Landing
9.4,-142.3869237841311,-920.3895560924934,172.04925102933282,2.1418212068089475,-0.6455248019161896,293.54052784547025,36.92383114960347,0.0,1.0,16.21088686809934,19.973489156768792,0.0,Landing
9.5,-143.94854805296188,-924.5691229626118,173.70879408127166,1.9660814181344426,-0.6816199459594805,293.64169935742325,36.686586208268906,0.0,1.0,16.21088686809934,19.973489156768792,0.0,Landing
9.600000000000001,-145.50858550574088,-910.1105296213462,170.3431415665452,2.2497685517628896,-0.6778125408155742,293.82783881635896,35.75465467281641,0.0,1.0,16.21088686809934,19.973489156768792,0.0,Landing
9.700000000000001,-146.93747643223784,-895.5840577312642,172.32587631841056,2.3244552533671916,-0.785794020946362,293.9651913020616,36.47101672485915,0.0,1.0,16.21088686809934,19.973489156768792,0.0,Landing
9.8,-148.4264683416182,-894.0334030346947,173.6287197634767,2.3754666880246975,-0.9166126760211553,293.5823020401881,36.782241957296186,0.0,1.0,16.21088686809934,19.973489156768792,0.0,Landing
9.9,-149.97875252091436,-910.4994219140109,172.48079784423715,2.631220551308126,-0.9767170148461808,293.8099733437116,36.43874305667509,0.0,1.0,16.21088686809934,19.973489156768792,0.0,Landing
10.0,-151.4899735418079,-903.2944149154276,172.20612494124907,2.251282909447048,-0.6507729990991605,293.6829006439475,36.395787152171366,0.0,1.0,16.21088686809934,19.973489156768792,0.0,Landing
10.100000000000001,-152.94294041619534,-890.3638489557749,173.81416438507034,2.4348518993278403,-1.1025270520384929,293.5128800373725,37.156135668272015,0.0,1.0,16.21088686809934,19.973489156768792,0.0,Landing
10.200000000000001,-154.43057176569323,-870.5435474491709,174.15376698291226,2.1318284241134275,-0.5988345311427538,293.85035820661096,36.33588590948916,0.0,1.0,16.21088686809934,19.973489156768792,0.0,Landing
10.3,-155.84269127905375,-843.9133220744793,170.97038773906112,2.1678740887218027,-0.668343799505498,293.61967711092746,36.49963932312665,0.0,1.0,16.21088686809934,19.973489156768792,0.0,Landing
10.4,-157.16250702656774,-856.7388400297945,173.47173918352874,2.421702255576386,-0.6326053507865632,293.7265144229242,36.714771982973524,0.0,1.0,16.21088686809934,19.973489156768792,0.0,Landing
10.5,-158.7142659658422,-874.3846686564893,171.7053441535493,2.6519914455437563,-0.3579018296566061,293.8262277659421,36.1863383619571,0.0,1.0,16.21088686809934,19.973489156768792,0.0,Landing
10.600000000000001,-160.2146146223362,-900.9007960058453,172.53212216653822,2.485209524512286,-0.815520937067979,293.9570738097501,36.26716427424763,0.0,1.0,16.21088686809934,19.973489156768792,0.0,Landing
10.700000000000001,-161.66701100659697,-882.9089061998843,171.60187647783792,2.209451993982628,-0.5632107840735533,293.75872785425645,36.576205861562606,0.0,1.0,16.21088686809934,19.973489156768792,0.0,Landing
10.8,-163.12881049684162,-860.2756159061983,171.84373378004747,2.1041341200594634,-0.6222143434246146,293.83607067771493,36.816937429097216,0.0,1.0,16.21088686809934,19.973489156768792,0.0,Landing
10.9,-164.5159927018672,-868.0779752536864,171.53686472061938,2.0920309556895917,-1.0673875895243963,293.8314554066219,36.41295910174992,0.0,1.0,16.21088686809934,19.973489156768792,0.0,Landing
11.0,-166.0074008828654,-850.0150671943857,171.0561679622337,2.3357855044083577,-0.9875410095471568,293.8278453008238,36.85715411682611,0.0,1.0,16.21088686809934,19.973489156768792,0.0,Landing
11.100000000000001,-167.37888583281355,-876.4798922187025,171.39344780404483,2.3948968086030296,-0.7059235237416706,294.09668102955607,36.67437063481476,0.0,1.0,16.21088686809934,19.973489156768792,0.0,Landing
11.200000000000001,-168.8983921629607,-866.5864063832146,172.5073720558249,2.213438911803677,-0.6538127861988325,293.8431122383615,36.15338954443227,0.0,1.0,16.21088686809934,19.973489156768792,0.0,Landing
11.3,-170.34033291478147,-888.3912364551634,174.02756811865768,2.0712259530315915,-0.8762873242032516,293.8175454874347,36.99354296881348,0.0,1.0,16.21088686809934,19.973489156768792,0.0,Landing
11.4,-171.82084201508937,-889.4815274360952,171.77099057057538,2.5407066130307165,-0.5927238701737805,293.71104986688533,36.35879131785202,0.0,1.0,16.21088686809934,19.973489156768792,0.0,Landing
11.5,-173.34579980014118,-885.5941348837518,171.9872425579289,2.1942228394966588,-0.5130984200444799,294.0066768118404,36.0776803491626,0.0,1.0,16.21088686809934,19.973489156768792,0.0,Landing
11.600000000000001,-174.76830358920023,-901.928346872262,172.47795119047265,2.2756555888395376,-0.49612931507425206,293.7427879996642,36.26148506490332,0.0,1.0,16.21088686809934,19.973489156768792,0.0,Landing
11.700000000000001,-176.33048374945068,-906.8830380200552,171.38993131352615,2.3287818806000207,-0.737448651496947,293.7113442502989,36.529172609188095,0.0,1.0,16.21088686809934,19.973489156768792,0.0,Landing
11.8,-177.88021499024146,-932.517629010988,171.96661654955975,2.0599761690430936,-0.48958341030400937,293.8099471317223,36.26912723670383,0.0,1.0,16.21088686809934,19.973489156768792,0.0,Landing
11.9,-179.43089173425517,-911.1664513499363,172.4372957676738,2.106775363814863,-0.6909928016812683,293.6114581431443,36.40486042736262,0.0,1.0,16.21088686809934,19.973489156768792,0.0,Landing
12.0,-180.88631600620036,-898.5744942721112,172.82849161945018,2.144275271769637,-0.9650310744739732,293.82859788044834,36.736282195258646,0.0,1.0,16.21088686809934,19.973489156768792,0.0,Landing
12.100000000000001,-182.373087461602,-887.1406349995426,172.74684381006756,2.3934596472405065,-0.640299497945942,293.6943465816478,36.97091528586497,0.0,1.0,16.21088686809934,19.973489156768792,0.0,Landing
12.200000000000001,-183.86659490925288,-900.0174985451564,170.89215742494702,2.0982700456394543,-0.5720881256073109,293.917668304269,36.61838757670486,0.0,1.0,16.21088686809934,19.973489156768792,0.0,Landing
12.3,-185.38640349892614,-909.6683237509069,174.30605608591122,2.305994294318674,-1.1938281509322222,294.1881007440488,35.99722042230196,0.0,1.0,16.21088686809934,19.973489156768792,0.0,Landing
12.4,-186.92142908035655,-914.7659323066192,172.13814279301258,2.1233004018564343,-1.0542673540966847,294.0301431655016,36.602211141370866,0.0,1.0,16.21088686809934,19.973489156768792,0.0,Landing
12.5,-188.44042457078598,-904.6821679066796,173.9425639518143,1.9207772338467062,-0.851718218782425,293.6752896304729,36.486875032460865,0.0,1.0,16.21088686809934,19.973489156768792,0.0,Landing
12.600000000000001,-189.90981433845954,-892.4919597234407,171.8221209160322,1.9863249973390653,-0.8261852268425744,293.91007408306814,36.33343552288574,0.0,1.0,16.21088686809934,19.973489156768792,0.0,Landing
12.700000000000001,-191.38388887897375,-884.4862056927981,172.91297197064006,2.4166199378165687,-0.9793037335349456,293.7986577264612,36.90939441204166,0.0,1.0,16.21088686809934,19.973489156768792,0.0,Landing
12.8,-192.86285559924997,-870.8396177320934,175.07747369291954,2.3032242612282445,-0.4596700028624186,293.6597908347975,36.64458309137408,0.0,1.0,16.21088686809934,19.973489156768792,0.0,Landing
12.9,-194.26401242712,-875.9058207841008,173.34398962529352,2.1466793248198064,-0.6074131756970111,293.76982621378454,36.20479916124822,0.0,1.0,16.21088686809934,19.973489156768792,0.0,Landing
13.0,-195.76341798289425,-882.4360466357462,172.01691440512988,2.144768581335422,-1.1655033450912315,293.8693867787515,37.14272108072087,0.0,1.0,16.21088686809934,19.973489156768792,0.0,Landing
13.100000000000001,-197.2750358324287,-909.3882489870397,171.40025359439923,2.266462974578556,-0.9972798633588746,293.6916996114172,36.331599317011126,0.0,1.0,16.21088686809934,19.973489156768792,0.0,Landing
13.200000000000001,-198.8109536720552,-899.3022289033944,173.5282619124006,2.27384945947841,-0.9830261929811306,293.9307928827109,35.90230708813364,0.0,1.0,16.21088686809934,19.973489156768792,0.0,Landing
13.3,-200.25992912741123,-905.5256693155626,173.05861667202726,2.2639302242765162,-0.8106781025819503,293.5207738718166,36.24557221478363,0.0,1.0,16.21088686809934,19.973489156768792,0.0,Landing
13.4,-201.8026641790065,-899.3836313537827,172.13802970651008,2.4287546425760875,-0.8464834288110247,293.8781313289687,37.048023298276,0.0,1.0,16.21088686809934,19.973489156768792,0.0,Landing
13.5,-203.30787182882412,-889.2055641997275,173.27594406754267,2.1373258528941457,-0.8297864607933264,293.77778377906895,36.629973983751064,0.0,1.0,16.21088686809934,19.973489156768792,0.0,Landing
13.600000000000001,-204.70595694840986,-864.310543445339,172.55518471906495,1.9439438559324804,-0.9000819262469405,293.919923319104,36.190489726063056,0.0,1.0,16.21088686809934,19.973489156768792,0.0,Landing
13.700000000000001,-206.1242168962332,-843.0241914257749,170.99674000307374,1.94417091836926,-1.0178866803486686,293.65312515065284,36.89918642867039,0.0,1.0,16.21088686809934,19.973489156768792,0.0,Landing
13.8,-207.522992785953,-836.8978068694274,172.384203145727,2.50801759604874,-0.9080575308721959,293.6528587091972,37.100041112925965,0.0,1.0,16.21088686809934,19.973489156768792,0.0,Landing
13.9,-208.890445982757,-847.3356430080286,173.39699321269606,2.320491451758848,-1.0792336230704227,293.98665623270097,36.41350824344114,0.0,1.0,16.21088686809934,19.973489156768792,0.0,Landing
14.0,-210.36089511127335,-846.6666523925197,173.22380182435802,2.068351446659845,-1.0341015211338649,293.6994725948665,36.183611856305376,0.0,1.0,16.21088686809934,19.973489156768792,0.0,Landing
14.100000000000001,-211.7563260479156,-868.9970794973647,174.89409991372486,2.2803099325120266,-0.919198621078605,294.039925072625,36.77702891566213,0.0,1.0,16.21088686809934,19.973489156768792,0.0,Landing
14.200000000000001,-213.23543138024382,-874.1500548289708,172.20038782655027,2.2587117195012305,-0.6737588564681606,294.0469766144523,36.84287167050594,0.0,1.0,16.21088686809934,19.973489156768792,0.0,Landing
14.3,-214.7316453854182,-884.3192454867052,172.53622892948192,2.4843716406497998,-0.7719912667832871,293.8988257342313,37.15544333713745,0.0,1.0,16.21088686809934,19.973489156768792,0.0,Landing
14.4,-216.17792227534912,-880.5006207042824,171.95178535788676,2.2632448253777087,-1.1962012713328005,293.8778498224875,36.46983880140983,0.0,1.0,16.21088686809934,19.973489156768792,0.0,Landing
14.5,-217.63793448376524,-872.4447129749193,173.55238067553304,2.2145288999453525,-0.8739454849701832,293.84586836358767,36.75709012511925,0.0,1.0,16.21088686809934,19.973489156768792,0.0,Landing
14.600000000000001,-219.0938689502928,-882.5479224510274,173.3542130151801,2.2240555329604663,-0.9649902681241138,293.9299211001844,36.30309579839286,0.0,1.0,16.21088686809934,19.973489156768792,0.0,Landing
14.700000000000001,-220.59066188760426,-907.0967521220551,171.55362324919713,1.9794439549580771,-0.6232106472093641,293.6378981981635,36.67056955681667,0.0,1.0,16.21088686809934,19.973489156768792,0.0,Landing
14.8,-222.1734182443755,-895.0242130511527,170.65354682500154,2.3716429190538286,-0.7474784895247459,293.8300880820183,36.02685385851013,0.0,1.0,16.21088686809934,19.973489156768792,0.0,Landing
14.9,-223.56899001554856,-887.0712195825377,172.20611958021215,1.952549937504551,-0.8190698048486066,294.06403175344883,36.27761432179029,0.0,1.0,16.21088686809934,19.973489156768792,0.0,Landing
15.0,-225.02601798551694,-879.9112664827135,171.5553135201724,2.4324039593389686,-0.6129514705899911,293.9362734743279,36.866036768577196,0.0,1.0,16.21088686809934,19.973489156768792,0.0,Landing
15.100000000000001,-226.57297457678908,-885.1162946109071,173.0098230810558,2.0684790037444145,-0.4153978311753213,293.9366099348331,36.665522098596306,0.0,1.0,16.21088686809934,19.973489156768792,0.0,Landing
15.200000000000001,-227.9945714886031,-884.5189044899088,171.9604266739515,2.201734638716453,-0.497948117121598,293.8817581351225,36.47690349536129,0.0,1.0,16.21088686809934,19.973489156768792,0.0,Landing
15.3,-229.4486125079665,-885.0662939748418,173.2172596516927,2.3997654256281047,-0.8953622745589256,293.8901940503499,36.72300771838118,0.0,1.0,16.21088686809934,19.973489156768792,0.0,Landing
15.4,-230.9983060466633,-896.8538425937196,170.96216950344865,2.381016799583433,-0.8501856593265839,293.7143413709689,36.273144483380634,0.0,1.0,16.21088686809934,19.973489156768792,0.0,Landing
15.5,-232.4788407015717,-919.8421799051516,173.03030171953029,2.2741430459560776,-0.6410896753666231,293.830195379247,36.79684913379643,0.0,1.0,16.21088686809934,19.973489156768792,0.0,Landing
15.600000000000001,-234.04782340749225,-912.6866337521506,172.00163270197044,2.3469321795103704,-0.9928964620803263,293.7807687530583,36.59415842750726,0.0,1.0,16.21088686809934,19.973489156768792,0.0,Landing
15.700000000000001,-235.56173921542404,-904.737646645873,173.66360955774007,2.1547237339541514,-0.8093017406081859,293.7590125477409,36.52336405681259,0.0,1.0,16.21088686809934,19.973489156768792,0.0,Landing
15.8,-237.00252893480106,-882.5067103005437,173.10393102667504,2.182235876956686,-0.5821439446031237,293.8073952279864,36.6140307251582,0.0,1.0,16.21088686809934,19.973489156768792,0.0,Landing
15.9,-238.46035695899496,-876.8502664406356,172.66711655552717,2.8439428510415814,-0.9485062504869803,293.8456472724439,36.18602192055176,0.0,1.0,16.21088686809934,19.973489156768792,0.0,Landing
16.0,-239.94599054762722,-884.0932702913675,172.73887304253446,2.278022970880506,-0.8656894536911478,293.9447321258391,36.80754447779343,0.0,1.0,16.21088686809934,19.973489156768792,0.0,Landing
16.1,-241.4229952862579,-900.3842490284114,171.10801269094463,2.1205496513344038,-0.7242774503827893,294.0309157793514,36.656525275702684,0.0,1.0,16.21088686809934,19.973489156768792,0.0,Landing
16.2,-242.96227820413702,-883.4148078006365,174.3476614183942,2.634627421224842,-0.8307498040983465,293.5888819989375,37.19043595567665,0.0,1.0,16.21088686809934,19.973489156768792,0.0,Landing
16.3,-244.3630645866304,-865.9778149160388,174.16667298300786,2.3457353285443205,-0.6543920861262166,293.8398810157639,36.48455588195214,0.0,1.0,16.21088686809934,19.973489156768792,0.0,Landing
16.400000000000002,-245.7528843608381,-855.283842697122,171.75477277101623,2.0774416952320856,-1.0931503383848573,294.16682767285204,36.201448623649874,0.0,1.0,16.21088686809934,19.973489156768792,0.0,Landing
16.5,-247.23869741762263,-866.9345862622039,173.6514974968969,2.1595879599291337,-0.6437517228194994,293.9590633999535,36.62792786266625,0.0,1.0,16.21088686809934,19.973489156768792,0.0,Landing
16.6,-248.69773751794142,-873.0940576788385,171.90977014398726,2.032939820450771,-1.092171666023921,293.9066565442557,36.76343035204825,0.0,1.0,16.21088686809934,19.973489156768792,0.0,Landing
16.7,-250.1183546492323,-861.6570089056268,171.24895244356534,2.1712945565048014,-0.5785108206828447,293.7393524670458,36.61371588890156,0.0,1.0,16.21088686809934,19.973489156768792,0.0,Landing
16.8,-251.54698246215077,-876.7688886644861,172.9673107715202,1.9210184735242477,-0.8326735504503564,293.7887169746232,36.444751656459594,0.0,1.0,16.21088686809934,19.973489156768792,0.0,Landing
16.900000000000002,-253.08158196126385,-889.6815703093466,172.90618527029912,2.0332776529679064,-0.6689764983476767,293.7297545744035,36.54966795848465,0.0,1.0,16.21088686809934,19.973489156768792,0.0,Landing
17.0,-254.56676250077902,-884.4371442470277,172.9119653593616,2.1027350734663184,-0.6495338827391722,293.75278841005024,36.58246647633755,0.0,1.0,16.21088686809934,19.973489156768792,0.0,Landing
17.1,-255.9691681833859,-872.6921000618518,172.77030904726217,2.3167672632125416,-0.47176451541298725,293.8533616872437,36.723057713727016,0.0,1.0,16.21088686809934,19.973489156768792,0.0,Landing
17.2,-257.4450424615731,-875.521486493119,172.5286670294118,2.151695592583528,-0.8422436684878022,293.6272089010786,36.24121964800824,0.0,1.0,16.21088686809934,19.973489156768792,0.0,Landing
17.3,-258.9443699332446,-882.3402721536069,170.95867508963937,2.3540402439251813,-0.9543016448518101,293.8296169602652,36.61708175507067,0.0,1.0,16.21088686809934,19.973489156768792,0.0,Landing
17.400000000000002,-260.38086954415394,-867.3242293238104,173.3271903107679,2.061258396279989,-0.6825434915069821,293.8579187581324,36.317306670621015,0.0,1.0,16.21088686809934,19.973489156768792,0.0,Landing
17.5,-261.78166360819216,-871.3406596262189,171.81375272720555,2.2625367302311914,-0.6391477016334479,293.83455722599444,37.033912093982096,0.0,1.0,16.21088686809934,19.973489156768792,0.0,Landing
17.6,-263.3010732313757,-871.6764636177231,172.2622003218535,2.4099053956325855,-0.6703959921415225,293.7581911245221,36.2909614737044,0.0,1.0,16.21088686809934,19.973489156768792,0.0,Landing
17.7,-264.73925186224255,-901.135828459735,172.3193250630639,2.4817125369624558,-0.6785702956917316,293.88645831334645,36.560688858412576,0.0,1.0,16.21088686809934,19.973489156768792,0.0,Landing
17.8,-266.28734275049084,-879.5281341051918,174.54119914311215,2.5098824204793133,-0.5979202278409746,293.66361426204094,37.03276552090115,0.0,1.0,16.21088686809934,19.973489156768792,0.0,Landing
17.900000000000002,-267.69871390190167,-870.5652079848846,172.62152430855036,2.43591480460937,-0.7165458649152139,293.65284042655856,36.79060483117788,0.0,1.0,16.21088686809934,19.973489156768792,0.0,Landing
18.0,-269.092077902167,-872.951296995916,173.23258440278437,1.7334288362188641,-0.8617320035592998,293.8572920675965,36.68392291722177,0.0,1.0,16.21088686809934,19.973489156768792,0.0,Landing
18.1,-270.6520992354704,-871.5875737851206,173.18942165171197,2.471442774248966,-0.8379887944682534,293.70781320165827,36.604737544001516,0.0,1.0,16.21088686809934,19.973489156768792,0.0,Landing
18.2,-272.0566517708273,-892.0414419212193,172.37044758541163,1.8923104314790025,-0.7031289391309006,293.91597351772646,36.48569357911462,0.0,1.0,16.21088686809934,19.973489156768792,0.0,Landing
18.3,-273.5522851117731,-882.3778830547099,172.53119057823645,1.679515553847138,-0.6499628094246584,293.94811177224915,36.90348555267301,0.0,1.0,16.21088686809934,19.973489156768792,0.0,Landing
18.400000000000002,-275.06398865074397,-899.577860443776,173.53829895276164,1.9030350026982248,-1.0882207298830744,293.87218114844757,36.80990214512864,0.0,1.0,16.21088686809934,19.973489156768792,0.0,Landing
18.5,-276.55454107304615,-891.1654523589618,174.09514539689374,2.2961078561397064,-0.541722004925956,293.79750035011875,37.045465149690685,0.0,1.0,16.21088686809934,19.973489156768792,0.0,Landing
18.6,-278.0081123735679,-865.2707149648336,172.53430343929077,2.384898019680196,-0.5616680872689974,293.8235185171161,36.324782207281146,0.0,1.0,16.21088686809934,19.973489156768792,0.0,Landing
18.7,-279.39034222556813,-855.1683993552501,173.80333064066699,1.9377686814691237,-0.8151672920795948,293.8569291898649,36.1012472220593,0.0,1.0,16.21088686809934,19.973489156768792,0.0,Landing
18.8,-280.8303830698224,-861.5886335650316,172.55313793030646,2.671491827852063,-0.770479202162791,294.1913363526488,36.7977539055672,0.0,1.0,16.21088686809934,19.973489156768792,0.0,Landing
18.900000000000002,-282.31605554139304,-867.390279304368,173.5005657705211,2.0217248835981243,-0.6307799689787781,293.75162922290883,36.826350712179746,0.0,1.0,16.21088686809934,19.973489156768792,0.0,Landing
19.0,-283.72729362209,-880.0329047120613,171.7160295531831,2.30636843217256,-0.8731651417990893,293.8811783690471,36.59256631975461,0.0,1.0,16.21088686809934,19.973489156768792,0.0,Landing
19.1,-285.2305475933827,-877.7245690486552,172.21712106727952,2.172496938664761,-1.1229089657725746,294.00827106556176,36.49111946439596,0.0,1.0,16.21088686809934,19.973489156768792,0.0,Landing
19.200000000000003,-286.7046783866363,-874.6299490636488,173.55646831172496,2.365515992701439,-0.7517070540776294,293.90686907597706,36.59734275165114,0.0,1.0,16.21088686809934,19.973489156768792,0.0,Landing
19.3,-288.1004433674082,-863.5404140605146,173.4353084486196,2.283854346423559,-0.7343766477189231,293.7032589146445,36.64273295338365,0.0,1.0,16.21088686809934,19.973489156768792,0.0,Landing
19.400000000000002,-289.5482496636853,-869.0104027149118,172.21987706737144,2.3585056679946494,-0.932078836498726,293.9473852260388,36.717201778214886,0.0,1.0,16.21088686809934,19.973489156768792,0.0,Landing
19.5,-291.0497304002109,-884.3427915771827,172.10362188001042,1.9325153984267067,-0.8002162254882512,293.7784451643337,36.91450655431001,0.0,1.0,16.21088686809934,19.973489156768792,0.0,Landing
19.6,-292.52215732529413,-909.7127231404443,172.40961258529364,2.362783488924591,-1.0495215725276812,293.78033968299246,36.331554019466445,0.0,1.0,16.21088686809934,19.973489156768792,0.0,Landing
19.700000000000003,-294.0968132793875,-917.6303695708157,173.55417000443137,2.3379937737779493,-0.43208519572628606,293.81645416951073,36.13783745722915,0.0,1.0,16.21088686809934,19.973489156768792,0.0,Landing
19.8,-295.63788224806495,-917.6337006239919,172.96848822559687,2.33872736425919,-0.5326576780210354,293.86380812241987,36.8004158679954,0.0,1.0,16.21088686809934,19.973489156768792,0.0,Landing
19.900000000000002,-297.1103258284141,-905.9636625526082,173.82583576152646,2.020629938578826,-1.0193843349193048,294.00962401415404,36.39177894043471,0.0,1.0,16.21088686809934,19.973489156768792,0.0,Landing
20.0,-298.62663159215055,-881.2427974749653,171.44206510528136,2.025489424186017,-0.9690656988441299,293.82204975988566,36.8913118018476,0.0,1.0,16.21088686809934,19.973489156768792,0.0,Landing
20.1,-300.0440962354398,-888.958485238777,172.65704411951435,2.0949614335324687,-0.7516269617147415,293.50159447225656,36.63051484144942,0.0,1.0,16.21088686809934,19.973489156768792,0.0,Landing
20.200000000000003,-301.555118254608,-895.0429843337247,171.5200312196366,2.3883003134645318,-0.6003510509518666,293.7379231326411,36.69128122100448,0.0,1.0,16.21088686809934,19.973489156768792,0.0,Landing
20.3,-303.10184651381917,-917.3389463528224,173.27624345104564,2.298733572580081,-0.5603375664745625,293.8619681854382,37.13701051831691,0.0,1.0,16.21088686809934,19.973489156768792,0.0,Landing
20.400000000000002,-304.6307909672039,-913.9807101741326,172.60782146116827,2.1963260679500913,-0.8089388388887945,294.03693535631146,36.46161307240355,0.0,1.0,16.21088686809934,19.973489156768792,0.0,Landing
20.5,-306.12502180547864,-895.5165964225898,171.80568744270082,2.025033370508397,-0.5357060855741278,293.5970895818199,36.93292097662159,0.0,1.0,16.21088686809934,19.973489156768792,0.0,Landing
20.6,-307.5794294959321,-902.7333376329693,173.63651081764846,2.2171259733725077,-1.2235077139105093,293.59160344664406,35.856104074593695,0.0,1.0,16.21088686809934,19.973489156768792,0.0,Landing
20.700000000000003,-309.14445765536874,-893.014077331793,173.26428394884067,2.1160104770895853,-0.9263146396594053,293.8432748150492,36.16360884210269,0.0,1.0,16.21088686809934,19.973489156768792,0.0,Landing
20.8,-310.5900921921376,-888.6007203900476,173.68569512814787,2.32356018093054,-0.46622744482724066,293.95416833649915,36.506120270671836,0.0,1.0,16.21088686809934,19.973489156768792,0.0,Landing
20.900000000000002,-312.02243309788236,-878.607913138228,171.31212112464996,2.292531465738943,-0.5654716091190658,294.0092446153086,36.690722486546036,0.0,1.0,16.21088686809934,19.973489156768792,0.0,Landing
21.0,-313.5374972210599,-877.9290100548224,172.43362339899292,2.2964521005097205,-0.5853933777245519,293.74937448303604,36.60690188837954,0.0,1.0,16.21088686809934,19.973489156768792,0.0,Landing
21.1,-314.9797372424117,-882.0318997342497,173.4843982916352,2.1716534648997925,-0.7503425685081141,293.7535615716981,36.7534888039604,0.0,1.0,16.21088686809934,19.973489156768792,0.0,Landing
21.200000000000003,-316.4325925965536,-879.8120744315952,173.99168243769935,2.3574227893435267,-0.8020608383852652,293.82575455666256,36.486326078725064,0.0,1.0,16.21088686809934,19.973489156768792,0.0,Landing
21.3,-317.93655759321786,-894.3839127964679,171.43389957507935,2.0799579619233,-0.7702422653412992,293.69869963662677,36.53479105829886,0.0,1.0,16.21088686809934,19.973489156768792,0.0,Landing
21.400000000000002,-319.45165680639406,-896.3283281735016,173.3328540850487,2.3236731448454577,-0.8058681778852588,293.8782569802539,36.6758271128076,0.0,1.0,16.21088686809934,19.973489156768792,0.0,Landing
21.5,-320.9142342374211,-890.9286133344835,173.23899794932024,2.2394182927422794,-0.9221119085242983,293.6384345759162,36.61476609661837,0.0,1.0,16.21088686809934,19.973489156768792,0.0,Landing
21.6,-322.3912006598903,-867.1237908721878,173.87363820919668,2.306723214846909,-1.183263561482422,293.8832316511798,36.825549032887984,0.0,1.0,16.21088686809934,19.973489156768792,0.0,Landing
21.700000000000003,-323.787275760755,-868.9294734092755,173.23174816546398,2.0025874223991798,-1.05215837221898,293.877461739879,36.72345274752315,0.0,1.0,16.21088686809934,19.973489156768792,0.0,Landing
21.8,-325.2588816044675,-866.7570464892151,172.3836649409114,2.0968610418851448,-0.6833324271803,293.9782959422405,36.340503442757324,0.0,1.0,16.21088686809934,19.973489156768792,0.0,Landing
21.900000000000002,-326.72498589233635,-870.9536734247649,170.03969316951307,1.9601412725376752,-0.500386787841318,293.7269663004297,36.69524188890893,0.0,1.0,16.21088686809934,19.973489156768792,0.0,Landing
22.0,-328.1420441278788,-858.6541502319619,170.5904035758228,2.5048247925571125,-0.8612795448940572,294.053750276134,36.775432136202795,0.0,1.0,16.21088686809934,19.973489156768792,0.0,Landing
22.1,-329.5521523556273,-848.3250510579751,170.7345897078388,2.317832553008598,-0.21276509967172275,293.86993355875643,37.19534270836795,0.0,1.0,16.21088686809934,19.973489156768792,0.0,Landing
22.200000000000003,-330.9666111476262,-869.1721012489097,172.2355192631107,2.0472063864424994,-0.6526187667424448,293.9476083824661,36.62193571814882,0.0,1.0,16.21088686809934,19.973489156768792,0.0,Landing
22.3,-332.48790463412337,-882.1687529002247,172.86780566158447,2.235535616052986,-0.5617659328086178,293.63395001589106,36.958213921146495,0.0,1.0,16.21088686809934,19.973489156768792,0.0,Landing
22.400000000000002,-333.9629961201284,-891.8028215982986,171.74564864730633,2.190705624302665,-0.9576079527001997,293.5824297578472,36.43281772109469,0.0,1.0,16.21088686809934,19.973489156768792,0.0,Landing
22.5,-335.4256252556177,-883.8516526670901,171.18565448439006,2.5938280559497575,-1.0426705359600774,293.6496793225217,36.35045319953572,0.0,1.0,16.21088686809934,19.973489156768792,0.0,Landing
22.6,-336.9071628974588,-880.6548839039465,173.5291373830766,2.5512715225801132,-0.8510248547978745,293.79863291980666,36.13480410282041,0.0,1.0,16.21088686809934,19.973489156768792,0.0,Landing
22.700000000000003,-338.36627053964816,-872.3916447893203,172.20944040365697,2.240601685193781,-0.8323587823164212,293.53474713970934,36.59744082244051,0.0,1.0,16.21088686809934,19.973489156768792,0.0,Landing
22.8,-339.7875834795643,-873.4882214225195,172.36863252105843,2.4076163429357376,-0.6016123690892348,293.85137469049073,36.31522648958113,0.0,1.0,16.21088686809934,19.973489156768792,0.0,Landing
22.900000000000002,-341.2746040045714,-882.283037422917,174.76052880151744,2.755331264222244,-1.0532534494295385,293.5270435687253,36.68896305438611,0.0,1.0,16.21088686809934,19.973489156768792,0.0,Landing
23.0,-342.77768572676274,-910.2581350823584,172.8870504386634,2.41280885006184,-0.8565959550392415,293.82911249571066,36.36922794866294,0.0,1.0,16.21088686809934,19.973489156768792,0.0,Landing
23.1,-344.3388741549761,-886.624636083684,174.0922887539202,2.188069962222291,-0.6970284623368204,293.66171328103337,36.86522594780127,0.0,1.0,16.21088686809934,19.973489156768792,0.0,Landing
23.200000000000003,-345.70772718498984,-884.7651495397031,170.82053254441257,2.0805058506577927,-0.7159060323753346,293.88067458225873,36.65876526082273,0.0,1.0,16.21088686809934,19.973489156768792,0.0,Landing
23.3,-347.20151147446126,-855.5313282576549,172.07002918118633,2.235625138521982,-0.5815832532260741,294.0070247197184,36.43553590483845,0.0,1.0,16.21088686809934,19.973489156768792,0.0,Landing
23.400000000000002,-348.6165307962644,-860.5219428961618,171.74638324504855,2.175676940138749,-0.833764712904249,293.71455475236155,36.47693793801228,0.0,1.0,16.21088686809934,19.973489156768792,0.0,Landing
23.5,-350.01033689947064,-866.7062070389193,171.25596421795103,2.0738464842643163,-0.6805312023809942,293.75657675471143,36.461968680559444,0.0,1.0,16.21088686809934,19.973489156768792,0.0,Landing
23.6,-351.53504250965585,-867.261347500596,173.29824896593803,1.956914741934422,-0.6052082191320294,293.7970434407648,36.16757752544714,0.0,1.0,16.21088686809934,19.973489156768792,0.0,Landing
23.700000000000003,-352.95283753376737,-899.7311787867602,173.99584240783156,2.3508301167421077,-0.5739342294383257,293.87434921382044,36.77503349508543,0.0,1.0,16.21088686809934,19.973489156768792,0.0,Landing
23.8,-354.50899279340445,-890.3266263946193,173.16826789232672,2.40139025155881,-0.6580255378984112,294.02220848572915,37.02179050716605,0.0,1.0,16.21088686809934,19.973489156768792,0.0,Landing
23.900000000000002,-355.98667564162895,-907.6633382194814,172.5238319480596,1.9115004648407832,-0.5865975535542798,293.928736496998,36.62089235838394,0.0,1.0,16.21088686809934,19.973489156768792,0.0,Landing
24.0,-357.4911542248648,-899.170277307303,170.76619442055664,2.016276638067274,-0.8067450509261417,293.88424137975835,36.54964865978758,0.0,1.0,16.21088686809934,19.973489156768792,0.0,Landing
24.1,-359.00484417994096,-896.7340658688613,172.33989075184368,1.9941287247285673,-0.7999961736683489,293.5597936227616,36.321197352924244,0.0,1.0,16.21088686809934,19.973489156768792,0.0,Landing
24.200000000000003,-360.47034597097326,-884.9979555879827,171.96855677792695,2.576507893533633,-0.6422219204822037,293.81930006092307,36.135438186819194,0.0,1.0,16.21088686809934,19.973489156768792,0.0,Landing
24.3,-361.9161440028047,-874.8498403541021,172.85017623876482,2.1144676134804095,-0.788183557805184,293.6329967171964,36.2228113004825,0.0,1.0,16.21088686809934,19.973489156768792,0.0,Landing
24.400000000000002,-363.37909338171147,-879.8153136928249,173.15024827515504,2.1686625957055883,-0.7319806767894892,294.1491234730488,36.82011140006739,0.0,1.0,16.21088686809934,19.973489156768792,0.0,Landing
24.5,-364.8694225394374,-907.2811841550333,173.57294073606857,2.4715931145117933,-1.0173201302605805,293.91569209991167,36.43479731803671,0.0,1.0,16.21088686809934,19.973489156768792,0.0,Landing
24.6,-366.45254992357985,-894.5489081875508,174.42741420321147,1.9402266284405774,-0.8281033792664334,293.7764718102062,36.399810239174364,0.0,1.0,16.21088686809934,19.973489156768792,0.0,Landing
24.700000000000003,-367.8518379226492,-897.8908546736079,173.1666814150157,2.01350765721616,-0.7678494416882533,294.0314658312035,36.16028696803485,0.0,1.0,16.21088686809934,19.973489156768792,0.0,Landing
24.8,-369.3588768128054,-878.4799504353259,173.45791110701242,2.0119144393299555,-0.3651392378361322,293.8468388620488,36.128128881973176,0.0,1.0,16.21088686809934,19.973489156768792,0.0,Landing
24.900000000000002,-370.8449496757565,-884.2259708922597,173.26510680528978,2.2702047437961634,-0.8990164118655114,293.81119519771687,37.077430898488444,0.0,1.0,16.21088686809934,19.973489156768792,0.0,Landing
25.0,-372.2729677771105,-853.0206697425115,171.7640197398004,2.1017570032682915,-0.9783395940494102,293.8827856024159,36.64958458943215,0.0,1.0,16.21088686809934,19.973489156768792,0.0,Landing
25.1,-373.623980161518,-836.8631976785764,171.70234803900584,1.99430632281909,-0.7319398434354559,293.8056299645608,37.142169843911866,0.0,1.0,16.21088686809934,19.973489156768792,0.0,Landing
25.200000000000003,-375.02926566414936,-850.0517848639106,173.85204179558653,2.113452581752918,-1.0375526510054611,293.6163719946592,36.245523856988726,0.0,1.0,16.21088686809934,19.973489156768792,0.0,Landing
25.3,-376.5232267014301,-883.8455441768133,173.59531730493802,2.185529068750542,-1.3047488569431605,293.6510959257482,36.512631021404744,0.0,1.0,16.21088686809934,19.973489156768792,0.0,Landing
25.400000000000002,-378.04320788240204,-892.4884993915157,173.16521175675905,2.3746899619926283,-0.47967859406057295,293.7590114566176,36.48014021672753,0.0,1.0,16.21088686809934,19.973489156768792,0.0,Landing
25.5,-379.49170816110694,-878.2701887512758,173.0818068988809,2.3990467705116947,-0.6577765818652743,293.8877060693144,36.650145787049844,0.0,1.0,16.21088686809934,19.973489156768792,0.0,Landing
25.6,-380.91457764518645,-872.9231452459544,174.00775995239377,2.406826781511051,-0.8887507624003317,293.97487108004213,36.474931689082304,0.0,1.0,16.21088686809934,19.973489156768792,0.0,Landing
25.700000000000003,-382.4078236086318,-867.3284812772408,172.74620383741964,2.260112942211923,-0.6195445170206286,293.76839329297104,36.546029863168,0.0,1.0,16.21088686809934,19.973489156768792,0.0,Landing
25.8,-383.82835056749315,-876.2636535469142,173.2771062553915,1.9802068076632944,-0.9652931239371434,293.7908522012083,36.64039128866272,0.0,1.0,16.21088686809934,19.973489156768792,0.0,Landing
25.900000000000002,-385.295895912921,-865.6630115018174,172.86685239807431,2.0073030772794547,-0.45370118439957285,293.8370745609657,36.336451352606524,0.0,1.0,16.21088686809934,19.973489156768792,0.0,Landing
26.0,-386.7361386661409,-865.4683436671348,172.89489185201046,2.163501115179077,-0.6814674279232411,293.88891846144963,37.084550836671454,0.0,1.0,16.21088686809934,19.973489156768792,0.0,Landing
26.1,-388.1556922858288,-859.9553951725284,171.64915723161357,2.1457928545067224,-0.5448568999075423,293.89221215624923,36.123173520692944,0.0,1.0,16.21088686809934,19.973489156768792,0.0,Landing
26.200000000000003,-389.59567288878367,-871.1220115454807,171.2861367411752,2.5596876638826895,-0.8855241653342569,293.80070808449227,36.736828728906325,0.0,1.0,16.21088686809934,19.973489156768792,0.0,Landing
26.3,-391.0917487238683,-861.2619373371103,173.4057301152875,2.211879273847541,-0.7749567221320581,293.93174417781916,37.104686904047966,0.0,1.0,16.21088686809934,19.973489156768792,0.0,Landing
26.400000000000002,-392.4620019725144,-876.515111274955,173.19715077577612,2.4299497149578637,-0.8912383627261067,293.8204214360478,36.94588693671485,0.0,1.0,16.21088686809934,19.973489156768792,0.0,Landing
26.5,-393.97824844515844,-890.879748880991,172.54528878415815,2.2462100719613805,-0.9465922765555717,293.71870343689386,37.1437215967499,0.0,1.0,16.21088686809934,19.973489156768792,0.0,Landing
26.6,-395.54614746827326,-917.324644204075,172.2532739759493,2.0738089045754737,-0.9890940840041798,294.0007756530765,36.28084656159561,0.0,1.0,16.21088686809934,19.973489156768792,0.0,Landing
26.700000000000003,-397.04862519353475,-896.8890682092024,173.47834777429358,2.1842928083449933,-0.5147880004903838,293.78320905148325,36.483305519941865,0.0,1.0,16.21088686809934,19.973489156768792,0.0,Landing
26.8,-398.46269378620445,-862.2789353711823,171.4387116342303,2.093995140250801,-0.5963634291530466,293.9654730999829,35.936008817529654,0.0,1.0,16.21088686809934,19.973489156768792,0.0,Landing
26.900000000000002,-399.8575421451292,-837.1089210452283,173.97697617829638,1.8726069737084698,-1.0313643892861706,293.78846985318023,36.27666721325777,0.0,1.0,16.21088686809934,19.973489156768792,0.0,Landing
27.0,-401.2341697987609,-841.5351891350724,171.44264232357114,2.354057162690541,-1.126475179821045,293.9938288416131,36.604557198373236,0.0,1.0,16.21088686809934,19.973489156768792,0.0,Landing
27.1,-402.6703697318798,-861.8748275921689,172.9068722456156,2.5131804621938043,-0.9084940006665129,293.80642261974504,36.14873057479973,0.0,1.0,16.21088686809934,19.973489156768792,0.0,Landing
27.200000000000003,-404.16691628309,-883.9170493536244,171.25267698358448,1.9568075601770525,-0.37441873703734163,293.93813714013663,36.78894679144542,0.0,1.0,16.21088686809934,19.973489156768792,0.0,Landing
27.3,-405.653755045529,-866.2455167740859,172.8894702528895,2.0065138498381376,-0.9340538506446194,293.7074222271277,36.86120066062572,0.0,1.0,16.21088686809934,19.973489156768792,0.0,Landing
27.400000000000002,-407.00159731575025,-864.4380568616043,174.69988797181753,2.065271215971991,-0.8365696261735361,293.56402532206107,36.561581716004135,0.0,1.0,16.21088686809934,19.973489156768792,0.0,Landing
27.5,-408.48910656739804,-856.6633332131119,172.46967794600076,2.3670842196325275,-0.8240915367169432,293.72832757701235,36.93529987732173,0.0,1.0,16.21088686809934,19.973489156768792,0.0,Landing
27.6,-409.93707171159457,-890.5815888453617,173.07086577941678,2.1591746698887504,-0.76746031168402,293.75697199564,36.07023870780552,0.0,1.0,16.21088686809934,19.973489156768792,0.0,Landing
27.700000000000003,-411.45450525997705,-875.4274524031189,174.65775786898752,2.040785854959068,-0.5405381743961463,293.82376112174916,36.5359954272605,0.0,1.0,16.21088686809934,19.973489156768792,0.0,Landing
27.8,-412.86624382941363,-882.486393647298,174.01330751555196,2.2529629410285845,-0.6417736060246398,293.8268397576951,36.36259073096796,0.0,1.0,16.21088686809934,19.973489156768792,0.0,Landing
27.900000000000002,-414.34950367983106,-878.7890133663382,172.95278950806676,2.440186218601854,-0.7745812022083927,293.8411974443002,36.83302190459853,0.0,1.0,16.21088686809934,19.973489156768792,0.0,Landing
28.0,-415.84845032680875,-883.9399287349693,172.1987196748419,2.0559058851777707,-0.6297682751054573,293.7404739433449,36.37616580767599,0.0,1.0,16.21088686809934,19.973489156768792,0.0,Landing
28.1,-417.2859434730885,-884.1623378459303,170.47954778437673,2.372644951126394,-0.6258360058090967,293.7657891229303,36.976247360780484,0.0,1.0,16.21088686809934,19.973489156768792,0.0,Landing
28.200000000000003,-418.7703153690607,-868.3069977903529,173.43276570079496,2.0789140499113525,-0.3761840799515723,293.8196928031823,36.552824205095575,0.0,1.0,16.21088686809934,19.973489156768792,0.0,Landing
28.3,-420.1899853157605,-871.4527584729012,171.99741988396485,1.9543986486162948,-0.85464407367838,293.9767662299171,36.388374036934565,0.0,1.0,16.21088686809934,19.973489156768792,0.0,Landing
28.400000000000002,-421.643207265453,-871.7569636032863,174.08178065825808,2.2626455209390293,-0.512214099268701,293.7416267834674,36.40378145489277,0.0,1.0,16.21088686809934,19.973489156768792,0.0,Landing
28.5,-423.12910018707714,-888.8883309309335,172.98506090523043,2.157805390965236,-0.9674819183786635,293.74239898543397,36.895201940115086,0.0,1.0,16.21088686809934,19.973489156768792,0.0,Landing
28.6,-424.6344269704152,-894.626449576549,171.61377311836466,2.374788470694018,-0.4622263023548508,293.702377248546,36.415289010827166,0.0,1.0,16.21088686809934,19.973489156768792,0.0,Landing
28.700000000000003,-426.11633951333573,-889.5516953896845,173.62222115104512,2.309333677507476,-0.8887804475871137,293.8324550415732,36.92240261269344,0.0,1.0,16.21088686809934,19.973489156768792,0.0,Landing
28.8,-427.57685866402556,-893.8223980927091,172.88273535526136,2.361700730830054,-0.7947937302326199,294.0217339914602,36.7268281230295,0.0,1.0,16.21088686809934,19.973489156768792,0.0,Landing
28.900000000000002,-429.1035389608787,-855.9520270454072,174.32766755650835,1.9738517400672748,-0.7255337816940713,294.06167308059867,36.36226055292457,0.0,1.0,16.21088686809934,19.973489156768792,0.0,Landing
29.0,-430.39609964856277,-860.946212582121,172.19368601418142,1.9848673181475094,-0.9214409258107366,293.84542640555117,36.75203767366801,0.0,1.0,16.21088686809934,19.973489156768792,0.0,Landing
29.1,-431.88158972693617,-839.6932420771236,171.912768437786,2.3998256450992703,-0.8156098842026157,293.7542200758521,36.70255513935734,0.0,1.0,16.21088686809934,19.973489156768792,0.0,Landing
29.200000000000003,-433.30200517126434,-857.3784542782846,175.05665409787204,1.9953305003900603,-0.7755614097836974,293.68772751575796,36.688618170423815,0.0,1.0,16.21088686809934,19.973489156768792,0.0,Landing
29.3,-434.6829919199542,-848.7953547156167,174.2490149396161,1.8323960050327825,-0.2631530596070054,293.623849699474,36.68179878538597,0.0,1.0,16.21088686809934,19.973489156768792,0.0,Landing
29.400000000000002,-436.12556650051425,-863.9694036129185,171.17440802590872,2.580443599344454,-1.0191731048692336,293.7264670821253,36.54009292733772,0.0,1.0,16.21088686809934,19.973489156768792,0.0,Landing
29.5,-437.62185218932893,-886.2937433395473,172.00802372617906,1.9406106420194378,-0.7558852721100662,294.05289210340425,36.481116820891096,0.0,1.0,16.21088686809934,19.973489156768792,0.0,Landing
29.6,-439.1144606366519,-878.0384202848154,171.86985668224372,2.4457814168760637,-0.8083550017992444,293.9170432905171,36.393757954506604,0.0,1.0,16.21088686809934,19.973489156768792,0.0,Landing
29.700000000000003,-440.51575860193833,-870.0851562298112,173.46434822798903,2.361053979385339,-0.647325453109812,293.9121771644127,36.80230998236297,0.0,1.0,16.21088686809934,19.973489156768792,0.0,Landing
29.8,-441.972277970478,-857.5385325750403,173.0816636603023,2.0146598565178375,-0.8951895006762213,293.6909720954693,36.663367897799596,0.0,1.0,16.21088686809934,19.973489156768792,0.0,Landing
29.900000000000002,-443.40215329952713,-846.5267831880169,172.6765571062292,2.2591074273858753,-0.6748229641767495,294.03117677760133,36.936408916765096,0.0,1.0,16.21088686809934,19.973489156768792,0.0,Landing
