time_s,altitude_ft,vertical_speed_fpm,ias_kt,pitch_deg,roll_deg,heading_deg,throttle_pct,afterburner_on,gear_down,flaps_deg,speedbrake_pct,weight_on_wheels,label
0.0,0.041669296644035805,-62.6474956551365,14.567110753031885,-0.5991230883427038,0.8460932168981132,28.896428192249175,21.846712747259737,0.0,1.0,0.0,0.0,1.0,Taxi
0.1,-0.16715568887308588,3.458684880192005,15.27518759654907,-0.6338791447628853,0.36428187066456014,28.906590177269834,21.588854629557606,0.0,1.0,0.0,0.0,1.0,Taxi
0.2,0.058962721044995836,-5.573950940992404,16.382273558965945,-0.30094338894773964,0.5665765175223805,28.748149585270312,22.533943274157068,0.0,1.0,0.0,0.0,1.0,Taxi
0.30000000000000004,0.01379954193907379,18.614135985954718,16.172405226309046,-0.4249158864172985,-0.026668388090859564,28.876187379490034,21.52507843628637,0.0,1.0,0.0,0.0,1.0,Taxi
0.4,-0.07408500894331228,-19.221267007164546,16.06302558477604,-0.5948064268134104,-0.4458196385696811,28.926237737663882,22.227156480498515,0.0,1.0,0.0,0.0,1.0,Taxi
0.5,-0.03714361399082691,3.8649824821912944,15.22260145035021,-0.47163846971371837,-0.12804940035976373,28.77340092045722,21.800384085217168,0.0,1.0,0.0,0.0,1.0,Taxi
0.6000000000000001,0.033124454350030245,49.1652506804665,14.988007891060283,-0.27354358054918426,0.21525200501688765,28.6973000563691,21.954553393253008,0.0,1.0,0.0,0.0,1.0,Taxi
0.7000000000000001,0.1717412444590202,-3.4512858450524626,15.416183182772834,-0.27467987688911333,-0.30768190396372824,28.696387128839206,21.484185570589542,0.0,1.0,0.0,0.0,1.0,Taxi
0.8,-0.054400043216089225,12.61749442895659,15.807872069198153,-0.26474661448990794,-0.514911792896707,28.825597882182137,21.110206395906722,0.0,1.0,0.0,0.0,1.0,Taxi
0.9,0.09621192649481321,-14.723251596071483,13.711741759504719,-0.22269301007863693,-0.5198184255932816,28.819229997973196,21.364680888840667,0.0,1.0,0.0,0.0,1.0,Taxi
1.0,0.0981249864786628,-0.1682702151179664,14.999270588510848,-0.3063439134438105,0.931318144485437,28.914850459739455,22.15520138741416,0.0,1.0,0.0,0.0,1.0,Taxi
1.1,-0.05524139429167907,-35.71872074419585,15.436259142842806,-0.1399827421244647,0.3007763530440481,28.650289875506246,22.494645447018485,0.0,1.0,0.0,0.0,1.0,Taxi
1.2000000000000002,-0.08238167722616607,-21.134909825067222,16.653009067395978,-0.4146570409219577,-0.7198391486094362,28.698178426401796,22.00039311894769,0.0,1.0,0.0,0.0,1.0,Taxi
1.3,-0.0075495626466733235,10.976566230217363,15.364706922526207,-0.30560005246145355,0.2990546519720225,28.933232057959856,23.1234921618396,0.0,1.0,0.0,0.0,1.0,Taxi
1.4000000000000001,-0.0003585631405922526,-13.720098161217733,14.82989704104811,-0.309558864326324,-0.4633733832641118,28.782088079250514,22.353907365958634,0.0,1.0,0.0,0.0,1.0,Taxi
1.5,-0.15098216803225473,4.480510111195812,15.065962456809935,-0.20343012867243687,-0.11091484870621575,28.848242818611027,21.683364206684338,0.0,1.0,0.0,0.0,1.0,Taxi
1.6,0.014852987909305719,-20.95225692169063,15.265780287490571,-0.41792513429721695,0.3973836762256591,28.659696753648348,21.1548846696452,0.0,1.0,0.0,0.0,1.0,Taxi
1.7000000000000002,-0.1051198477490454,13.511025643110278,16.004368590896988,-0.26308011627822037,-0.13559398157169825,28.848455815331818,22.53383313877876,0.0,1.0,0.0,0.0,1.0,Taxi
1.8,-0.08342703981670334,-5.527692987620175,16.047354658601584,-0.16528822776801103,-0.13169060317333742,28.69316406507926,22.984590202743533,0.0,1.0,0.0,0.0,1.0,Taxi
1.9000000000000001,-0.012785477028795143,24.170187773152037,16.271639924353572,-0.3960790182235104,-0.23087524012657318,28.740233122624716,22.55088657010474,0.0,1.0,0.0,0.0,1.0,Taxi
2.0,0.015731091116714776,23.091195947297958,15.67540609879784,-0.4714538460642136,0.882977337255719,28.946628065244965,21.71103591929854,0.0,1.0,0.0,0.0,1.0,Taxi
2.1,0.032028939919786434,-10.509461360157024,15.413382243615198,-0.3061597069149194,0.15612933072577828,28.924333810113183,22.05127261850481,0.0,1.0,0.0,0.0,1.0,Taxi
2.2,-0.06533278382958026,2.8040664002559197,15.218014009919013,-0.2671860073839569,0.40317913859382687,28.71518877156086,22.145968530856408,0.0,1.0,0.0,0.0,1.0,Taxi
2.3000000000000003,0.02975142311799437,-9.47243888064302,15.44601588341809,-0.5332985007956925,-0.43569183468647066,28.807449714672828,21.417552798463205,0.0,1.0,0.0,0.0,1.0,Taxi
2.4000000000000004,-0.015333254483428677,-21.177817807539228,15.875242573272986,-0.5865285795426453,-0.001006374589450545,28.823978709309188,21.459254992929804,0.0,1.0,0.0,0.0,1.0,Taxi
2.5,-0.17122187286727641,-12.707207690362637,15.64905583130603,-0.30744506596916443,0.10464544916349332,28.784052115970553,22.393469427780172,0.0,1.0,0.0,0.0,1.0,Taxi
2.6,-0.033784615333818824,27.68080796913714,16.27131570611686,-0.08755495294238469,0.36149997610017437,28.88850926904729,22.512899578828293,0.0,1.0,0.0,0.0,1.0,Taxi
2.7,0.123070785362257,32.64750549118781,15.50516647872843,-0.2101203927222871,-0.13824700969791265,28.589419762041018,21.61909345346038,0.0,1.0,0.0,0.0,1.0,Taxi
2.8000000000000003,-0.00798434541133733,14.239645278239594,15.857823898577156,-0.5669369920473004,-0.606181862211673,28.80198506901479,21.651775288384545,0.0,1.0,0.0,0.0,1.0,Taxi
2.9000000000000004,0.03741361105737916,-46.317771557089735,15.867006587915496,-0.49828130232468454,-0.008918467501244972,28.860664038561254,21.446742495024765,0.0,1.0,0.0,0.0,1.0,Taxi
3.0,-0.10851807242319163,14.913799248251118,15.7406570790515,-0.43140841781776895,0.16133513752537926,28.929782726299777,22.419238295259625,0.0,1.0,0.0,0.0,1.0,Taxi
3.1,0.06658465082991825,-12.563822530069034,15.33343659429512,-0.6097085738735827,-0.6466144626917146,28.64374901979528,23.13566631258351,0.0,1.0,0.0,0.0,1.0,Taxi
3.2,-0.025405501592966024,51.65511400501142,14.319189198560846,-0.2392558083868452,-0.3688491133236173,28.92265675977012,21.883166594861105,0.0,1.0,0.0,0.0,1.0,Taxi
3.3000000000000003,0.1497574976018654,-7.727165139911136,14.672574909659925,-0.37256121768640327,-0.08002611983103909,28.6953548157598,21.323305547604274,0.0,1.0,0.0,0.0,1.0,Taxi
3.4000000000000004,0.027948825130362516,41.702703969613744,15.88089118815427,-0.19370546785258744,0.15761834292160776,28.833469340182774,21.751463752927947,0.0,1.0,0.0,0.0,1.0,Taxi
3.5,0.18310801825510264,-55.47304868698851,15.838253364579089,-0.4976724677404366,-1.1647771347675722,28.749931996811426,21.42726668790058,0.0,1.0,0.0,0.0,1.0,Taxi
3.6,-0.12760774583307719,-27.56055303041145,16.08431875397785,-0.6688467370681785,0.842194405017619,28.907152640508684,21.242768209231233,0.0,1.0,0.0,0.0,1.0,Taxi
3.7,-0.10985394002169474,-14.149185116485105,16.1638475728371,-0.5080610513153118,0.24391498572144335,28.844700692608967,22.08293593000015,0.0,1.0,0.0,0.0,1.0,Taxi
3.8000000000000003,0.11236209267267712,-5.445931961084369,17.57285365397818,-0.252593740535054,0.18141518885117502,28.874088423232365,21.825024772082344,0.0,1.0,0.0,0.0,1.0,Taxi
3.9000000000000004,-0.15483740563849907,28.129604587230716,15.458412166050664,-0.3369768859170655,0.2210577965232844,28.87530665361942,22.183598817931717,0.0,1.0,0.0,0.0,1.0,Taxi
4.0,0.030794082914458773,-19.1707563796386,14.441001889760201,-0.3978125484303608,-0.2555792650231157,28.73333414476923,22.03354439634286,0.0,1.0,0.0,0.0,1.0,Taxi
4.1000000000000005,0.01650831077448409,10.722659037820955,14.54733544145327,-0.47565523328626846,0.400169682548314,28.691877913276073,21.408026685354418,0.0,1.0,0.0,0.0,1.0,Taxi
4.2,-0.1012241104493943,5.021788753578889,14.91272948884771,-0.22029664979237296,-0.8559738156681163,28.757288215836866,21.891845968623166,0.0,1.0,0.0,0.0,1.0,Taxi
4.3,0.055903026682353224,-42.495872973743595,15.27513348069074,-0.2983523439315506,-0.12080091279246356,28.959725684517878,21.77101382784861,0.0,1.0,0.0,0.0,1.0,Taxi
4.4,-0.1959710540942339,25.546746692559598,15.347291809302405,-0.1129520075146403,-0.2323098444426622,28.906467053029075,22.067568470875866,0.0,1.0,0.0,0.0,1.0,Taxi
4.5,0.026509623013403646,-11.519938161731888,14.3357675321048,-0.4407031216920108,-0.0715585861282204,28.73790636224402,22.150226899034447,0.0,1.0,0.0,0.0,1.0,Taxi
4.6000000000000005,-0.0016966641263062646,49.41287951762893,16.372389475358975,-0.34141813054004555,0.5047650254135292,28.855255314805447,22.461321395754137,0.0,1.0,0.0,0.0,1.0,Taxi
4.7,0.05109334349391068,-21.412826581882836,15.634929162913206,-0.5983044089122356,-0.8584991955144966,28.76588797422164,21.616020766351276,0.0,1.0,0.0,0.0,1.0,Taxi
4.800000000000001,-0.08055450989601053,44.473585025829244,16.08729019469161,-0.4088092393210803,0.014603877052257342,28.901355425235693,21.630492721847098,0.0,1.0,0.0,0.0,1.0,Taxi
4.9,0.22067126100283999,10.810124107751571,16.32905956886295,-0.1483059422468496,-0.6831753322228992,28.79842103483776,22.891499602460858,0.0,1.0,0.0,0.0,1.0,Taxi
5.0,0.10514396403266857,11.24048557497341,15.70343033249703,-0.8234592179585387,-0.13688698731166113,28.9151229380725,22.371690272075544,0.0,1.0,0.0,0.0,1.0,Taxi
5.1000000000000005,-0.024352082021143473,-77.19307448257813,15.549740807493185,-0.7322604047193919,-0.2701130206904697,28.858916385499924,22.08065746078473,0.0,1.0,0.0,0.0,1.0,Taxi
5.2,-0.16529411141005063,-29.439696623070574,14.685411490489695,-0.5614908885707808,-0.051910261919348936,28.79345887252282,21.88514600277159,0.0,1.0,0.0,0.0,1.0,Taxi
5.300000000000001,-0.04205451908268432,26.38774003424501,16.342148744244522,-0.10435851215071351,-0.2650966030361207,28.86549333736042,21.71421278652178,0.0,1.0,0.0,0.0,1.0,Taxi
5.4,0.10758661815008155,45.27490835930564,15.258465405149003,-0.2139456362013945,-0.5260973082412671,28.8833832767358,21.49501681831343,0.0,1.0,0.0,0.0,1.0,Taxi
5.5,0.061080430386477515,9.861904414550656,14.625458358299424,-0.30580390607686836,-0.35975596168482254,28.940335111382467,21.909607349928145,0.0,1.0,0.0,0.0,1.0,Taxi
5.6000000000000005,0.0072550029900689365,-8.847459088364912,15.896661891313084,-0.22282330088222105,0.12651066386386392,29.08979613387214,22.548892278575412,0.0,1.0,0.0,0.0,1.0,Taxi
5.7,0.06334932270825698,-32.9537107040323,15.665873738100075,-0.15894699817139588,0.9806673959103059,28.91742592864722,21.99115655268508,0.0,1.0,0.0,0.0,1.0,Taxi
5.800000000000001,-0.10368812313368399,-13.992519211660001,14.735956956267335,-0.34146851003792894,-0.044035435443365606,28.844338707645136,21.97822622221361,0.0,1.0,0.0,0.0,1.0,Taxi
5.9,-0.06270759306823108,-23.536849801240823,15.04943592059958,-0.4013684072829817,-0.5163111067464792,28.71449732124796,22.06885294799681,0.0,1.0,0.0,0.0,1.0,Taxi
6.0,-0.054334926297947166,43.303721630870484,15.683922867996019,-0.19068734725437592,0.18556204617598127,28.880896647193424,21.208424299074547,0.0,1.0,0.0,0.0,1.0,Taxi
6.1000000000000005,0.11283048502066842,32.39621627270271,16.2992961449056,-0.5361034902056065,-0.2583384783142323,28.863462474408607,21.12712856088131,0.0,1.0,0.0,0.0,1.0,Taxi
6.2,0.09927348829528243,8.672345139191242,15.067998134303343,-0.3164526484288779,0.36971505511546826,28.73983233857649,21.90233084629814,0.0,1.0,0.0,0.0,1.0,Taxi
6.300000000000001,-0.010973200601991017,-3.446205989443314,14.804390951660645,-0.5418234267783346,-0.5999738689367297,28.865829146083854,22.0493016142304,0.0,1.0,0.0,0.0,1.0,Taxi
6.4,0.0955994550734518,-13.28601967993722,15.28292140390556,-0.5785416074744192,0.3686877245354125,28.710422465349836,22.701760680984318,0.0,1.0,0.0,0.0,1.0,Taxi
6.5,0.03284338989559628,-47.60578102950655,16.346716035938286,-0.46254286226440167,-0.14560508470930222,28.89466177658346,23.223526236429315,0.0,1.0,0.0,0.0,1.0,Taxi
6.6000000000000005,-0.2490021057495238,-34.1552405272188,14.99205015914751,-0.5987823613494679,-0.022179688881314004,28.93734608117751,21.841635870995,0.0,1.0,0.0,0.0,1.0,Taxi
6.7,-0.07517674756264223,6.264599669611509,14.6728675416735,-0.6878197487969762,-0.29583962665898444,28.70165669900183,22.373898759926576,0.0,1.0,0.0,0.0,1.0,Taxi
6.800000000000001,0.06416638824365378,20.27572791488784,14.91458751216752,-0.33624010952126127,-0.9974523345072375,28.870232289997148,21.727022373222425,0.0,1.0,0.0,0.0,1.0,Taxi
6.9,-0.14762346617508465,15.538855833747471,14.920934588976932,-0.7978884701431989,0.5185411215522455,28.89114351993669,22.330174023474722,0.0,1.0,0.0,0.0,1.0,Taxi
7.0,0.0025175316060950786,-36.0879653368301,14.832982731167139,-0.664766435148542,0.5722416930671633,28.762581614833152,21.808047324223164,0.0,1.0,0.0,0.0,1.0,Taxi
7.1000000000000005,-0.11627343844049678,12.175238871976143,15.89664485143068,-0.7254678177897071,-0.2507436108870542,28.638832448230914,21.928179206907856,0.0,1.0,0.0,0.0,1.0,Taxi
7.2,-0.08674727181520397,-9.014716234992584,15.099968204442806,-0.5327259141161239,-0.9749517258116931,28.894171144941367,22.132983351772257,0.0,1.0,0.0,0.0,1.0,Taxi
7.300000000000001,-0.04255604956886788,48.54204563536951,15.258596727827149,-0.2718513760648975,-0.6593157948904216,28.78958705855257,22.28404502336315,0.0,1.0,0.0,0.0,1.0,Taxi
7.4,0.12643678973635072,-7.457678992800197,15.263351183800578,-0.23804277149029418,0.3088687412473816,28.743724665688205,21.783864387409622,0.0,1.0,0.0,0.0,1.0,Taxi
7.5,-0.12403566677920502,4.5370312703158815,15.959364074392667,-0.26557432470194714,-0.22312300060254914,28.89693063453825,21.935090991244625,0.0,1.0,0.0,0.0,1.0,Taxi
7.6000000000000005,-0.019870893217288525,-33.26636264560824,14.486302487602185,-0.13673443154053672,0.2021768938534264,28.760406562218066,22.320733468020222,0.0,1.0,0.0,0.0,1.0,Taxi
7.7,-0.039895023491690496,58.74348423984868,15.813441531991202,-0.47824281362311755,-0.8148022037210849,28.786131587730893,22.851882255569453,0.0,1.0,0.0,0.0,1.0,Taxi
7.800000000000001,0.16968175442003833,-2.7080320178046455,13.82217025136437,-0.5441539724682755,-0.2765639203759345,28.812206512742762,21.18396135241943,0.0,1.0,0.0,0.0,1.0,Taxi
7.9,-0.03341105330631178,16.242429960505138,15.401613753775933,-0.36999759377544206,-0.21823483167375343,29.004290267968827,21.455381388954002,0.0,1.0,0.0,0.0,1.0,Taxi
8.0,0.04131712631083517,-61.588983475382484,15.31457973994749,-0.26252783937716473,-0.933840091908771,28.889228115757987,22.394591654512396,0.0,1.0,0.0,0.0,1.0,Taxi
8.1,-0.1382631629568741,6.12288798516857,16.33129258734839,-0.5804107371614716,0.059432213524898664,28.800251748761752,21.238936861742168,0.0,1.0,0.0,0.0,1.0,Taxi
8.200000000000001,-0.0027966133804689305,22.353529928715613,15.075652709941767,-0.3375374977568202,0.16516166951782757,28.8342511380622,22.018655259756372,0.0,1.0,0.0,0.0,1.0,Taxi
8.3,0.15308477595441325,17.63807786454368,15.05601452411633,-0.28388220980503404,-0.10023431377659692,29.005721966870567,22.46773768821863,0.0,1.0,0.0,0.0,1.0,Taxi
8.4,-0.05007277363415577,8.469295450386477,16.715938564273962,-0.41340966572838533,-0.6437643011655563,28.770081103049733,22.0459514694163,0.0,1.0,0.0,0.0,1.0,Taxi
8.5,0.039549863871463385,-56.31515920439176,14.382965033870803,-0.39396833523187813,0.20148579546692397,28.729714004504785,22.338077560664,0.0,1.0,0.0,0.0,1.0,Taxi
8.6,-0.12849102006754562,33.03416835894493,15.80033621107658,-0.49317913650941253,-0.13265365728631842,28.891535791397132,22.531202349209604,0.0,1.0,0.0,0.0,1.0,Taxi
8.700000000000001,0.11509806816056885,-3.5521184344439525,15.04420552876385,-0.4707418417189524,-0.5851539313022219,28.818100989706295,22.474787643868144,0.0,1.0,0.0,0.0,1.0,Taxi
8.8,0.021789271699243586,41.6220276172591,14.84121104550107,-0.22384112878615528,0.4462327035515531,28.86225630742382,22.12185317933835,0.0,1.0,0.0,0.0,1.0,Taxi
8.9,0.07961911801874982,-28.05292209524184,14.336225648144614,-0.6548274626121089,-0.5433232436059485,28.948965649445313,21.675478863895886,0.0,1.0,0.0,0.0,1.0,Taxi
9.0,-0.025166542315640406,-33.828520850914806,15.959401441721003,0.09526134798190511,-0.2323730427578324,28.816307425052912,21.49521138260159,0.0,1.0,0.0,0.0,1.0,Taxi
9.1,-0.14735333255533054,-36.61963372458054,15.38987054976327,-0.5330057246865948,0.5229122357532424,28.726822733211634,21.767485417035616,0.0,1.0,0.0,0.0,1.0,Taxi
9.200000000000001,-0.10347905060415297,8.218238712449315,16.04127059313936,-0.16084056126310567,0.010453467127550464,28.789481213980764,22.048275481000715,0.0,1.0,0.0,0.0,1.0,Taxi
9.3,0.01592465124660609,19.708008200636637,15.20276409055211,-0.36500485502028995,-0.21688982866223766,28.760994933491304,22.13866806867434,0.0,1.0,0.0,0.0,1.0,Taxi
9.4,-0.048813291552147406,69.68535026677442,14.514413401445319,-0.3698424706576302,-0.44750477806932437,28.774438745281316,22.29279472529402,0.0,1.0,0.0,0.0,1.0,Taxi
9.5,0.24494770072971914,4.012559449330813,15.50260141674201,-0.23386749788766223,-0.23992991360480154,28.947016114660812,22.50517624988724,0.0,1.0,0.0,0.0,1.0,Taxi
9.600000000000001,0.035987448493260146,29.022232302157217,14.93870999616729,-0.6570852028312146,-0.20119822018116892,28.96332978759841,22.472756659300202,0.0,1.0,0.0,0.0,1.0,Taxi
9.700000000000001,0.09629786995863865,-56.1489198942243,14.61394751776198,-0.506614245858114,0.4660245726261367,28.678184207602555,21.441723331651502,0.0,1.0,0.0,0.0,1.0,Taxi
9.8,-0.035796898741402426,-38.323318561395546,15.85930511039409,-0.2056741825769555,0.047106597386376674,28.682048741834308,22.161573178742177,0.0,1.0,0.0,0.0,1.0,Taxi
9.9,-0.15562914431371763,-13.269800881750095,15.659702030576849,-0.3923219260744345,0.2234837770238919,28.93961329438173,21.500253379748024,0.0,1.0,0.0,0.0,1.0,Taxi
10.0,0.029948865549888133,1.1898564438106618,15.122337080867386,-0.4927373178452119,0.21555148188647183,28.883381384845563,21.646611325240443,0.0,1.0,0.0,0.0,1.0,Taxi
10.100000000000001,-0.029847616522349175,29.75815985828063,15.077823952239996,-0.21976597056376632,0.2906218865489486,28.80299038201565,22.49214303359605,0.0,1.0,0.0,0.0,1.0,Taxi
10.200000000000001,-0.006838345022314556,-1.0753122543429683,15.653707404148998,-0.43733278836675293,-0.29316144998518034,28.94993594151441,20.459571853193996,0.0,1.0,0.0,0.0,1.0,Taxi
10.3,0.024572304278173227,33.775264436372474,16.242472194842595,-0.05738270750791363,-0.02940694622631741,28.97409085311466,20.863615587257254,0.0,1.0,0.0,0.0,1.0,Taxi
10.4,0.1390287056595131,3.8731597137183322,16.255740249790637,-0.5502696123534965,0.5084764248186072,28.752012957360193,22.108344090142342,0.0,1.0,0.0,0.0,1.0,Taxi
10.5,0.012527453546277038,-8.181251854886613,15.194889162428547,-0.5951854955962124,-0.6609651298498185,28.78215198621706,21.5851324427338,0.0,1.0,0.0,0.0,1.0,Taxi
10.600000000000001,-0.016333954996259902,-40.047893338580785,15.58429015205319,-0.22099660427425052,0.1753154067176077,28.856422611974324,22.36358086878796,0.0,1.0,0.0,0.0,1.0,Taxi
10.700000000000001,-0.0612107610333909,30.07811305879333,14.659418728679054,0.007194880326207187,-0.7595128136495076,28.923996205584217,21.62202992478913,0.0,1.0,0.0,0.0,1.0,Taxi
10.8,0.16291801884024362,-2.34728029622138,14.325667925354518,-0.59943928907049,0.10114346671861048,28.780891120529645,22.109741853674077,0.0,1.0,0.0,0.0,1.0,Taxi
10.9,-0.028070356477366866,20.315196754066452,15.513189177024683,-0.32826054689039524,0.976724044317841,28.721715119083626,21.548502510553725,0.0,1.0,0.0,0.0,1.0,Taxi
11.0,0.0403652227369413,-33.36055921539539,15.82766030616096,-0.6415158000528156,0.22502589021176242,28.781344959493538,21.558016372579598,0.0,1.0,0.0,0.0,1.0,Taxi
11.100000000000001,-0.003884777236733354,-6.77211754320435,16.400101498295836,-0.5602560976575426,0.05723105322285743,29.153445538762185,22.06360671735497,0.0,1.0,0.0,0.0,1.0,Taxi
11.200000000000001,-0.061930944193388654,-17.4625430052979,14.764284195545581,0.0368709059673491,-0.41438380689178794,28.71550757658406,22.844877760901326,0.0,1.0,0.0,0.0,1.0,Taxi
11.3,-0.04694749228954824,53.31497391128163,15.374194273717034,-0.34960969359983063,0.7188316552870194,28.786680222988707,22.122106265732707,0.0,1.0,0.0,0.0,1.0,Taxi
11.4,0.2626900923196747,19.474287454421347,15.780817466788042,-0.13809700627838156,0.13752896869778683,28.772314877146755,22.248330131424698,0.0,1.0,0.0,0.0,1.0,Taxi
11.5,0.03544049307871799,22.8230403223405,15.31271820373987,-0.3911139808773903,-0.6230672954499608,28.75785568682045,22.402152762441364,0.0,1.0,0.0,0.0,1.0,Taxi
11.600000000000001,0.06716770932215416,-51.92319360375387,15.755697717602438,-0.16225935030150715,0.29623336425922836,28.903134197283237,22.411867893900656,0.0,1.0,0.0,0.0,1.0,Taxi
11.700000000000001,0.003074124300905255,0.25749840292996734,15.344827993040125,-0.46788636764135855,0.20829747844360588,28.8475836067841,22.766021156754313,0.0,1.0,0.0,0.0,1.0,Taxi
11.8,0.03672798509336775,-30.011887605162077,15.353345100703686,-0.30508603315234883,-0.64086578862444,29.031667100184848,21.03559363841584,0.0,1.0,0.0,0.0,1.0,Taxi
11.9,-0.08289172870365631,2.9762463478983534,15.76782361360135,-0.29252116517917215,0.21611327984175782,28.77443609814958,20.905518666923093,0.0,1.0,0.0,0.0,1.0,Taxi
12.0,0.017955356040396938,24.853108364876977,15.744942795509106,-0.7028516939245437,0.6098053604652283,28.83158950900298,23.164522795806484,0.0,1.0,0.0,0.0,1.0,Taxi
12.100000000000001,0.16099352691775257,17.118155798899767,16.21026831431486,-0.5291026080862125,-0.025205637750917245,28.652954899626593,21.317865056420313,0.0,1.0,0.0,0.0,1.0,Taxi
12.200000000000001,0.002699050290842465,-19.027182632722567,16.175867695514206,-0.3953726782966468,-0.09105586298063303,28.87230271781391,21.929998333220727,0.0,1.0,0.0,0.0,1.0,Taxi
12.3,-0.07718055712321595,-0.08671971965010054,15.305225721173974,-0.3576257501846328,0.4836036235107637,28.79982308020061,22.46838757492894,0.0,1.0,0.0,0.0,1.0,Taxi
12.4,0.16055992831950194,2.193445214719276,15.008588929883084,-0.21191042611680552,-0.0021242992656801242,28.94982272134075,21.426424430419022,0.0,1.0,0.0,0.0,1.0,Taxi
12.5,0.013666276364438769,-13.910788720442822,14.880232278849565,-0.4677434836593436,-0.10696162975917185,29.009875205609887,21.754724628978842,0.0,1.0,0.0,0.0,1.0,Taxi
12.600000000000001,-0.14673450072543015,-36.228154028111625,14.892858715246295,-0.6239449593507194,-0.2480988414100465,28.862567248111873,21.879362207957193,0.0,1.0,0.0,0.0,1.0,Taxi
12.700000000000001,-0.02058084182105627,-16.157765692273514,15.697383710787685,-0.4288577597534692,0.47255888225411674,28.941761430754866,21.423339456727728,0.0,1.0,0.0,0.0,1.0,Taxi
12.8,-0.0671225520969289,-8.282499896591782,15.57347660417112,-0.11856124944647323,-0.4304964920699004,28.865567540443863,22.228568522775262,0.0,1.0,0.0,0.0,1.0,Taxi
12.9,-0.18814700020838915,-15.363780718266772,15.214082747326023,-0.03739758873801835,0.201470522100857,28.911474608937397,21.654797656270837,0.0,1.0,0.0,0.0,1.0,Taxi
13.0,-0.09739974541239022,4.584156923534882,15.086435261304171,-0.3485716049475138,0.44763666389966605,28.847324789801007,21.912857884643174,0.0,1.0,0.0,0.0,1.0,Taxi
13.100000000000001,-0.04420176747925457,73.39819493661791,15.853764027774064,-0.49948946380733283,-0.4758063471697405,28.735188689718143,22.099072917526772,0.0,1.0,0.0,0.0,1.0,Taxi
13.200000000000001,0.17884397447470035,35.51562449702172,14.474639795321698,-0.7726129222539788,-0.14256968293424568,29.07687378100519,22.10621557135211,0.0,1.0,0.0,0.0,1.0,Taxi
13.3,0.08017837707271831,8.235089182160408,15.789676973935407,-0.5810328253158968,-0.1680724107230225,29.098870869866346,22.29434887279072,0.0,1.0,0.0,0.0,1.0,Taxi
13.4,-0.0030263215684526177,-33.050117544513846,14.46916063398187,-0.6978059683061469,-1.3120553390029366,28.776273877479184,22.86815862281452,0.0,1.0,0.0,0.0,1.0,Taxi
13.5,0.013593386752131054,-40.31378532515774,14.415674985682822,-0.6824372877332444,0.23999262747022995,28.946138310604738,22.03720997918613,0.0,1.0,0.0,0.0,1.0,Taxi
13.600000000000001,-0.12139054955307048,-30.27181461597897,14.819258167728893,-0.1903285533601461,1.0173771948291124,28.83016857042952,22.138467970256762,0.0,1.0,0.0,0.0,1.0,Taxi
13.700000000000001,-0.15438539464834752,-8.55846075549401,14.758316857419901,-0.44317853568752796,0.2660680351862125,28.82748588091215,21.740384843186277,0.0,1.0,0.0,0.0,1.0,Taxi
13.8,-0.029198917025339062,10.101750563572145,16.5193602680085,-0.5723050455918589,0.3143207823389115,28.683099774785035,21.524822872796552,0.0,1.0,0.0,0.0,1.0,Taxi
13.9,-0.07088179673520982,56.54177243549231,15.109569544725135,-0.2923433592945594,0.16374507103705346,28.693020305241703,22.196001955119748,0.0,1.0,0.0,0.0,1.0,Taxi
14.0,0.12832346752911397,-25.115426575698113,14.99339883305645,-0.4950623079712899,0.8534248520176411,28.695044132681687,20.87894408111111,0.0,1.0,0.0,0.0,1.0,Taxi
14.100000000000001,-0.15477604990382973,36.6916676135508,15.059529720310255,-0.5382874870472599,-0.028602419492392468,28.81973295287827,22.783488261470215,0.0,1.0,0.0,0.0,1.0,Taxi
14.200000000000001,0.11257654133254408,-12.869723389459166,14.761370101192666,-0.5746729077972937,-0.781578379353936,28.887856151388746,21.942428126031853,0.0,1.0,0.0,0.0,1.0,Taxi
14.3,0.06397485058181804,60.653764209120766,14.800840278374988,-0.2606833297161041,0.10569964125808685,28.770878325769672,21.95625117344934,0.0,1.0,0.0,0.0,1.0,Taxi
14.4,0.148492771141774,-12.031586868823156,15.830246955015538,-0.2307151423620768,0.29325990565448506,29.026358318220844,22.490036902675328,0.0,1.0,0.0,0.0,1.0,Taxi
14.5,0.0524186069884282,-9.676666266426325,15.134034443841324,-0.22894313948935352,-0.35501759673092187,28.659072212416334,21.825011676201804,0.0,1.0,0.0,0.0,1.0,Taxi
14.600000000000001,0.015591519249686318,-24.206224414217246,15.116425680887126,-0.5265437339424511,-0.7654904665890583,29.07808652647992,22.25743576325994,0.0,1.0,0.0,0.0,1.0,Taxi
14.700000000000001,0.02746164907068771,-6.97667969510281,16.687994607999247,-0.517209581703297,-0.20220451526670885,28.75060051559194,20.929197967683383,0.0,1.0,0.0,0.0,1.0,Taxi
14.8,0.017535208512914065,-2.331549286947079,15.76920800308976,-0.29937944093052155,1.0519361701206582,28.8111259421363,22.605776654537376,0.0,1.0,0.0,0.0,1.0,Taxi
14.9,0.003933772814950837,4.84216214883282,14.730569185812698,-0.2606849183888314,0.08800354582602375,28.9735895915357,21.448217583763658,0.0,1.0,0.0,0.0,1.0,Taxi
15.0,0.051672459814851725,4.34841837707386,16.046820398472995,0.06011437916580248,0.6548457911985229,28.657090676620555,21.610017320411743,0.0,1.0,0.0,0.0,1.0,Taxi
15.100000000000001,0.03927730039828328,-3.14773268950999,15.859551828090868,-0.5615381472811584,-0.5399288230566474,28.88940039779817,21.874185275935478,0.0,1.0,0.0,0.0,1.0,Taxi
15.200000000000001,-0.01180489063259919,-22.84151890831052,15.104920901003277,-0.536048999017112,-0.13900746774181413,28.872457705276133,21.757311370670248,0.0,1.0,0.0,0.0,1.0,Taxi
15.3,-0.06253513472670094,-22.935952737713194,15.81222209709946,-0.6962044049280651,0.23711160197003128,28.785400850505425,22.010098229317407,0.0,1.0,0.0,0.0,1.0,Taxi
15.4,-0.07540246329028277,6.263849616299176,15.049956849164756,-0.6303583524875955,0.057840385470460304,28.749189728810506,21.69579077845506,0.0,1.0,0.0,0.0,1.0,Taxi
15.5,0.0195143574488966,17.724056765174144,16.43575569939025,-0.3416976785846517,0.17813600002074245,28.7717038904305,21.69099288341324,0.0,1.0,0.0,0.0,1.0,Taxi
15.600000000000001,0.02608514909916969,46.21973757510424,15.727040847730315,-0.19525734146447069,-0.31265379208918553,28.818438180459566,22.546090768098914,0.0,1.0,0.0,0.0,1.0,Taxi
15.700000000000001,0.15569622458523838,-0.07743317545215689,16.32159092723292,-0.2630516855878514,0.07691196320156025,28.740602820750155,21.586370142685514,0.0,1.0,0.0,0.0,1.0,Taxi
15.8,0.01912719157163574,-26.84992923684992,15.821057344388128,-0.30336110343093986,-0.7525236418199305,29.044023627929903,21.87946046120971,0.0,1.0,0.0,0.0,1.0,Taxi
15.9,-0.10816449708507998,-67.31732834902624,15.244413409651232,-0.4431904865346606,0.1350279766292045,28.76087823125181,22.804368264157613,0.0,1.0,0.0,0.0,1.0,Taxi
16.0,-0.18089041715989287,-10.02034672171458,14.296056839174001,0.04908010818985531,-0.12604547210991177,28.989771371864492,21.15546961035225,0.0,1.0,0.0,0.0,1.0,Taxi
16.1,-0.030974542036937214,52.662444447547045,16.70906866113065,-0.3571108846602478,-0.11646263403245888,28.767544792814704,22.84323276309126,0.0,1.0,0.0,0.0,1.0,Taxi
16.2,0.15514772515265515,70.66320735681128,14.695038425073776,-0.6085275293232167,-0.29703667575341813,28.735423330607148,21.93765568114686,0.0,1.0,0.0,0.0,1.0,Taxi
16.3,0.17242561962416347,14.82948966369436,15.982874883972466,-0.44708341978688304,0.7532183665386782,28.866230028964935,21.92601380179728,0.0,1.0,0.0,0.0,1.0,Taxi
16.400000000000002,0.0431729062815345,-9.01628837615926,15.120010969232007,-0.32919895817184125,-0.21823042204475454,29.06637000503696,22.21392943823954,0.0,1.0,0.0,0.0,1.0,Taxi
16.5,0.11006628327185877,-50.527084502585204,15.010009709631907,-0.27195548445283874,-0.7846366537665773,28.841446341445874,22.213160546322413,0.0,1.0,0.0,0.0,1.0,Taxi
16.6,-0.08020980288876257,-48.667785811773605,14.938517921712414,0.02883499344031787,-0.1519030716658054,28.755467083715587,22.50043523605246,0.0,1.0,0.0,0.0,1.0,Taxi
16.7,-0.20016602277733364,-20.39506027671518,15.149150044850982,-0.1185274729426481,0.6337951693749333,28.89751374508154,21.603790944801837,0.0,1.0,0.0,0.0,1.0,Taxi
16.8,0.008090981888282818,5.619994805667204,15.091475923741536,-0.23258511176803548,0.347210655089576,28.726811148995807,21.155377369399474,0.0,1.0,0.0,0.0,1.0,Taxi
16.900000000000002,-0.0521098288604266,41.70816498217616,13.963607721973515,-0.3722211404312694,-1.128405287429527,28.80994157051134,21.914921742009252,0.0,1.0,0.0,0.0,1.0,Taxi
17.0,0.00837480213354712,25.381137327523643,17.253003173801897,-0.10615794726957689,-0.5506644230549144,28.951730271228428,21.437089877111617,0.0,1.0,0.0,0.0,1.0,Taxi
17.1,0.13499666852590098,12.571804699684899,15.182043012628652,-0.2623135461314896,-0.6369792284618236,28.75088459858347,21.554350191714327,0.0,1.0,0.0,0.0,1.0,Taxi
17.2,0.010749194637997835,-10.576172585189482,15.856505005444703,-0.6525877789593593,0.017207390338015067,28.915022051964456,21.479848186218895,0.0,1.0,0.0,0.0,1.0,Taxi
17.3,-0.04450606079240036,-0.29968354406057546,15.57148974907003,-0.2820880313406313,0.2581665931021385,28.8021280525291,22.8995667159663,0.0,1.0,0.0,0.0,1.0,Taxi
17.400000000000002,0.13349825080559805,-25.336379707110567,14.843450672529276,-0.14437488620205627,-0.6858420251539544,28.640117147901492,22.124531739845498,0.0,1.0,0.0,0.0,1.0,Taxi
17.5,-0.11593270389755506,32.34788617899751,14.899529553759336,-0.39025912639540006,-1.536006301455546,28.860164054600432,22.082719688108902,0.0,1.0,0.0,0.0,1.0,Taxi
17.6,0.11723337010258715,-2.502279319204481,15.296046922145072,-0.4319621673747522,-0.33230807809139445,28.697028735466517,22.467881387244855,0.0,1.0,0.0,0.0,1.0,Taxi
17.7,0.12098685420957556,16.426642922088533,15.855792597065282,-0.4867776514053107,-0.4931850702783018,28.907536410473426,21.848195837308033,0.0,1.0,0.0,0.0,1.0,Taxi
17.8,-0.03379948928711247,-18.421336499267465,15.437334196666711,-0.554820117654664,0.7438174148798459,28.991749750609813,22.23093129694702,0.0,1.0,0.0,0.0,1.0,Taxi
17.900000000000002,0.025126687606249754,-55.726036500589,15.886677773481006,-0.4572568182319393,-0.43440309437962066,28.790806744717543,21.19285217695259,0.0,1.0,0.0,0.0,1.0,Taxi
18.0,-0.15764332829336947,11.463455067727063,16.13300662917706,-0.61816018912264,-0.10820435546395213,28.928538989313154,21.9641945872294,0.0,1.0,0.0,0.0,1.0,Taxi
18.1,0.023517786051522757,-13.998229989747927,15.123222184241508,-0.16718899641331442,-0.18850774626258898,28.859637732233978,21.772482643036255,0.0,1.0,0.0,0.0,1.0,Taxi
18.2,-0.04486446234248996,20.073395420725717,13.685790567847114,-0.5935055100906266,0.05587481789802918,28.946892701276738,21.86929486700833,0.0,1.0,0.0,0.0,1.0,Taxi
18.3,-0.05727635118974096,23.608383328047765,15.31330088846273,-0.07117208111646445,1.1266088704229376,28.905313559555225,21.83660276393464,0.0,1.0,0.0,0.0,1.0,Taxi
18.400000000000002,0.14155970269176155,-28.598919864544868,15.976959444319096,-0.275203538525026,0.5052807513489179,28.834683801369806,22.66139786937061,0.0,1.0,0.0,0.0,1.0,Taxi
18.5,-0.18785906166521432,18.075791701719876,15.00309146641898,-0.6399325006445649,0.1214290691719174,28.761095150484664,22.42772557842509,0.0,1.0,0.0,0.0,1.0,Taxi
18.6,0.03310260731885838,-22.838369744237202,14.849353603219257,-0.36873051127739653,0.31627875208313183,28.844590287790027,21.32520341966275,0.0,1.0,0.0,0.0,1.0,Taxi
18.7,0.02736785397057548,39.19116396233256,16.309513913750962,-0.6020611162773186,0.4971463264210574,28.697924825068185,22.22881138032195,0.0,1.0,0.0,0.0,1.0,Taxi
18.8,0.008096758146448396,21.492615730510266,15.214457651633186,-0.5489723447399264,0.5684708148840845,28.760504314749483,23.029910664221674,0.0,1.0,0.0,0.0,1.0,Taxi
18.900000000000002,0.14056568597140964,-12.732617999623733,14.837955518870041,-0.5261437815603887,0.1543577265844372,28.699687827147272,21.958025546594232,0.0,1.0,0.0,0.0,1.0,Taxi
19.0,-0.036295236027543254,0.07295545340593534,14.893435223675112,-0.46559850749928067,-0.2406416762101832,28.84349472533978,21.81975946345257,0.0,1.0,0.0,0.0,1.0,Taxi
19.1,0.00846153541347799,2.0875894377493958,16.491108416679914,-0.3726452080031184,0.41888356107638414,28.86863315530411,21.469461685038564,0.0,1.0,0.0,0.0,1.0,Taxi
19.200000000000003,0.15100363316015655,14.717476442897691,15.288000429909065,-0.7610831144397445,-0.3619761966890673,28.931857986917407,21.636158903633042,0.0,1.0,0.0,0.0,1.0,Taxi
19.3,0.03729214618694514,9.787066493328542,14.905469008229591,-0.5850302003306648,-0.06514758303623701,28.775781918779558,22.27242090037053,0.0,1.0,0.0,0.0,1.0,Taxi
19.400000000000002,0.05739686788012064,-20.256998674966034,15.715181517792852,-0.3414030204636483,-0.006844553057490203,28.839368570790043,22.397447117327534,0.0,1.0,0.0,0.0,1.0,Taxi
19.5,0.04971863978532632,-24.126374753853202,14.98451320950818,-0.4722957996667477,-0.20183673391208853,28.885220770736964,21.728459735114,0.0,1.0,0.0,0.0,1.0,Taxi
19.6,-0.08333972758232094,31.03069259517807,14.693269817027817,-0.4101663710081952,-0.922364657495441,28.96753800353497,21.843319646174876,0.0,1.0,0.0,0.0,1.0,Taxi
19.700000000000003,0.21255033085601088,-6.030419464121162,15.990550542067972,-0.24912665514826535,-0.2553513313182168,28.90301126808106,22.185207811997927,0.0,1.0,0.0,0.0,1.0,Taxi
19.8,0.019566542464720404,21.778831677511587,15.893233809136111,-0.3584911510521516,0.6581070511843149,28.898343091578226,22.07189237569683,0.0,1.0,0.0,0.0,1.0,Taxi
19.900000000000002,0.025554430805236856,-24.528623420758716,15.536818536655726,-0.1536019676358696,-0.5838420582334086,28.873461094582808,21.27902236416027,0.0,1.0,0.0,0.0,1.0,Taxi
20.0,0.08990721375221723,-10.753065890870596,15.308476280589224,-0.35086502760407046,0.34437965661001413,28.72257361929246,21.44461006485974,0.0,1.0,0.0,0.0,1.0,Taxi
20.1,-0.034198786989632655,-6.06187849307863,15.300425319538467,-0.335072869806059,0.2654863561725115,28.90514019229795,21.86414781220649,0.0,1.0,0.0,0.0,1.0,Taxi
20.200000000000003,-0.004754961660156368,31.385102495329992,15.306929425860098,-0.546393672226413,0.13256324473337536,28.830914676831753,20.91036700651785,0.0,1.0,0.0,0.0,1.0,Taxi
20.3,0.2468327262288671,39.6053614742903,16.348518512868843,-0.24450753504136039,-0.36199142655375166,28.810672791313323,21.997815648156514,0.0,1.0,0.0,0.0,1.0,Taxi
20.400000000000002,0.16382802038181876,3.150383694432984,14.969305634983572,-0.4241757757527177,-0.14871931829400492,28.607466719586057,21.862070187822034,0.0,1.0,0.0,0.0,1.0,Taxi
20.5,0.010996956812008445,-52.74397950334143,14.63122332800626,-0.6536380777070248,0.2863558234565298,28.798796738185047,21.14596169152529,0.0,1.0,0.0,0.0,1.0,Taxi
20.6,-0.01688717128784013,-22.272150405872726,14.518632517314677,-0.6167393240788958,0.013272569211466337,28.85450794488446,22.879130165689116,0.0,1.0,0.0,0.0,1.0,Taxi
20.700000000000003,0.05246726835245507,-17.93136262027077,14.073273081826095,-0.5942414707703985,1.031841238104821,28.86720208621142,22.391009088346333,0.0,1.0,0.0,0.0,1.0,Taxi
20.8,-0.07865985628934548,-6.581638698563701,15.412147535636628,-0.19209409034759564,0.0666289527912584,28.90036900741069,21.0753082512351,0.0,1.0,0.0,0.0,1.0,Taxi
20.900000000000002,-0.049795364780658706,-37.98539961444712,14.88512246109908,-0.4683961761862936,0.6410308663127314,28.798759246460975,21.61150109664026,0.0,1.0,0.0,0.0,1.0,Taxi
21.0,-0.13745972971978063,-21.06934563419843,14.918031516193206,-0.49274472220265814,-0.3294553205883497,28.603202852795448,21.449533940700032,0.0,1.0,0.0,0.0,1.0,Taxi
21.1,-0.1840065844603377,-1.7952393199741483,15.574743720219882,-0.35392656461079725,0.11307302449730819,28.763369403621766,21.42143015475603,0.0,1.0,0.0,0.0,1.0,Taxi
21.200000000000003,-0.05877156138052952,13.778525595194628,14.966333881083957,-0.2078663545817214,-0.3365555620590126,28.854323808091067,22.632095208561843,0.0,1.0,0.0,0.0,1.0,Taxi
21.3,-0.06856710174380755,22.478280023988418,16.798278836528286,-0.4692699794906519,0.7644450531247109,28.870174827729954,21.60258133847802,0.0,1.0,0.0,0.0,1.0,Taxi
21.400000000000002,-0.07161518434039567,35.22806901254959,14.891915709687256,-0.7555653906828576,-0.5341342417409058,28.80837813799951,21.988773109460784,0.0,1.0,0.0,0.0,1.0,Taxi
21.5,0.11736878368221837,28.569315415024477,15.104550164965351,-0.4295261510857066,-0.0601650988798983,28.70835500910954,21.49017529244126,0.0,1.0,0.0,0.0,1.0,Taxi
21.6,0.07427947533131478,59.03126550915811,14.81892443825166,-0.4693933827677509,-0.04049327662361343,28.77439675311598,22.829678589110593,0.0,1.0,0.0,0.0,1.0,Taxi
21.700000000000003,0.22354114320539478,-50.068251314324904,15.083051400543294,-0.2401172600013138,-0.14565336448138305,28.76070406485985,22.288906524391862,0.0,1.0,0.0,0.0,1.0,Taxi
21.8,-0.13297247288940622,-18.5513697868836,13.850504761636406,-0.0805595132893257,0.41995693769021736,28.92540165595136,21.865146962746966,0.0,1.0,0.0,0.0,1.0,Taxi
21.900000000000002,-0.0184773736031033,-33.15435891717774,16.53804553763936,-0.13933092361404653,0.7392432146255701,28.949730344640273,22.000867860679513,0.0,1.0,0.0,0.0,1.0,Taxi
22.0,0.057769348619506035,-0.4191101854184325,15.727867462520702,-0.6901271076967475,-0.643498612579577,28.921873290171447,21.296459852465063,0.0,1.0,0.0,0.0,1.0,Taxi
22.1,-0.1350680238164985,40.738504059382265,16.649182384502215,-0.483356683013516,0.6993149916158556,28.748058431587708,20.788056865848823,0.0,1.0,0.0,0.0,1.0,Taxi
22.200000000000003,0.1852151466938079,-18.306032981905275,15.498068681426151,-0.7187076644669395,0.2061267485485782,28.944472955705635,21.386879558991595,0.0,1.0,0.0,0.0,1.0,Taxi
22.3,-0.03376081629002048,31.29078559834477,16.232579393461794,-0.21273978213020628,-1.0649701927341615,28.76240251034568,22.09514308467528,0.0,1.0,0.0,0.0,1.0,Taxi
22.400000000000002,0.021385904175225248,-59.04382412568177,14.605229926741528,-0.21201041992184955,0.07429199807236962,28.851220114210037,21.873467828116468,0.0,1.0,0.0,0.0,1.0,Taxi
22.5,-0.1100039739346011,-2.5732396906167687,15.807256675894159,-0.24192867878716576,-0.17186032981202995,28.720163203411403,21.41280734017028,0.0,1.0,0.0,0.0,1.0,Taxi
22.6,-0.046627014743104434,5.551291339086892,14.86783603171691,0.06935305985057666,0.33186754961538645,28.773779906765924,20.59815459541316,0.0,1.0,0.0,0.0,1.0,Taxi
22.700000000000003,0.049142360870659596,44.94553484426931,15.333868056402087,-0.47604458943360667,-0.5054451113373382,28.90263354679263,22.631555462805657,0.0,1.0,0.0,0.0,1.0,Taxi
22.8,0.11472370028674535,27.207718404295033,15.633191595006817,-0.8301058245318147,-0.5896190444390393,28.925553943497107,21.668494862140122,0.0,1.0,0.0,0.0,1.0,Taxi
22.900000000000002,0.08941157727837061,-6.414485575051498,15.765094598940614,-0.2796035336909058,-0.4418835434134582,28.83201095024009,22.189307300224574,0.0,1.0,0.0,0.0,1.0,Taxi
23.0,0.017069932995402014,-24.378098558944004,15.498094985947017,-0.23056648780804476,-0.4850520371671799,28.774743524664473,22.29321668291218,0.0,1.0,0.0,0.0,1.0,Taxi
23.1,-0.007166792507974761,-3.4109744109137927,15.146911653133714,-0.35998666024038245,-0.2207297375976801,28.82694053338207,21.95515078601564,0.0,1.0,0.0,0.0,1.0,Taxi
23.200000000000003,0.07235670522380155,13.173077687277207,14.994409872099059,-0.47501267034173794,-0.19285488665932302,28.785043579140904,21.906065873966877,0.0,1.0,0.0,0.0,1.0,Taxi
23.3,0.08293532143178795,-6.202694290654224,15.140083317259979,-0.802981451961422,0.29993576386970006,28.841909102899763,22.5158481392753,0.0,1.0,0.0,0.0,1.0,Taxi
23.400000000000002,-0.03818026396124598,-26.233251043780385,14.737789648749839,-0.40445936945351446,-0.1110653988703883,28.895379464904863,22.10806064931816,0.0,1.0,0.0,0.0,1.0,Taxi
23.5,-0.05880954999510046,-23.548983074619816,15.750275785784325,-0.2452248702365377,0.754072494887829,28.818031912346385,20.99070491683037,0.0,1.0,0.0,0.0,1.0,Taxi
23.6,-0.03480959394131123,-4.081303783279028,15.852310822962062,-0.4729889724684874,-0.3124064224300952,28.86272584504934,21.178544645421642,0.0,1.0,0.0,0.0,1.0,Taxi
23.700000000000003,-0.058586782877641214,8.714035960438586,14.944079312177932,-0.6042072879166489,1.147170283049737,28.681558046299926,23.045756360145734,0.0,1.0,0.0,0.0,1.0,Taxi
23.8,-0.015239370192907631,31.98167541282592,15.604021479911276,-0.5386483413784744,-0.7365902130079345,28.939245832903907,21.796724365690874,0.0,1.0,0.0,0.0,1.0,Taxi
23.900000000000002,0.12509878312281825,59.13858548951426,15.216623684263023,-0.4116653401713164,0.44373122575416735,28.853475049573433,21.584764326098608,0.0,1.0,0.0,0.0,1.0,Taxi
24.0,0.23710614456992998,5.612628378094503,14.741607963803055,-0.1936335478113526,-0.13491044083050371,28.85246198088481,22.186968043582294,0.0,1.0,0.0,0.0,1.0,Taxi
24.1,0.01282377169756481,-27.42984091656362,15.48918591381215,-0.30637931287321163,0.41660146970965456,28.75173056789879,21.729772919650955,0.0,1.0,0.0,0.0,1.0,Taxi
24.200000000000003,-0.012050421459999938,-69.27383357166279,15.341368748519404,-0.958669073136934,0.28456554666426614,28.8223707775943,21.278617797990773,0.0,1.0,0.0,0.0,1.0,Taxi
24.3,-0.10926302328838407,29.38171073841256,16.433653917564694,0.016908987022066724,0.15866740190762407,28.74164640379462,21.274743784428193,0.0,1.0,0.0,0.0,1.0,Taxi
24.400000000000002,0.15973232538962756,18.186863402133216,15.607612139040711,-0.13482426932940778,0.9310296699138368,28.90597329637677,21.284285076226983,0.0,1.0,0.0,0.0,1.0,Taxi
24.5,0.0788838955506661,-17.30421174458466,15.705240975211462,-0.47412858210400144,0.525554303537016,28.892482199945675,21.523557116772174,0.0,1.0,0.0,0.0,1.0,Taxi
24.6,-0.19578408201130737,-60.73240085564091,15.457330572918515,-0.09584965058357292,0.44170330516518364,28.835287508051522,21.51485518327307,0.0,1.0,0.0,0.0,1.0,Taxi
24.700000000000003,-0.143929678888577,-31.638682670290592,14.890786698049052,-0.5691160949004999,0.42721632063766113,28.843390719130866,22.34143746516593,0.0,1.0,0.0,0.0,1.0,Taxi
24.8,-0.07930951780078688,19.186985719464097,16.820796086559145,-0.06960466795844839,0.3430685555606493,29.018997732121704,22.291505100552744,0.0,1.0,0.0,0.0,1.0,Taxi
24.900000000000002,-0.09984915341398698,31.426607344093668,15.387870883637127,-0.5072374482231523,0.45574217105978176,28.83151094432816,22.44560978190298,0.0,1.0,0.0,0.0,1.0,Taxi
25.0,0.013203357831891284,4.249650715200659,17.322410449993832,-0.08860851372623652,-1.2322616622457097,28.83177029710373,21.001561546733303,0.0,1.0,0.0,0.0,1.0,Taxi
25.1,-0.05806126422478367,45.56825120258628,14.936005961666762,-0.339626030094392,0.06539751311333658,28.809062741437344,21.67549760007758,0.0,1.0,0.0,0.0,1.0,Taxi
25.200000000000003,0.12799210259894436,-2.0281956583729417,15.778470728166306,0.039685958681000055,0.6803222242496773,29.012742062829773,22.636837791426412,0.0,1.0,0.0,0.0,1.0,Taxi
25.3,0.003062379540026466,25.060118280542955,16.208808668675033,-0.1898725337482566,0.3251785963889714,28.84911308661856,22.221449265253455,0.0,1.0,0.0,0.0,1.0,Taxi
25.400000000000002,0.067239327177931,-22.737720076486323,14.884162799860778,-0.7341911410534085,-1.2403713922382933,28.764965161579482,21.148647075259,0.0,1.0,0.0,0.0,1.0,Taxi
25.5,0.01430350221651265,38.13188273857498,15.418803569332992,-0.30944285866597987,0.024769924749436477,28.82548240092507,22.269305045581245,0.0,1.0,0.0,0.0,1.0,Taxi
25.6,0.19372179323290128,-29.232159512138463,14.829563906498514,-0.6135180279358201,1.242089058996585,28.77057763077545,21.75016411652549,0.0,1.0,0.0,0.0,1.0,Taxi
25.700000000000003,-0.07892147038276143,-19.025581492511773,16.123598762395275,-0.2048154196783141,0.630563336338972,28.84598464638509,22.581308711204137,0.0,1.0,0.0,0.0,1.0,Taxi
25.8,-0.08082440524604634,-32.897053857519886,15.814298967444143,-0.5029401077385525,0.5632151488580063,28.81858361985985,22.029671166294897,0.0,1.0,0.0,0.0,1.0,Taxi
25.900000000000002,0.029236523945301685,15.717845917341492,15.192575499583505,-0.46679389605833754,0.45700697166726084,28.833008654713126,21.661308158311265,0.0,1.0,0.0,0.0,1.0,Taxi
26.0,-0.0003322407960540772,20.338875448273534,15.366573960193906,-0.3567857082543327,0.3382842867298794,28.86628770229595,22.375927632998813,0.0,1.0,0.0,0.0,1.0,Taxi
26.1,0.020869971995321212,17.281752196608554,15.344495713214423,-0.2511842219819539,0.2932390273137874,28.852081835752585,21.91419790993593,0.0,1.0,0.0,0.0,1.0,Taxi
26.200000000000003,0.11564528492834435,15.753732854190957,15.283436004527514,-0.45275526947502603,-0.15379016008205618,28.920843565833138,21.691482313294436,0.0,1.0,0.0,0.0,1.0,Taxi
26.3,0.0784364234749006,-9.605127018935464,15.343458264504655,-0.41646835121323644,-0.2996307298157403,28.83529435191116,21.549799240601025,0.0,1.0,0.0,0.0,1.0,Taxi
26.400000000000002,-0.02715566309935622,-24.21528351997458,14.848941234077868,-0.33459236855740865,-0.5380525902471562,28.938141311360596,21.80385505935778,0.0,1.0,0.0,0.0,1.0,Taxi
26.5,-0.005431132671528653,-2.8978288677108353,16.59093339002054,-0.23241269319419108,0.4899018187091325,29.030599452409206,22.58542668480237,0.0,1.0,0.0,0.0,1.0,Taxi
26.6,0.06394727913634629,29.78150284068407,14.495742133574403,-0.3440732931870109,-0.18321353992245495,29.004557854813072,22.141251138583247,0.0,1.0,0.0,0.0,1.0,Taxi
26.700000000000003,0.12175185110406402,-21.62520457337692,15.03799501924004,-0.3382800300182385,-0.18218449962731653,28.932327442406972,21.60028681240057,0.0,1.0,0.0,0.0,1.0,Taxi
26.8,-0.11355715553841338,4.83394189101934,15.836579296658293,-0.254133299841822,0.26574588714043623,28.777571354320457,22.066620978417884,0.0,1.0,0.0,0.0,1.0,Taxi
26.900000000000002,0.0881169885914429,-23.26585882408878,15.560690242908878,-0.28729670790619927,0.45884955274889966,28.62604530098963,21.59669491980808,0.0,1.0,0.0,0.0,1.0,Taxi
27.0,0.005422556983620002,44.11335509567159,14.960999074231173,-0.09360574114291059,-0.23844958459673182,28.798797878093296,21.66661355089659,0.0,1.0,0.0,0.0,1.0,Taxi
27.1,0.1070096199399445,3.1944984346025493,16.02676429247204,-0.28795974479560327,0.7143240789184009,28.75316025018276,21.692589769053246,0.0,1.0,0.0,0.0,1.0,Taxi
27.200000000000003,0.10408948076445555,-1.3454656843909565,16.064750324128,-0.41012515621229373,-0.10934332592862114,28.802333093160144,21.95780577714989,0.0,1.0,0.0,0.0,1.0,Taxi
27.3,-0.0013047714383348937,-25.133396167438026,15.395470309396412,-0.641511452363907,0.4777064820011318,28.8390287492241,21.592488199393443,0.0,1.0,0.0,0.0,1.0,Taxi
27.400000000000002,-0.01865736089724573,-14.412295587418365,14.96893336941215,0.07427603543684258,-0.3823148972276071,28.809648018079315,22.35861515881544,0.0,1.0,0.0,0.0,1.0,Taxi
27.5,0.03202800282736361,-0.18150082495940958,14.97666922714632,-0.3098296497518624,-0.1668721483427349,28.758543136383764,22.48111578116474,0.0,1.0,0.0,0.0,1.0,Taxi
27.6,-0.002212275563132064,1.068162896444982,15.011303020706299,-0.16147191721776005,0.9990677076922223,28.68187377481621,22.462860812398862,0.0,1.0,0.0,0.0,1.0,Taxi
27.700000000000003,-0.013316546415020945,15.139902990877388,14.68064226997721,-0.41240698971584283,-0.47043806427795926,28.725354156548804,22.682153037415926,0.0,1.0,0.0,0.0,1.0,Taxi
27.8,0.10772751778175044,5.944403068708941,15.09189223608298,-0.1158724363748656,-0.2625025158497398,28.774997765641274,22.62251398777745,0.0,1.0,0.0,0.0,1.0,Taxi
27.900000000000002,0.02750973978041253,-24.437496380550197,14.857428691931872,-0.4738130418661964,0.11484303416223941,28.887229761526385,20.727426391757017,0.0,1.0,0.0,0.0,1.0,Taxi
28.0,-0.13550402831777203,-36.8607908473033,15.602592226568223,-0.37291098580725485,0.23521007161006996,28.931932093615274,21.3822749282451,0.0,1.0,0.0,0.0,1.0,Taxi
28.1,-0.0765764364547662,1.0904490375762446,14.31966808098556,-0.5819002646295841,0.6353146862188508,28.775431605939957,22.47959461143018,0.0,1.0,0.0,0.0,1.0,Taxi
28.200000000000003,0.03296198496829363,35.47970971243854,16.325738279322113,-0.6487755175175394,-0.3905638945232783,28.784454491649058,21.39862919961762,0.0,1.0,0.0,0.0,1.0,Taxi
28.3,0.04189452024442053,28.770766165312793,14.669757644322004,-0.7349891790875112,0.5273012452112884,28.93480821337789,20.871672102257797,0.0,1.0,0.0,0.0,1.0,Taxi
28.400000000000002,0.06727739437179764,-7.602273562889714,14.285447573528819,-0.3642944141587418,0.26315281662560086,28.78590846221863,21.870438777398498,0.0,1.0,0.0,0.0,1.0,Taxi
28.5,-0.005049382846155088,-27.22238081326461,15.696559689196786,-0.4454112251645519,-0.3587014626610432,28.74061552789408,22.953049807173056,0.0,1.0,0.0,0.0,1.0,Taxi
28.6,-0.09421738382190267,-37.466159167720356,14.695617803371466,-0.04740088362624295,-0.07110434020872089,28.849969309204653,21.04562129665769,0.0,1.0,0.0,0.0,1.0,Taxi
28.700000000000003,-0.12005340146680427,13.478959167150114,14.814847330915807,-0.1698201852598201,-0.6272699839701182,28.815228770060855,21.525084943345387,0.0,1.0,0.0,0.0,1.0,Taxi
28.8,0.06234541298959535,19.68140191456447,15.784072818121148,-0.6122378470765046,0.05507784179937529,28.7684088725386,22.653003614326828,0.0,1.0,0.0,0.0,1.0,Taxi
28.900000000000002,0.004189625750919536,16.65054776636008,16.012260024569684,-0.5724425925451975,0.3427443570253443,28.79113316966749,21.927343169039812,0.0,1.0,0.0,0.0,1.0,Taxi
29.0,-0.036800662635004026,6.226985818014597,15.984138864575828,-0.40403349430713326,-0.16756000650820893,28.758715187407404,21.898795217811678,0.0,1.0,0.0,0.0,1.0,Taxi
29.1,0.09348034207966817,-5.512244629560651,15.00532067143426,-0.4595286037498616,0.9258859710338082,28.983765684381126,22.330783010500873,0.0,1.0,0.0,0.0,1.0,Taxi
29.200000000000003,-0.023371597396883888,26.016642045972418,15.070424259360863,-0.459520790318843,0.2975742372729474,28.96888002075184,22.131016139007233,0.0,1.0,0.0,0.0,1.0,Taxi
29.3,0.0932825475948579,-35.49397526456982,16.32248086990686,-0.49897290400524447,-0.6362769183709474,28.849473838831614,21.74306577818421,0.0,1.0,0.0,0.0,1.0,Taxi
29.400000000000002,-0.08398953424318109,10.463715930271903,15.165250375947478,-0.24728581980692238,0.4701523763339004,28.835100165587164,21.738171949203167,0.0,1.0,0.0,0.0,1.0,Taxi
29.5,0.02894698225447548,-31.821163053139106,16.896251039412807,-0.5878206127110531,0.9874982920553728,28.896288488096445,21.514858916801344,0.0,1.0,0.0,0.0,1.0,Taxi
29.6,-0.06582326767083778,5.170862634332181,14.579861892194394,-0.539829019097024,0.8799494741954073,28.848741258523035,22.474971553703806,0.0,1.0,0.0,0.0,1.0,Taxi
29.700000000000003,-0.05813522107152035,-7.337778882519512,14.645743792222223,-0.49695125028856807,-0.379325680482253,28.821491613163516,22.861821595664175,0.0,1.0,0.0,0.0,1.0,Taxi
29.8,-0.0077419121581222515,-5.718336961548135,14.185002628278088,-0.3085091735930594,-0.4337222309933919,28.932859346115208,22.8021208882211,0.0,1.0,0.0,0.0,1.0,Taxi
29.900000000000002,-0.09441495247857862,-15.272858328296996,16.54893784481792,-0.5068874916459796,0.020429575282346794,29.02792563518983,21.945920042168357,0.0,1.0,0.0,0.0,1.0,Taxi
30.0,-0.1344995127130055,-7.778931577503964,14.951266260798016,-0.1765961389840855,0.7298076231383995,28.773909188162804,21.019640911684597,0.0,1.0,0.0,0.0,1.0,Taxi
30.1,-0.04663657004564222,28.132356441207055,14.131884930646917,-0.1655137925660702,-1.2302145939865134,28.856764160032583,22.092126830449835,0.0,1.0,0.0,0.0,1.0,Taxi
30.200000000000003,0.04624682972745651,36.877672690219434,15.106381428958317,-0.6593233240666694,0.4398455793830677,28.914070925825115,21.41477617670941,0.0,1.0,0.0,0.0,1.0,Taxi
30.3,0.04988885073809152,8.32224548597381,16.060292522318,-0.5704501855714083,0.6483978797124914,28.73561415790772,22.158538887322393,0.0,1.0,0.0,0.0,1.0,Taxi
30.400000000000002,-0.005025342615773355,-11.25114315089334,15.809863131421466,-0.6061049540237041,0.6395400170470857,28.827434454585557,22.437026583536873,0.0,1.0,0.0,0.0,1.0,Taxi
30.5,-0.010008886027010359,-17.283498909773684,14.54364473718849,-0.5852519982392494,0.8112637365710772,28.73335114262568,22.348765754852717,0.0,1.0,0.0,0.0,1.0,Taxi
30.6,-0.03652864381077708,18.411612684562538,15.944511425897016,-0.6078924323622397,-0.17936010018539197,28.833016586963538,22.350699423234047,0.0,1.0,0.0,0.0,1.0,Taxi
30.700000000000003,0.08703272080703917,-26.24806979278111,15.045526398697248,-0.5701725571069504,-0.1295547776691487,28.856148905367604,23.391836737683864,0.0,1.0,0.0,0.0,1.0,Taxi
30.8,-0.14124923499091607,-22.25482776588353,16.307007234677336,-0.6182379549496198,-0.26667087327266076,28.895863105593264,22.463781068033335,0.0,1.0,0.0,0.0,1.0,Taxi
30.900000000000002,-0.1478027826401949,-20.38961743171103,16.049493074834576,-0.5600086894589336,0.32284396573475194,28.803291146640277,21.644109206408974,0.0,1.0,0.0,0.0,1.0,Taxi
31.0,-0.014915366351516158,39.80849617000622,15.633903174470316,-0.3268835923180633,-0.758502214682249,28.813565392207124,21.735358564661052,0.0,1.0,0.0,0.0,1.0,Taxi
31.1,0.057793245859114876,29.29231537003552,14.779597882560068,-0.14445153581316997,0.23141851897143587,28.712842703886224,21.77043089987445,0.0,1.0,0.0,0.0,1.0,Taxi
31.200000000000003,-0.001341205790017442,-4.235658014622466,14.596110026699591,-0.07507692953631095,0.3881010726413398,29.001556229792243,22.66551949903938,0.0,1.0,0.0,0.0,1.0,Taxi
31.3,-0.036093656424628646,-37.28312401272773,15.13526175649904,-0.5424335297719673,0.31256140870565974,29.006435714279007,22.289355486761515,0.0,1.0,0.0,0.0,1.0,Taxi
31.400000000000002,-0.12862237420452394,-9.393473436011236,15.083417594427997,-0.600142931495572,-0.46412025120638245,29.01481215972268,23.056612655126155,0.0,1.0,0.0,0.0,1.0,Taxi
31.5,-0.048308572970073786,0.1112067528461654,15.382966899017529,-0.5215197491568802,0.1815464664121433,28.75820902059172,22.138943502367884,0.0,1.0,0.0,0.0,1.0,Taxi
31.6,-0.03553762266039798,38.16033441453876,14.666494447749388,-0.6386877924316975,-0.10968485072690191,28.816285809020428,22.136274681196532,0.0,1.0,0.0,0.0,1.0,Taxi
31.700000000000003,0.0621792978681697,-2.4015080448776964,15.551201647028913,-0.20819214822033424,0.7834032233364957,28.808218016283718,22.12704074174799,0.0,1.0,0.0,0.0,1.0,Taxi
31.8,-0.060316113194462465,-19.716041416639424,14.87713171507452,-0.27776603002313816,0.23249891657653826,28.779733936880746,21.79063604395593,0.0,1.0,0.0,0.0,1.0,Taxi
31.900000000000002,-0.1341178297435953,-12.167002927269058,15.872438001300681,-0.6572984458047102,1.0030888847308146,28.8455054758482,22.47820131674872,0.0,1.0,0.0,0.0,1.0,Taxi
32.0,0.001344283231824222,7.366581921669766,15.314543415912315,-0.23650974728853646,-0.4706659854442339,28.867819147421812,21.44056432698389,0.0,1.0,0.0,0.0,1.0,Taxi
32.1,-0.02348320358611382,5.728800984986243,15.074365846596805,-0.466855280072017,0.8489842139779336,28.760805506544955,21.81050469738877,0.0,1.0,0.0,0.0,1.0,Taxi
32.2,-0.10547382481866426,1.6767271819040606,14.202127558820173,-0.16936124403345876,-0.6863556674133313,28.877356405396768,21.87119189171413,0.0,1.0,0.0,0.0,1.0,Taxi
32.300000000000004,0.009727919141344315,-1.594631421157101,15.335517993608967,-0.5252874675086714,-0.03193317712667303,28.740395020919095,21.45715602728451,0.0,1.0,0.0,0.0,1.0,Taxi
32.4,-0.03145636069189953,20.84065810182972,14.98195229863306,-0.23664663635996974,-0.5516171024439943,28.840715861657543,22.343447552721155,0.0,1.0,0.0,0.0,1.0,Taxi
32.5,-0.0012705343095158464,29.96667922112336,14.447137199587463,-0.19653188114149556,-0.4601395390526099,28.9254694976525,21.251845690956,0.0,1.0,0.0,0.0,1.0,Taxi
32.6,0.1595613152469609,1.3944757032624768,15.507452383200091,-0.0718815262910264,0.37178678531990705,28.85492138259741,21.43389139428601,0.0,1.0,0.0,0.0,1.0,Taxi
32.7,-0.024483982175587372,-19.756163018039874,15.127088602845625,-0.4059652792857036,-0.5334984817761868,28.897540485824038,21.02671639199142,0.0,1.0,0.0,0.0,1.0,Taxi
32.800000000000004,-0.10005134939971544,-34.66536561077402,16.12964058542156,-0.7575148993813902,0.5872931778227519,28.84254299612951,22.537136532098174,0.0,1.0,0.0,0.0,1.0,Taxi
32.9,-0.013765512806909411,-9.765828034708193,14.97448391132846,-0.5238124868682817,-0.031305729860495735,28.659855838381247,21.7725791956824,0.0,1.0,0.0,0.0,1.0,Taxi
33.0,-0.07331312234912854,28.07308943309629,15.677647467780833,-0.4697251070689209,0.5792196231617835,28.758194902889386,21.665133002348618,0.0,1.0,0.0,0.0,1.0,Taxi
33.1,0.040314097765765805,24.883303857820863,15.744563100142118,-0.55606179108251,-1.147675508189497,28.84196356340243,20.720369187571563,0.0,1.0,0.0,0.0,1.0,Taxi
33.2,0.11065100648219468,2.7000959435433933,16.407843113607772,-0.5622229106952183,-0.4548535580543943,28.86331765177789,22.184614292144342,0.0,1.0,0.0,0.0,1.0,Taxi
33.300000000000004,-0.05981264263141184,-9.590807704070235,15.807381556711046,-0.19041151391171005,-0.7613648920447007,28.889209762549513,21.745053455114324,0.0,1.0,0.0,0.0,1.0,Taxi
33.4,-0.007639940754585642,-1.1400711666541525,16.13276716332347,-0.48372159045636887,0.15278629194676238,28.88135416162345,21.882974304348004,0.0,1.0,0.0,0.0,1.0,Taxi
33.5,0.10495065064892367,3.3912221547241663,15.46618140057061,-0.6091126819962813,-0.7286045667193923,29.019945705277507,21.41383332133031,0.0,1.0,0.0,0.0,1.0,Taxi
33.6,-0.042856531857791244,-11.87485294002254,15.029382240602828,-0.2914861477392825,0.009077196891463812,28.746964424224984,21.824045697180974,0.0,1.0,0.0,0.0,1.0,Taxi
33.7,-0.06701420545469858,-29.62639133808156,15.692471671356339,-0.41296108923594427,0.2175600785973484,28.855730874487904,21.885831001119243,0.0,1.0,0.0,0.0,1.0,Taxi
33.800000000000004,-0.043181306041484374,-1.5004283446782825,15.38502557994521,-0.812341866668489,-0.16242061495310292,28.843121199097823,21.28733054832679,0.0,1.0,0.0,0.0,1.0,Taxi
33.9,-0.05035867358118289,27.740045314371056,14.957452761205252,-0.2618044854068961,0.7811294889067252,28.83159880374552,21.69113214351582,0.0,1.0,0.0,0.0,1.0,Taxi
34.0,0.07168602111715648,8.424047851101916,16.24600558077354,-0.500445651905019,0.26383736560029625,28.786352056987255,21.865807068027394,0.0,1.0,0.0,0.0,1.0,Taxi
34.1,-0.001061066785975019,14.60016252845162,15.465260856542677,-0.23348743908924652,-0.2603924686576796,28.727197875976515,21.683452982502455,0.0,1.0,0.0,0.0,1.0,Taxi
34.2,0.02264213906107499,-25.756481394347237,15.790426826085342,-0.23637454437191216,-0.2612713417111636,28.78465125901039,21.81670903374284,0.0,1.0,0.0,0.0,1.0,Taxi
34.300000000000004,-0.05709638585457996,-0.48420688774111414,14.704022446171283,-0.3050582098119635,-0.6176496975716691,28.708548095042943,22.470436255537745,0.0,1.0,0.0,0.0,1.0,Taxi
34.4,-0.0034821012246808295,31.553711377201992,15.393513427947411,-0.6404796493663282,0.40797395062479586,28.662728776471738,21.595511478246745,0.0,1.0,0.0,0.0,1.0,Taxi
34.5,0.18041069594708473,14.035523933217732,15.032938181508186,-0.32600982769859016,-0.17172146647823258,28.864225427219992,23.009110201276567,0.0,1.0,0.0,0.0,1.0,Taxi
34.6,0.01308123381150849,4.214371937693866,15.028169856242323,-0.4876072397986512,-0.4627088148349802,28.800457236815134,21.72399561524335,0.0,1.0,0.0,0.0,1.0,Taxi
34.7,0.017589758463788283,-3.7059567626843752,14.630483231598609,-0.6249181893663632,0.5292594880723044,28.76895930484943,21.895780981524542,0.0,1.0,0.0,0.0,1.0,Taxi
34.800000000000004,0.16188091213366262,2.261859689537573,15.872392420805076,-0.8818415569006601,-0.3016840425537601,29.021730304059986,22.507287205553922,0.0,1.0,0.0,0.0,1.0,Taxi
34.9,0.024390532259196143,12.693315339909653,15.150377896756838,-0.19304952360307703,0.1388506712376743,28.800337970158466,22.530474053377016,0.0,1.0,0.0,0.0,1.0,Taxi
35.0,0.08105633516333634,-22.82480517048185,14.812181722444034,-0.18409291213749843,-0.12102221476593306,28.763845833032008,22.695671425997013,0.0,1.0,0.0,0.0,1.0,Taxi
