time_s,altitude_ft,vertical_speed_fpm,ias_kt,pitch_deg,roll_deg,heading_deg,throttle_pct,afterburner_on,gear_down,flaps_deg,speedbrake_pct,weight_on_wheels,label
0.0,-0.0031698226345797057,-16.523838688865197,13.953672443448351,0.509192698846137,0.986143584670091,249.1494307044934,12.058955538775953,0.0,1.0,0.0,0.0,1.0,Taxi
0.1,-0.058249284930797035,29.515427096314767,13.409229703700117,0.12409590045164202,-0.6494586554459013,249.25826885633978,13.316974356674457,0.0,1.0,0.0,0.0,1.0,Taxi
0.2,0.14440731284699412,-23.21801825995443,13.451803014189798,0.13305051495306464,-0.3446217976204669,249.01083058353845,12.492900975458996,0.0,1.0,0.0,0.0,1.0,Taxi
0.30000000000000004,-0.11925991393435183,16.437001824500456,13.999643624514004,-0.06162957896198468,-0.03132216188015628,249.1247827770311,13.040521595009023,0.0,1.0,0.0,0.0,1.0,Taxi
0.4,0.02393572419170526,-33.128336545159186,13.593881881972093,0.27483770861006096,-0.5420898366173309,248.97772931623524,12.160082427899148,0.0,1.0,0.0,0.0,1.0,Taxi
0.5,-0.02123436987880179,20.041791874187435,13.163916660523034,-0.07839745420838584,-0.06613967949956179,249.12768106201793,13.208949436240726,0.0,1.0,0.0,0.0,1.0,Taxi
0.6000000000000001,-0.01905095456341466,-13.086101280557443,13.716037289160003,0.5148684318628076,0.5030885337237113,249.22169749256057,12.856396205620108,0.0,1.0,0.0,0.0,1.0,Taxi
0.7000000000000001,-0.04149478221108195,28.898604366265943,14.400010632884195,-0.1339148441063871,-0.008915887342643817,248.84337320065856,12.77804662025615,0.0,1.0,0.0,0.0,1.0,Taxi
0.8,0.12325865195252793,6.594577520404234,13.385546792070766,0.20943649100396897,-0.5607445881931238,248.99805125841544,12.766501220424294,0.0,1.0,0.0,0.0,1.0,Taxi
0.9,0.013921933038606503,-4.789256136360862,13.926243359483905,0.05833158493952176,-0.1734571752683429,248.95649086752974,12.84087731012099,0.0,1.0,0.0,0.0,1.0,Taxi
1.0,-0.06544106289288626,-22.486212710190255,14.16816205893946,-0.014100281929745079,-0.12262510397973075,248.69145972291335,13.964813141323525,0.0,1.0,0.0,0.0,1.0,Taxi
1.1,0.010827588401576656,-15.055797256492417,13.699416301938124,0.21585222129048312,-0.15303883316188982,249.02021954181612,13.682290207345346,0.0,1.0,0.0,0.0,1.0,Taxi
1.2000000000000002,-0.06135705324385557,-11.615825795716122,13.485846318910927,0.57660962827988,-0.1102590047682386,249.08126485768366,14.06748668578636,0.0,1.0,0.0,0.0,1.0,Taxi
1.3,-0.12352019187146686,0.3195558441867661,14.517083612675608,0.2784483958216085,0.045553829616483896,249.08387541431262,13.163989150287977,0.0,1.0,0.0,0.0,1.0,Taxi
1.4000000000000001,0.01242536762251048,11.017122261178521,13.649450293856178,0.11838514056887381,0.9349224689016946,248.9641752166384,13.867054167437134,0.0,1.0,0.0,0.0,1.0,Taxi
1.5,-0.006271441937962964,22.81285947007198,13.849753630452323,-0.22516600897915667,0.11240051253545388,249.04678392496908,12.867345676707732,0.0,1.0,0.0,0.0,1.0,Taxi
1.6,-0.009455894521106973,-28.78913395052682,13.724250939879646,0.09450571090740023,0.38133087345019917,249.17442587111714,12.393982490706565,0.0,1.0,0.0,0.0,1.0,Taxi
1.7000000000000002,-0.13152030213012364,30.68036634203652,14.411922030942671,-0.13200059150434285,-0.009402891413798747,248.99159276340936,14.051223876297325,0.0,1.0,0.0,0.0,1.0,Taxi
1.8,0.14713038977221962,-26.066863767078218,13.968349669211198,0.5746865730054562,0.3060284312083326,249.03122670433027,12.39844470478947,0.0,1.0,0.0,0.0,1.0,Taxi
1.9000000000000001,-0.1397902133564981,27.735362504436722,14.603562256804972,0.2481566728639871,-0.3926995458479589,249.1127780007705,13.199297518394797,0.0,1.0,0.0,0.0,1.0,Taxi
2.0,0.007156510392059931,-48.12575418942949,13.580230238203015,0.6088601988635629,0.5469387343806398,249.1385503298228,13.798880275093598,0.0,1.0,0.0,0.0,1.0,Taxi
2.1,-0.09349838117492787,42.1017977356739,13.466307543545886,0.37861049271697134,-0.3987518730968988,248.85776860356168,11.929569854651739,0.0,1.0,0.0,0.0,1.0,Taxi
2.2,0.07071877532187137,-19.034400572553594,14.80246295873852,-0.09443623364441622,1.4067393195029774,249.02384122865703,13.208421746255246,0.0,1.0,0.0,0.0,1.0,Taxi
2.3000000000000003,-0.08801549247070806,-6.070966488983391,13.526505458785582,-0.02126789989801514,-0.16816880671328452,248.91290119919245,13.536398200268177,0.0,1.0,0.0,0.0,1.0,Taxi
2.4000000000000004,-0.12385321361984483,-8.414479078111631,13.537742373774986,0.049805072006027434,0.06647016338330826,248.97824836289146,12.831631424405675,0.0,1.0,0.0,0.0,1.0,Taxi
2.5,0.028646379931313207,10.487914567008259,13.8776301150457,0.2444350190221179,-0.46394934147585776,248.8227209343845,13.248534761267372,0.0,1.0,0.0,0.0,1.0,Taxi
2.6,-0.03557591963566676,8.005495971737433,14.03954706529749,-0.12221716785756281,0.7158664932515955,249.08230864270695,12.928685107436806,0.0,1.0,0.0,0.0,1.0,Taxi
2.7,-0.08382573376115765,-11.80145912383289,13.356649367784174,0.28493622979357625,-0.16956702572203655,249.10025003257567,13.903290243027113,0.0,1.0,0.0,0.0,1.0,Taxi
2.8000000000000003,-0.030360915687851223,24.18315479937097,14.771414870818534,0.2635702045842691,-1.1541503740372998,248.95031518306723,14.421751435492645,0.0,1.0,0.0,0.0,1.0,Taxi
2.9000000000000004,0.08533985436118809,18.845582370917196,13.743597818209087,-0.04053472705494032,0.37894560550090506,248.9917699452178,13.999255621311843,0.0,1.0,0.0,0.0,1.0,Taxi
3.0,0.010402178093428333,-0.21488978896784752,14.095343985311253,-0.08425160836232187,0.968043107475669,248.99336929099286,12.810852565779289,0.0,1.0,0.0,0.0,1.0,Taxi
3.1,-0.03143536463269048,-9.118010153055863,13.702775543889375,0.20836049178869123,-0.26690178765839884,249.12175166915017,13.448258845464705,0.0,1.0,0.0,0.0,1.0,Taxi
3.2,0.03974980359590877,-10.674405490798433,13.937995820226195,0.009762655712017648,0.16212822183053888,249.04178794265374,13.524680192884473,0.0,1.0,0.0,0.0,1.0,Taxi
3.3000000000000003,-0.04296984936056385,-21.975477553768755,14.762998087865805,0.3444730501313109,-0.30706864574647375,249.00545594302014,12.166160456512838,0.0,1.0,0.0,0.0,1.0,Taxi
3.4000000000000004,-0.14131275240153426,-18.3465111959724,13.065164608271829,0.3551609904105695,-0.21440794894741588,248.86020183712378,12.4969590316656,0.0,1.0,0.0,0.0,1.0,Taxi
3.5,-0.05198275238395325,24.61369321197724,13.745343781901472,0.30956103184637,0.40737194603542587,248.91009427092604,13.384931449554609,0.0,1.0,0.0,0.0,1.0,Taxi
3.6,0.08009861669932236,20.649657495920575,12.228604130478823,0.3792351719007175,0.5210802489518832,249.07929180496,12.371512912384292,0.0,1.0,0.0,0.0,1.0,Taxi
3.7,-0.03806446492193139,39.939903316618334,13.709472039384975,0.23506841234224174,0.5042361938024079,248.9916626762847,13.306408460179851,0.0,1.0,0.0,0.0,1.0,Taxi
3.8000000000000003,0.14771676419913846,-20.68922601343282,13.271615973330537,0.3014965654274447,-0.26606830472674997,249.26506295763375,13.250612185677808,0.0,1.0,0.0,0.0,1.0,Taxi
3.9000000000000004,-0.02334751336784173,17.601680697658143,13.417242168980096,0.06020946037861982,-0.23008253537408635,248.99953357199252,12.771985524384434,0.0,1.0,0.0,0.0,1.0,Taxi
4.0,0.04994393856635932,-25.19404473499539,13.911622216531894,0.21726125366206367,-0.28256782976145833,249.08173382674124,14.09973575953057,0.0,1.0,0.0,0.0,1.0,Taxi
4.1000000000000005,0.021746540524161487,8.81411086037605,13.024436798118984,0.21175644185325268,0.24568173010875632,249.28235282001867,13.281315293505333,0.0,1.0,0.0,0.0,1.0,Taxi
4.2,0.020723040934038522,-36.64828482153832,13.92776854423462,0.45727712724269204,0.07732956569746806,249.10430912076322,13.528170379246829,0.0,1.0,0.0,0.0,1.0,Taxi
4.3,-0.1332974855413323,13.752325433286492,14.047967244070223,0.31374457885402834,0.10037618370176303,249.16490596549102,12.816611697170806,0.0,1.0,0.0,0.0,1.0,Taxi
4.4,0.09050816769059392,-14.733794041988054,13.654358225564595,0.5453270745292147,0.8712060891172853,248.800231547924,12.602663622736562,0.0,1.0,0.0,0.0,1.0,Taxi
4.5,-0.05294592927590178,45.94659946237173,13.27836415578117,-0.01757676070965064,-0.24215985354690484,249.13201891382153,13.001709859309862,0.0,1.0,0.0,0.0,1.0,Taxi
4.6000000000000005,0.09643551177052635,-14.711858552358521,14.083251463721854,-0.012599033546690924,0.33120743904829897,249.01275737084154,13.734282192226619,0.0,1.0,0.0,0.0,1.0,Taxi
4.7,0.01694887492880129,46.52508646921922,14.434573330907002,0.3398717540880036,0.7144974035778099,249.08491530521258,13.238582135667693,0.0,1.0,0.0,0.0,1.0,Taxi
4.800000000000001,0.1796795030701943,-28.982356667026895,13.800099485702543,-0.3129355417065399,-0.4314717874466967,249.10272691402952,13.176141396994284,0.0,1.0,0.0,0.0,1.0,Taxi
4.9,-0.04847627156460815,30.186385052685054,13.725285854515572,0.29916975118048866,-0.21227643232982488,249.03945126101166,13.780130701383442,0.0,1.0,0.0,0.0,1.0,Taxi
5.0,0.16788080019222656,-61.93674100192779,13.960094246390423,0.5555966216629015,0.3353838491544007,248.93871228871376,12.849227610401076,0.0,1.0,0.0,0.0,1.0,Taxi
5.1000000000000005,-0.13000420193944454,32.48155855534902,13.956891787004261,0.22123381296195557,0.33345756883607913,248.80368226481062,13.67076779914935,0.0,1.0,0.0,0.0,1.0,Taxi
5.2,0.11393152121213701,-47.794651972241134,14.197606650248181,0.31263462148962307,-0.11223651649806032,249.08618832344587,13.107019178595982,0.0,1.0,0.0,0.0,1.0,Taxi
5.300000000000001,-0.07109245966897908,40.285148744524854,12.898393925371746,0.44886575542818863,-0.3022381860210471,249.0358195707372,12.391271351414213,0.0,1.0,0.0,0.0,1.0,Taxi
5.4,0.0714215417831797,0.0008381524843533347,13.768576535787785,0.2210827093754203,-0.21327081559876707,248.85503659253152,12.723628637793126,0.0,1.0,0.0,0.0,1.0,Taxi
5.5,0.11393571197455879,56.68007193507973,13.921584206502551,-0.07004535458154337,0.4489887881006446,248.82645364883,13.00949952688488,0.0,1.0,0.0,0.0,1.0,Taxi
5.6000000000000005,0.2123079000064196,27.692238375091808,12.895477143527797,0.8243569112952731,-0.6193481248657476,248.85799553695188,13.451446717449553,0.0,1.0,0.0,0.0,1.0,Taxi
5.7,0.20988273365863874,-42.38685097868987,12.919453737471667,0.31788797058973395,-0.8209510508072447,248.99212938038772,13.81696732000947,0.0,1.0,0.0,0.0,1.0,Taxi
5.800000000000001,-0.0979985429188906,-46.416395269970174,12.986434120970264,0.14771999481183665,0.0550342214268194,248.92542903307788,13.068130866251092,0.0,1.0,0.0,0.0,1.0,Taxi
5.9,-0.0197740763434313,-59.67187224306059,15.262382881888843,0.370223029918879,-0.44798416432679566,248.91096741652348,12.838335184088816,0.0,1.0,0.0,0.0,1.0,Taxi
6.0,-0.08847662755666424,-14.748257881728454,13.755156520818913,0.5521938893592417,0.059084660831640205,248.98402026303438,13.619458556215479,0.0,1.0,0.0,0.0,1.0,Taxi
6.1000000000000005,-0.17173983232753287,8.068294175860274,13.396790169118473,0.2183371721905797,0.09137982893149688,249.11054157546755,13.396022898220231,0.0,1.0,0.0,0.0,1.0,Taxi
6.2,0.020567394535870052,-6.9779312394857795,13.760224878488605,0.24063521099701765,0.5314642888883591,249.09054169510716,13.075018261355206,0.0,1.0,0.0,0.0,1.0,Taxi
6.300000000000001,-0.12336628375409314,2.903700425259925,13.99946233991373,0.22126597030297954,-0.7770324392896548,248.9284175492835,12.76549575611272,0.0,1.0,0.0,0.0,1.0,Taxi
6.4,-0.15722133020123324,3.532082126693344,14.455007917841161,0.3167710350457563,0.13642080674989707,249.05030042134592,13.665468508039098,0.0,1.0,0.0,0.0,1.0,Taxi
6.5,0.038227805169336763,44.12760748744069,14.617955821656002,-0.18468715685561565,0.12151984674356806,249.13034763655833,13.823936573138324,0.0,1.0,0.0,0.0,1.0,Taxi
6.6000000000000005,0.09727175368311028,39.81051472452618,13.827034892449998,0.3203067223406517,-0.933863311668815,248.9063416719631,12.565858903599121,0.0,1.0,0.0,0.0,1.0,Taxi
6.7,0.04183124342139763,-17.138128258426665,13.971265642960974,0.11555460418836606,0.03723985272595075,249.00611077339147,12.900149635745473,0.0,1.0,0.0,0.0,1.0,Taxi
6.800000000000001,-0.04746283612279657,-28.608017581048074,14.023733542530803,-0.043458464566147076,0.23948828465606947,249.0977629738428,12.522859602057503,0.0,1.0,0.0,0.0,1.0,Taxi
6.9,-0.045768334222130086,-18.678874457673228,13.097816703779436,0.3148605069042659,-1.1310792084298413,249.05220602810266,13.989000143027658,0.0,1.0,0.0,0.0,1.0,Taxi
7.0,-0.051563128866968504,19.305729377580658,14.194527768028912,0.024040029060719226,-0.5275520721704564,248.94419599376215,13.585898323319608,0.0,1.0,0.0,0.0,1.0,Taxi
7.1000000000000005,0.049065810765106715,-10.112692732734459,13.697643067680723,0.0972080752849022,-0.19284130193978302,248.9942908633343,13.277931394655614,0.0,1.0,0.0,0.0,1.0,Taxi
7.2,-0.09633179788580237,41.823430952343045,12.934347368303884,0.156686163827787,-0.5488154655433162,249.1810115610533,12.904597094569528,0.0,1.0,0.0,0.0,1.0,Taxi
7.300000000000001,0.15755402589474676,-32.68081057221364,15.094598590421748,0.15421456955168894,0.262271784020094,248.96025503775388,12.42088971548663,0.0,1.0,0.0,0.0,1.0,Taxi
7.4,-0.11433824209596143,41.65241210285475,14.200238207899362,0.08301475471264769,-0.05281089027214748,248.92253171148764,13.944956094520718,0.0,1.0,0.0,0.0,1.0,Taxi
7.5,0.11193026262847137,-1.6141753963389387,14.392278761669537,-0.05222085775565466,-0.06630564840421944,248.9676751999101,11.902036574670253,0.0,1.0,0.0,0.0,1.0,Taxi
7.6000000000000005,0.14948314891305206,35.89703862712107,13.527465292749055,-0.14354002405036886,-0.467562547693974,248.99862697134608,13.253121524999056,0.0,1.0,0.0,0.0,1.0,Taxi
7.7,0.0651469510396439,-9.827134819690459,12.941979146653264,0.1009918194540906,0.29315200861591095,249.03049752011634,13.322400851957696,0.0,1.0,0.0,0.0,1.0,Taxi
7.800000000000001,0.06279458853001907,-31.89734547134043,13.73093571759762,0.3314053158761032,0.5118568586426182,248.96583129534713,13.742931188129745,0.0,1.0,0.0,0.0,1.0,Taxi
7.9,-0.010003578443650074,3.4185478367434166,13.190942667718769,0.1743905619206052,-0.02398212341465842,249.0187722899409,13.17090333647194,0.0,1.0,0.0,0.0,1.0,Taxi
8.0,0.08223969022336097,3.9852447797726573,13.04248372326926,0.277074136762138,-0.08075330577065544,248.95998351313085,13.570872951833662,0.0,1.0,0.0,0.0,1.0,Taxi
8.1,0.08272081242888235,7.694607363422027,13.024114436532397,0.08176808479763117,-0.6385344639446751,248.82438059316087,13.101163819817874,0.0,1.0,0.0,0.0,1.0,Taxi
8.200000000000001,0.02846945837346006,-21.406350469168746,13.877560746439169,0.46857535074233964,-0.258126916154009,249.0768618500657,12.700086993273032,0.0,1.0,0.0,0.0,1.0,Taxi
8.3,-0.024792062122482774,-41.63797351747354,14.390056628080625,0.09830055158372875,-0.5365501935508414,249.03147455117187,12.76881158208318,0.0,1.0,0.0,0.0,1.0,Taxi
8.4,-0.12546905515848536,7.388766819306714,14.085976549728745,-0.22812581355369704,0.3326047117562926,249.0129638661458,13.448535474398096,0.0,1.0,0.0,0.0,1.0,Taxi
8.5,0.06541329246999365,-41.67847847420514,13.670285818099352,0.004664073781485367,-0.6226982803400928,248.90140509238222,13.162362404818113,0.0,1.0,0.0,0.0,1.0,Taxi
8.6,-0.23318445449350841,28.134332650969853,14.33684943813656,0.35522428531350125,-0.618077088172532,249.15033881558156,13.42040510026645,0.0,1.0,0.0,0.0,1.0,Taxi
8.700000000000001,0.015202608096363982,-8.071201200900882,13.20080575844978,0.22695044870826786,-0.2950267723930647,249.08425304892944,13.126171067350242,0.0,1.0,0.0,0.0,1.0,Taxi
8.8,0.025057286465489294,77.31814184538764,14.191931510626429,0.4306134282788963,0.27712876298937617,249.00035076586914,12.859832857931869,0.0,1.0,0.0,0.0,1.0,Taxi
8.9,0.15340625473342984,-20.194654300981256,14.004889658933035,0.3238981837923648,0.30816149248758534,248.97764005805516,12.478215064825108,0.0,1.0,0.0,0.0,1.0,Taxi
9.0,-0.08577066340854222,-4.505444523253206,14.291529218218642,0.16010239358630507,-0.6397837821738248,248.8595045271586,13.403024381207928,0.0,1.0,0.0,0.0,1.0,Taxi
9.1,0.002530063849223342,-32.604978757608656,13.690409160914728,-0.04350316357893097,0.19905983101460556,249.14006337914702,13.58936537075668,0.0,1.0,0.0,0.0,1.0,Taxi
9.200000000000001,-0.009618639054613373,34.235141697566974,13.85333408511093,0.17369047889110856,-0.28497784613517974,249.11728710212458,13.043000940578912,0.0,1.0,0.0,0.0,1.0,Taxi
9.3,0.08540504507929264,-18.132020900756764,12.816389100653781,0.11771241533775789,0.47895810661315924,248.99188762036943,13.71613930916752,0.0,1.0,0.0,0.0,1.0,Taxi
9.4,-0.08813004065456047,-28.10579048005538,14.133771251147465,-0.036146535059064594,0.48110060444410874,249.07981114813992,13.65055999100408,0.0,1.0,0.0,0.0,1.0,Taxi
9.5,-0.15014759145489026,28.764867395380197,14.57687021064017,0.26305273296484766,-0.2947130039447047,249.01903242004175,13.551672093457316,0.0,1.0,0.0,0.0,1.0,Taxi
9.600000000000001,0.2292293820561936,23.548671081125935,13.394163786800291,0.11436462860117552,0.6719644467541998,249.06508242287282,13.922241927582846,0.0,1.0,0.0,0.0,1.0,Taxi
9.700000000000001,0.02961331475106916,62.92525284073713,13.641805325083489,0.3733821529351996,0.7827574837600387,248.89000137632115,13.497642475073983,0.0,1.0,0.0,0.0,1.0,Taxi
9.8,0.16447867274879535,-9.191742995815103,13.687719770027867,0.5211572989095465,-0.39744132431444196,249.1936494219717,12.734359772600815,0.0,1.0,0.0,0.0,1.0,Taxi
9.9,0.1832706670771181,10.278062125505762,12.596365043247465,0.01477040169167626,-0.013948049239886075,249.0737782316354,13.130669181400991,0.0,1.0,0.0,0.0,1.0,Taxi
10.0,0.08100362537859798,-15.35420465544304,13.301591500345742,0.29062358109798936,0.9045047646896589,249.1230967417439,12.503606976021706,0.0,1.0,0.0,0.0,1.0,Taxi
10.100000000000001,0.08770764947158015,-33.1184400527042,12.981041881923952,0.1093465342064463,0.30737155554486983,249.0248529839247,13.045835875821767,0.0,1.0,0.0,0.0,1.0,Taxi
10.200000000000001,0.01767846681359708,-39.87739142438847,14.677993277406012,-0.13210170976071023,-1.0440536006372645,249.05667912322622,12.174823932720864,0.0,1.0,0.0,0.0,1.0,Taxi
10.3,-0.11838333174334437,-14.732407310869519,12.736436618781404,0.2031404834084537,-0.042220163116410976,249.00443058043425,12.53777771372957,0.0,1.0,0.0,0.0,1.0,Taxi
10.4,0.014045612917232565,18.93912972420634,12.5750820808848,-0.11053931161291553,-0.648278013146042,249.10513377243922,12.85312727356119,0.0,1.0,0.0,0.0,1.0,Taxi
10.5,0.11237411543462879,10.933816792125777,14.606789076872962,0.1862916228621967,-0.09226090066747202,248.96961135050697,13.336686820085358,0.0,1.0,0.0,0.0,1.0,Taxi
10.600000000000001,-0.06371424778271548,-3.700431610122512,13.087511595270117,0.2961122233594842,-0.8103713678341347,248.9649409774487,13.13899497685111,0.0,1.0,0.0,0.0,1.0,Taxi
10.700000000000001,-0.004456545133379979,-26.113736482572747,14.554632702355741,0.6276569918847246,0.3314805355981585,249.0536507785697,12.959142419225664,0.0,1.0,0.0,0.0,1.0,Taxi
10.8,-0.01819456697823493,58.33677883312257,14.586907910685953,0.16288121510660192,0.6582294325103687,249.04956830121887,13.61002916096414,0.0,1.0,0.0,0.0,1.0,Taxi
10.9,0.2279696463828974,19.947397088308136,13.82888212369255,0.23441300036486987,-0.622993339347213,248.88896531375758,12.951721093642073,0.0,1.0,0.0,0.0,1.0,Taxi
11.0,0.09528044030816074,16.662932254348323,13.886428954604195,0.05616288807228895,-0.8005785008738657,248.88860293845414,12.39240305596568,0.0,1.0,0.0,0.0,1.0,Taxi
11.100000000000001,0.0651200942935067,-67.35730934207119,14.048614581831123,0.5762058970762727,0.3747045109068699,248.88679042546084,13.918904247291977,0.0,1.0,0.0,0.0,1.0,Taxi
11.200000000000001,-0.10881690032745853,-8.806319674917958,14.039116480357034,0.4321240019816356,-0.5856314742349359,249.25760910897293,13.238901353711451,0.0,1.0,0.0,0.0,1.0,Taxi
11.3,0.05124884193357097,0.6487097399094756,13.610472224908273,-0.13572679196564913,-0.02747884964295609,249.06317995078234,12.997420194367608,0.0,1.0,0.0,0.0,1.0,Taxi
11.4,0.06836364299305409,-20.14624445620036,13.49528793013611,-0.12075286667098345,0.0007161188929635558,248.92969645918106,13.806817469833215,0.0,1.0,0.0,0.0,1.0,Taxi
11.5,-0.2095481226084603,-34.67718517593743,14.651067912056762,0.4530315031138984,0.09361240836675924,248.99145577451532,13.37351090273076,0.0,1.0,0.0,0.0,1.0,Taxi
11.600000000000001,-0.12213708394611618,-23.465134448395247,13.054242356392656,0.041174354493473314,-0.1534101516607245,249.09365363798986,13.002895707347788,0.0,1.0,0.0,0.0,1.0,Taxi
11.700000000000001,-0.04896202924892212,61.26051321817851,12.839639209954596,0.10340959158849568,-0.19072730543418268,249.05813236574852,12.832798458372602,0.0,1.0,0.0,0.0,1.0,Taxi
11.8,0.09675444348243221,15.629428438839719,13.550428013824495,0.07542199321195021,-0.5798026851483455,248.91451827481296,12.500446379090661,0.0,1.0,0.0,0.0,1.0,Taxi
11.9,-0.043989941751917595,30.743335584048975,13.963897334710648,-0.043002892704521845,-0.654692310681576,249.01811043965802,12.715349689222565,0.0,1.0,0.0,0.0,1.0,Taxi
12.0,0.10475464867132274,-28.532888132471697,13.906313316910335,0.2887829413807533,-0.11175460266973344,249.02190356070173,13.200114168801388,0.0,1.0,0.0,0.0,1.0,Taxi
12.100000000000001,-0.04590999717992627,-8.540035550102234,13.311886562268189,0.072869135265754,-0.5027230493746286,249.04673290818425,13.873737142008826,0.0,1.0,0.0,0.0,1.0,Taxi
12.200000000000001,-0.08669011950242878,-25.663907643950466,13.163243170764828,0.2077766269758391,-0.3263389764019805,248.98041393186327,13.941619710744988,0.0,1.0,0.0,0.0,1.0,Taxi
12.3,-0.023564889548429623,25.00164693292018,14.648802489510494,-0.05829175215484622,-1.0434403880208372,249.16508307048025,13.084747721811786,0.0,1.0,0.0,0.0,1.0,Taxi
12.4,0.07909823748467462,5.618290858947148,13.778436338601875,-0.18482799567119107,-0.10874078749394696,249.0271332476791,12.809172460225389,0.0,1.0,0.0,0.0,1.0,Taxi
12.5,-0.05859866520769305,4.114768748859497,14.255592190987803,0.42884282281666763,-0.3158811759769373,248.85049859792866,13.777259771249124,0.0,1.0,0.0,0.0,1.0,Taxi
12.600000000000001,-0.0029910458041321666,-41.1313314294464,13.584362877308354,0.339330568190673,0.5694992202681854,249.21300310045444,13.172329588779851,0.0,1.0,0.0,0.0,1.0,Taxi
12.700000000000001,-0.1265584196625574,14.262730751457118,13.09832206447136,0.2318459954158291,-0.792922638471696,249.18020990503874,12.822236075270292,0.0,1.0,0.0,0.0,1.0,Taxi
12.8,0.01271498854959251,28.56609668273607,13.765164580457181,0.05445605767431613,-0.2399777848589972,249.1990600914703,12.600530885502154,0.0,1.0,0.0,0.0,1.0,Taxi
12.9,0.13983943760954817,11.83126813263072,13.979101563045342,0.4022919339981752,0.018903034522657413,249.0751087350252,12.930658809338194,0.0,1.0,0.0,0.0,1.0,Taxi
13.0,-0.06740207899940386,3.0881218899424923,13.990269499260018,0.42141118153625223,0.3660396393353808,249.1610854178166,11.99417745443288,0.0,1.0,0.0,0.0,1.0,Taxi
13.100000000000001,0.02815559799930495,-38.021615153586545,13.58168386248931,-0.13178692786838275,0.3666575317840078,248.88451584007032,13.110820120459934,0.0,1.0,0.0,0.0,1.0,Taxi
13.200000000000001,-0.050268638158384615,11.617255735145015,14.062000934288134,0.04012631848602011,-0.5643818673718608,249.14677296722994,12.787501579081825,0.0,1.0,0.0,0.0,1.0,Taxi
13.3,-0.009315800323678791,-11.824571317251243,13.593208663890843,0.3526757753416872,-0.30585969787104955,249.05570881825997,12.590310552954527,0.0,1.0,0.0,0.0,1.0,Taxi
13.4,-0.03096725858695128,11.04443322385152,14.196495935047057,0.24592413224949417,0.1907741961652599,248.97434041234885,12.904985787732038,0.0,1.0,0.0,0.0,1.0,Taxi
13.5,0.004953527960872976,22.184623567379948,14.480553999652749,0.47808081818932496,0.03721532881424629,249.20933388525816,13.140959060024409,0.0,1.0,0.0,0.0,1.0,Taxi
13.600000000000001,0.10160731751322094,-3.413207328414155,14.391509184111618,-0.06273308197498423,-0.5355753532643294,249.27246511047997,13.433495014235119,0.0,1.0,0.0,0.0,1.0,Taxi
13.700000000000001,-0.048033295229022055,13.438853651891913,13.369183499300435,0.30438289759396386,-0.5883726128174881,248.98426203822726,13.41159587314412,0.0,1.0,0.0,0.0,1.0,Taxi
13.8,0.07214779622033256,-9.781426163620225,13.548713050778128,0.20656005341053946,0.28686082660807827,249.05533897409418,13.233791247337747,0.0,1.0,0.0,0.0,1.0,Taxi
13.9,0.052700186695119826,-20.157518779563613,13.437127272020271,0.04799220932362841,0.1268496752341831,249.07182282386134,13.185260117055389,0.0,1.0,0.0,0.0,1.0,Taxi
14.0,-0.14882088912684008,-17.61932260533931,14.036079491852341,0.05096144104361755,0.2172376903657898,249.08944397050936,13.934204103419399,0.0,1.0,0.0,0.0,1.0,Taxi
14.100000000000001,-0.015948816806363963,-16.576666929982526,14.231737756671498,0.19310838423736917,-0.3163824012923756,249.02448383560272,13.360443825389906,0.0,1.0,0.0,0.0,1.0,Taxi
14.200000000000001,-0.030183147954792794,10.483501788316355,14.041626249737268,-0.008031264410853167,0.16189367472283675,248.96747118241274,12.898770782534015,0.0,1.0,0.0,0.0,1.0,Taxi
14.3,-0.09640338018525833,-20.025583091257666,14.029374112771972,0.1576188593710217,-0.4623352218998145,249.0415131957335,13.339868909799367,0.0,1.0,0.0,0.0,1.0,Taxi
14.4,-0.11607673226265228,49.95682181256319,13.433180125131226,0.15758488467234738,0.21152275243344987,249.26408823462498,12.449469619060903,0.0,1.0,0.0,0.0,1.0,Taxi
14.5,0.21960096110802318,8.715475646057437,12.015230812201631,0.47191803943184535,-0.366167603177674,248.9754064378517,13.226117867376539,0.0,1.0,0.0,0.0,1.0,Taxi
14.600000000000001,-0.05282600195497114,0.228876698764509,14.99816756813906,0.4614528351606492,-0.40060159295484254,249.18381765602476,13.517682801297852,0.0,1.0,0.0,0.0,1.0,Taxi
14.700000000000001,-0.11493234876882973,-29.15148797553984,13.787518823915594,0.4220282147216342,0.00692255195425483,249.08998005261685,12.555116895305234,0.0,1.0,0.0,0.0,1.0,Taxi
14.8,0.07384352123032398,20.60720889396407,14.159886366777423,0.3262277496413844,-0.003412048196183052,249.16503224533153,13.27291903182166,0.0,1.0,0.0,0.0,1.0,Taxi
14.9,0.05021004251484923,25.841674064600067,13.41493653638145,0.08590760707695823,0.675092240469619,249.0077936007458,12.662929534658744,0.0,1.0,0.0,0.0,1.0,Taxi
15.0,0.014276021554170607,16.195214257369276,13.049189781465975,0.27726451869778623,-0.4725183298304185,248.98599017126924,13.208412709712352,0.0,1.0,0.0,0.0,1.0,Taxi
15.100000000000001,0.15481959251717037,1.5519025517248533,14.598643615796053,0.10520444726414144,-1.1094938036400557,249.09188170761706,13.01510328659507,0.0,1.0,0.0,0.0,1.0,Taxi
15.200000000000001,0.0579695552734735,2.3581933753797757,14.062522170313798,0.23951720141003477,0.27668263830913264,249.00049823621498,13.547143960510297,0.0,1.0,0.0,0.0,1.0,Taxi
15.3,0.02606698843106949,-46.3096847340573,13.201112122781671,0.15852620484629334,-0.5202940087608454,248.99180162497214,13.006813966598335,0.0,1.0,0.0,0.0,1.0,Taxi
15.4,-0.07672883115311614,-16.61064313840635,13.249858032439823,0.16934900503720085,0.2213455146306991,248.89235154920004,12.049407150092996,0.0,1.0,0.0,0.0,1.0,Taxi
15.5,-0.02508366041855828,26.651944936224183,13.717487352407657,0.06662337779116545,1.3749319586602122,248.96374879108805,13.767163868076317,0.0,1.0,0.0,0.0,1.0,Taxi
15.600000000000001,0.15932671311219038,14.833418536782753,13.741056408122706,0.30323446335337717,-0.09676651790366148,248.93311216476263,13.436227808181254,0.0,1.0,0.0,0.0,1.0,Taxi
15.700000000000001,-0.0025617384692023953,31.75263510818023,13.19690167202751,0.1271152531828289,-0.6338298093187683,249.115804877924,13.11593079315754,0.0,1.0,0.0,0.0,1.0,Taxi
15.8,0.13367951512234286,-39.977255931354975,14.615945227123083,0.6385086791908822,0.6027355172308677,248.91993823145935,13.143604167082906,0.0,1.0,0.0,0.0,1.0,Taxi
15.9,-0.04055956654458451,-4.077161598189563,14.70092448086637,0.36367774409907916,-0.361074092615395,249.08057473128656,13.03364934958296,0.0,1.0,0.0,0.0,1.0,Taxi
16.0,-0.022947546460150223,-5.832686986479383,13.302955671745442,0.2621383370803869,-0.15729957772289355,249.0427799925261,13.36998408014804,0.0,1.0,0.0,0.0,1.0,Taxi
16.1,0.10451608018994595,22.846811688292178,14.50961989672514,0.39171735914742134,-0.31239291658400636,249.20945931482777,13.45278540764564,0.0,1.0,0.0,0.0,1.0,Taxi
16.2,0.0736744918968764,58.869094314929384,13.513173232293184,0.6406830892582406,-0.21045453191311095,248.908668265845,13.605240755308213,0.0,1.0,0.0,0.0,1.0,Taxi
16.3,0.27139792511449673,-40.205398427068,13.110614505197429,0.2065952334420427,-0.5108151445617127,248.95851171268123,12.938950927390346,0.0,1.0,0.0,0.0,1.0,Taxi
16.400000000000002,-0.096510911945394,-13.027941776195759,13.92156902452648,0.2919273066479923,0.5315336381494765,248.92975596275335,12.079852382356313,0.0,1.0,0.0,0.0,1.0,Taxi
16.5,0.008534783015897635,-67.82924506916657,13.710711615066446,0.25620651001556527,-0.38818797753527157,248.94010126323724,13.323015766375098,0.0,1.0,0.0,0.0,1.0,Taxi
16.6,-0.06774830023133614,43.68088835654343,13.647049019663617,0.22467651177360862,0.1650863183334768,249.0530373523627,12.688996299790043,0.0,1.0,0.0,0.0,1.0,Taxi
16.7,0.12189352983732318,0.805706445054677,13.607544297361267,0.28217288521788786,-0.09854309329434068,248.96098580609862,12.023047769277213,0.0,1.0,0.0,0.0,1.0,Taxi
16.8,0.012563315241171028,-3.8954984958442225,13.573674163551626,0.2011483766214946,0.16925548079294497,248.92189760061842,13.336455019645866,0.0,1.0,0.0,0.0,1.0,Taxi
16.900000000000002,-0.08722579271055725,-24.935836389474876,13.356814067875884,0.25240979154901005,0.07483601936129101,249.04375249204975,13.514132424097657,0.0,1.0,0.0,0.0,1.0,Taxi
17.0,-0.0027856521100512173,-17.205600288282074,14.365161232109452,-0.03308178118761115,0.07263155936547958,249.17031083575307,14.083676389732753,0.0,1.0,0.0,0.0,1.0,Taxi
17.1,-0.07346468620023934,-0.2825432160750155,14.81315407989084,0.052421267000481,-1.020385979608787,248.84647933390102,12.380091397592704,0.0,1.0,0.0,0.0,1.0,Taxi
17.2,-0.08863850879093234,2.8694337481142966,14.834394808780784,0.18128214239723833,0.5626717756299794,249.12764439592604,12.58849203715646,0.0,1.0,0.0,0.0,1.0,Taxi
17.3,0.011561516630520251,21.3696433088603,13.916673121182217,-0.16426757214590787,0.9052877218277281,249.16377474694866,13.025296724783141,0.0,1.0,0.0,0.0,1.0,Taxi
17.400000000000002,0.03338353034406214,-5.635504874533353,13.794692162353467,-0.013316156781514599,0.09775480969664821,249.08176329835442,13.080056631577897,0.0,1.0,0.0,0.0,1.0,Taxi
17.5,-0.11681603316359915,-5.328847714730763,13.90092378124481,0.11680512561818776,-0.0462219851168618,248.9989950629166,12.95900035278957,0.0,1.0,0.0,0.0,1.0,Taxi
17.6,-0.015082721943133605,-6.789258411749951,14.27698833121047,0.01293965132614272,-1.142734404001057,249.05145342826006,13.507817407367382,0.0,1.0,0.0,0.0,1.0,Taxi
17.7,-0.0005627617146876352,33.962204189863094,14.727802325985262,0.2451089461660959,-0.4307538981926125,248.91201302652837,12.33783913677849,0.0,1.0,0.0,0.0,1.0,Taxi
17.8,0.05299498778571632,3.9173510203434874,13.453909426732782,0.41433671454464693,-0.4634070202138812,249.15217880551927,12.834706649713977,0.0,1.0,0.0,0.0,1.0,Taxi
17.900000000000002,0.0045040331585838225,-16.8566091772378,13.691627069618459,-0.05942973040805605,0.28709073098840926,249.0097530695116,13.66286715695536,0.0,1.0,0.0,0.0,1.0,Taxi
18.0,-0.08484580760087665,-1.4392834284364302,14.32728006824236,0.010981521104557745,-0.03956899942547974,248.8596888599194,13.037036441107704,0.0,1.0,0.0,0.0,1.0,Taxi
18.1,0.045798570643534146,27.095622528705665,13.878325607175968,0.1663163675789193,-0.03524099817343048,249.13209262902774,13.994571605589949,0.0,1.0,0.0,0.0,1.0,Taxi
18.2,0.13998214580211216,40.77018438450824,15.053337035471893,0.03568689776078404,0.08275328684398323,249.124597925074,12.625797544179168,0.0,1.0,0.0,0.0,1.0,Taxi
18.3,0.11900511432166457,-15.98696774720093,13.692929095438314,0.06825158104345239,0.12975596511790416,248.8922170519685,13.631572304018539,0.0,1.0,0.0,0.0,1.0,Taxi
18.400000000000002,-0.03413626809247052,-19.56149387188141,13.123323871451811,0.19438797036871377,-0.02348516985773396,249.11960574850832,13.432981002875383,0.0,1.0,0.0,0.0,1.0,Taxi
18.5,0.04217467644270506,-53.04571732932781,13.4548934138742,0.6866331446221833,0.166550019992983,249.14942165324192,12.686446269666583,0.0,1.0,0.0,0.0,1.0,Taxi
18.6,-0.14622347232497454,1.0312488969924989,13.506074828376947,-0.05441142671616722,-0.2728031716468292,248.96263681607877,13.190456872293163,0.0,1.0,0.0,0.0,1.0,Taxi
18.7,-0.028980023607508065,0.3478785484773515,13.628918567441493,0.3554823385839899,-0.07310208545174006,249.0505387800515,13.522120005013251,0.0,1.0,0.0,0.0,1.0,Taxi
18.8,0.0439140691850918,65.5904794113646,12.857445590524845,0.1465961434346174,-0.06414633711388684,249.35181329871818,13.553501428734926,0.0,1.0,0.0,0.0,1.0,Taxi
18.900000000000002,0.1817289247318484,-32.73031400939465,13.082862244556717,0.1595159800472128,-0.4580405382199286,248.99935863722862,13.264925839844327,0.0,1.0,0.0,0.0,1.0,Taxi
19.0,-0.19263159365448132,-18.847725374183025,13.498964446397277,0.03132487485052507,-0.3624292705835986,249.12373998341275,12.47206851463254,0.0,1.0,0.0,0.0,1.0,Taxi
19.1,-0.05032455768582335,-18.16423536353859,14.157045455779818,0.25452399147618954,0.38146498050399097,248.8502340107559,12.376375462727763,0.0,1.0,0.0,0.0,1.0,Taxi
19.200000000000003,0.09090774791415546,12.723950143795784,14.008317517282807,0.18007551676784783,0.22497271850017725,249.06700512729822,13.743558177778933,0.0,1.0,0.0,0.0,1.0,Taxi
19.3,-0.12901184293550236,-6.853367432286195,13.737902429927294,0.12788713384840683,0.51665584269559,248.99088759529627,12.879976242114902,0.0,1.0,0.0,0.0,1.0,Taxi
19.400000000000002,-0.0845913948472543,-19.868549102811027,13.486164889961366,0.508243388013762,-0.5787422352207197,249.15784128972996,13.28782828924643,0.0,1.0,0.0,0.0,1.0,Taxi
19.5,-0.008434997599899659,33.56879739027198,13.795499323179955,0.018509199485451766,0.3501095516888314,248.99740611763366,13.253141685358138,0.0,1.0,0.0,0.0,1.0,Taxi
19.6,0.038832144015857585,16.827243615648484,14.01537551394004,0.08731236664386521,-0.2608357162658508,249.2024989912511,13.055375873724493,0.0,1.0,0.0,0.0,1.0,Taxi
19.700000000000003,-0.0004551767690118486,-4.864156058215156,13.14453923176902,0.024693432565632667,0.27772139484037184,249.09060183896656,13.69025916416409,0.0,1.0,0.0,0.0,1.0,Taxi
19.8,-0.03275577789097541,13.295234098684082,13.231123828686389,-0.03350457909807539,0.26741604718534695,248.97007687239477,13.26833648575105,0.0,1.0,0.0,0.0,1.0,Taxi
19.900000000000002,0.10530831450927802,-5.016078842244721,13.261625979870542,0.018510329329289393,-0.4041207583855869,249.08348624067764,13.132506457430505,0.0,1.0,0.0,0.0,1.0,Taxi
20.0,-0.025535570980235428,30.510382571266735,13.256275543491844,0.0712437511896782,-0.40312405847353444,248.94123331718276,13.63070293527949,0.0,1.0,0.0,0.0,1.0,Taxi
20.1,0.11979613496535829,-20.481121652676435,14.743009837168326,0.08049753312936092,-0.16283942306656543,249.19079632163607,12.654332799200148,0.0,1.0,0.0,0.0,1.0,Taxi
20.200000000000003,0.002902706245895882,28.079780730094896,13.512369926545071,0.3073616683716383,-0.14224725244761516,248.98374482519614,13.411610426398001,0.0,1.0,0.0,0.0,1.0,Taxi
20.3,0.1148633326702391,-41.94869171489093,13.790997990750382,-0.09331456281118061,-0.028548228505105806,248.86073779439403,14.259705233496438,0.0,1.0,0.0,0.0,1.0,Taxi
20.400000000000002,-0.0899473236090963,24.426922838537294,14.500579231726245,0.07789867806567141,-0.1455924211576908,249.11122568673534,12.746874202692426,0.0,1.0,0.0,0.0,1.0,Taxi
20.5,0.12503732043858237,-41.1208576350575,14.065607819990618,0.32648227891361276,-1.1475251681326935,249.1049026716812,13.642409194235821,0.0,1.0,0.0,0.0,1.0,Taxi
20.6,-0.09074095550504836,19.26805494064268,12.806966979002949,0.5250532535151422,0.23524360490433863,249.10647206650447,13.077451469145085,0.0,1.0,0.0,0.0,1.0,Taxi
20.700000000000003,0.006392951094117152,16.76147265309808,13.313520256642532,0.2359522252629052,0.2047046565453299,248.98720067804527,13.700437037325012,0.0,1.0,0.0,0.0,1.0,Taxi
20.8,0.20884468370407278,11.983206113816777,13.604822189056128,0.5237968021756121,-0.046642571956938404,249.01640999306687,12.798420565810849,0.0,1.0,0.0,0.0,1.0,Taxi
20.900000000000002,-0.03082492493596452,5.875663198630211,14.053249855591801,0.3322847469588896,0.656730654989381,249.17563958018718,12.582223204156874,0.0,1.0,0.0,0.0,1.0,Taxi
21.0,0.03577126708726817,-40.72546672457454,13.740127390358062,0.20870121947061837,0.8496138043350786,249.0060383874286,12.987038209835706,0.0,1.0,0.0,0.0,1.0,Taxi
21.1,0.005217350081200075,8.625879606148146,13.894929368599998,0.19129842300462518,-0.41723893057709827,249.12062137235716,12.760300951481977,0.0,1.0,0.0,0.0,1.0,Taxi
21.200000000000003,0.012304473094776218,24.648799295444388,14.583825832917512,0.04861671308400464,0.029908852197540532,248.8706070349557,13.667176916716056,0.0,1.0,0.0,0.0,1.0,Taxi
21.3,0.1590152635644901,-7.778351334943475,13.722373297773558,0.039555959649794664,-0.7525290847653937,249.15393508343197,13.080382347284676,0.0,1.0,0.0,0.0,1.0,Taxi
21.400000000000002,-0.033674406593517274,12.840466363635192,13.308111421408055,0.03185158911939551,-0.6305190426466231,249.2230487222007,12.422915952793511,0.0,1.0,0.0,0.0,1.0,Taxi
21.5,0.0765068049129522,-14.576795009965458,14.92250199734449,0.32193029547649366,1.0057112484966402,249.00097371277798,12.43434756880875,0.0,1.0,0.0,0.0,1.0,Taxi
21.6,0.08613128851466285,1.0483081409259256,12.855943443105314,0.09555415237544593,-0.2571397281101444,249.1864177402507,12.347482295092831,0.0,1.0,0.0,0.0,1.0,Taxi
21.700000000000003,-0.028432865888887618,9.254805440277371,14.36608818272292,0.18575166708401075,0.04954650779631168,249.0401519224074,13.755098096377157,0.0,1.0,0.0,0.0,1.0,Taxi
21.8,0.12278083211433909,-14.412929281578174,13.511441601485549,0.4786751523432895,1.0810599416200501,249.0282451246403,12.49320536901776,0.0,1.0,0.0,0.0,1.0,Taxi
21.900000000000002,0.014066642106771993,-6.889572193912566,14.793882087249424,0.19987774778258433,-1.042993457634812,249.20134194829393,13.221803170580838,0.0,1.0,0.0,0.0,1.0,Taxi
22.0,-0.06288072685845043,-55.74173408733909,13.952117721388339,0.346190365132247,0.8046972323617473,248.93140950501947,12.879713094888267,0.0,1.0,0.0,0.0,1.0,Taxi
22.1,-0.15592783832235632,-19.035856892461947,14.319021120280306,0.13281193815656153,-0.6349823904425621,249.18165021957225,12.681200438657495,0.0,1.0,0.0,0.0,1.0,Taxi
22.200000000000003,-0.08111264235553771,52.293789785721,14.079454709318757,0.1853376367950138,-0.27869803069180416,249.06223214484055,13.187465758562501,0.0,1.0,0.0,0.0,1.0,Taxi
22.3,0.19858822207015459,50.98450268663216,13.420993300287849,0.013952709183638445,0.36452450865686187,248.85131897070812,13.144165224901492,0.0,1.0,0.0,0.0,1.0,Taxi
22.400000000000002,0.09899467511080451,29.31102007257019,13.294837503882285,0.33238911534934645,0.2105944489276148,248.99051192255365,13.124094819045027,0.0,1.0,0.0,0.0,1.0,Taxi
22.5,0.06544245800731323,-47.56458101313343,14.126536566804786,0.1365110571486309,0.10239258871052966,248.9903578742012,14.014276876916982,0.0,1.0,0.0,0.0,1.0,Taxi
22.6,-0.039234682995512526,11.200353305933055,13.187154762018475,0.4215729627548266,0.003649946417810846,249.11735152536426,13.671126984546811,0.0,1.0,0.0,0.0,1.0,Taxi
22.700000000000003,0.15499644164046983,-10.789513842651752,13.226490176051662,0.2948553419744926,0.22084250171783032,248.99663866951641,12.970877103245089,0.0,1.0,0.0,0.0,1.0,Taxi
22.8,0.011494888794054532,8.75773526631985,14.011033316502052,0.23387669111564835,-0.3925071414593736,249.08723782954655,12.762831497308792,0.0,1.0,0.0,0.0,1.0,Taxi
22.900000000000002,0.004553993336086798,-47.88599449347285,13.094377108299259,0.39662131414075685,0.1988300521620331,249.1243689643013,12.872694760030793,0.0,1.0,0.0,0.0,1.0,Taxi
23.0,-0.08443353082689437,-8.27122552118634,14.000048812259934,0.13885980182766067,0.13620230858643786,248.77909639336826,12.52860405501257,0.0,1.0,0.0,0.0,1.0,Taxi
23.1,-0.029861238811877105,10.166276250537692,13.994667623288498,-0.07460316536427458,-0.33371451750224695,249.04372403147272,13.202631047152227,0.0,1.0,0.0,0.0,1.0,Taxi
23.200000000000003,0.05538537458877533,13.340602471726356,13.879164857400752,0.5219091060033954,-0.12675819672570954,249.16912027167655,12.257966644409459,0.0,1.0,0.0,0.0,1.0,Taxi
23.3,-0.01773051846826253,-1.8891370795331053,13.35159685270972,0.2765582581338857,-0.18757833656403242,248.850979905116,12.801127099679483,0.0,1.0,0.0,0.0,1.0,Taxi
23.400000000000002,-0.03930692420954257,-7.457045207780031,13.963238266481493,0.06427161526277439,0.6658566726965555,249.22692415471363,12.432486936302565,0.0,1.0,0.0,0.0,1.0,Taxi
23.5,0.018100148549875218,20.733672900416284,13.564009855370967,0.1660190945923516,-0.6967979866102297,249.03564596169053,12.791103491372601,0.0,1.0,0.0,0.0,1.0,Taxi
23.6,0.08593784603381893,-0.4982258325972377,13.71328941812541,0.1948434994242321,-0.14414765335633084,248.9768363865452,12.971057994993934,0.0,1.0,0.0,0.0,1.0,Taxi
23.700000000000003,-0.04179805337252874,-6.7827146391373745,14.094862161098215,0.2237580550462671,0.17060551569210267,249.23331635641523,12.540808711272172,0.0,1.0,0.0,0.0,1.0,Taxi
23.8,-0.015813424645811622,-22.993954130718354,12.763174929453402,0.38462419050053887,-0.3645124548334656,249.21430428934832,13.093711616276797,0.0,1.0,0.0,0.0,1.0,Taxi
23.900000000000002,-0.02903192461977281,-10.857486686308158,14.177039589277406,0.057869949230763634,0.5963406147982734,248.9981676915295,13.814628506724098,0.0,1.0,0.0,0.0,1.0,Taxi
24.0,-0.09608548680406948,11.389646579005033,13.546456304854516,-0.0045132091321566925,0.8873507339586083,249.06123570782893,14.03470611751945,0.0,1.0,0.0,0.0,1.0,Taxi
24.1,0.04113480824921363,-28.343697552876222,13.880198471043094,0.12921760571919055,-0.17438814806553743,248.92048197297845,12.866864460802514,0.0,1.0,0.0,0.0,1.0,Taxi
24.200000000000003,-0.1707504123841538,22.590061157888147,14.83419428460188,0.29384511840716426,-0.9109083346410319,249.07878721037287,12.7624356996548,0.0,1.0,0.0,0.0,1.0,Taxi
24.3,0.016864818985371306,-21.459608882205213,13.523052052077162,0.1398570221128331,-0.477343493342724,249.08125703766405,13.510366060545113,0.0,1.0,0.0,0.0,1.0,Taxi
24.400000000000002,-0.0661632361618124,27.444526571039617,13.591265868240427,0.4548941931659018,0.3173270308157297,249.10871961421321,12.612450228300068,0.0,1.0,0.0,0.0,1.0,Taxi
24.5,-0.03352777952895571,-1.4426262911067493,13.27169030225312,0.1856546971321895,1.1063044020322181,248.98336915623656,12.709354074519489,0.0,1.0,0.0,0.0,1.0,Taxi
24.6,0.009651687529837596,-3.3501246488450085,14.176610170339552,-0.18333697399271104,0.5366964487666807,249.11698388455977,13.406299961040084,0.0,1.0,0.0,0.0,1.0,Taxi
24.700000000000003,-0.0829138594060374,17.212902623807256,14.262413868970427,0.25688592055242715,-0.09865913719284612,249.04922338815732,13.158528049064655,0.0,1.0,0.0,0.0,1.0,Taxi
24.8,0.05253673359008061,-14.035432414985147,14.933577281024096,-0.32468047564540725,-0.043010903665371615,249.02914926896244,13.559997833606051,0.0,1.0,0.0,0.0,1.0,Taxi
24.900000000000002,-0.06052547454508811,43.897239624635404,14.164377934227755,0.17818179238395443,0.5826433095648077,249.1797864735653,13.259030551531048,0.0,1.0,0.0,0.0,1.0,Taxi
25.0,0.13657233871713967,-19.268048099898547,13.97694548154856,-0.11158605486812667,-0.37950195707079043,249.1763907408656,13.769789536572107,0.0,1.0,0.0,0.0,1.0,Taxi
25.1,-0.04380350690941206,25.80058305196401,13.444322526516489,0.08300696947393768,-0.41500074118473723,249.2236654469831,13.097456935692877,0.0,1.0,0.0,0.0,1.0,Taxi
25.200000000000003,0.068477440714732,-9.587113057801805,14.007881990219909,0.1245996807114595,0.21167774250105537,249.01442792601392,13.622539134084747,0.0,1.0,0.0,0.0,1.0,Taxi
25.3,0.08863677342813069,10.418655935296478,13.769182724651213,0.4055807847537022,-0.12847690671813083,248.84252522091663,13.655819783179123,0.0,1.0,0.0,0.0,1.0,Taxi
25.400000000000002,0.008289772767070365,10.275179426130457,13.688469534335676,-0.23855253753580147,-0.24804253230285014,248.88256752341204,13.72352444497247,0.0,1.0,0.0,0.0,1.0,Taxi
25.5,0.11985333784538435,11.169638194830506,13.694425216975693,0.37788409055737,0.3953142431601557,249.0990087839374,13.088342152716555,0.0,1.0,0.0,0.0,1.0,Taxi
25.6,0.14448496440228328,-5.529009148875271,14.374762388856396,0.16119159022742263,-0.6134086176463395,249.17480658035947,13.257833313150327,0.0,1.0,0.0,0.0,1.0,Taxi
25.700000000000003,-0.01935527297730591,-41.59978675528745,14.185089082349453,0.3700444550900158,-0.009104451556720591,249.00687077793827,12.775393072411918,0.0,1.0,0.0,0.0,1.0,Taxi
25.8,-0.08814559593105285,-49.31669260362224,14.430850904282908,0.24886287415665428,0.7207669115693202,248.93744114659853,13.683752864937555,0.0,1.0,0.0,0.0,1.0,Taxi
25.900000000000002,-0.1020984986158279,19.256773046154038,13.871879748110876,-0.02905926328183811,0.28390431262675236,248.84145099647526,13.335651944335039,0.0,1.0,0.0,0.0,1.0,Taxi
26.0,0.07692859225346432,0.723911211573873,13.8860482819624,0.12080231934254115,-0.49208337507895206,249.11067551186886,13.133338919118072,0.0,1.0,0.0,0.0,1.0,Taxi
26.1,-0.08452603987318344,18.974013324782344,13.905858754184083,0.05566515970340158,-0.12551562539796535,248.8899336972138,12.899706040024013,0.0,1.0,0.0,0.0,1.0,Taxi
26.200000000000003,-0.007228431991916132,-12.934074140218286,14.301021951983508,0.11143273046433663,0.388315661678373,248.94051813375881,14.286931907272319,0.0,1.0,0.0,0.0,1.0,Taxi
26.3,0.012258221552372947,32.034192050364474,13.394117453898712,0.5056346937536028,-0.3505981487862547,249.09736325490542,13.726020926211483,0.0,1.0,0.0,0.0,1.0,Taxi
26.400000000000002,0.075644920378639,9.073316740033725,13.621978887366604,-0.04826435734872825,-0.4708225934359861,249.07329997485328,13.052218644101721,0.0,1.0,0.0,0.0,1.0,Taxi
26.5,0.03813815170825255,-31.757988546830692,13.909436162833188,0.5473801295204963,-0.36773983321992576,248.8929032338408,13.795314906396532,0.0,1.0,0.0,0.0,1.0,Taxi
26.6,-0.14653172118178046,-36.99637664986388,13.661529653283033,0.391916498006431,-0.2529337347241959,249.13581950687956,13.527393887651929,0.0,1.0,0.0,0.0,1.0,Taxi
26.700000000000003,-0.10933696287068032,-47.83393735766567,12.824132020031184,0.4377951096327912,-0.5602544991572392,249.0072185405353,13.597811092397864,0.0,1.0,0.0,0.0,1.0,Taxi
26.8,-0.20103153508007574,33.1112726120257,13.272631333364895,-0.227483348424249,-0.27421357088616755,248.87163566439767,12.978412113245481,0.0,1.0,0.0,0.0,1.0,Taxi
26.900000000000002,0.019024641878348125,-8.565163282351742,13.87189349162074,-0.044924484501456585,0.7852130652583723,249.08368012778624,13.208761589327638,0.0,1.0,0.0,0.0,1.0,Taxi
27.0,-0.15216277928243893,48.22107034001914,14.415366189493813,0.016943606055526694,-0.9220195414305135,249.00941641028464,13.055562543820228,0.0,1.0,0.0,0.0,1.0,Taxi
27.1,0.04007381662002005,-15.30201639132234,12.78109681038705,0.2490399918120362,-0.14925817693823495,249.11470164121397,12.007613988141202,0.0,1.0,0.0,0.0,1.0,Taxi
27.200000000000003,-0.05748544007826354,53.28609336102218,14.289890469302579,0.1416073468712246,-1.513550062903046,249.17856947046187,13.6342232176188,0.0,1.0,0.0,0.0,1.0,Taxi
27.3,0.11426768752267201,4.166086719870269,14.274640430545709,0.1481266492611199,-0.3812300296251702,248.9948899597082,13.223982987854052,0.0,1.0,0.0,0.0,1.0,Taxi
27.400000000000002,0.06090425021937143,3.223245210660115,13.507696919124752,-0.0027822345294244155,-0.5238571268313792,249.04896254829828,13.430839061819613,0.0,1.0,0.0,0.0,1.0,Taxi
27.5,-0.04136921402496292,-36.90649711760993,14.24936644515487,0.2017765161200111,1.0088945456115805,249.009726518668,12.697372442036864,0.0,1.0,0.0,0.0,1.0,Taxi
27.6,-0.07026479806537761,-27.986616408511225,14.357609858085716,0.11941467489085253,0.0832357564651434,248.94019673533808,13.015241406048938,0.0,1.0,0.0,0.0,1.0,Taxi
27.700000000000003,-0.07902883182318465,-21.70908760004471,14.237505631201168,0.25744081180165435,0.05571398730615226,248.9845465544429,12.264744001055162,0.0,1.0,0.0,0.0,1.0,Taxi
27.8,-0.14991465202518642,-3.2370769952473872,12.390579154878266,-0.2861287508258979,-0.7567402767622782,248.92972543156054,13.787970293511007,0.0,1.0,0.0,0.0,1.0,Taxi
27.900000000000002,-0.0864501830416145,35.07258776530793,14.375994088264441,0.16343137898029914,0.5310505476162374,248.918385532873,13.177193308399907,0.0,1.0,0.0,0.0,1.0,Taxi
28.0,0.09633410700335504,6.5303820370683825,13.791949457786743,0.24804318318123944,0.241674470301655,248.96611747532506,12.764428551347057,0.0,1.0,0.0,0.0,1.0,Taxi
28.1,-0.11726274183984449,12.841580326640326,14.202271972708562,0.5128495198995777,0.35785844914918613,249.03528564443616,13.401626046169408,0.0,1.0,0.0,0.0,1.0,Taxi
28.200000000000003,-0.022242281408412824,-16.682334115153406,13.138868404259243,-0.12806572807900474,0.9356926575047292,249.03501832511358,12.583597305425396,0.0,1.0,0.0,0.0,1.0,Taxi
28.3,0.012922436427588066,31.391881863598755,13.57712359185729,0.12078854717212181,-0.5841481538771046,249.0529455854321,13.962889266769595,0.0,1.0,0.0,0.0,1.0,Taxi
28.400000000000002,0.03969666747814935,-21.287771772029366,14.168183815819546,0.21720441461284573,0.22053118858886753,249.0483559362034,12.821980754019256,0.0,1.0,0.0,0.0,1.0,Taxi
28.5,-0.1286811402685596,-25.834065980320432,13.620446384590531,0.27868110204035557,-1.376584329098226,249.13060037967568,12.548974487416388,0.0,1.0,0.0,0.0,1.0,Taxi
28.6,-0.11624789347401401,-16.414330380496413,14.726732943540753,0.5545273340840032,-0.426757317480425,249.18968868334264,13.313812741019616,0.0,1.0,0.0,0.0,1.0,Taxi
28.700000000000003,-0.04237498442433263,24.547866774737415,13.694957660068233,0.02846366961775859,-0.0391475884520884,248.8949918259823,13.080682135202203,0.0,1.0,0.0,0.0,1.0,Taxi
28.8,-0.005941806394872431,4.733148404150938,13.689029137312513,0.13198180684157051,0.7994566617952867,248.93313427300257,12.979303635420576,0.0,1.0,0.0,0.0,1.0,Taxi
28.900000000000002,-0.09258215145325922,-2.1778893555939782,14.674910301176075,0.46063284841691593,0.5725920505031378,248.96066681137245,12.938977233489005,0.0,1.0,0.0,0.0,1.0,Taxi
29.0,-0.05326443120230243,12.762704779026881,14.327991426167035,0.10507574210309766,-0.06492251776467874,249.2762815037072,13.731529934536189,0.0,1.0,0.0,0.0,1.0,Taxi
29.1,0.05787171750026204,9.832452304368148,14.734902930073867,0.5296850979605234,-0.010396235348891246,249.13707397959092,13.029034910223391,0.0,1.0,0.0,0.0,1.0,Taxi
29.200000000000003,-0.04341988993141841,47.17524751723847,13.400867822094806,-0.2937042406534025,0.49023424488281125,249.0139513977607,13.274633802768479,0.0,1.0,0.0,0.0,1.0,Taxi
29.3,0.18261180638389,-26.367781226046954,13.42755324597501,0.17363531935342233,0.10098770578994952,248.96488947761782,12.51259082773633,0.0,1.0,0.0,0.0,1.0,Taxi
29.400000000000002,-0.07396718862997266,17.10786839579988,14.100363482483065,0.09761393251758894,0.3093974510520672,249.09790564152422,13.070515608657638,0.0,1.0,0.0,0.0,1.0,Taxi
29.5,0.042119452047581066,-74.75378693565692,13.172612212059462,-0.05752688649532145,0.5396424881077274,249.11959421776828,13.562719835112524,0.0,1.0,0.0,0.0,1.0,Taxi
29.6,-0.19115712829439452,42.326160841236124,14.329362780252795,0.47502584946794674,-0.6152649719253952,249.08255883013862,13.422921720886968,0.0,1.0,0.0,0.0,1.0,Taxi
29.700000000000003,0.13766361557620807,-7.3782333211727575,13.819855903718604,0.08817726411328503,0.6294064738571501,249.06365541920013,13.386819589119948,0.0,1.0,0.0,0.0,1.0,Taxi
29.8,0.005228285441717377,15.257116922010331,14.727952912869638,0.14393329761710566,0.3571084198487454,249.00957345103132,13.135675898573387,0.0,1.0,0.0,0.0,1.0,Taxi
29.900000000000002,-0.11487154368434278,-33.260695459720075,13.919836797702589,0.40029203199722574,-0.8538043186500529,249.0890045980675,13.37495035547086,0.0,1.0,0.0,0.0,1.0,Taxi
30.0,-0.02863986172239227,23.95641753767254,14.07343347577471,0.040991987187863566,0.9820510507849134,248.9765713566801,13.385130815980041,0.0,1.0,0.0,0.0,1.0,Taxi
30.1,0.12501037313008015,-30.013320568236725,14.168106025562654,0.14850859872226396,0.18655583716944996,248.9973519367935,13.923374392025249,0.0,1.0,0.0,0.0,1.0,Taxi
30.200000000000003,-0.26493814652552633,10.349686825127094,13.839549886498071,0.4729908471686739,-0.4158992150570528,249.00363427706532,13.37660098171386,0.0,1.0,0.0,0.0,1.0,Taxi
30.3,0.023108572403243315,1.4311869344083163,13.625269102355094,-0.017494726308872277,-0.34670686570051035,249.10124387983205,12.927100912569106,0.0,1.0,0.0,0.0,1.0,Taxi
30.400000000000002,0.13216630780212188,48.32815084598221,12.386368227587294,0.24200821706068018,0.10022774693751357,249.00953450596614,13.778791093835606,0.0,1.0,0.0,0.0,1.0,Taxi
30.5,-0.023297392295615192,13.068921298349016,13.684165506044772,0.2681716233918274,0.8434885856362448,248.90956600588106,12.869448008542454,0.0,1.0,0.0,0.0,1.0,Taxi
30.6,0.08845317889498848,-8.188450725204513,14.279595681708544,0.3457623824654368,0.12199938048497629,249.0322226342306,12.893190462461908,0.0,1.0,0.0,0.0,1.0,Taxi
30.700000000000003,0.0912240541760994,54.74804184849595,13.799609690564724,0.6187216309793193,-0.2341780585228073,249.00875806535032,13.046703696728885,0.0,1.0,0.0,0.0,1.0,Taxi
30.8,0.2504428169468647,-30.392681270603962,14.40282307427451,0.13435451435878837,-0.19841988967626353,249.02153385787642,13.262974688936538,0.0,1.0,0.0,0.0,1.0,Taxi
30.900000000000002,-0.06351022745803127,16.01286824680919,13.321479705012191,0.3044390573006408,0.0011452984754703216,248.8815726751858,13.415448200937758,0.0,1.0,0.0,0.0,1.0,Taxi
31.0,0.17128839541014543,-84.86244121246891,13.034671694048678,0.6208525546801729,-0.31427426368485534,248.84317160786236,12.989688174439756,0.0,1.0,0.0,0.0,1.0,Taxi
31.1,-0.17386938911547975,0.24769791307501995,13.570821335336525,0.3296434315239619,-0.15402404121423738,248.90599693808997,12.177281018451307,0.0,1.0,0.0,0.0,1.0,Taxi
31.200000000000003,-0.06227173789265609,-25.24934916515291,13.830747630738408,0.17267919294855344,0.43109902678955214,249.07238219274063,13.21909429112334,0.0,1.0,0.0,0.0,1.0,Taxi
31.3,0.04504164958438095,29.573112813662522,15.348657274205525,0.46073391416537357,0.4252208858793623,249.22207507091423,13.710402883575588,0.0,1.0,0.0,0.0,1.0,Taxi
31.400000000000002,-0.026003825047167084,9.9678579571636,14.474269682062072,-0.15259561342409822,0.6391719512456574,249.09983506070546,12.097723970674696,0.0,1.0,0.0,0.0,1.0,Taxi
31.5,-0.012432448106838028,-4.020770829041098,13.884167072889449,0.21731191232073763,-0.36107796438728174,249.07606809839433,12.454995178321433,0.0,1.0,0.0,0.0,1.0,Taxi
31.6,0.024937795439175493,-7.537039038352549,13.196495531772024,0.147644399903034,-0.16970829966460446,249.00215648274695,13.359597710522769,0.0,1.0,0.0,0.0,1.0,Taxi
31.700000000000003,-0.0636890202389298,10.766549941427845,13.030135127913557,0.5637517925075369,0.23099821285898922,248.99711024855662,12.962131866664052,0.0,1.0,0.0,0.0,1.0,Taxi
31.8,0.04140030160030123,-21.27873732135699,13.609439607135005,-0.028742595061732573,-0.4251984606734851,249.201044915769,13.079825072563336,0.0,1.0,0.0,0.0,1.0,Taxi
31.900000000000002,-0.08145589116760941,5.84141154205827,13.590244135354595,0.0874144247672514,-0.5781983279612606,249.07989921635306,12.552169931613749,0.0,1.0,0.0,0.0,1.0,Taxi
32.0,-0.0344819625286384,-9.349397670508447,13.110946638289985,0.1275208695857442,0.2488226145826919,249.03070264177165,11.856648924052507,0.0,1.0,0.0,0.0,1.0,Taxi
32.1,-0.005346686752240964,-9.256853043237006,14.791149693137752,0.29565948904362566,0.2276191658370952,249.0545982320375,12.654287353676487,0.0,1.0,0.0,0.0,1.0,Taxi
32.2,-0.1277401563837944,1.5573808497838233,14.009966611451619,0.4374396172446443,0.7815429292264556,249.1451280701914,12.749069261883456,0.0,1.0,0.0,0.0,1.0,Taxi
32.300000000000004,-0.02669505827971924,20.038461763194395,14.403716532136231,0.3397249738658178,-0.3646132054486779,248.98302154811574,12.600145119237828,0.0,1.0,0.0,0.0,1.0,Taxi
32.4,0.09484562206373107,28.07110091309509,14.715608818817472,0.3225461191313693,-0.31880878692230186,248.92914657356187,14.028689647740933,0.0,1.0,0.0,0.0,1.0,Taxi
32.5,0.01261534818168108,2.3785827521370897,13.155715132804117,0.1552458684040195,-0.5511825412456093,249.03330665426665,13.56989081288399,0.0,1.0,0.0,0.0,1.0,Taxi
32.6,-0.014802144519033764,-34.89085073095393,14.136850001616404,0.3048845509596786,-0.056788533821618345,249.02278442182637,13.547013945133795,0.0,1.0,0.0,0.0,1.0,Taxi
32.7,-0.07960863159103852,14.246726091609787,14.227834525769685,0.14314724904827036,-0.4603687190893903,248.91406084579137,12.638496061253544,0.0,1.0,0.0,0.0,1.0,Taxi
32.800000000000004,0.08384897863973008,8.598403721804663,13.982347077004725,0.39765992460231836,0.8573727640156287,248.88910779569096,13.366219557761047,0.0,1.0,0.0,0.0,1.0,Taxi
32.9,0.02818987408998962,16.667105686183724,13.21956269057534,0.4047328441937151,0.08097623137091839,249.0687183305106,13.58452674112001,0.0,1.0,0.0,0.0,1.0,Taxi
33.0,0.003726896839880177,0.0877180190740674,14.384604980363141,0.47781084681850594,-1.039392359996057,248.92394526546343,12.840413051388396,0.0,1.0,0.0,0.0,1.0,Taxi
33.1,0.08428756873510045,-21.71371630400977,14.164885213352052,0.1708853935635065,-0.276867643787311,249.09823083624076,12.964059152510274,0.0,1.0,0.0,0.0,1.0,Taxi
33.2,-0.08037870743005922,-4.944725078449719,14.74521931193362,0.1766209571070957,-0.2814378389387608,249.14426476528388,14.00203558983595,0.0,1.0,0.0,0.0,1.0,Taxi
33.300000000000004,-0.02099672855236841,-13.75295895244856,13.534362845445571,0.2559106618764151,-0.04544947535465398,248.97000890871936,12.84005164264182,0.0,1.0,0.0,0.0,1.0,Taxi
33.4,0.015522773972857649,7.7151361465952375,13.508545230594724,-0.07151593501109049,-0.6375394780056275,249.04772829382148,13.000999826721472,0.0,1.0,0.0,0.0,1.0,Taxi
33.5,-0.041803026697083,18.207691918034893,13.227626344550421,0.11331842822252729,0.5512112841817486,249.11150552839433,13.743547349743777,0.0,1.0,0.0,0.0,1.0,Taxi
33.6,0.07004173103780607,1.3024889204313699,13.325221466822518,0.3184272554634461,0.37387991901140216,249.2065480998284,13.020049711709811,0.0,1.0,0.0,0.0,1.0,Taxi
33.7,0.02203521857501452,23.02653597090298,13.207377923710428,0.48833987860979405,0.4504697732464664,249.10010142457895,12.447094647404922,0.0,1.0,0.0,0.0,1.0,Taxi
33.800000000000004,0.07332965315743191,7.704906816731836,13.71035026476907,0.2788522572964015,0.40123687775869826,248.8950095462494,12.964698226098028,0.0,1.0,0.0,0.0,1.0,Taxi
33.9,0.10856626512146528,16.148358877625373,14.168000906535422,0.4067522651804654,-1.3579074421219652,248.89877115065815,13.259293925194648,0.0,1.0,0.0,0.0,1.0,Taxi
34.0,0.1027770129631414,-12.02795109067569,13.570775482618833,0.26003574739333296,0.04611474796383666,249.1087416418601,12.33456057173914,0.0,1.0,0.0,0.0,1.0,Taxi
34.1,0.013189897704053483,22.40774109939636,14.197752760605534,0.5133255205954736,-0.17510492850795237,248.9621648226887,13.114942409534557,0.0,1.0,0.0,0.0,1.0,Taxi
34.2,0.2206049706184471,-21.692307269105683,13.84369200821683,0.2168616930715523,-0.7542797956415507,248.92962327556938,12.542060627453765,0.0,1.0,0.0,0.0,1.0,Taxi
34.300000000000004,-0.005684523382386964,7.346490152606417,12.780206675856974,-0.05565618475810685,-0.18674116220430298,248.92719541747817,13.320087483986065,0.0,1.0,0.0,0.0,1.0,Taxi
34.4,0.04992234846708561,-61.91414481200848,12.36285765999894,0.07820972139219035,-0.5792183710336264,248.8266926886597,11.981588476907513,0.0,1.0,0.0,0.0,1.0,Taxi
34.5,-0.08896575344159526,-8.702824173168011,14.262842874957714,0.3198871986342614,-0.19591984841126522,249.20837780873217,12.922790895234984,0.0,1.0,0.0,0.0,1.0,Taxi
34.6,-0.04919864424822701,13.264260261488042,13.926389686557004,0.042237996390779936,-0.5978259424057538,248.9597499480186,12.882995780469786,0.0,1.0,0.0,0.0,1.0,Taxi
34.7,0.11624364977452584,34.12391154259677,15.2387482980476,-0.06549692562673476,-0.07475978423887784,249.01481435133155,13.023370902569958,0.0,1.0,0.0,0.0,1.0,Taxi
34.800000000000004,0.08165380427138863,48.41896137980007,13.250052722295193,0.2721057474975679,0.4868740360784523,249.04086020781608,13.173814595670933,0.0,1.0,0.0,0.0,1.0,Taxi
34.9,0.1928961626507734,12.48645068110776,13.497599420728191,0.18784036304959234,0.15636430988398795,249.0951718872525,12.941126594367361,0.0,1.0,0.0,0.0,1.0,Taxi
35.0,0.17867590318006465,-18.842613449961718,13.47973564094491,0.02928835897004567,-0.9978707437681041,248.9966314126267,14.07713022762932,0.0,1.0,0.0,0.0,1.0,Taxi
