time_s,altitude_ft,vertical_speed_fpm,ias_kt,pitch_deg,roll_deg,heading_deg,throttle_pct,afterburner_on,gear_down,flaps_deg,speedbrake_pct,weight_on_wheels,label
0.0,0.024392649190907292,-27.568619770284545,15.65758747358481,1.3450056601939717,-0.9486763428333653,205.15925676814152,23.566895974272956,0.0,1.0,0.0,0.0,1.0,Taxi
0.1,-0.06750275004337453,-33.7307893924167,15.576888569856742,1.2020395118598264,0.5676917237781562,205.20390167193875,22.889379582480306,0.0,1.0,0.0,0.0,1.0,Taxi
0.2,-0.14426129777117622,-28.0347958206543,15.716019815936088,1.1300061303530171,-0.6111406250739876,204.92526456965152,23.920792566800746,0.0,1.0,0.0,0.0,1.0,Taxi
0.30000000000000004,-0.11578132991236421,-13.807864910525735,15.84989671023977,1.3416533465883616,0.1257272234513978,205.16250230476294,24.392844535183237,0.0,1.0,0.0,0.0,1.0,Taxi
0.4,-0.1365420745960032,44.336423968420924,16.47192342833308,1.6272425832850002,-0.02458086623465003,205.02847371001474,24.051392532160627,0.0,1.0,0.0,0.0,1.0,Taxi
0.5,0.07742082207092842,-3.68055287168824,16.660003376024417,1.1013182190643196,0.4955468251458373,205.17560928689056,24.15009033807774,0.0,1.0,0.0,0.0,1.0,Taxi
0.6000000000000001,-0.1341840942708054,17.12163315466883,15.871478814088805,1.3112077029685154,0.09606125863591819,205.07408395778134,23.154304661053597,0.0,1.0,0.0,0.0,1.0,Taxi
0.7000000000000001,-0.05093390882265904,7.748514038731628,16.13672608149645,1.7369741444746862,0.36278099342805564,205.17610201082073,24.28122163008649,0.0,1.0,0.0,0.0,1.0,Taxi
0.8,0.11616339226458657,58.38492259336291,14.709370495321032,1.4871718550657809,-0.349700156983578,205.1107532656905,23.556041888656456,0.0,1.0,0.0,0.0,1.0,Taxi
0.9,0.1577405186960091,46.447678570063495,16.235670931100632,1.5001705841492812,-0.913601882053119,205.11380451304626,23.87360405402775,0.0,1.0,0.0,0.0,1.0,Taxi
1.0,0.18130448402765842,-46.642635522354816,15.605791646386592,1.650818744024306,0.28824707813019607,205.086129024235,24.174282658011325,0.0,1.0,0.0,0.0,1.0,Taxi
1.1,-0.11704978534718752,16.41389367880845,16.443573754257233,1.193305821971625,-0.3254412097085599,205.0628520257585,24.53259948027923,0.0,1.0,0.0,0.0,1.0,Taxi
1.2000000000000002,0.23980998709005139,-33.43984800259904,16.075482552248026,1.3690542934535275,-0.3879122866114939,205.101287019923,22.95235363844632,0.0,1.0,0.0,0.0,1.0,Taxi
1.3,0.014105244014663263,17.97698240338951,16.049733557340975,1.5851881522595408,0.764309827379071,204.99565378895215,23.048454542937435,0.0,1.0,0.0,0.0,1.0,Taxi
1.4000000000000001,-0.02716487333023993,-62.94583200579151,15.283434604419863,1.531500337270787,0.3539834209639245,205.14145978964234,23.486030044256456,0.0,1.0,0.0,0.0,1.0,Taxi
1.5,-0.07491917293890617,10.344080271294843,16.947217299861908,1.6513946288812056,-0.1687243370052014,204.95174267826337,23.625442469565815,0.0,1.0,0.0,0.0,1.0,Taxi
1.6,0.06582564537113744,1.4535474730140738,16.70204462384338,1.4722496889081902,-1.5765376059764797,204.9775856435076,24.284934514993026,0.0,1.0,0.0,0.0,1.0,Taxi
1.7000000000000002,-0.0198971359651696,-5.907375302552571,15.377042151645316,1.7191093710069683,0.16907403860131404,205.1039809324834,23.205473626269836,0.0,1.0,0.0,0.0,1.0,Taxi
1.8,-0.10445604945166907,-9.301838133639398,15.934090563574696,1.4551862695105755,-0.15701050881545348,205.01208505745944,22.933621009663675,0.0,1.0,0.0,0.0,1.0,Taxi
1.9000000000000001,0.019316454702940408,-30.739002636370547,15.888446895969777,1.228307302301988,0.43673283094853244,204.9281501471437,23.20972007186993,0.0,1.0,0.0,0.0,1.0,Taxi
2.0,-0.17359214914702237,25.23718504502513,16.283091781442515,1.6397569932836207,-0.37385691446087654,204.9415942725384,23.23031506664791,0.0,1.0,0.0,0.0,1.0,Taxi
2.1,0.02172987577345657,0.5956622926041133,16.191589448988726,1.2575588931895334,0.40624927819362183,205.14183808551763,23.95553049993246,0.0,1.0,0.0,0.0,1.0,Taxi
2.2,0.02229476616596096,47.69600114214882,16.5314788758216,1.5571477475998101,-0.26434093203369874,205.06025886924397,23.195063840602877,0.0,1.0,0.0,0.0,1.0,Taxi
2.3000000000000003,0.06488785656372174,-13.389359215413785,16.160902773521883,1.389020882439968,-0.550745024860554,205.030059834251,23.918329957204268,0.0,1.0,0.0,0.0,1.0,Taxi
2.4000000000000004,-0.04521692030361239,-34.357754490788,16.787889677594315,1.222692983789364,-0.47591222189327714,205.0911858073432,22.652130169467565,0.0,1.0,0.0,0.0,1.0,Taxi
2.5,-0.14949400628797907,12.910749882592105,15.430766521452641,1.5663429404020168,-0.66253813008061,205.1960674110005,22.577609593880812,0.0,1.0,0.0,0.0,1.0,Taxi
2.6,0.12944160597668217,26.027853584716013,15.466720626108916,1.4958463422327508,-0.6015168016678345,205.18382791346812,24.263667029167657,0.0,1.0,0.0,0.0,1.0,Taxi
2.7,0.08492234761996756,22.411059094130184,15.914512816821741,1.0230220130294123,-0.7931656855304361,205.0842389038338,22.896890017781068,0.0,1.0,0.0,0.0,1.0,Taxi
2.8000000000000003,-0.037438710817328226,-20.94207688401668,16.15249253659596,1.3332365996984314,-0.12024693752336754,205.26537023410924,23.001920503889455,0.0,1.0,0.0,0.0,1.0,Taxi
2.9000000000000004,0.024731221556598734,-36.446230998043674,16.34655455894138,1.2400066805405927,-0.04671720634328976,205.29057678006347,22.528971462992796,0.0,1.0,0.0,0.0,1.0,Taxi
3.0,-0.09730880737025085,31.547106700811415,15.422570519011954,1.212622682030926,-0.0974922446642928,205.13128535635315,23.685750617916266,0.0,1.0,0.0,0.0,1.0,Taxi
3.1,0.12029682268672881,32.333110089597355,16.320051040396933,1.3914028908737008,0.32841697519644775,205.19348685168416,23.426462164838174,0.0,1.0,0.0,0.0,1.0,Taxi
3.2,0.18639677200458546,32.2616917718241,15.772092214578366,1.5433300170610371,-1.8791423076692373,205.2203472514368,23.36816072182821,0.0,1.0,0.0,0.0,1.0,Taxi
3.3000000000000003,0.06399965148886959,-5.847766498234686,16.272221724817463,1.3809611980775356,-0.5079266654703237,205.10538479382421,23.07849063381465,0.0,1.0,0.0,0.0,1.0,Taxi
3.4000000000000004,0.09105799019555534,-41.755302843807236,16.19178702782163,1.6657196339563973,0.026230992636398977,205.1171685047476,23.175794438512245,0.0,1.0,0.0,0.0,1.0,Taxi
3.5,-0.022379742214450736,-30.05592928260616,16.55687066800564,0.966597159021986,-0.7139445722067616,205.02589029826754,23.740661705913244,0.0,1.0,0.0,0.0,1.0,Taxi
3.6,-0.08627999492416126,-18.369683042509628,16.09116046352018,1.2636225314979352,-0.02011392256284203,205.10860042695288,23.246278862919027,0.0,1.0,0.0,0.0,1.0,Taxi
3.7,-0.0007904250169928315,-6.705230360776881,16.202351444383524,1.16227801712618,-0.3105523733147888,204.95566977126487,23.786616608120223,0.0,1.0,0.0,0.0,1.0,Taxi
3.8000000000000003,-0.05590589401833516,48.18196839501099,17.159307835098268,1.3465040877037973,0.28914892676491566,205.0885921713359,23.73858068217205,0.0,1.0,0.0,0.0,1.0,Taxi
3.9000000000000004,0.15462984705089367,-25.314817408643545,13.81164823277102,1.4417655541452132,0.07050709925846037,205.01024831849054,23.429176507537708,0.0,1.0,0.0,0.0,1.0,Taxi
4.0,-0.12736451206021057,22.39994109849582,16.662607652963793,1.3743019673529895,-0.24380714957620794,205.1505894822552,22.570558114499406,0.0,1.0,0.0,0.0,1.0,Taxi
4.1000000000000005,0.05609381147414391,-30.065517477097696,14.936142221095542,1.4808509680436175,0.02157052725672982,205.07481027731603,23.010144777524214,0.0,1.0,0.0,0.0,1.0,Taxi
4.2,0.004302259665405155,-4.198822195246819,15.067620631031328,1.5014085915581874,-0.2744716858593687,205.03017963913055,23.72209757182711,0.0,1.0,0.0,0.0,1.0,Taxi
4.3,-0.14835862303644476,-3.8946869464509652,16.540709479180475,1.5550845207299417,-0.16722427596753053,204.9706495299573,24.09840203886553,0.0,1.0,0.0,0.0,1.0,Taxi
4.4,0.036620376741889,4.4824069806080304,16.83292735397829,1.44364726819862,-0.07198283073756938,205.1299582960537,23.99335484020735,0.0,1.0,0.0,0.0,1.0,Taxi
4.5,0.02671429456844522,18.523747315926872,16.372832802439714,1.8648117655233345,-0.15730182665732856,205.03741933836432,23.20631836307209,0.0,1.0,0.0,0.0,1.0,Taxi
4.6000000000000005,-0.05573988645681049,11.067321635678097,16.296152730345632,1.6096857704994572,0.3911235012745981,204.9584059162903,23.631837171930115,0.0,1.0,0.0,0.0,1.0,Taxi
4.7,0.0919569849202794,-11.592943432407637,16.41711273068762,1.4955499569544364,-0.06519237942461803,204.9276523531462,23.257676212304254,0.0,1.0,0.0,0.0,1.0,Taxi
4.800000000000001,-0.03125042259359305,36.24498985303108,15.193707624869306,1.083910747973514,-1.3270464543089373,205.10733582424518,23.675094343962886,0.0,1.0,0.0,0.0,1.0,Taxi
4.9,0.12548506280834484,-15.194703110527962,15.577236185654714,1.4841711848255332,0.39877819389786456,205.09745261135004,22.37107629490266,0.0,1.0,0.0,0.0,1.0,Taxi
5.0,0.01598346936763952,-33.371675924185105,15.571710761483113,1.746254513448663,-0.3665951430035684,205.29594660454575,23.743035323901545,0.0,1.0,0.0,0.0,1.0,Taxi
5.1000000000000005,-0.19810880221451863,-22.785599365104485,16.09797152931642,1.6089304856380129,0.42161793096721445,205.09729492789563,22.586967287816044,0.0,1.0,0.0,0.0,1.0,Taxi
5.2,0.011557065982822327,-28.22423459743179,15.810925653411026,1.186852485452637,0.09087078654240337,204.90937683940479,23.91513220177652,0.0,1.0,0.0,0.0,1.0,Taxi
5.300000000000001,-0.12513770361951948,31.761839179048724,15.222967580313851,1.404764504121599,-0.11825195246362794,205.16514972370987,23.738124034494646,0.0,1.0,0.0,0.0,1.0,Taxi
5.4,-0.039299606319275045,-19.227124629992378,15.375444566277755,1.373544537158175,-0.34963293253158595,205.0435316522944,23.18716589509755,0.0,1.0,0.0,0.0,1.0,Taxi
5.5,-0.08457855716713962,14.902834976139784,16.326382821353004,1.3552824390818952,0.6081594523983422,205.2663862439997,23.282260594393897,0.0,1.0,0.0,0.0,1.0,Taxi
5.6000000000000005,-0.05062352873882064,5.862366997117157,16.129659629582992,1.5659847804036016,0.3438825617027611,204.9960091735527,23.60698638721205,0.0,1.0,0.0,0.0,1.0,Taxi
5.7,-0.009987771333689338,26.717714191936576,16.311438347325375,1.912836028117462,0.3182491325657822,205.14267530240966,22.898168627477922,0.0,1.0,0.0,0.0,1.0,Taxi
5.800000000000001,0.04901001379254318,-4.636123259051861,16.304628322567627,1.6338269079559322,0.5891229910052355,205.13058510464327,23.18097843766391,0.0,1.0,0.0,0.0,1.0,Taxi
5.9,-0.07380414503408005,6.430584772437174,15.118125904674558,1.3556298081027638,0.013262779886217647,204.99707695674192,22.779372001066942,0.0,1.0,0.0,0.0,1.0,Taxi
6.0,0.02216515252849643,10.539116759026514,15.206118622499513,1.6338530083363758,-0.297783708079343,205.04302558748736,23.189491371765932,0.0,1.0,0.0,0.0,1.0,Taxi
6.1000000000000005,0.10170559758767567,5.290470394656268,16.766798735796097,1.3782086181858342,0.05853870520327733,205.10809664764588,23.093128161038983,0.0,1.0,0.0,0.0,1.0,Taxi
6.2,-0.047351793060798765,-4.603047946092361,16.751403819964384,1.2055520307444265,-0.11333748177755361,205.057870202147,23.685122472071996,0.0,1.0,0.0,0.0,1.0,Taxi
6.300000000000001,-0.0008500872019654313,-33.21987956580341,15.24752032368965,1.603553414051178,0.5321089660373264,204.96531267352668,22.594120522954746,0.0,1.0,0.0,0.0,1.0,Taxi
6.4,-0.06439380024134143,16.875935822819248,15.766273969326928,1.4398479315226778,-0.28065501728044057,204.82862583736267,22.577205584622146,0.0,1.0,0.0,0.0,1.0,Taxi
6.5,0.0370278860532974,7.150511245522803,15.87834665259807,1.426374744501065,-0.4322621914236628,205.0492911339236,23.66686485764486,0.0,1.0,0.0,0.0,1.0,Taxi
6.6000000000000005,0.03490246902564851,-13.58905226747497,14.864534108476061,1.4627951660368912,0.2345476446636916,205.2117711565661,23.546492128072106,0.0,1.0,0.0,0.0,1.0,Taxi
6.7,-0.1323390615787164,-5.466689157880737,15.554312277767547,1.5964362543288084,-0.043898922434835584,205.12524409184584,23.27607996682261,0.0,1.0,0.0,0.0,1.0,Taxi
6.800000000000001,0.009694440263893631,10.560762664887319,15.340472168238222,1.0809967348465406,-0.6409374341063413,205.07098552594084,23.06504705882795,0.0,1.0,0.0,0.0,1.0,Taxi
6.9,0.08770628235008503,-19.66718731995553,16.085982192735653,1.3854619811541387,-0.12639309461776638,205.0952888837935,23.40620753608914,0.0,1.0,0.0,0.0,1.0,Taxi
7.0,-0.2306749981784941,1.9634014888908855,15.905436382696491,1.7069446396313563,0.23684119550907604,205.0962887098906,22.448760098374983,0.0,1.0,0.0,0.0,1.0,Taxi
7.1000000000000005,0.019511447708347958,-34.02140436686448,15.69700029930489,1.5250472808106503,0.0464444024678217,205.0634282268586,23.791449866708586,0.0,1.0,0.0,0.0,1.0,Taxi
7.2,-0.08240073948423748,32.825953495401336,15.55446624925436,1.3425898434389307,0.5865743279150953,205.00565510858792,23.170203019380935,0.0,1.0,0.0,0.0,1.0,Taxi
7.300000000000001,-0.06654523070148755,-21.257130054850204,15.452230446464785,1.4117222420351936,0.4793037133423597,205.061492397562,23.170437032145962,0.0,1.0,0.0,0.0,1.0,Taxi
7.4,-0.08677420256590312,15.273859514155824,16.219227508967133,1.8724986182725027,0.19967922113343733,205.20061711437586,23.96485172683964,0.0,1.0,0.0,0.0,1.0,Taxi
7.5,-0.0060314419134584124,-23.543702078727154,16.679643086637306,1.0526840562615998,0.6053276870519281,205.1883202701448,23.521451803946395,0.0,1.0,0.0,0.0,1.0,Taxi
7.6000000000000005,-0.18426374109512336,-5.046272459163558,16.192737951509677,1.5779573058199239,-0.08659185546885709,205.0456438758946,22.265993403256637,0.0,1.0,0.0,0.0,1.0,Taxi
7.7,-0.11200556486172096,-10.17744739008753,15.650198792298985,1.4770711782445773,0.5545251546863813,205.16955500774804,24.137084805720644,0.0,1.0,0.0,0.0,1.0,Taxi
7.800000000000001,-0.05691867886389612,30.57917757030148,15.706751683077353,1.1161426697466017,-0.3499951876074265,204.9672850835442,23.338192839349116,0.0,1.0,0.0,0.0,1.0,Taxi
7.9,-0.031367853243616045,9.575998410883578,15.750070105994714,1.2916894612906724,0.23412677089262743,205.009557008123,23.59712242254646,0.0,1.0,0.0,0.0,1.0,Taxi
8.0,-0.06412557280730313,-8.609152343990617,15.369695537231516,1.4175095086189329,0.1296394029269879,205.0938224992077,23.419267228565232,0.0,1.0,0.0,0.0,1.0,Taxi
8.1,-0.09996444058384926,-11.210956874278033,14.888988925485341,1.5235339538749813,-0.21757619149883958,205.09119913380016,22.458361185150945,0.0,1.0,0.0,0.0,1.0,Taxi
8.200000000000001,-0.08742263761500627,2.1251153448465288,16.877338273321506,0.9637808330279993,0.08083748641307846,205.04495949600175,22.548269833393615,0.0,1.0,0.0,0.0,1.0,Taxi
8.3,-0.05349999608307054,9.256808383864218,16.222552911554086,1.188263527762966,-0.2775699398367801,205.07358717142824,23.35790475346576,0.0,1.0,0.0,0.0,1.0,Taxi
8.4,-0.05368039866452822,25.65324556907755,16.295019836446063,1.5045004513484188,-0.192484276843565,204.97597782021717,23.06530724819082,0.0,1.0,0.0,0.0,1.0,Taxi
8.5,0.04084359023038142,11.550212529778298,15.66995987405157,1.1100705971699512,-0.23140907018927237,205.20688846280723,23.00384702723573,0.0,1.0,0.0,0.0,1.0,Taxi
8.6,0.004251066565820878,32.56356904061601,15.38233918544215,1.143255228693858,-0.2905675439218515,204.94577085374385,22.80765824732595,0.0,1.0,0.0,0.0,1.0,Taxi
8.700000000000001,0.10913744653855176,-10.887516531658813,15.521627375065432,1.3296587275258815,0.5406959090292257,205.02837784064275,22.651180375569425,0.0,1.0,0.0,0.0,1.0,Taxi
8.8,-0.013593992427912717,-15.8039345671887,15.742518197395384,1.4558797622234418,0.438313583127894,205.21852578450375,22.971730017435362,0.0,1.0,0.0,0.0,1.0,Taxi
8.9,-0.07476860627012269,-38.15580200022219,16.557353035100675,1.1858960186150531,-0.45082414791240405,205.08973605594394,23.923092383996323,0.0,1.0,0.0,0.0,1.0,Taxi
9.0,-0.08164156346255927,47.98494307953399,16.226863863860597,1.2449478556713358,0.19308795552590427,205.04254090079553,22.465458626689273,0.0,1.0,0.0,0.0,1.0,Taxi
9.1,0.22633072296975715,20.81201535787969,16.278604722251764,1.4410192416262024,0.8104429530139114,205.1095421886863,22.933232347557496,0.0,1.0,0.0,0.0,1.0,Taxi
9.200000000000001,0.029291470519275734,42.98270450630204,16.036972865676056,1.390286350789262,0.354504880822295,205.08712506176676,23.679750408717698,0.0,1.0,0.0,0.0,1.0,Taxi
9.3,0.13327195906895092,-36.211461363223464,15.37456565374954,1.5526860879261173,0.4822239415880277,205.19967071605106,23.747595200756013,0.0,1.0,0.0,0.0,1.0,Taxi
9.4,0.0452734161536398,-3.588045356251628,16.88997176105873,1.5643908746982085,-0.17491365758565397,205.09130280925876,22.728007670593033,0.0,1.0,0.0,0.0,1.0,Taxi
9.5,0.011351243738017571,-1.391455126500721,16.872347712494005,1.5718029387662902,-0.9353912524594706,205.1712811857616,23.522180693978868,0.0,1.0,0.0,0.0,1.0,Taxi
9.600000000000001,0.1263146834364473,-0.4796534322961534,15.757308840544402,1.353173526083824,-0.024382115720691107,205.26439370073228,22.71504667005329,0.0,1.0,0.0,0.0,1.0,Taxi
9.700000000000001,0.04287514899215902,16.43551165374436,15.413557734592727,1.4059758832190639,0.7960376089658524,205.1445712484567,23.398180002853685,0.0,1.0,0.0,0.0,1.0,Taxi
9.8,0.09352880200673935,-36.94018128481494,15.839986123914963,1.6944194445795135,0.06430166213030916,204.9231939225258,24.338938897887864,0.0,1.0,0.0,0.0,1.0,Taxi
9.9,-0.058386222987627426,17.82290938463198,16.629279370962227,1.5023438392431223,-0.06369422462180388,205.09083037504865,22.96717304258472,0.0,1.0,0.0,0.0,1.0,Taxi
10.0,0.13198969591531887,-2.9875741509224554,15.638830860676599,1.561580966029219,-0.2943910031597099,205.08426637780656,23.35961530781834,0.0,1.0,0.0,0.0,1.0,Taxi
10.100000000000001,0.07859093125212703,20.133270488776237,16.153891785787632,1.6169015546758867,-0.6184086635665904,205.06465975008587,23.513969883057097,0.0,1.0,0.0,0.0,1.0,Taxi
10.200000000000001,0.04228012945625373,-24.387414215681122,17.053907443227995,1.2165613244555002,0.40155257798001803,205.12949755524403,23.670108634671905,0.0,1.0,0.0,0.0,1.0,Taxi
10.3,0.010052624836913207,-18.463590268558704,16.065887827242378,1.0709530265116314,0.11517977506207615,205.17992221867883,23.0271743893596,0.0,1.0,0.0,0.0,1.0,Taxi
10.4,-0.013727020090666526,10.107011801688977,15.735089829671363,1.4726968787453167,0.11910456657353094,204.99824515590308,23.24465831863303,0.0,1.0,0.0,0.0,1.0,Taxi
10.5,0.09281518846469856,14.464065285620563,15.291604171384611,1.6809182572061352,0.05443518872889456,205.10657826894305,24.023529376626215,0.0,1.0,0.0,0.0,1.0,Taxi
10.600000000000001,0.08237295126501598,19.796224897912797,16.351115848332253,1.360114989615989,0.18239327673408867,204.95615211240602,23.607766479103073,0.0,1.0,0.0,0.0,1.0,Taxi
10.700000000000001,0.08525410439889743,-56.948034266010474,16.0863294512931,1.512229983975575,0.5346884275301862,205.0094700345669,23.3792648049997,0.0,1.0,0.0,0.0,1.0,Taxi
10.8,-0.19192498286535387,-43.20712625130697,16.13156440834631,2.005483579173158,0.40205973310670534,205.0553816684087,22.984618596030355,0.0,1.0,0.0,0.0,1.0,Taxi
10.9,-0.1336626799915189,-3.635104605340852,15.27968988362189,1.4851000901320721,-0.24465861357801033,205.21130372412802,23.961022918069197,0.0,1.0,0.0,0.0,1.0,Taxi
11.0,0.06707858137219312,52.90952911283592,15.845079943766734,1.3456858691301492,-0.5081264212054084,205.0866130405168,23.376348806353956,0.0,1.0,0.0,0.0,1.0,Taxi
11.100000000000001,0.07262266269882574,9.87889606051831,15.043518755210032,1.6222483603116304,-0.01543296963907295,205.17518295972422,23.369477008471787,0.0,1.0,0.0,0.0,1.0,Taxi
11.200000000000001,-0.08426819968892738,1.1901726727079354,14.510081341662715,1.3218690501439225,0.603619291605791,205.04291687885257,23.273172470568863,0.0,1.0,0.0,0.0,1.0,Taxi
11.3,0.07302944473573279,-25.548606806480894,15.874270320793144,1.4066571736054738,0.049100260596945194,205.2403207842732,23.83916281598923,0.0,1.0,0.0,0.0,1.0,Taxi
11.4,-0.055120371333578735,16.752483487066584,16.530298143378026,1.8742627093848245,0.9627656826257098,205.09779900853277,23.158086308123803,0.0,1.0,0.0,0.0,1.0,Taxi
11.5,-0.0005057822535944702,-19.22201582389724,17.25405585574999,1.2601506484239493,0.3398125157461909,204.98405301861874,23.209022686016148,0.0,1.0,0.0,0.0,1.0,Taxi
11.600000000000001,-0.023080634383753476,6.913377131270444,16.61361821343537,1.439246722590989,0.2944934558944994,205.09322429178883,23.60210419894544,0.0,1.0,0.0,0.0,1.0,Taxi
11.700000000000001,-0.020553485677226573,-28.874502956968218,15.80589452961096,1.5225082204552765,0.8678670735181974,204.99893200513327,23.294204958383265,0.0,1.0,0.0,0.0,1.0,Taxi
11.8,-0.1448782970384356,19.33982627975473,15.85381318558319,1.2434194888857717,-0.1052974672135644,204.9828216051294,24.24317024339562,0.0,1.0,0.0,0.0,1.0,Taxi
11.9,0.07361849701502012,-0.5641192632206753,15.411186190810517,1.4133457934792393,0.6692788551535902,205.11340380601848,23.71790772116455,0.0,1.0,0.0,0.0,1.0,Taxi
12.0,-0.023374081993329993,30.83369248716316,17.28268773682937,1.2741516084847588,0.29182360197679424,205.0972003691246,23.374947674395468,0.0,1.0,0.0,0.0,1.0,Taxi
12.100000000000001,0.009290165397380123,-17.469529170190143,15.98656416319526,1.4746453671983153,0.41001665985411484,205.1100048450421,22.97114409272668,0.0,1.0,0.0,0.0,1.0,Taxi
12.200000000000001,-0.013729148835930634,6.778258362761755,15.865072013936599,1.3068127733477306,0.2279491419656653,205.02108095523397,24.133520497828925,0.0,1.0,0.0,0.0,1.0,Taxi
12.3,0.010517209820478745,2.71038638714788,15.256245953690591,1.5147806493762437,-0.4968924788362325,204.91007549072447,23.751838149583026,0.0,1.0,0.0,0.0,1.0,Taxi
12.4,0.02284209733311949,30.120679624288417,17.333901182542178,1.950595355969156,-0.34575543320621815,205.18754581299652,22.893421673031163,0.0,1.0,0.0,0.0,1.0,Taxi
12.5,0.13687424928551142,-8.535399697858304,16.08835512464403,1.5344391992953081,0.008810266879198435,205.12074066520051,23.128277948078622,0.0,1.0,0.0,0.0,1.0,Taxi
12.600000000000001,-0.0321597886688128,-8.263253227145059,15.862386979439814,1.5267373649291058,-0.5923378440042012,205.20516953159427,23.02949112288201,0.0,1.0,0.0,0.0,1.0,Taxi
12.700000000000001,-0.018474168802605828,-11.26396042382053,16.477454848933345,1.186271364362001,0.3098289888861578,205.17788012013762,23.871379257104973,0.0,1.0,0.0,0.0,1.0,Taxi
12.8,0.08055444716640875,-9.636716235968459,15.974569867879842,1.552305763889457,0.25139611701267284,205.21587545319403,23.26016961295956,0.0,1.0,0.0,0.0,1.0,Taxi
12.9,-0.08034336984865512,22.618926819084663,16.459076039019568,1.4462410151138938,-0.9075845233031219,205.05044494749347,23.211746089962084,0.0,1.0,0.0,0.0,1.0,Taxi
13.0,0.09462046529281744,-45.61421075554998,15.957768121046405,1.418345581237998,-0.16575515369916394,205.14274795445363,23.114928542957475,0.0,1.0,0.0,0.0,1.0,Taxi
13.100000000000001,-0.1475166066113412,21.0858249200607,15.118416136121798,1.9292860346741287,-1.2144725622190653,205.02656699317447,23.158310093008392,0.0,1.0,0.0,0.0,1.0,Taxi
13.200000000000001,0.02508575475164835,-30.797881372774384,16.44972240039592,1.2947795662139194,0.5417918250252961,205.01076800800274,23.233454344681313,0.0,1.0,0.0,0.0,1.0,Taxi
13.3,-0.05936894157105445,48.792891671201126,15.806078882077069,1.368864741003977,-0.32155078705927603,205.12961877029818,22.77696554307624,0.0,1.0,0.0,0.0,1.0,Taxi
13.4,0.09644785174466446,14.834291522422319,15.872087017487143,1.3254963401819564,0.230015637382237,205.14681123997502,24.636622765550836,0.0,1.0,0.0,0.0,1.0,Taxi
13.5,0.09925721236375995,36.70344727495782,16.30754382050698,1.3251217513395825,0.024083810672256702,205.00954468108876,23.19217165446853,0.0,1.0,0.0,0.0,1.0,Taxi
13.600000000000001,0.12414829480373467,-3.036341780554776,16.11309590432238,1.2051969816787784,0.099579721266326,205.1717508906204,23.68033777566153,0.0,1.0,0.0,0.0,1.0,Taxi
13.700000000000001,0.08126614284189056,-19.916531417920712,16.496898201489152,1.8170413528342584,0.08294881422314869,205.10490316766652,23.153139607198774,0.0,1.0,0.0,0.0,1.0,Taxi
13.8,-0.00032544472584364174,-34.07264659796631,15.24217113556481,1.090236418955541,-0.45001411744525893,205.11231430456917,23.479320063533876,0.0,1.0,0.0,0.0,1.0,Taxi
13.9,-0.04621493818609693,-28.74044994243692,16.17905667750675,1.9658901444322379,-0.21338692482241822,205.22305798774983,23.221917911338945,0.0,1.0,0.0,0.0,1.0,Taxi
14.0,-0.062436106870294064,-3.341330154667267,16.644093474673063,1.4300002300252144,0.20758424799027494,205.09448212399138,23.31746543153093,0.0,1.0,0.0,0.0,1.0,Taxi
14.100000000000001,-0.017032095499179997,-0.36584795182960644,15.776743672723285,1.298423355484444,0.716746591626372,205.12290134878253,24.009844097238947,0.0,1.0,0.0,0.0,1.0,Taxi
14.200000000000001,-0.04804417794524497,17.1139205599271,16.186531172684745,1.213555198865823,0.1412247985086204,205.29007167400982,23.174131567679627,0.0,1.0,0.0,0.0,1.0,Taxi
14.3,0.023133495929341396,-17.194704874654335,15.788803873035585,1.525031243885505,0.6813850266796193,205.12738500436262,23.66209624234028,0.0,1.0,0.0,0.0,1.0,Taxi
14.4,-0.1030056198724517,17.36949781630991,15.469066617690823,1.3725984509745202,-0.37696115002282476,205.22752795225279,23.735599289835402,0.0,1.0,0.0,0.0,1.0,Taxi
14.5,0.03880331113630456,-8.237297229101282,16.132656211711645,1.2959851620287957,-0.4098921953856545,205.07660294292214,23.212572618231103,0.0,1.0,0.0,0.0,1.0,Taxi
14.600000000000001,-0.018052990216165025,33.33336709232899,15.73609417252205,1.4632325028072641,0.06977404437940034,204.98537333782133,23.17882546434194,0.0,1.0,0.0,0.0,1.0,Taxi
14.700000000000001,0.06366121558919323,-17.46155145618765,16.134095389967403,1.6208362752058625,0.04662570209379174,205.09067864761892,22.699007326228575,0.0,1.0,0.0,0.0,1.0,Taxi
14.8,-0.04850444614463374,14.162222040337008,15.709119192575669,1.3908392807907135,0.7949890546398147,205.0596874329583,22.86517318494822,0.0,1.0,0.0,0.0,1.0,Taxi
14.9,0.052758119985519984,-16.535514991904027,16.45366517839815,1.3715933121704615,-0.5204078928208767,205.1502111929732,23.481032929568418,0.0,1.0,0.0,0.0,1.0,Taxi
15.0,-0.019016359370326943,26.41798831352511,17.037273106534343,1.5549493487737673,-0.4886974709871692,205.25645046173383,22.928925989138087,0.0,1.0,0.0,0.0,1.0,Taxi
15.100000000000001,0.08358549542299179,-21.265748008011446,15.897927945486536,1.4604350389411893,-0.5117052545220411,205.16452761072208,24.891381072849367,0.0,1.0,0.0,0.0,1.0,Taxi
15.200000000000001,-0.05357062005453728,6.620785303805168,16.138339328408236,1.5422566831281033,-0.45989210711185285,205.15335534921792,23.17172470772854,0.0,1.0,0.0,0.0,1.0,Taxi
15.3,0.014087567148698877,-14.053788925311748,16.773998168240826,1.6448638596952985,0.5133608758740766,205.15816940923594,23.84683408475093,0.0,1.0,0.0,0.0,1.0,Taxi
15.4,0.013316550796433034,15.198486065896654,15.863800244205466,1.2951643867752767,-0.17313930594723134,205.04439199339788,23.298949443411715,0.0,1.0,0.0,0.0,1.0,Taxi
15.5,0.02242181027494597,25.101667435739845,16.794375297627173,1.0977050822530319,-0.9697419755334284,205.12097585321158,22.986035486714833,0.0,1.0,0.0,0.0,1.0,Taxi
15.600000000000001,0.13959590432739807,-7.555767494458479,16.54933117255347,1.4870216056522887,-0.3114868382440938,205.11201681541888,23.565176913731772,0.0,1.0,0.0,0.0,1.0,Taxi
15.700000000000001,-0.024462286675859368,-10.187466013205425,15.647511002766185,1.3517648012638857,0.10777284004251193,205.17356203629788,22.899139055342513,0.0,1.0,0.0,0.0,1.0,Taxi
15.8,-0.028515519791081176,-13.441258228147925,16.00840208361457,1.4314536830358922,1.4087374670622603,205.301876322118,22.856014240953563,0.0,1.0,0.0,0.0,1.0,Taxi
15.9,0.07238961318665844,5.985204711825372,15.699298503919206,1.2249515496221612,-0.18319385087236947,205.02085944046144,22.97119850804812,0.0,1.0,0.0,0.0,1.0,Taxi
16.0,0.005463736883267478,6.338957239064867,17.09506221471547,1.430364654229874,-0.13852893968553853,205.08179481534398,23.233907191066578,0.0,1.0,0.0,0.0,1.0,Taxi
16.1,0.003179266404243141,-24.720960012255386,16.468903163207393,1.5257423850666736,0.7435173418197177,205.09669407129422,22.87888202554627,0.0,1.0,0.0,0.0,1.0,Taxi
16.2,-0.05121518687461851,-13.748808451107324,15.482159695216108,1.414677277127773,0.35380210857690364,205.13983351115735,23.356276768579562,0.0,1.0,0.0,0.0,1.0,Taxi
16.3,-0.06328030537226917,-16.542544250495737,14.729300039069237,1.7646757702618492,-0.5222905158053748,205.13947535688237,23.580831427742815,0.0,1.0,0.0,0.0,1.0,Taxi
16.400000000000002,-0.07953345484823557,-0.6409876366622367,16.439984508676577,1.4813210736221603,-0.735829289130546,205.00047136320381,24.624960789717456,0.0,1.0,0.0,0.0,1.0,Taxi
16.5,-0.054420125057929716,1.9443985505006838,16.319868946474326,1.4246643361276672,0.3315673904256248,205.16134245270496,22.982622444235425,0.0,1.0,0.0,0.0,1.0,Taxi
16.6,-0.05355831261976577,2.862690512097886,16.135818110784488,1.733502667715816,-0.22855277178498995,205.14518133543606,24.466712108119733,0.0,1.0,0.0,0.0,1.0,Taxi
16.7,-0.06522000228774616,18.404076655096432,15.54154620728776,1.1477721829435836,-1.0003281593197901,205.01299635405735,23.323185277131486,0.0,1.0,0.0,0.0,1.0,Taxi
16.8,0.037600258217552425,11.267543702645868,15.775609991617177,1.636789667221158,0.24690257624598622,205.1203807649024,23.22208029021483,0.0,1.0,0.0,0.0,1.0,Taxi
16.900000000000002,0.0027794058934635583,17.668266400711115,15.91902135513094,1.3635559036109945,-0.7047527344319924,205.13873081722386,23.1184515886934,0.0,1.0,0.0,0.0,1.0,Taxi
17.0,0.023121329715809404,-3.787277458334597,15.585190316230587,1.0675340226619983,0.41046596679813324,204.9479910242096,23.17075460949682,0.0,1.0,0.0,0.0,1.0,Taxi
17.1,0.01866387092587942,3.038008734734419,17.064415538442336,1.113085601563321,-0.5602545871924606,204.9667733418338,24.117204827743354,0.0,1.0,0.0,0.0,1.0,Taxi
17.2,0.017969449567135632,19.77132054846317,15.802182713526628,1.428386784756008,-0.4899235623933234,205.07873430601944,23.621748723993676,0.0,1.0,0.0,0.0,1.0,Taxi
17.3,0.12197793245812522,-11.442674625859189,16.01936679581872,1.8839964057521512,-0.1553219678127387,205.00447490103397,23.56364509760724,0.0,1.0,0.0,0.0,1.0,Taxi
17.400000000000002,-0.03854950220341655,-10.618407281330091,16.86385416422242,1.4083879985471135,0.463789081581046,205.14067643982287,22.99962300252754,0.0,1.0,0.0,0.0,1.0,Taxi
17.5,-0.03512258683951485,-33.858276986275705,16.081208330261475,1.6911531819168146,-0.31970870828929654,205.17617100250345,22.948167707289443,0.0,1.0,0.0,0.0,1.0,Taxi
17.6,-0.04731345247325332,-3.5875064356492454,16.507936866044574,1.4754889328049194,0.2531626652193668,204.90218753222405,22.994380839345652,0.0,1.0,0.0,0.0,1.0,Taxi
17.7,-0.0564870343816628,30.13978262290578,16.120107723112106,1.2515515538334383,-0.2085207994101123,205.02783528052032,23.841847345109056,0.0,1.0,0.0,0.0,1.0,Taxi
17.8,0.11557632627501402,15.798503499511527,16.213417320257392,1.597649849565521,-0.149530149672951,205.08785577838046,22.933602496908318,0.0,1.0,0.0,0.0,1.0,Taxi
17.900000000000002,0.031679065024304294,13.695422710888487,16.058780226344798,1.637984885190133,0.5017844110899775,204.82740249368874,23.501573143945265,0.0,1.0,0.0,0.0,1.0,Taxi
18.0,0.011990079172779626,-21.357149016363522,16.673395742236778,1.0773367736495072,-0.6663381643605961,205.26341239363546,22.934765370275628,0.0,1.0,0.0,0.0,1.0,Taxi
18.1,0.008790581193196418,-6.990580068597869,16.359844896451484,1.7636458112537756,-0.7374579601873805,205.13178790898746,23.089891357440404,0.0,1.0,0.0,0.0,1.0,Taxi
18.2,-0.0032738353186850637,9.597987882044904,16.329035316578153,1.3038927586354607,0.2842624009786194,205.0815917344014,23.92877845314084,0.0,1.0,0.0,0.0,1.0,Taxi
18.3,0.05998001858300413,10.479215432012717,16.19064568298098,1.4007358515890245,-0.39212361604964546,205.13145517667294,23.759364556240826,0.0,1.0,0.0,0.0,1.0,Taxi
18.400000000000002,0.061186658353259975,27.37215595720632,16.31738234779356,1.359673912327518,0.6338280222086753,205.12893982880587,23.385077130691325,0.0,1.0,0.0,0.0,1.0,Taxi
18.5,0.1335869444673465,-27.531457027743258,14.581312934083995,1.0374883924275498,0.19622859085177874,205.20318971339952,23.422840686201713,0.0,1.0,0.0,0.0,1.0,Taxi
18.6,-0.07767726655571221,-24.2193984904462,16.31858714326615,1.3753571460523797,-0.10590088476953248,205.1457312324436,22.358302490278344,0.0,1.0,0.0,0.0,1.0,Taxi
18.7,-0.05991033409897108,-10.199233496991098,15.628305037172954,1.4658318482377029,1.1132443021228462,205.0028433405888,23.10210253130973,0.0,1.0,0.0,0.0,1.0,Taxi
18.8,0.08259077698239098,16.087011178264962,16.466965917957047,1.4814386313743275,-0.05775186191267952,205.13814124653754,23.672464853440783,0.0,1.0,0.0,0.0,1.0,Taxi
18.900000000000002,0.0027577893356125803,21.936073959120666,15.631667187426006,1.0729345413003306,0.662717080265218,205.08577225919544,23.621394629162495,0.0,1.0,0.0,0.0,1.0,Taxi
19.0,0.04977003569663225,16.507657894228497,16.693919681654535,1.3992485415315887,0.2675510709883421,204.94077405959058,22.42572440031455,0.0,1.0,0.0,0.0,1.0,Taxi
19.1,0.16512906645353342,13.871198306258814,15.854276119461703,1.5094212908760851,0.11409503270098015,204.96140076313384,23.794742308799655,0.0,1.0,0.0,0.0,1.0,Taxi
19.200000000000003,0.0721137808669066,-28.03643268060664,16.506891915445603,1.5431880549760972,-0.7416848111267027,205.24102644221887,24.060327376843812,0.0,1.0,0.0,0.0,1.0,Taxi
19.3,-0.090412127706401,-25.005664129202984,15.291552396297199,1.238470131108056,-0.4684937750470864,205.1646762696148,23.496767728513117,0.0,1.0,0.0,0.0,1.0,Taxi
19.400000000000002,0.04010074580751851,3.4679872705225647,16.56301332950206,1.4830359183605928,-0.5110663855181485,204.93336527994575,23.8768844393608,0.0,1.0,0.0,0.0,1.0,Taxi
19.5,0.08945371721951943,65.8150204245172,16.156299497634414,1.1689073616701717,0.41231491705506235,205.18589484453037,23.572608370483756,0.0,1.0,0.0,0.0,1.0,Taxi
19.6,0.23866297441618498,-4.732994704040128,16.51010590078053,1.6978939434950573,-0.7072232068898991,205.1192004118792,24.059074524867256,0.0,1.0,0.0,0.0,1.0,Taxi
19.700000000000003,0.01643577228731782,-15.696444891541711,16.14310235631349,1.5558683834063443,-0.2654450950593445,205.09882539929265,23.281533535065737,0.0,1.0,0.0,0.0,1.0,Taxi
19.8,0.010971492761810829,-39.544523022836806,15.860664218564732,1.7386351272403984,-0.267023301777275,204.96167557677848,23.630370594543592,0.0,1.0,0.0,0.0,1.0,Taxi
19.900000000000002,0.040940359302000885,-18.514394522023583,15.187698532325788,1.4292631499182975,0.23244982295628883,204.94553491431668,22.86075559963819,0.0,1.0,0.0,0.0,1.0,Taxi
20.0,-0.07613620032280012,-24.519656862925288,15.664218091590172,1.2540898710968764,-0.09804003391772438,205.04392043170446,23.419985890161833,0.0,1.0,0.0,0.0,1.0,Taxi
20.1,-0.11162679155281563,-20.26376807123945,16.475775001141265,1.6193898392266821,0.06489174028493847,205.0923735521967,23.208835545936417,0.0,1.0,0.0,0.0,1.0,Taxi
20.200000000000003,-0.06037848105419638,15.7455889756247,15.959662544111568,1.4682429587979304,-0.8252657136856512,204.99493195476168,23.578892342916983,0.0,1.0,0.0,0.0,1.0,Taxi
20.3,0.0025917445553233645,57.32258279147997,16.73849767747755,1.5000532971718576,-0.5175209254072368,204.98560615037002,23.38692556324886,0.0,1.0,0.0,0.0,1.0,Taxi
20.400000000000002,0.17498612240458422,16.778303379450623,16.077893931390765,1.6410178128003183,-0.6781039095193527,204.93168203758114,23.777742980977802,0.0,1.0,0.0,0.0,1.0,Taxi
20.5,0.023513035843056723,-39.75513031159321,15.458889039307243,1.673687878894429,-0.23664394709428208,205.07891140685183,23.293744545849005,0.0,1.0,0.0,0.0,1.0,Taxi
20.6,-0.1961839070026427,-68.88079647862408,17.085031804913736,1.4470489984445916,-0.6298439056204859,205.11018927447492,23.303072052728126,0.0,1.0,0.0,0.0,1.0,Taxi
20.700000000000003,-0.1694178599885362,28.784776079656698,15.567989647973043,1.6323931898563155,0.5448566400740684,205.17542109933356,23.141661925087416,0.0,1.0,0.0,0.0,1.0,Taxi
20.8,0.16743691624134016,41.40711669410816,16.843955050477653,1.6488401369559968,-0.9957279280767086,204.95182621178026,22.883486099138658,0.0,1.0,0.0,0.0,1.0,Taxi
20.900000000000002,0.010851676467898062,65.55919609598062,16.226505621994622,1.3862565196879988,0.4011082934405182,204.98173258663974,23.45997497000595,0.0,1.0,0.0,0.0,1.0,Taxi
21.0,0.15837812049136685,-12.170787864112569,15.419641196182626,1.3249888873479387,0.0012207913797736413,205.19736141408112,23.578574780659626,0.0,1.0,0.0,0.0,1.0,Taxi
21.1,0.10658297692077728,-65.52873297369716,16.099233981176738,1.6841286580638009,-0.010481878553144409,205.30507344601676,24.24765065039608,0.0,1.0,0.0,0.0,1.0,Taxi
21.200000000000003,-0.31679198840058775,-35.585159636996174,15.61421832528044,1.1889920972616652,1.3903287811913645,205.0988081699793,23.59609415278388,0.0,1.0,0.0,0.0,1.0,Taxi
21.3,-0.019547677693614016,-54.34315585023074,14.757996145576374,1.3103991873779584,-0.5890587938173594,205.12979934753662,22.827848707348164,0.0,1.0,0.0,0.0,1.0,Taxi
21.400000000000002,-0.16513280233037636,49.515215723522964,16.24690447713016,1.4622382545796095,-0.6185097692288621,205.00720226411454,23.799065422413033,0.0,1.0,0.0,0.0,1.0,Taxi
21.5,-0.06921590978297297,38.33552375051219,17.113169093645798,1.5939867033871167,-0.10665888413300245,205.2805552985759,23.019133207931805,0.0,1.0,0.0,0.0,1.0,Taxi
21.6,0.17212994105894686,21.188599326932444,17.168474507415027,1.381255622591345,-0.1614441409762779,205.13503038429553,23.61957060533845,0.0,1.0,0.0,0.0,1.0,Taxi
21.700000000000003,-0.05918980569571426,40.14987384590671,15.000897963457508,1.6427865735215752,0.1393753289279496,205.0364186845925,23.174352990947977,0.0,1.0,0.0,0.0,1.0,Taxi
21.8,0.13153345944656045,-13.623183058967777,16.36762005492061,1.7444603191012966,0.15452995360818966,205.0770104901751,23.676920877677105,0.0,1.0,0.0,0.0,1.0,Taxi
21.900000000000002,0.10401402576410788,37.59043187819762,17.104785659345676,1.3934679392536409,-0.15410782105656567,205.1361868529549,22.397788944884113,0.0,1.0,0.0,0.0,1.0,Taxi
22.0,0.12876235369527375,-27.046858824254603,16.301400329606803,1.371174175849722,-0.8746168160651608,205.07161868126627,23.180014904423462,0.0,1.0,0.0,0.0,1.0,Taxi
22.1,-0.0037008346747126318,-22.274956952428727,16.2749660681338,1.1306437551042212,-0.5252459900635412,205.1673779315488,23.592916423953156,0.0,1.0,0.0,0.0,1.0,Taxi
22.200000000000003,-0.007360758998035838,8.491571162339406,15.326607935876158,1.3415126304647842,-0.2180385047915772,205.06095834675568,22.994003898660292,0.0,1.0,0.0,0.0,1.0,Taxi
22.3,0.1712202095069707,-4.895267622421419,16.148024879918555,1.2918028327404236,-0.16781880214660885,205.0621379763245,22.96656904661197,0.0,1.0,0.0,0.0,1.0,Taxi
22.400000000000002,-0.028177172786819818,-15.99210024457512,15.894545758662101,1.629899004480054,1.1328562342561155,205.0694609896898,22.97881491247368,0.0,1.0,0.0,0.0,1.0,Taxi
22.5,-0.08732126022091152,-19.373195648458772,16.117018535472464,1.3559032283618917,0.1366229991973475,205.06640520736892,22.70160787798194,0.0,1.0,0.0,0.0,1.0,Taxi
22.6,0.07435423126467679,-3.864229834213807,15.54010117251461,1.222063528244778,0.44065449256800826,204.98860400927947,22.41795839014665,0.0,1.0,0.0,0.0,1.0,Taxi
22.700000000000003,-0.04749832195788886,-9.178178053591088,15.37454862267605,1.5227805934741319,-0.21659879725778164,205.1975162304974,23.095740538104586,0.0,1.0,0.0,0.0,1.0,Taxi
22.8,-0.13321215048886698,-26.01359600710066,15.547603648190075,1.3727728509082011,-1.1699739210200875,204.99793433676268,22.66099079018974,0.0,1.0,0.0,0.0,1.0,Taxi
22.900000000000002,-0.055713748770826556,-8.323723227050097,17.193878839179867,1.6240611491826873,-0.936860833223635,205.072414990104,23.289760317878013,0.0,1.0,0.0,0.0,1.0,Taxi
23.0,-0.0891169380931394,8.907575967616289,15.23974342647112,1.3793116316973322,0.22127258282251636,205.08271617912078,23.974584562999567,0.0,1.0,0.0,0.0,1.0,Taxi
23.1,-0.08867427065078559,10.126582743259602,15.460591240648222,1.1487439124800112,0.037287022920934526,205.06740074441757,22.866416281510908,0.0,1.0,0.0,0.0,1.0,Taxi
23.200000000000003,-0.005080835054528596,20.00754893266192,15.916778629772734,1.216820760008484,0.17449264163949568,205.07022654554157,24.18228574493886,0.0,1.0,0.0,0.0,1.0,Taxi
23.3,0.010920806570170138,6.971435320673751,15.745955514477957,1.1157020132298332,-0.007384737641440528,205.07599686873948,23.617277427031944,0.0,1.0,0.0,0.0,1.0,Taxi
23.400000000000002,-0.05381709404741689,29.460878162112994,16.616965582301,1.2264641099396183,0.07537920550413782,205.11858459551877,22.877757592946555,0.0,1.0,0.0,0.0,1.0,Taxi
23.5,0.14222355575603632,-9.079199074963611,16.06323669357181,1.5477882613826457,-1.0250702831945813,205.09552883586798,23.098867616377714,0.0,1.0,0.0,0.0,1.0,Taxi
23.6,-0.03447518880464798,-23.964931073691712,16.00182654687742,1.4309739304731588,0.11170825903692636,205.22196048238652,22.50168241288668,0.0,1.0,0.0,0.0,1.0,Taxi
23.700000000000003,-0.17364174941587548,-36.487295427295585,15.616065613725684,0.9565417935087694,-0.48306956306697724,205.194760792691,23.703556951360923,0.0,1.0,0.0,0.0,1.0,Taxi
23.8,-0.040212921380441656,31.00423381573701,16.955676746284038,1.565090123496745,0.02738419358939228,205.07680543971242,22.79357013162511,0.0,1.0,0.0,0.0,1.0,Taxi
23.900000000000002,0.12054598027403705,62.711162738727985,15.566007622628643,1.3966874606586304,0.032840345322052315,205.09598343812797,22.99957133509536,0.0,1.0,0.0,0.0,1.0,Taxi
24.0,0.1399140642777644,28.28447384392601,17.155942759106892,1.594045761549941,0.09666881566047669,205.0082484480837,23.208281774333173,0.0,1.0,0.0,0.0,1.0,Taxi
24.1,0.10120944783918835,4.151388634427519,16.41155109723644,1.402389514998752,-0.1355581308631912,205.08179525826085,22.80069469711046,0.0,1.0,0.0,0.0,1.0,Taxi
24.200000000000003,0.14130292344617462,10.613331197796095,17.10992164639306,1.411931401247888,0.4651842080446372,205.11984041182097,22.07635103987227,0.0,1.0,0.0,0.0,1.0,Taxi
24.3,0.19298072026674484,33.785123770967395,16.102715505045577,1.461534511142657,0.5796209806791556,205.08093336803188,23.64365912430348,0.0,1.0,0.0,0.0,1.0,Taxi
24.400000000000002,0.2701350666940253,-2.0207225504092983,16.023037864103895,1.8177978533094086,0.2406487157523741,204.90176715899167,23.76440583584638,0.0,1.0,0.0,0.0,1.0,Taxi
24.5,0.1311993106941281,-47.46611968436409,16.0341210196625,1.4280778725216343,-0.18152406955190117,204.97060660307773,23.18836341332828,0.0,1.0,0.0,0.0,1.0,Taxi
24.6,-0.044349878155075635,-54.55221262084103,15.272120618202297,1.545435509181488,-0.08656886483837596,205.208535861163,23.76786376865899,0.0,1.0,0.0,0.0,1.0,Taxi
24.700000000000003,-0.0026259964101799137,-52.13259049447853,14.195763162606877,1.5009687232053592,-0.47138842808526904,204.93956937970972,23.084619846897386,0.0,1.0,0.0,0.0,1.0,Taxi
24.8,-0.12946364177826458,-4.103670096405011,14.602668658358711,1.2540649738175191,0.17661803403834148,205.1688482496561,23.266135742821128,0.0,1.0,0.0,0.0,1.0,Taxi
24.900000000000002,-0.06486822863710075,27.709387642079662,15.50847350742421,1.631190450148738,0.13653108515334922,204.98511682287392,23.250715236694962,0.0,1.0,0.0,0.0,1.0,Taxi
25.0,0.13592094180021835,39.32869859103702,15.842294384850192,1.642812849578862,-0.017008081863856005,204.9967147150669,23.670382363767366,0.0,1.0,0.0,0.0,1.0,Taxi
25.1,0.06717985117692044,40.625437249462905,16.54971740069318,1.6222762453781896,0.33640281769236935,205.12358108807598,24.15574445728965,0.0,1.0,0.0,0.0,1.0,Taxi
25.200000000000003,0.13825895761021376,-9.68002599146258,16.455534280592595,1.606885544215322,-0.8321821722855295,205.10423004230677,23.815467331032508,0.0,1.0,0.0,0.0,1.0,Taxi
25.3,0.0875208118429054,-18.346119161958498,15.995272302240217,1.3128014594385968,0.2770306972813991,205.07526939209424,21.928203375536363,0.0,1.0,0.0,0.0,1.0,Taxi
25.400000000000002,-0.024550744632872084,-80.54517738775759,15.2320076348257,1.720981580776934,0.11871544767290573,205.0396022924167,23.079783694916582,0.0,1.0,0.0,0.0,1.0,Taxi
25.5,-0.2644669293285742,-28.551860149326142,16.526118330793885,1.2340631843042973,-0.09590861813568598,205.16174430609,23.98339217757591,0.0,1.0,0.0,0.0,1.0,Taxi
25.6,-0.05523848890372532,31.512465725195568,15.335840546172795,1.1857285398213846,0.5412405260909091,205.06718862394848,23.688782932009666,0.0,1.0,0.0,0.0,1.0,Taxi
25.700000000000003,0.13301158399310573,80.9935389634745,16.231917691981927,1.4918330554692245,-0.019600700681736017,205.08403933930776,22.562424010193155,0.0,1.0,0.0,0.0,1.0,Taxi
25.8,0.14050076548879828,20.67463340539287,15.79790213767776,1.311057626468544,-0.7557338165122099,205.25124790078326,23.40162001624235,0.0,1.0,0.0,0.0,1.0,Taxi
25.900000000000002,0.04813467812323898,-33.21520219105262,14.976930407214143,1.2942568401767212,0.21557914058150685,205.1136475980859,22.756453603396597,0.0,1.0,0.0,0.0,1.0,Taxi
26.0,-0.03306442696215742,-48.54120439491049,16.44078584078859,1.441986198973014,-0.34038101407898,205.21370868990618,22.59144101756949,0.0,1.0,0.0,0.0,1.0,Taxi
26.1,-0.10220525648575417,-21.51688815545437,15.154223717918782,1.3177227278770713,-0.38712498831555453,205.13929610374817,23.0946826594144,0.0,1.0,0.0,0.0,1.0,Taxi
26.200000000000003,-0.05944976265403295,-0.2105754511105046,15.901839804647981,1.6890086321963986,0.42936551607184903,205.0007112393463,22.865876745315777,0.0,1.0,0.0,0.0,1.0,Taxi
26.3,-0.03411730421771,13.918397040885736,16.020048196433514,1.3546897965057636,-0.3978274364616494,205.05373604523697,23.466242920129122,0.0,1.0,0.0,0.0,1.0,Taxi
26.400000000000002,-0.03261327128132553,18.27930527163659,15.974094640404148,1.4066296578843291,0.02423021327603113,205.11431957557522,23.4781263375476,0.0,1.0,0.0,0.0,1.0,Taxi
26.5,0.031946763704149964,-0.9310654505995283,15.918811964300598,1.1752638803797233,0.19639448497203082,204.96497126263432,23.465550925063,0.0,1.0,0.0,0.0,1.0,Taxi
26.6,-0.03877263147070769,-33.594079329519175,15.456817236479623,1.2279404529310358,0.059426434550699424,205.23348054565963,23.858066795704158,0.0,1.0,0.0,0.0,1.0,Taxi
26.700000000000003,-0.20058366792892146,6.666500494508777,15.41014134579104,1.5616248771370584,-0.2552945006635445,204.99525940055673,23.770112412218047,0.0,1.0,0.0,0.0,1.0,Taxi
26.8,0.06527926617669376,21.29412679824983,16.37584421165159,1.7177370522311164,0.5712221089567779,205.0763128269283,22.61586392201281,0.0,1.0,0.0,0.0,1.0,Taxi
26.900000000000002,0.0676980025205414,56.838128036867005,16.679798760323994,1.6055220539914674,-0.9002549318467242,205.02102021926692,23.76974597814732,0.0,1.0,0.0,0.0,1.0,Taxi
27.0,0.08360697225541353,14.925305414611993,15.681643585641092,1.3418871776332728,-0.6202703656937877,205.19877840342087,23.025809415421772,0.0,1.0,0.0,0.0,1.0,Taxi
27.1,0.13990579324975372,10.314496175985665,16.005384423204994,1.486271891959339,-0.5069210073859082,205.05171612524066,23.297329804628927,0.0,1.0,0.0,0.0,1.0,Taxi
27.200000000000003,0.11927048340046971,-26.065086788015496,15.790396157411017,1.4528020554914067,-0.43101624752772605,205.08014525051726,23.310018359335338,0.0,1.0,0.0,0.0,1.0,Taxi
27.3,-0.04671846168466398,-27.632023829867112,15.5600120970816,1.6375460884319977,-0.7691244022934086,205.1121589925408,23.7946730244645,0.0,1.0,0.0,0.0,1.0,Taxi
27.400000000000002,0.001745674100418145,-0.5043363006614593,16.10360859436826,1.685891181120146,0.4385409874823334,205.2545502889816,23.339788998535553,0.0,1.0,0.0,0.0,1.0,Taxi
27.5,0.1167488018971624,16.475128027608022,15.385506288481501,1.719182400934649,-0.08764468570640786,205.19391919511713,23.159624647388554,0.0,1.0,0.0,0.0,1.0,Taxi
27.6,0.03565717845337615,-6.820743572598953,16.15672628619789,1.4623814525497365,-0.14041050936765817,204.94706456356437,23.173126292294597,0.0,1.0,0.0,0.0,1.0,Taxi
27.700000000000003,-0.03235804376257661,-22.369484773558213,15.0930667464705,1.4464236947742606,-0.27555074222134646,204.95951840110206,23.549783637145374,0.0,1.0,0.0,0.0,1.0,Taxi
27.8,0.004901378029371314,14.510230643606006,16.60342367659812,1.5595166266585416,-0.5440608026371531,205.1565660330292,23.369304592749305,0.0,1.0,0.0,0.0,1.0,Taxi
27.900000000000002,0.10820833167140616,18.720596360990722,15.560478730950248,1.3370604589139041,1.1166991156286739,205.1048960190925,23.33986999774007,0.0,1.0,0.0,0.0,1.0,Taxi
28.0,0.061244938042376997,1.756287182257946,15.592639135333231,1.4920298790731197,-0.4350141616709941,205.0962685147657,23.579627053981493,0.0,1.0,0.0,0.0,1.0,Taxi
28.1,0.013682813940661032,-20.309802132338504,15.601899281024412,1.5292135869954673,1.2769203068333912,205.10574268032542,23.023024223286825,0.0,1.0,0.0,0.0,1.0,Taxi
28.200000000000003,0.006659321009713621,28.389421937681856,16.201907775037036,1.7438736242651063,-0.005420457803440193,205.1113655172046,23.22388184662564,0.0,1.0,0.0,0.0,1.0,Taxi
28.3,0.20319204773078625,-0.9077285310899725,15.370393345850749,1.457314950952494,0.37390732215561534,205.12304018082364,23.561759844736695,0.0,1.0,0.0,0.0,1.0,Taxi
28.400000000000002,0.009144171285211142,-30.41568266688687,15.7953887399176,1.5698883891755169,-0.010989120521285178,204.97943096942254,23.360784722958847,0.0,1.0,0.0,0.0,1.0,Taxi
28.5,-0.14541909232472078,-28.127592177978368,15.332530821721964,1.3825950851685105,-0.21096871782949733,205.28647312809164,23.37698149028489,0.0,1.0,0.0,0.0,1.0,Taxi
28.6,0.06255408684089438,5.557888208730222,14.562444851442528,1.2141461509776441,-0.6187828973192929,205.31234766623083,23.273869648087743,0.0,1.0,0.0,0.0,1.0,Taxi
28.700000000000003,0.036933612328862206,30.04704457082774,16.334933567756213,1.7179918078156016,-0.6473521736525105,204.97076165918122,23.004232459764292,0.0,1.0,0.0,0.0,1.0,Taxi
28.8,0.004816130529417907,-20.062313619614596,15.031283696024007,1.639088953683115,-0.05732816697868921,205.117581320844,23.357168244332094,0.0,1.0,0.0,0.0,1.0,Taxi
28.900000000000002,-0.0377574812571786,-4.629557916529606,15.72996738925796,1.4193294705804227,-0.3089779951518745,205.1262371307257,23.719013746269376,0.0,1.0,0.0,0.0,1.0,Taxi
29.0,0.013785822746214172,-11.816509978465284,15.340479197036524,1.492895253254738,0.06184886988406256,205.05303513476895,23.194720549578115,0.0,1.0,0.0,0.0,1.0,Taxi
29.1,-0.05426641936290852,11.81313402154075,17.065476956275013,1.6228034506845495,-0.22992671910092685,205.12693233564414,23.10464534438979,0.0,1.0,0.0,0.0,1.0,Taxi
29.200000000000003,0.021308188850525142,-8.281903846767262,15.695636197086841,1.4152766169329292,-0.4755159852619677,204.77125159166792,22.16304573454734,0.0,1.0,0.0,0.0,1.0,Taxi
29.3,-0.02762369648762214,-24.770439477338005,16.331312443401128,1.4701319624580154,0.09281672659917466,205.08648134384703,23.60464965440695,0.0,1.0,0.0,0.0,1.0,Taxi
29.400000000000002,-0.17811861674959856,-60.97904924315579,16.52621589606867,1.6231743262502139,0.7521187069374294,205.0662736116244,23.81521852354619,0.0,1.0,0.0,0.0,1.0,Taxi
29.5,-0.2835870573652538,38.95027276777815,15.222508119193135,1.395635399891351,-0.07128571931791344,205.05610083914553,23.252891287722488,0.0,1.0,0.0,0.0,1.0,Taxi
29.6,0.1671276673512686,16.416572612815497,15.987566566866612,1.6064663012355402,0.11763823755842955,205.08976486210736,23.585410443926097,0.0,1.0,0.0,0.0,1.0,Taxi
29.700000000000003,-0.09603575368552109,76.81822667600109,16.15728973873581,1.9254384247684462,0.5745068523506979,205.21657100203106,23.767140903127505,0.0,1.0,0.0,0.0,1.0,Taxi
29.8,0.1005040760147516,-28.27868458350174,16.168816222907946,1.4633430159575491,0.5809736937325393,205.23844855764787,22.933312308181268,0.0,1.0,0.0,0.0,1.0,Taxi
29.900000000000002,0.025734244433759906,-0.5276633433862704,16.468660334733332,1.5143093308118107,0.09485205027236789,205.11010247364277,22.622319797051905,0.0,1.0,0.0,0.0,1.0,Taxi
30.0,-0.09867407040245241,-39.51843831491117,15.499053108207981,1.6473070896166877,-0.31268304114288215,205.1050107817017,23.27002280742622,0.0,1.0,0.0,0.0,1.0,Taxi
30.1,-0.09708811555980423,-3.163547850109912,15.726678409633196,1.1689993308230742,-0.28629719632632655,205.01585089375556,22.86114808491393,0.0,1.0,0.0,0.0,1.0,Taxi
30.200000000000003,0.009916505183210371,14.938702631839682,15.987635609053285,1.7007263248254438,0.1142780316989015,205.22607103522796,23.76706300275812,0.0,1.0,0.0,0.0,1.0,Taxi
30.3,-0.02398055724325399,26.690415720361027,16.101628767450894,1.3770169112464723,-0.5026880916445089,205.2293061950179,24.038468852401945,0.0,1.0,0.0,0.0,1.0,Taxi
30.400000000000002,0.03636396304200089,22.188611591727334,15.580826359797152,1.2732643658977651,0.32938244748099443,205.1073615566786,23.82069327560218,0.0,1.0,0.0,0.0,1.0,Taxi
30.5,0.12085956314184705,7.373878192813606,15.646902106509147,1.438825821955352,-0.11751494855857016,204.9277970121991,23.38414643419147,0.0,1.0,0.0,0.0,1.0,Taxi
30.6,0.012888833720814062,-3.9249980150385113,15.507498028134616,1.310466962505529,0.5983896264496634,204.89018878309537,23.1952456882462,0.0,1.0,0.0,0.0,1.0,Taxi
30.700000000000003,0.016738972966808343,-12.043543438886447,15.44290258802762,1.3173967781630862,-0.43983520810522275,205.18812926286864,23.087799933019205,0.0,1.0,0.0,0.0,1.0,Taxi
30.8,0.06064184594741482,11.29672455774328,16.323940001396938,1.196623294600701,-0.14721288797606671,205.09719314819768,22.580557785700005,0.0,1.0,0.0,0.0,1.0,Taxi
30.900000000000002,0.06937245650953047,18.73043623078962,17.006909230355152,1.9333607026106212,-0.19554384773305084,205.09669656227823,22.96390617747495,0.0,1.0,0.0,0.0,1.0,Taxi
31.0,0.11039115412075647,-29.022116296265427,15.920382758433758,1.230722285970906,0.969660028455911,205.27505770197,23.426710151237366,0.0,1.0,0.0,0.0,1.0,Taxi
31.1,-0.08446873553391232,10.232840184971764,15.936285918073144,1.5574862458650554,-0.5371357752863649,205.05738993941452,23.29590436450848,0.0,1.0,0.0,0.0,1.0,Taxi
31.200000000000003,0.1205366574343893,-35.812328607421584,16.562214227194318,1.438072394185857,-0.20404306042505654,205.35718653514198,23.99967614182273,0.0,1.0,0.0,0.0,1.0,Taxi
31.3,-0.06867048891635144,4.7808249498020094,15.271592995772625,1.5326392184165967,1.0561438732005397,205.07086557164405,23.06688856166837,0.0,1.0,0.0,0.0,1.0,Taxi
31.400000000000002,-0.060564610784902245,-22.246773002183584,15.174346387760083,1.4913525053280259,0.2281212280649072,205.1597180235051,22.66668184651379,0.0,1.0,0.0,0.0,1.0,Taxi
31.5,0.009302792423471404,3.331415665915408,15.972604172592309,1.5912090951717268,0.7770721663573025,205.1396433675692,23.517141996618115,0.0,1.0,0.0,0.0,1.0,Taxi
31.6,-0.0520134105867744,7.2765715522394245,16.084339568074835,1.7719550415377836,0.06745649926357253,204.92562617793442,23.373673199272023,0.0,1.0,0.0,0.0,1.0,Taxi
31.700000000000003,-0.024181753023705125,-28.073435490930454,15.128019204110414,1.5074927782352094,-0.0521807338772479,205.11937315367027,22.379464122785826,0.0,1.0,0.0,0.0,1.0,Taxi
31.8,-0.13106438503118087,0.6830692007440552,15.35423617729236,1.7190468663868985,0.40377532779231246,205.02981380369806,23.37711427262633,0.0,1.0,0.0,0.0,1.0,Taxi
31.900000000000002,-0.048598064583054136,3.4387351499410492,16.423337022385994,1.4749303332860444,-0.02235037811193394,205.10586077492042,22.70138027707868,0.0,1.0,0.0,0.0,1.0,Taxi
32.0,-0.006988077273999882,20.205628290987306,14.805246768140277,1.416853017409691,0.21888384802595762,205.08170872995197,23.78060639578589,0.0,1.0,0.0,0.0,1.0,Taxi
32.1,-0.030036243576244348,24.535816317578668,16.067704206729207,1.668679431475021,1.1625837063730045,205.15185882737205,22.746783834932078,0.0,1.0,0.0,0.0,1.0,Taxi
32.2,0.07408101700483921,0.10527110550431946,15.832758858583809,1.3264489855872479,-0.11953291729941953,205.1361959905604,23.565454060852954,0.0,1.0,0.0,0.0,1.0,Taxi
32.300000000000004,-0.0064617217464782925,-61.496132844327754,15.901629682629776,1.5048412520204995,-1.0801872243172508,205.03785897168268,22.292752799637448,0.0,1.0,0.0,0.0,1.0,Taxi
32.4,-0.3375169077978831,-16.958577577423956,16.85677938531468,1.8676462682401516,-0.1099991248088769,205.0663414878395,23.612746939794,0.0,1.0,0.0,0.0,1.0,Taxi
32.5,-0.010711870882280544,-25.216490576920723,15.502749325177986,1.457560541386311,-0.6893564000636597,205.211018000158,23.548806198684463,0.0,1.0,0.0,0.0,1.0,Taxi
32.6,-0.13254417463108187,64.0852639056156,15.811706707515583,1.8023946635398984,-0.5980816762631964,205.13859924638223,23.585157209634612,0.0,1.0,0.0,0.0,1.0,Taxi
32.7,-0.01709058826980508,-19.217849330602935,16.024143023982198,1.782642510834985,1.0660774594157352,205.01556871865932,22.530780825781225,0.0,1.0,0.0,0.0,1.0,Taxi
32.800000000000004,-0.1068011175352952,55.108352202165584,15.664112557844453,1.3939166882312002,-0.39256392296271797,205.00176666691596,23.47143208130268,0.0,1.0,0.0,0.0,1.0,Taxi
32.9,0.14299758637974608,11.288612987062209,15.761767421470429,1.5030536316041105,-0.20067017697432712,204.98795619326063,23.155777564312302,0.0,1.0,0.0,0.0,1.0,Taxi
33.0,0.03935247666550598,42.737486665337656,16.33469267076791,1.32528204734165,-0.39977182655735494,205.18233274331328,23.448069400382668,0.0,1.0,0.0,0.0,1.0,Taxi
33.1,0.1068863157913931,9.914011961333962,16.16578263742135,1.4876687890202216,-0.6182742797381057,205.25114749308227,23.263365538429902,0.0,1.0,0.0,0.0,1.0,Taxi
33.2,0.1925676461864159,40.922474712999254,15.394524267032605,1.6690128857575197,0.7543713497396716,204.99660443061487,22.659011713303705,0.0,1.0,0.0,0.0,1.0,Taxi
33.300000000000004,0.2439648502305022,-27.47997959735859,15.887789558478135,1.3823039393775067,0.8968649656485593,205.1883910157586,23.208693691050488,0.0,1.0,0.0,0.0,1.0,Taxi
33.4,-0.030513582195399847,-25.70476375772861,16.148435053562896,1.24065458036172,0.48416330955832243,205.08795748696502,23.376026642753217,0.0,1.0,0.0,0.0,1.0,Taxi
33.5,0.06404382739777281,-58.9393233081722,15.416593428571105,1.4636092437169057,-1.2947440635314393,205.1179151869179,22.807269068486494,0.0,1.0,0.0,0.0,1.0,Taxi
33.6,-0.050731766310358785,5.307786789084008,16.389403309943585,1.512381691183161,0.14610979211181768,205.1993812963567,24.047356430664948,0.0,1.0,0.0,0.0,1.0,Taxi
33.7,-0.003974648249979821,-26.050312934812307,15.818534123115102,1.5899094921437325,-0.3587281834853199,205.1761620761057,23.744554458016726,0.0,1.0,0.0,0.0,1.0,Taxi
33.800000000000004,-0.06620773727628874,30.57637051021108,15.7953875828092,1.6865174218041878,0.6810739584811116,205.2752508551681,23.149688008150026,0.0,1.0,0.0,0.0,1.0,Taxi
33.9,0.10215008624069664,20.241205023077914,16.104251474913138,1.7059833651110226,-0.22644290831983746,205.04109809280112,23.027226201640957,0.0,1.0,0.0,0.0,1.0,Taxi
34.0,0.09723137686540978,8.552132933219076,14.575747906695645,1.3721870673692407,0.34460880934035804,205.08342505220799,22.766460700381558,0.0,1.0,0.0,0.0,1.0,Taxi
34.1,-0.023447072610193347,-23.291288321791924,16.044975115812647,1.636288959033335,0.49441639664767756,205.1710915255196,22.986002650485034,0.0,1.0,0.0,0.0,1.0,Taxi
34.2,-0.014306355368262962,-5.206348848588736,15.46228236356568,1.5275498131818415,-0.8283933607288076,204.9694816992693,23.042232783520564,0.0,1.0,0.0,0.0,1.0,Taxi
34.300000000000004,0.07119963262246613,-7.661755303200915,15.114759448914004,1.5652643646593134,0.520366554478879,205.03797141147334,23.98397034956473,0.0,1.0,0.0,0.0,1.0,Taxi
34.4,-0.06175584912619786,12.61521739325685,16.187188956166427,1.5175411772783953,-0.6209957804433279,205.0926458861851,24.021030378863784,0.0,1.0,0.0,0.0,1.0,Taxi
34.5,0.04876973159802135,-34.18739395500076,16.167084658001524,1.6186090125963062,-0.1599245291988747,205.10528044688226,23.10424420288584,0.0,1.0,0.0,0.0,1.0,Taxi
34.6,-0.09973733715253763,-4.811651051577728,15.97373036449368,1.5591404770418602,1.002245188271456,205.20036457372487,22.82830978674781,0.0,1.0,0.0,0.0,1.0,Taxi
34.7,-0.0858141043840865,2.832927629669475,15.287649285731751,1.7313886728707029,-0.5810962214969656,205.03405127463793,22.706777162195895,0.0,1.0,0.0,0.0,1.0,Taxi
34.800000000000004,0.06293436974636873,36.579813778847246,16.34538511015516,1.5870995724792973,-0.5169780195495364,205.06406162464395,23.010075325198017,0.0,1.0,0.0,0.0,1.0,Taxi
34.9,0.08316173174169862,20.800215458750376,15.69701798765542,1.0424655813268942,-0.5377903627116938,205.06844916401087,23.821326704560352,0.0,1.0,0.0,0.0,1.0,Taxi
35.0,0.01818697290966541,-25.301070091543835,16.130106195587953,1.451172943892581,0.12059317102964144,205.0093046351435,23.459916927453687,0.0,1.0,0.0,0.0,1.0,Taxi
35.1,-0.06357098071135044,-19.26052365098379,15.964398229422775,1.6178717836506349,-0.22718251611976356,205.11232353173511,22.970379033070966,0.0,1.0,0.0,0.0,1.0,Taxi
35.2,-0.013140886513220325,-40.73680060237456,15.313606389893884,1.1690710250604173,0.27792875785545823,205.03241332633252,24.343459629163092,0.0,1.0,0.0,0.0,1.0,Taxi
