time_s,altitude_ft,vertical_speed_fpm,ias_kt,pitch_deg,roll_deg,heading_deg,throttle_pct,afterburner_on,gear_down,flaps_deg,speedbrake_pct,weight_on_wheels,label
0.0,-0.060605929528173785,-42.9525982517253,8.011885276495962,0.8095063644604095,-0.75043302978122,33.60709010885006,10.46857337890579,0.0,1.0,0.0,0.0,1.0,Taxi
0.1,-0.20378125703392477,39.50242785268564,8.347658952808567,0.9203860763045016,-0.4077785900858551,33.64231607892776,9.636089053870966,0.0,1.0,0.0,0.0,1.0,Taxi
0.2,0.13690620973525444,21.58867012096879,8.154876527487616,1.0956024810131266,-0.28922452012673244,33.46987449746729,10.166036810928226,0.0,1.0,0.0,0.0,1.0,Taxi
0.30000000000000004,0.04733742107667018,41.09134505347786,7.773610878113632,1.0611343603680543,-0.28345713671617223,33.57898473624914,10.075585791850955,0.0,1.0,0.0,0.0,1.0,Taxi
0.4,0.001675468233464551,-21.950889796376163,8.510061919246889,0.8379290336649536,-0.2546354692471909,33.51699615382722,10.921072205447159,0.0,1.0,0.0,0.0,1.0,Taxi
0.5,0.0271517607533736,3.9568542588326068,8.398834196694768,0.9440663273026224,0.5206700169371228,33.5354032084486,10.152986125950505,0.0,1.0,0.0,0.0,1.0,Taxi
0.6000000000000001,0.06712169237083318,-16.79796994208184,8.13878742053094,1.369863261989589,0.18952341710838203,33.36275767116365,9.650444274125507,0.0,1.0,0.0,0.0,1.0,Taxi
0.7000000000000001,-0.08231438147694466,-22.721684069049473,7.507837304178274,1.451327950441297,1.2007858867131098,33.71400036661896,10.080224533545636,0.0,1.0,0.0,0.0,1.0,Taxi
0.8,-0.08645665959187379,29.848063759382914,8.51287216016395,1.2950180248193286,0.2515726244133624,33.44556376445911,11.470278271360755,0.0,1.0,0.0,0.0,1.0,Taxi
0.9,0.21636201116774778,-28.388870350049217,7.58058400089577,1.4355807892155847,0.1434615168968375,33.55976191371741,11.14232245259578,0.0,1.0,0.0,0.0,1.0,Taxi
1.0,-0.22425873322719073,41.058601223003485,7.554315569809899,0.8773323103369515,0.3802027266226652,33.44720481810458,10.906359969294805,0.0,1.0,0.0,0.0,1.0,Taxi
1.1,0.11883634652314368,-30.880223434435056,8.414913024902093,1.1004408261054337,0.5228549761334415,33.43434446439619,10.402692974640894,0.0,1.0,0.0,0.0,1.0,Taxi
1.2000000000000002,0.06196089399557252,71.24834856660908,9.32563703982657,1.1675615297692272,-0.41326339117165173,33.47337913107634,9.985361800844421,0.0,1.0,0.0,0.0,1.0,Taxi
1.3,0.1319830096058547,-32.66911341995122,7.1847000065923625,1.3367405804379193,-0.21571851551973487,33.54979011662226,9.995979340362316,0.0,1.0,0.0,0.0,1.0,Taxi
1.4000000000000001,-0.04450922057661244,-42.63637411293303,8.840552517552023,1.023857294426723,-0.22104863830548796,33.44662903332892,11.882993799437951,0.0,1.0,0.0,0.0,1.0,Taxi
1.5,-0.15122097656909264,-6.503285126963855,8.37127057297537,1.2781976454040018,0.1730231292964989,33.46083184112916,10.318060486880764,0.0,1.0,0.0,0.0,1.0,Taxi
1.6,0.09946658397103539,67.06757466139042,8.27907125764811,0.872034529745466,0.31660812478225475,33.54760986113706,9.79167771574127,0.0,1.0,0.0,0.0,1.0,Taxi
1.7000000000000002,0.2908286527303396,20.298437587892163,7.512813653862828,1.2285738113805018,-1.0623585497301975,33.53355614506995,10.05208093903806,0.0,1.0,0.0,0.0,1.0,Taxi
1.8,-0.04972878862963181,-26.278487894246364,8.792777893571417,1.2066646990462309,-0.3862292614682279,33.48069184581499,10.289536053415482,0.0,1.0,0.0,0.0,1.0,Taxi
1.9000000000000001,-0.031925855500196394,-68.25838613173387,8.537721746907126,0.8846125326533041,1.4852293393502094,33.58762184559788,11.441765632569156,0.0,1.0,0.0,0.0,1.0,Taxi
2.0,-0.05046327792832968,19.928837887951357,8.055905305096873,0.6833562829674537,-0.5798983855184365,33.69361514621784,10.973393856611821,0.0,1.0,0.0,0.0,1.0,Taxi
2.1,0.04991540081012498,35.29640000827397,7.433087917272396,0.8891900971824173,-0.3938758011943092,33.692837193114656,9.915236109813254,0.0,1.0,0.0,0.0,1.0,Taxi
2.2,0.14455614454117346,3.6948762631585197,8.541599175804489,1.106337256800132,0.5505956951893283,33.468153936108365,10.683208029664481,0.0,1.0,0.0,0.0,1.0,Taxi
2.3000000000000003,-0.03198889661253706,-32.45418346577724,7.722196680132417,1.4114486138394422,0.6652670101711047,33.52203449462843,10.583487996369186,0.0,1.0,0.0,0.0,1.0,Taxi
2.4000000000000004,-0.11235551651876122,-66.0335994657537,8.353258605709666,1.0994265580248486,0.7290834833208726,33.65380848141592,10.607990824993086,0.0,1.0,0.0,0.0,1.0,Taxi
2.5,-0.18561185278759498,27.312852667179538,8.828072946922338,1.1036127648706215,0.4021135729373734,33.438495881512836,10.27346831190051,0.0,1.0,0.0,0.0,1.0,Taxi
2.6,0.10457536672336061,34.6121803377606,7.72617322277687,1.5816973434380375,-0.05260988888528465,33.478445015616956,11.07602934041126,0.0,1.0,0.0,0.0,1.0,Taxi
2.7,0.06070538517004174,32.00288624531061,8.521486195052391,0.9311221502472772,0.8469990656645537,33.588845911925034,10.697544559220228,0.0,1.0,0.0,0.0,1.0,Taxi
2.8000000000000003,-0.025597421561041923,-7.723392308466778,6.864397469969328,1.1619227796028384,-0.19915438578742856,33.546247350403405,11.057542194206373,0.0,1.0,0.0,0.0,1.0,Taxi
2.9000000000000004,0.0659584051810267,10.924307725144162,8.03709919541686,0.8328721489703576,0.43543136133781923,33.614771483174195,10.0658668705006,0.0,1.0,0.0,0.0,1.0,Taxi
3.0,0.11532692379576254,6.015875742627969,8.136333231902594,1.0765185123760732,-0.16189854556421152,33.49833925132913,10.652245497100846,0.0,1.0,0.0,0.0,1.0,Taxi
3.1,0.004481957152097884,-29.779303861293602,7.169998687660347,1.0275820857160403,0.6795787107012731,33.45753911963959,11.234643066724937,0.0,1.0,0.0,0.0,1.0,Taxi
3.2,-0.08293811412544133,-11.748265349000471,6.488796086404472,1.3650610125971265,-0.36080687549312607,33.618647198271674,10.133259167121054,0.0,1.0,0.0,0.0,1.0,Taxi
3.3000000000000003,0.056585597050760154,-1.244124682331531,7.2699587950860876,1.1782914153890816,0.0221161493918721,33.60424254487441,10.591856450325936,0.0,1.0,0.0,0.0,1.0,Taxi
3.4000000000000004,-0.001738666259559797,48.578442516520965,7.112681636419577,0.9743273323002333,-0.5273295423085926,33.61498421839207,9.247816091903955,0.0,1.0,0.0,0.0,1.0,Taxi
3.5,0.1599540984571635,-26.580663737846,8.108819448807678,1.3575708179676311,-0.6251008909041991,33.67293440790843,10.37786997937567,0.0,1.0,0.0,0.0,1.0,Taxi
3.6,-0.0763177216384698,-17.239011764162004,8.526466308828677,1.1773386071038414,0.4546077774858346,33.472737617694065,11.255898826448318,0.0,1.0,0.0,0.0,1.0,Taxi
3.7,-0.08793372508036976,-62.06851002474389,8.376726626153996,1.0073062835032813,-0.021369839826620416,33.662875042892495,10.409783512622152,0.0,1.0,0.0,0.0,1.0,Taxi
3.8000000000000003,-0.1503884516665559,29.045887521342433,8.41154117012001,1.3229172554726478,0.36940836007839467,33.513398547900124,10.870720337513362,0.0,1.0,0.0,0.0,1.0,Taxi
3.9000000000000004,0.06891171596824239,15.235790196364507,7.535342630177207,1.2244352380797643,-0.2846911588579827,33.52058040427153,10.932425896576762,0.0,1.0,0.0,0.0,1.0,Taxi
4.0,-0.0117547740985472,11.397939712931576,7.058711030529009,1.3688272075888905,0.11883641723553856,33.41536271310821,10.712195541823238,0.0,1.0,0.0,0.0,1.0,Taxi
4.1000000000000005,-0.09339875310189796,-18.5046791165371,8.086266338625268,0.8767963767164623,0.07496548470068733,33.539522616884994,10.332235773513899,0.0,1.0,0.0,0.0,1.0,Taxi
4.2,-0.023611679614443087,5.945756237701246,8.300974371180775,0.8543417603238812,-1.0258204976522267,33.752492667001434,10.482942478832747,0.0,1.0,0.0,0.0,1.0,Taxi
4.3,0.01797400708995905,-0.2903217586700843,7.426353168198832,1.126631638474029,0.09406918440999572,33.68514424962609,9.741409121592703,0.0,1.0,0.0,0.0,1.0,Taxi
4.4,-0.09485036189524834,27.17369342420157,9.16130913066684,1.175577154488474,-0.9514208164067528,33.59851680299977,9.610402186604196,0.0,1.0,0.0,0.0,1.0,Taxi
4.5,0.11225678750656476,37.487798300687565,7.161569144755127,1.2002660327371102,0.1858216624654165,33.45023219724436,10.086406158689218,0.0,1.0,0.0,0.0,1.0,Taxi
4.6000000000000005,0.20541299859339693,8.794145990080901,8.599781616635514,1.3551504282840352,-0.42059137760000365,33.656888266017404,10.087796558926767,0.0,1.0,0.0,0.0,1.0,Taxi
4.7,-0.05087963194484374,-11.625852497969703,8.075606946145287,0.74781936655187,-0.8163767278187161,33.451912035686576,9.746636477888808,0.0,1.0,0.0,0.0,1.0,Taxi
4.800000000000001,0.05412752501671633,-55.40973010449101,8.656805604068229,1.387468670233277,-1.2133383385715346,33.57125247603142,10.748795770593564,0.0,1.0,0.0,0.0,1.0,Taxi
4.9,-0.07163565192905802,15.01547255679908,8.505807303110325,1.1517132529494452,0.10906331752838283,33.54068027197718,10.684168422703305,0.0,1.0,0.0,0.0,1.0,Taxi
5.0,0.024197730839151704,-20.83075119116082,8.501879795004202,1.0915963402976003,-0.045804335776747855,33.57196272685428,10.790824457202516,0.0,1.0,0.0,0.0,1.0,Taxi
5.1000000000000005,-0.050026230939087736,20.09426501474659,7.602590649296986,0.827571105045013,0.5591887441131287,33.41406404260982,10.987545663577512,0.0,1.0,0.0,0.0,1.0,Taxi
5.2,0.02883567314467497,17.916191543942475,6.2646926345105305,1.5174429075086742,-0.6509837312024876,33.65736339145133,10.879770775405134,0.0,1.0,0.0,0.0,1.0,Taxi
5.300000000000001,0.11377868855886414,42.15731022526111,8.07031838091712,1.2518145416621833,0.12178388465643383,33.797991623797884,10.788170651562243,0.0,1.0,0.0,0.0,1.0,Taxi
5.4,0.16076032018721786,-28.944404412833446,7.718941216137699,0.9934466218145013,-0.10340187614520609,33.61403265067668,10.301233018953345,0.0,1.0,0.0,0.0,1.0,Taxi
5.5,-0.11588634891949226,-17.616842649926394,7.990800538260103,1.4464444175978117,0.10999511101303086,33.51471235167696,10.173303063823452,0.0,1.0,0.0,0.0,1.0,Taxi
5.6000000000000005,0.025694475309232134,-46.54598550835349,7.44384012019443,1.0858113055223846,0.8039955449581955,33.59334945703199,10.317585532403488,0.0,1.0,0.0,0.0,1.0,Taxi
5.7,-0.0719696073545496,29.710631197436374,7.268358328733468,1.3153090236262313,-0.6375023354085239,33.481882989295286,10.353400039789681,0.0,1.0,0.0,0.0,1.0,Taxi
5.800000000000001,0.032666807067689686,1.6568438622502173,7.663387975937584,1.4009466551255076,0.28625095945786766,33.66656475589127,10.073511802360773,0.0,1.0,0.0,0.0,1.0,Taxi
5.9,0.03397869462048328,11.257074614216767,7.9349076580276785,1.1411699011873675,0.07006345781631823,33.43625228985945,10.588420926285298,0.0,1.0,0.0,0.0,1.0,Taxi
6.0,-0.01568423428346571,48.38073663473117,8.04216283273543,1.1292393097130822,0.15863592000088078,33.54667439867097,10.517633381705751,0.0,1.0,0.0,0.0,1.0,Taxi
6.1000000000000005,0.2745704902413456,6.877206046406381,8.017154673139668,1.2674754110794475,0.6902429771599286,33.45108238683247,10.833143902992417,0.0,1.0,0.0,0.0,1.0,Taxi
6.2,0.06836472485251524,-25.054590534170874,8.952095802341562,1.055799445154806,-0.4969441468923041,33.49966605843116,9.835298982359298,0.0,1.0,0.0,0.0,1.0,Taxi
6.300000000000001,-0.14095718695432002,-62.93527977163634,8.161366218427569,1.2815736848251909,0.29029704459650124,33.545041129066874,10.755516038052274,0.0,1.0,0.0,0.0,1.0,Taxi
6.4,-0.040105908616835995,-53.80533513778326,8.428537703448505,0.6420561649218415,-0.6661787737089813,33.32350761376682,10.240039660103616,0.0,1.0,0.0,0.0,1.0,Taxi
6.5,-0.20066195083640104,11.21130069977722,6.797949579817307,1.067580099947014,0.4817850684366577,33.515655854931424,10.936165784742004,0.0,1.0,0.0,0.0,1.0,Taxi
6.6000000000000005,-0.0849006834554339,36.61715754454273,8.547581485582747,1.256752169491956,-0.4279395885935875,33.42622956080061,9.598580305723392,0.0,1.0,0.0,0.0,1.0,Taxi
6.7,0.14297987910587767,56.244422870911364,7.946086693296816,1.1736874444404317,0.7153818654804338,33.55270427687793,9.965024019000255,0.0,1.0,0.0,0.0,1.0,Taxi
6.800000000000001,0.0805601635181558,-8.370161983515166,7.255111163499823,1.0630843208976641,-0.24541204435110867,33.60635158801131,11.05893266647956,0.0,1.0,0.0,0.0,1.0,Taxi
6.9,-0.12675149337300975,-29.203867982020757,8.350710308264464,1.21482550767848,-0.5667957397643043,33.49368574778714,10.009585219794719,0.0,1.0,0.0,0.0,1.0,Taxi
7.0,-0.00303946080422615,-15.540101496614044,7.511793092948828,1.4273675413754217,-0.23353865639955046,33.56971095233223,10.748202409125055,0.0,1.0,0.0,0.0,1.0,Taxi
7.1000000000000005,0.002859656035085557,33.298370022710635,8.52982856814636,1.0260366932351241,0.9651571481080531,33.480994608155015,10.7546438201365,0.0,1.0,0.0,0.0,1.0,Taxi
7.2,0.039740356740543416,14.484848928126176,8.517240102427351,1.082499505902641,-0.3147033334680151,33.63819525798573,10.880709983299486,0.0,1.0,0.0,0.0,1.0,Taxi
7.300000000000001,0.06938478383640473,26.359617715924244,8.33284705240274,0.8891940814445594,-0.6485085953865483,33.38968628502022,10.751076043143046,0.0,1.0,0.0,0.0,1.0,Taxi
7.4,0.13465774461470678,-25.021322078562278,7.4914023858034495,1.019991216568468,0.33917317905332756,33.77459455002662,10.472818666167171,0.0,1.0,0.0,0.0,1.0,Taxi
7.5,-0.08536625365226796,-18.73527690800789,7.520128630229855,1.1459800308910142,-0.6821672536762413,33.581487956699334,10.282136680969131,0.0,1.0,0.0,0.0,1.0,Taxi
7.6000000000000005,-0.024291600703634723,-29.57414809173166,7.5110546209565126,1.2869047829030207,-0.26062551833546577,33.558287730383825,10.624237802146753,0.0,1.0,0.0,0.0,1.0,Taxi
7.7,-0.013212995843951539,17.190130686632397,9.161212207296304,0.9687137446219181,0.9542039838688806,33.43118706504026,10.696299931842454,0.0,1.0,0.0,0.0,1.0,Taxi
7.800000000000001,0.000584399780894027,-5.178724273395017,8.033679122852638,0.891052938446547,0.11922821172825378,33.5848547697384,9.74728198471997,0.0,1.0,0.0,0.0,1.0,Taxi
7.9,-0.050185222070609804,10.99140672837953,7.405165528899066,1.2442513652132623,0.6001555880043384,33.456437090313784,10.651568043926952,0.0,1.0,0.0,0.0,1.0,Taxi
8.0,0.04174403779794611,-21.829254646356656,8.032287741344895,1.0307429774808636,-0.09812859111238412,33.5749951380792,10.176373653602576,0.0,1.0,0.0,0.0,1.0,Taxi
8.1,-0.10856187345088925,54.9070786396775,7.392879236459517,0.9863772585771882,0.0578011895049461,33.64754552386205,10.626409743357552,0.0,1.0,0.0,0.0,1.0,Taxi
8.200000000000001,0.2243501711277777,-18.73493731387273,8.586069761196537,0.7640760307218947,-0.7329675955729092,33.622269915854986,10.334103482530828,0.0,1.0,0.0,0.0,1.0,Taxi
8.3,-0.05193064877141754,7.3944710118459325,7.147723519707053,1.2925841065634207,0.1486356828087514,33.36494461547869,10.275021049548611,0.0,1.0,0.0,0.0,1.0,Taxi
8.4,-0.07158951839165958,-61.271943893283854,8.340497474761833,1.0151670112892375,0.17472076779379772,33.43035818046275,9.459484422230407,0.0,1.0,0.0,0.0,1.0,Taxi
8.5,-0.08200954833864157,23.829936620838016,8.706524808421586,1.0763875709210982,-0.8445101898039031,33.7447618604769,11.144821340191807,0.0,1.0,0.0,0.0,1.0,Taxi
8.6,0.06721903433277254,-6.362238533037082,8.468514660610095,1.5559176496462999,-0.0711022989618531,33.64674710379967,10.335864530578064,0.0,1.0,0.0,0.0,1.0,Taxi
8.700000000000001,-0.10340071105684501,9.67683374402401,8.162188402962514,1.3764538551023349,-0.6538224500081086,33.53779849302248,11.341953678258612,0.0,1.0,0.0,0.0,1.0,Taxi
8.8,-0.033625379618521536,10.647761904695095,7.170951689942903,1.0546496203355815,-0.2726901195476709,33.57491713417505,10.466178161968976,0.0,1.0,0.0,0.0,1.0,Taxi
8.9,0.12045784385624801,4.752555354895847,7.7999532259329385,1.104473709445561,0.7338497079033313,33.5522011056342,10.843336946255564,0.0,1.0,0.0,0.0,1.0,Taxi
9.0,-0.07963793428236575,35.99632158032923,7.193964190066363,1.3903516962504694,-0.7882070715859273,33.56211924498206,10.467175858380331,0.0,1.0,0.0,0.0,1.0,Taxi
9.1,0.14635622828312464,-58.88711940140442,8.716645457302771,0.9868136249167507,0.2310096064993827,33.56312480747283,9.984669058060973,0.0,1.0,0.0,0.0,1.0,Taxi
9.200000000000001,-0.17397775315077402,30.065526155508397,7.740470116248678,1.295247606351514,-0.14907706678947424,33.571015393127425,10.25533410959709,0.0,1.0,0.0,0.0,1.0,Taxi
9.3,0.07068969649517629,-62.88005247075904,8.248303039484366,0.9262592758869883,-0.013645635496360694,33.65296798146949,11.424516895262405,0.0,1.0,0.0,0.0,1.0,Taxi
9.4,-0.1680440340706705,16.17206218669207,7.297508746331366,1.2195349138729614,-0.18609056621003656,33.548404457775405,9.783668746688912,0.0,1.0,0.0,0.0,1.0,Taxi
9.5,-0.09311744221731369,-16.94910466716126,7.726423427175818,1.2521086740604261,-0.10995134098018086,33.4326154101542,10.120400847986165,0.0,1.0,0.0,0.0,1.0,Taxi
9.600000000000001,-0.014055826840630035,56.985815367927415,8.627893793692015,0.7333042695804215,0.8796214825006603,33.52028586696969,11.084514174062312,0.0,1.0,0.0,0.0,1.0,Taxi
9.700000000000001,0.11688504276896655,25.46836149773992,8.833465416040664,1.145127954139204,0.11935780213623434,33.62805644053606,10.54983179113103,0.0,1.0,0.0,0.0,1.0,Taxi
9.8,0.03422436527138592,11.04792585738644,8.307921294229267,1.3283121792838941,-0.7042585055905224,33.52739746369326,9.547214273679238,0.0,1.0,0.0,0.0,1.0,Taxi
9.9,0.04118380244630215,-18.89692396484487,7.9290724394207235,1.1109880845531952,0.3545152265065177,33.557362775081,10.496866051091024,0.0,1.0,0.0,0.0,1.0,Taxi
10.0,0.022400422944742208,-14.327139562726385,7.203280202277976,0.8986137505001373,0.4381758963614462,33.498156454884395,10.36109612602746,0.0,1.0,0.0,0.0,1.0,Taxi
10.100000000000001,-0.03741133254224601,11.344229473878977,7.801350952255624,1.3942534579276822,-0.12597983294647402,33.56517741284,11.37869659184294,0.0,1.0,0.0,0.0,1.0,Taxi
10.200000000000001,0.09790494981569703,-12.788881390480702,7.3812748773545405,1.2795357060227424,0.44731335627658825,33.60063721689056,10.164555308175402,0.0,1.0,0.0,0.0,1.0,Taxi
10.3,-0.04154398400766129,24.558012865356627,8.581914578799356,1.1147342946703929,1.0603429853853275,33.53443708023144,11.109034399519887,0.0,1.0,0.0,0.0,1.0,Taxi
10.4,0.08537873178453709,-25.325660170033746,8.143011850308818,0.9411548803530192,-0.06774802967101308,33.61483540265067,9.679799150511926,0.0,1.0,0.0,0.0,1.0,Taxi
10.5,-0.028723351034471736,-13.53034693668062,7.709286182276588,1.0176440321434215,0.24254405492854003,33.65032707138687,10.145083499346757,0.0,1.0,0.0,0.0,1.0,Taxi
10.600000000000001,-0.10919571869106443,-0.6304969525256467,8.080473689592328,1.651329193022033,0.013076141583632423,33.459399211880964,11.313729996100195,0.0,1.0,0.0,0.0,1.0,Taxi
10.700000000000001,0.08222624702190885,-24.290126818261086,7.386838770699886,1.3830091037496075,-0.17797769356515228,33.495490190808596,10.501089516593387,0.0,1.0,0.0,0.0,1.0,Taxi
10.8,-0.15017398512577715,-10.29481464966595,8.101503680430813,1.4191170373067998,0.21527386775860166,33.68273532043099,10.809439647472384,0.0,1.0,0.0,0.0,1.0,Taxi
10.9,-0.16066979193939415,-7.08506142874441,7.613285867665343,1.3354496371808073,-0.02703425137156007,33.53682886167974,11.430881610201613,0.0,1.0,0.0,0.0,1.0,Taxi
11.0,0.046800939878186815,14.851733394890976,7.586090598323461,1.165532150859176,-0.24769980118405527,33.558954529663595,10.263820079837041,0.0,1.0,0.0,0.0,1.0,Taxi
11.100000000000001,-0.07591531815132233,15.084678465253829,8.304900174051687,1.069285856297173,0.18464960179657117,33.511355474113714,9.053403248745287,0.0,1.0,0.0,0.0,1.0,Taxi
11.200000000000001,-0.08524639961312507,-1.7725747118519546,7.469873172072887,1.2140402339491978,0.7696295282863566,33.567226020764735,10.062641657232975,0.0,1.0,0.0,0.0,1.0,Taxi
11.3,0.03793806631892698,29.3998984149422,7.545496047923083,1.3305100903537102,-0.1833170049523199,33.659391782968385,10.19025918806524,0.0,1.0,0.0,0.0,1.0,Taxi
11.4,0.0710841739233886,11.5884687035267,6.803653508261348,0.45955094414674635,-0.4009202031355709,33.58467707171417,10.508537069848154,0.0,1.0,0.0,0.0,1.0,Taxi
11.5,-0.027304056095491632,18.15231794903066,9.292769349249848,1.2848287129892315,-0.20494131832690343,33.74452811802979,9.966496436665672,0.0,1.0,0.0,0.0,1.0,Taxi
11.600000000000001,0.1286996560640802,-32.80989461879333,9.370853812471761,1.1955201009910872,0.2788655157001903,33.71276416547914,10.573866871142338,0.0,1.0,0.0,0.0,1.0,Taxi
11.700000000000001,-0.09296529917057807,31.880568096779683,8.57081132005035,1.0875471280477367,-0.3223595326851947,33.299545505381104,10.597671741304609,0.0,1.0,0.0,0.0,1.0,Taxi
11.8,0.13209878438840678,-31.864629233645232,7.963473071016964,1.3413582533812454,0.8168358882816995,33.567849357747036,9.898724751988166,0.0,1.0,0.0,0.0,1.0,Taxi
11.9,-0.03062349010414597,-28.452946785778185,7.465685897648729,0.8241840301736512,0.07003286873501623,33.613329888915246,10.127012242004875,0.0,1.0,0.0,0.0,1.0,Taxi
12.0,-0.23523003309946905,-8.818137758995988,7.5136698465626335,1.3736924271322437,-0.7436555356344056,33.63659341695944,10.755568094280923,0.0,1.0,0.0,0.0,1.0,Taxi
12.100000000000001,0.08800809559342673,-13.231917527932458,9.361040668353883,0.8647666042030533,-0.3258146074539176,33.409705874759425,10.005356132125126,0.0,1.0,0.0,0.0,1.0,Taxi
12.200000000000001,-0.0967830777438084,67.70885032667086,8.539278743322757,1.1430067627729132,-0.003242335648615909,33.553454427582835,10.603286177149965,0.0,1.0,0.0,0.0,1.0,Taxi
12.3,0.10331421853388506,-27.39937237216037,8.897436720276081,0.9123793287617108,-1.1576986603838848,33.66857538352855,10.14419172620011,0.0,1.0,0.0,0.0,1.0,Taxi
12.4,-0.048988766267375215,15.02280626914136,8.939738386221965,1.48390601427166,-0.1581236161022822,33.50002435450051,10.687700311061777,0.0,1.0,0.0,0.0,1.0,Taxi
12.5,-0.021669046398101674,-25.951948106529073,6.892107173520258,0.9806885174183404,-0.01934940201638038,33.59117798679023,10.10711292237159,0.0,1.0,0.0,0.0,1.0,Taxi
12.600000000000001,-0.02644552199876038,-8.479051954396965,7.2023803091359735,1.1201992003852352,-0.4324151348259796,33.59507058185824,10.975675247339854,0.0,1.0,0.0,0.0,1.0,Taxi
12.700000000000001,-0.09138402603936013,-11.337952272499477,8.190905415608762,1.2730221390277907,-0.1562554191462426,33.582963963161774,10.262572633934425,0.0,1.0,0.0,0.0,1.0,Taxi
12.8,-0.07835880776059916,18.783456716445865,8.407043850297043,0.762671694383452,-0.3661466315717551,33.54285442258117,9.93350126386474,0.0,1.0,0.0,0.0,1.0,Taxi
12.9,0.06747176158346883,-12.214473375814606,8.138681325340553,1.5967159339545545,0.17069092294749927,33.610578686112945,10.55721923114585,0.0,1.0,0.0,0.0,1.0,Taxi
13.0,-0.15245639291843327,16.47759604835016,7.761194475206413,1.3311617338586714,0.3136686452747595,33.393139649632076,9.83965848016974,0.0,1.0,0.0,0.0,1.0,Taxi
13.100000000000001,0.004029172481151574,-10.439494358588087,8.096153872776508,1.1756323379725406,0.5629106381020564,33.444107401656424,10.098312337179003,0.0,1.0,0.0,0.0,1.0,Taxi
13.200000000000001,0.015274289790528342,48.68129518161113,6.993764945776827,1.0389270157008026,0.7044235535701932,33.554059069686105,10.940145924142044,0.0,1.0,0.0,0.0,1.0,Taxi
13.3,0.0909500829896223,-22.08576312508764,7.959069628254839,1.28628869674065,-0.1176094839968926,33.56999208819997,10.652444264736681,0.0,1.0,0.0,0.0,1.0,Taxi
13.4,-0.10639964314428677,-5.998318561470626,6.921378055079236,1.184704438916399,-0.24512737753030947,33.47627108829886,10.999404335893315,0.0,1.0,0.0,0.0,1.0,Taxi
13.5,-0.014717303016824924,-35.25744485186768,7.541103813441575,1.3758904533734186,0.7549342243174088,33.60426713757249,10.193615910572618,0.0,1.0,0.0,0.0,1.0,Taxi
13.600000000000001,-0.08533714126971625,55.07179786932091,7.34251855327989,1.1097239579622764,-0.6545090493286233,33.5987347485746,11.324161466694191,0.0,1.0,0.0,0.0,1.0,Taxi
13.700000000000001,0.16895934620231767,22.828856009570007,8.158676882991182,1.003169550264577,0.1135695672032684,33.69094285994464,9.610331629098797,0.0,1.0,0.0,0.0,1.0,Taxi
13.8,0.09942697703102499,37.96415117266625,8.763396879682507,1.410345371025169,0.352839514790202,33.54110922569339,10.439304130157842,0.0,1.0,0.0,0.0,1.0,Taxi
13.9,0.10448361459361488,-5.867008179949628,7.758745496134845,0.9240711210699731,0.7684774220280542,33.445070976075726,10.567889066333354,0.0,1.0,0.0,0.0,1.0,Taxi
14.0,0.13962430530256942,-12.951246615039437,7.059323359469359,1.0309156104834238,0.7284077143621469,33.49136318779381,10.347839147877634,0.0,1.0,0.0,0.0,1.0,Taxi
14.100000000000001,0.03467074395582767,-48.325325329245054,9.803455849520626,1.197591797156031,0.48498493623542765,33.53173798549244,9.97613943414165,0.0,1.0,0.0,0.0,1.0,Taxi
14.200000000000001,-0.1371430120526105,-62.22574264225404,7.913808382407417,0.7835579999945477,-0.04170180872889399,33.57263133398965,10.700099234703085,0.0,1.0,0.0,0.0,1.0,Taxi
14.3,-0.17150440790870092,-22.31256526963699,7.993688564349414,1.1719783845222607,-0.6709698280731182,33.52331219285571,10.811974174394344,0.0,1.0,0.0,0.0,1.0,Taxi
14.4,-0.07689208239235741,41.16569539631537,8.446300178867999,1.3226271026572975,-0.10742760055822131,33.45637754949075,10.621516860476119,0.0,1.0,0.0,0.0,1.0,Taxi
14.5,0.06868546492896623,39.25266266454934,7.787806921569484,1.6396538399455605,-0.5686732818023782,33.42500074792508,10.473739089015544,0.0,1.0,0.0,0.0,1.0,Taxi
14.600000000000001,0.024758905414045695,-9.142141400440915,8.28149880298108,1.1299647803963322,0.8692457916647995,33.57385269786408,9.907290802248973,0.0,1.0,0.0,0.0,1.0,Taxi
14.700000000000001,-0.12260278939456211,-36.977527460599326,7.461809950985067,1.243183714919442,-0.018810588751347366,33.50104271707971,10.238809549503321,0.0,1.0,0.0,0.0,1.0,Taxi
14.8,-0.11620217237403052,-8.147858263793944,8.095910743730535,1.3996543933062189,-0.6303925310400492,33.58196663429851,10.535607776436287,0.0,1.0,0.0,0.0,1.0,Taxi
14.9,-0.015980385904924132,38.27158093021898,8.089401459153214,1.1127761698800125,-0.8076148901294563,33.52096177623787,10.654323735961647,0.0,1.0,0.0,0.0,1.0,Taxi
15.0,0.06875511525653268,4.962512514628377,7.985826968789156,0.9245811355071616,-0.9424689734822457,33.610468473423,9.692733936962568,0.0,1.0,0.0,0.0,1.0,Taxi
15.100000000000001,-0.09138960980088874,4.342254735777144,7.957991156325656,1.0714012972918756,0.9116151988787764,33.62562655872313,10.334854664085189,0.0,1.0,0.0,0.0,1.0,Taxi
15.200000000000001,0.005730887773961463,-38.98080979270333,8.222416172652776,0.9391124634082826,0.5005505292883442,33.37467926047276,10.530104276988572,0.0,1.0,0.0,0.0,1.0,Taxi
15.3,-0.12614893370698413,34.300025507132524,6.916785600730164,1.3764238284957204,-0.26664068573922795,33.60378521521744,10.277378832177735,0.0,1.0,0.0,0.0,1.0,Taxi
15.4,0.08011051773477379,11.373346738875725,7.846448960986457,1.1051640492182802,-0.28221223337584583,33.383759833670524,10.7037049572915,0.0,1.0,0.0,0.0,1.0,Taxi
15.5,0.06259762146834001,24.64032539424277,7.6088289181477196,1.2386170795324336,-0.1350037169581556,33.55408874370147,9.730125358563628,0.0,1.0,0.0,0.0,1.0,Taxi
15.600000000000001,-0.002947306735770369,-37.22241051628094,7.453312988639682,1.0978290136896964,0.6037991268132206,33.681355850299155,10.479324653805007,0.0,1.0,0.0,0.0,1.0,Taxi
15.700000000000001,-0.10600153484663102,-11.305555355981847,8.089003011847604,1.1247334628937284,-0.757891011104761,33.62362843111248,10.021012718649288,0.0,1.0,0.0,0.0,1.0,Taxi
15.8,0.006069844688430684,7.557392013216888,7.738440887714967,1.0536312548817153,-0.8897293662962309,33.550038846530185,10.247005805241123,0.0,1.0,0.0,0.0,1.0,Taxi
15.9,0.03483965333031397,-32.4003083498476,7.752146024783444,1.2045802832420485,-0.1571395010628938,33.51675046809544,10.586536549522542,0.0,1.0,0.0,0.0,1.0,Taxi
16.0,-0.2680030765958691,0.03686733313847412,8.099115487183758,1.148460573764019,0.223958454119867,33.415412951510746,10.36878470037979,0.0,1.0,0.0,0.0,1.0,Taxi
16.1,0.006254181354122964,-8.802498832389928,8.809457929237835,1.1057949378309313,-0.35224509841664653,33.55471295932972,10.501186164130539,0.0,1.0,0.0,0.0,1.0,Taxi
16.2,-0.009172840831635755,72.62711083816448,8.892646481041915,0.9829825667352318,-0.014038753204817933,33.49039351335131,11.06954900818544,0.0,1.0,0.0,0.0,1.0,Taxi
16.3,0.09513247759495319,-13.440464782804435,8.248639449144425,0.8208596616781778,-0.484646361496971,33.57827958341045,10.51168998656531,0.0,1.0,0.0,0.0,1.0,Taxi
16.400000000000002,-0.06094814255989933,18.144338369882796,8.484001855904939,1.1099657993937553,-0.37044536018900215,33.338682244653455,10.592284056363225,0.0,1.0,0.0,0.0,1.0,Taxi
16.5,0.08154885101777809,-8.164013754940628,7.866955623276398,0.9765899881713211,-0.18910324935957015,33.501303276017154,10.33268140409072,0.0,1.0,0.0,0.0,1.0,Taxi
16.6,0.054312408820249916,12.181912236797466,8.174655233337718,1.2225522000502398,0.7096614200331924,33.460536164458915,10.005065344861835,0.0,1.0,0.0,0.0,1.0,Taxi
16.7,-3.858137591215088e-05,-12.618948478095673,7.4520862466453295,1.3275323026895607,-0.3225529121019075,33.60114086822398,10.599866248493466,0.0,1.0,0.0,0.0,1.0,Taxi
16.8,0.018454108627299598,3.795214219296856,8.461808945532425,1.1834347089372317,-0.03513643669978567,33.688569807053625,11.323718226227378,0.0,1.0,0.0,0.0,1.0,Taxi
16.900000000000002,0.07328847991673407,7.0945861916717385,9.173368055920701,0.9032015726140619,0.10981096915181944,33.580587998985834,9.817149545888974,0.0,1.0,0.0,0.0,1.0,Taxi
17.0,0.03543434958244642,-20.948626318181663,8.028096594588872,1.4671525825381728,0.21691957481159835,33.49776475221523,9.849697993314843,0.0,1.0,0.0,0.0,1.0,Taxi
17.1,-0.08628902296360885,-41.1266037100124,7.209297975470755,0.9209850627591447,-0.45774617799342504,33.41451785203657,10.475676644914095,0.0,1.0,0.0,0.0,1.0,Taxi
17.2,-0.13234453863332804,-52.77002454674795,7.4798064252300085,1.3541336117324385,0.6741516943384125,33.72727620019987,11.358938832933516,0.0,1.0,0.0,0.0,1.0,Taxi
17.3,-0.22841577315129344,52.752818464501026,8.492600037858951,1.1765656673966898,-0.5646427944987962,33.63167031396631,10.354627572954557,0.0,1.0,0.0,0.0,1.0,Taxi
17.400000000000002,0.17747506935889612,-0.8987830327783778,8.185245457274469,1.178562880452538,-0.03500748869572341,33.647931712993454,9.939570544415684,0.0,1.0,0.0,0.0,1.0,Taxi
17.5,-0.1368384537972201,46.66061521436624,8.249917709193799,1.3120951221983586,-0.09006486921461679,33.36896411061741,10.251079661023464,0.0,1.0,0.0,0.0,1.0,Taxi
17.6,0.0048873029205376275,-48.34909281606422,8.961282196570282,1.0756175138429618,0.582668088900407,33.57806708081279,10.257754353996013,0.0,1.0,0.0,0.0,1.0,Taxi
17.7,-0.06427039472142508,25.916654556085337,8.103558067592077,1.3747228716914672,-1.3364147781501616,33.582103533093175,10.406649239429248,0.0,1.0,0.0,0.0,1.0,Taxi
17.8,-0.007255181016793535,-31.334122195659663,8.228061790629559,1.2515480320248367,0.10073278518975609,33.54262059973155,10.17081883311859,0.0,1.0,0.0,0.0,1.0,Taxi
17.900000000000002,-0.15178330805776086,-4.013035361100862,7.2606264678935455,1.3222063538163535,0.009942204899903252,33.515162259647695,10.622628589943389,0.0,1.0,0.0,0.0,1.0,Taxi
18.0,-0.08433557152692955,9.281337059394174,7.774527750337037,0.9664172089465236,0.13842238369801677,33.65031434469881,9.782354226897631,0.0,1.0,0.0,0.0,1.0,Taxi
18.1,0.039151504280177156,0.14890805402232368,8.7329354982956,1.0356976454192917,0.5226421900634833,33.32655182908235,11.108699763616377,0.0,1.0,0.0,0.0,1.0,Taxi
18.2,-0.1510387677876494,53.71137619291316,7.764237407656332,1.2160373619504692,-0.47416843074242626,33.5573169991153,10.412965775429548,0.0,1.0,0.0,0.0,1.0,Taxi
18.3,0.18422130943763607,3.8947899017711527,7.7006065592090245,1.123195872160102,-0.7416640221303689,33.6131164106655,10.876989313906034,0.0,1.0,0.0,0.0,1.0,Taxi
18.400000000000002,0.058625453789032736,2.404867443314037,7.193361688535313,0.9329270578821417,0.32359482050184585,33.588475207262604,10.969321691660038,0.0,1.0,0.0,0.0,1.0,Taxi
18.5,-0.1390144305710794,-56.07210082948526,7.3580316459619075,1.2857081941527377,-0.31025868393870215,33.47350825161237,10.653298502642492,0.0,1.0,0.0,0.0,1.0,Taxi
18.6,-0.09613919470979038,-11.389633157835794,7.475983463927159,0.9493419342882498,0.4874444700177581,33.48311943201833,10.402251158461858,0.0,1.0,0.0,0.0,1.0,Taxi
18.7,0.0016772879998535964,12.79988619874405,7.307101618106577,1.190161781489338,-0.7521133787212312,33.560444076471924,10.55419582183497,0.0,1.0,0.0,0.0,1.0,Taxi
18.8,-0.07501499957735934,38.64748479520676,8.97175303902085,1.097250946363197,-0.19931880822833714,33.524496240088354,10.3970191121751,0.0,1.0,0.0,0.0,1.0,Taxi
18.900000000000002,0.09709822926624322,10.36530169140384,7.959460668874704,1.1705503187821669,-0.308591552501594,33.649564915563246,10.25953005936587,0.0,1.0,0.0,0.0,1.0,Taxi
19.0,0.0535037964568726,-9.562038897778327,7.070343829401342,1.3359775305390298,-1.077678572966243,33.46298633444957,9.79700347020839,0.0,1.0,0.0,0.0,1.0,Taxi
19.1,-0.1228251940662512,2.5579931179697346,7.103384953680083,1.0600874546811656,0.2627545818497841,33.601830935492615,10.481514873442848,0.0,1.0,0.0,0.0,1.0,Taxi
19.200000000000003,0.10988819485609172,13.630518537657435,7.800705357038226,1.16194729892255,0.3287782636376641,33.571954406116674,11.23518535375182,0.0,1.0,0.0,0.0,1.0,Taxi
19.3,0.1216563891451596,-2.523869064067412,7.763470274551577,1.0405329683092206,-0.2626938014236373,33.51102025849303,10.112670912998148,0.0,1.0,0.0,0.0,1.0,Taxi
19.400000000000002,-0.13544453938658838,-38.2154570654194,7.874952249130413,1.339407874059512,-0.5360156332480058,33.33535426734784,10.912749332094315,0.0,1.0,0.0,0.0,1.0,Taxi
19.5,-0.08118909047100545,-47.14846396138188,9.493762288870492,0.9721203571998162,-0.514813190546086,33.46071549075674,10.608054381943266,0.0,1.0,0.0,0.0,1.0,Taxi
19.6,-0.11408593066174998,19.16696824848104,8.139853746158355,0.49331367140926874,0.5466967610746037,33.41631018052135,11.239435958555257,0.0,1.0,0.0,0.0,1.0,Taxi
19.700000000000003,-0.039609698144183365,53.13756602888867,7.632062148054993,1.1929216597087475,-0.5675800250356048,33.54707069338872,10.719446079818859,0.0,1.0,0.0,0.0,1.0,Taxi
19.8,0.1844987396734377,25.585682085421485,8.46652436304244,0.7166938042658706,-1.023749756577398,33.62645546290514,10.054283927467084,0.0,1.0,0.0,0.0,1.0,Taxi
19.900000000000002,0.013842479765357239,-33.98013100483627,8.855589547245637,1.0402381276067976,0.16808476928898522,33.51319646346394,10.605470678417529,0.0,1.0,0.0,0.0,1.0,Taxi
20.0,-0.20951035316836486,-57.06831870293306,7.117843246270903,0.8832571403078755,-0.612188161899991,33.62125244564163,9.756615789334553,0.0,1.0,0.0,0.0,1.0,Taxi
20.1,-0.10084285384122776,-17.060519548881615,7.415598173925378,0.9400077501632167,0.04273679068963563,33.56191456629955,10.466370350856735,0.0,1.0,0.0,0.0,1.0,Taxi
20.200000000000003,-0.07146011797905098,-1.2355567753989949,7.850389171352885,1.3005712189743752,-0.24304871755463414,33.5663230893357,9.75226042799513,0.0,1.0,0.0,0.0,1.0,Taxi
20.3,-0.21568813704536002,36.11532374043183,7.93463894675466,1.2809225263347723,-0.17982368109626262,33.65220935875129,10.67425284713146,0.0,1.0,0.0,0.0,1.0,Taxi
20.400000000000002,0.07973376486093124,14.805691995835199,7.032611919722095,1.3801931720842093,0.5598679612434516,33.53219219310449,10.12304792722032,0.0,1.0,0.0,0.0,1.0,Taxi
20.5,0.0025683420001248593,17.426144641520995,8.81854103829755,0.8422349389150062,-0.2534652025352445,33.564066817617345,10.514522373131053,0.0,1.0,0.0,0.0,1.0,Taxi
20.6,-0.1285574138377552,-36.9405338539583,7.750272873774095,1.265113383508271,0.18733225494906183,33.402282140410705,10.707408397546876,0.0,1.0,0.0,0.0,1.0,Taxi
20.700000000000003,-0.10496890440886045,-4.2518281234759785,8.940615442987351,1.2946232768363797,0.1833838849427372,33.61745785815492,10.563673210669519,0.0,1.0,0.0,0.0,1.0,Taxi
20.8,-0.018690798617255245,7.634134151880883,8.054178858323771,1.5561650374605152,-0.33415145555173054,33.811054039255566,10.0218841511941,0.0,1.0,0.0,0.0,1.0,Taxi
20.900000000000002,-0.09038674307835098,37.038084964708055,7.946935352125129,1.041379910674612,0.4043722066216334,33.52509082751783,10.30931942503773,0.0,1.0,0.0,0.0,1.0,Taxi
21.0,0.08022152041467961,-13.75250668048654,7.098001708958172,1.5323573404002215,-0.4287975122249276,33.4743173511381,10.431901719229922,0.0,1.0,0.0,0.0,1.0,Taxi
21.1,-0.08745333201968816,27.48678834096711,7.862595474768082,1.3337457442641787,0.4011323937346496,33.4516452340124,10.584424919516218,0.0,1.0,0.0,0.0,1.0,Taxi
21.200000000000003,0.04704719862648435,-22.10977154968397,8.096436748290138,1.0391227269461014,-0.3793147446938668,33.44219434690399,10.509609733868013,0.0,1.0,0.0,0.0,1.0,Taxi
21.3,-0.030327337333740434,11.93342140618149,7.642574470646401,0.8282096881161523,0.4583998286677764,33.38334070048728,9.822664007910301,0.0,1.0,0.0,0.0,1.0,Taxi
21.400000000000002,-0.027786224988780896,46.25541189520796,9.055112074489717,0.8830007319665525,-0.1728701221711485,33.62726297680075,10.30404049250965,0.0,1.0,0.0,0.0,1.0,Taxi
21.5,0.278324258102524,20.267920595264794,8.131592891196936,1.2184848559766812,-0.9952397922345618,33.49484809001217,10.472009004168537,0.0,1.0,0.0,0.0,1.0,Taxi
21.6,0.07101226564258341,22.288619731227232,6.318938894725257,1.151632439361676,0.8755796106984677,33.552828052351515,9.935271454131565,0.0,1.0,0.0,0.0,1.0,Taxi
21.700000000000003,0.08365687366735514,-48.631193444638846,8.498833110112763,1.136044318482757,-0.38286419425079055,33.592380655312866,11.107182125594587,0.0,1.0,0.0,0.0,1.0,Taxi
21.8,0.03516829087932962,-5.827038170653547,8.340960963760718,1.0390820124696227,-0.8976223055293102,33.48713550221254,10.927854399066629,0.0,1.0,0.0,0.0,1.0,Taxi
21.900000000000002,0.04187707478931548,-17.45547878151504,7.9456699062160805,1.1382397870065817,-0.3136304481326052,33.427809388361936,10.482124620880894,0.0,1.0,0.0,0.0,1.0,Taxi
22.0,-0.0036205202402202646,-21.386886153928685,8.33315736806521,0.9481172012351422,0.6596069428043075,33.63048484925105,11.198615601666,0.0,1.0,0.0,0.0,1.0,Taxi
22.1,-0.071766139890314,-1.9421670566909721,8.784249930759707,1.0047854205208213,-0.22039410292625483,33.786324427116256,9.852428336895397,0.0,1.0,0.0,0.0,1.0,Taxi
22.200000000000003,0.03216623950586044,-32.888438071318895,7.859587032674442,1.0854988932082583,-0.7327032306930594,33.5476453150452,9.856825421221842,0.0,1.0,0.0,0.0,1.0,Taxi
22.3,-0.16806271059681493,31.766326734306045,9.209387221168349,1.3421142757881577,-0.2800914086572328,33.61031219959301,11.39929120813698,0.0,1.0,0.0,0.0,1.0,Taxi
22.400000000000002,0.08706549378121603,24.217398672521664,8.045381533148252,0.9994652380491167,-0.37789183072129334,33.63463109209647,11.0247183095971,0.0,1.0,0.0,0.0,1.0,Taxi
22.5,0.15325323286846856,34.175127062038484,7.717349069459202,1.2841004730105547,-0.631037170982838,33.55617500465638,9.981137318426292,0.0,1.0,0.0,0.0,1.0,Taxi
22.6,0.002812924713377319,-37.50220460828001,8.338759445795192,0.951491091499171,0.8943798925421886,33.37601973517991,10.860736603306327,0.0,1.0,0.0,0.0,1.0,Taxi
22.700000000000003,-0.10044552926018419,-51.71691145745557,7.205239566542261,1.4414819939091628,0.10245155951442977,33.5153701990252,10.77242822667047,0.0,1.0,0.0,0.0,1.0,Taxi
22.8,-0.10533132441880946,24.36186587043551,7.943993467653044,1.1867740214984903,0.658514371879916,33.52990338863259,10.420939182925531,0.0,1.0,0.0,0.0,1.0,Taxi
22.900000000000002,0.12462225406555466,56.227770478450275,9.108673944120309,1.1347351980347953,-0.12546794122808858,33.65432747198929,9.949420862583569,0.0,1.0,0.0,0.0,1.0,Taxi
23.0,0.18069332313206696,-8.533014304563077,7.622678027268985,1.07098959135625,0.0032657815863998793,33.47067319167991,10.295641292055247,0.0,1.0,0.0,0.0,1.0,Taxi
23.1,-0.1479963959416251,-40.29179117757313,6.226140737122727,1.0462355180732332,0.8579441255080823,33.49877783532787,10.357497770553428,0.0,1.0,0.0,0.0,1.0,Taxi
23.200000000000003,-0.07683670182231123,-31.973156424986588,7.951495863750188,1.294746569820107,0.17934045751852515,33.64607058022881,10.692777858340714,0.0,1.0,0.0,0.0,1.0,Taxi
23.3,0.020827541007133753,66.37229497747545,8.213412005814615,1.1780572035464156,-0.3191267400584155,33.60198720773303,10.870172590489492,0.0,1.0,0.0,0.0,1.0,Taxi
23.400000000000002,0.18386507894575196,-24.23950666260954,8.756095959438001,1.1967719437514686,-0.14739105512580714,33.574815385108536,9.563830398046404,0.0,1.0,0.0,0.0,1.0,Taxi
23.5,-0.19803423513535917,-10.524828916930309,7.287644855671142,1.3844654684800746,-0.6454986766279758,33.44064670682047,11.092054168415066,0.0,1.0,0.0,0.0,1.0,Taxi
23.6,-0.03179660357751802,-3.039650952451017,7.71717084999853,1.2623289283433206,0.2432819070262576,33.577190488121516,10.109350066935452,0.0,1.0,0.0,0.0,1.0,Taxi
23.700000000000003,0.16866682418349666,39.4701430436169,8.731895027674568,1.1424893402281247,-0.7374811603839837,33.55662412266224,10.405078903270123,0.0,1.0,0.0,0.0,1.0,Taxi
23.8,-0.0006835199172748862,14.89799857863182,7.240171998568168,0.8788922503899781,-0.480707026162618,33.79794547038006,10.020265901731468,0.0,1.0,0.0,0.0,1.0,Taxi
23.900000000000002,0.04269338931564088,-61.56177563707183,7.8733096386460995,0.91187078119293,0.5645938199555817,33.684216823873555,10.834406808601676,0.0,1.0,0.0,0.0,1.0,Taxi
24.0,-0.1391420540018627,-34.22859347371201,7.941950023548164,1.0085998002411243,-0.9361817092454322,33.495435265469496,9.763814708377254,0.0,1.0,0.0,0.0,1.0,Taxi
24.1,-0.17182648728583516,-16.40777751994588,7.703426732481165,1.162665008144228,0.11557081316524545,33.631906296493185,10.875253384660422,0.0,1.0,0.0,0.0,1.0,Taxi
24.200000000000003,-0.03934549828408877,47.791488544737895,9.000754262461,1.0725702393996792,0.04074329540701635,33.464679140902604,10.515788262983204,0.0,1.0,0.0,0.0,1.0,Taxi
24.3,0.09981538872182655,37.41536371422734,7.265494416104636,1.1071176626932338,0.12768253118018472,33.49209109913613,10.936173863523523,0.0,1.0,0.0,0.0,1.0,Taxi
24.400000000000002,0.015250331285301334,21.24120833486459,8.172683350672521,1.172153846031241,-0.3877764690930404,33.66164680620386,11.021419173192248,0.0,1.0,0.0,0.0,1.0,Taxi
24.5,0.06686054339023395,-12.885746010279908,7.5937182545589845,1.0493303399048723,0.004020685829039013,33.47593232722312,10.153539729773113,0.0,1.0,0.0,0.0,1.0,Taxi
24.6,0.035386658670426806,-15.171190100666378,7.071074425540572,1.1159690210279014,0.152951397754022,33.66981072436005,10.368291726116482,0.0,1.0,0.0,0.0,1.0,Taxi
24.700000000000003,-0.06060561921803077,-38.72679987792234,7.979340368145129,1.2287793980808428,-0.1618682871444813,33.56442180539807,11.171970337735525,0.0,1.0,0.0,0.0,1.0,Taxi
24.8,-0.12677345599937798,-7.048833250217787,9.275541613952138,0.8837092241492011,0.09309780382712528,33.62616158841524,10.047503188650019,0.0,1.0,0.0,0.0,1.0,Taxi
24.900000000000002,0.00014249241933762932,-31.240948105868284,9.547818953174431,1.0285587773017473,-0.14882477408281253,33.52227375114251,10.257792594936168,0.0,1.0,0.0,0.0,1.0,Taxi
25.0,-0.21681035974737242,23.199199992541036,9.146726240492493,0.9285105308465194,0.7104278979161328,33.43617294015178,10.454476869009062,0.0,1.0,0.0,0.0,1.0,Taxi
25.1,-0.010777456036672975,5.0647155285842524,8.367528859187338,1.0729433678536566,0.06691353017992402,33.61103329692838,9.81000896638214,0.0,1.0,0.0,0.0,1.0,Taxi
25.200000000000003,0.02546607006225874,45.77498489870573,7.802917269311328,1.060206890851814,-0.16406114486988627,33.559040930052674,9.392472256827512,0.0,1.0,0.0,0.0,1.0,Taxi
25.3,0.012064564746156095,-27.006553895897763,6.843339352759557,1.2593173029154274,-0.656492603291723,33.60051700356826,9.767554261833661,0.0,1.0,0.0,0.0,1.0,Taxi
25.400000000000002,-0.14581022551616193,-12.188286341952505,7.3601628081421016,1.1242832689383073,-0.6084699535021487,33.667980448912886,9.994363571922992,0.0,1.0,0.0,0.0,1.0,Taxi
25.5,-0.03547536164750393,-4.822408674407089,8.391441858054149,0.8443566842777861,0.7478895749350191,33.50675149539768,10.154455139241673,0.0,1.0,0.0,0.0,1.0,Taxi
25.6,-0.012047478625879503,6.50487896019245,7.7070041270832155,1.2420549607433076,0.11365211698633397,33.5521327983995,10.417027743054687,0.0,1.0,0.0,0.0,1.0,Taxi
25.700000000000003,-0.11328583071519985,4.275474760750657,7.793900022011925,1.0655718137861288,-0.4116596944640562,33.53790432084128,10.047197254498608,0.0,1.0,0.0,0.0,1.0,Taxi
25.8,-0.014097987843750806,-9.476111117828191,7.238268034804389,1.3180057690036335,0.5040094135091915,33.614926587914965,10.63815637909432,0.0,1.0,0.0,0.0,1.0,Taxi
25.900000000000002,-0.059428034215020624,22.803124535292113,7.992172816134609,1.2062850711507294,0.05938938393386429,33.451844547397,9.656039648859863,0.0,1.0,0.0,0.0,1.0,Taxi
26.0,0.0007297919612605739,21.929926653662168,8.578037453241162,1.1841950984764367,0.4747578045012138,33.46314595587552,10.33042906940584,0.0,1.0,0.0,0.0,1.0,Taxi
26.1,0.09555164542455989,3.6704986727173625,8.387504283227106,1.4929556800790607,-0.2541951687557903,33.47919880954714,10.076781925677523,0.0,1.0,0.0,0.0,1.0,Taxi
26.200000000000003,-0.04107554085143397,11.740474549393669,7.954421700265067,1.3736774687121305,-0.21880417756089282,33.734126446487835,10.391163128588689,0.0,1.0,0.0,0.0,1.0,Taxi
26.3,0.059432164708228756,-0.3768955859921057,8.55866174340091,1.1980954908409378,-0.1231131981429897,33.68835930969442,8.857428842149696,0.0,1.0,0.0,0.0,1.0,Taxi
26.400000000000002,0.09366716749459919,18.85196664047113,8.601552282655149,1.1297232112251132,-0.37882676801556975,33.70565673155636,9.827642224802299,0.0,1.0,0.0,0.0,1.0,Taxi
26.5,0.053184292350921515,6.380505837959798,7.718411352895358,0.8695007639627585,0.33048818214447695,33.41034587178359,10.361811592732138,0.0,1.0,0.0,0.0,1.0,Taxi
26.6,0.09133469389802759,7.492904838746497,8.378233726258232,0.9057405278997703,-0.25823617451776315,33.545125755652066,10.570981359258825,0.0,1.0,0.0,0.0,1.0,Taxi
26.700000000000003,0.13113169168833153,-6.305233077769491,7.712579953869111,1.2028029204621398,0.27172927348267667,33.59219956260358,10.163436367770105,0.0,1.0,0.0,0.0,1.0,Taxi
26.8,0.021658126962073913,-13.647608012356606,8.268882089781505,1.0461843610956054,0.15002912360534384,33.45672097514034,10.810076329961019,0.0,1.0,0.0,0.0,1.0,Taxi
26.900000000000002,0.023096653836244412,18.86275807208214,8.549890066381469,1.1327626372245643,0.4342316911446264,33.65810687958344,9.712034458318227,0.0,1.0,0.0,0.0,1.0,Taxi
27.0,0.22544548204874207,-26.32739945757328,8.542556259196212,1.0495171917212698,0.6171989278282288,33.55822123808605,10.396088936571351,0.0,1.0,0.0,0.0,1.0,Taxi
27.1,-0.10997887032579266,-25.77456558058982,8.103227958727752,1.2990934141432835,-1.4195884979430744,33.673898961909686,10.57378936225969,0.0,1.0,0.0,0.0,1.0,Taxi
27.200000000000003,-0.10577617406670486,-58.753689046360456,6.960590610987923,1.0837241511306435,-0.4169522364725109,33.55897589904225,10.585201380235313,0.0,1.0,0.0,0.0,1.0,Taxi
27.3,-0.06832296318306037,44.00238406557628,7.689664603236613,1.0474592177535154,0.3904123026329068,33.527121223216284,10.026211021320236,0.0,1.0,0.0,0.0,1.0,Taxi
27.400000000000002,0.11003305000208861,-8.213458605128684,7.350513383445036,1.1630408966685941,-1.3569521530983386,33.4906861286168,10.07095306417456,0.0,1.0,0.0,0.0,1.0,Taxi
27.5,-0.1468434670923485,19.31967735297273,7.504120195483877,1.2982712654788515,-0.449916668703916,33.63194159972653,10.577698819223542,0.0,1.0,0.0,0.0,1.0,Taxi
27.6,0.02827542358180306,3.5843526422121883,7.721311078549513,1.4945365260659358,0.8126064066646254,33.63884542859756,10.339107519013952,0.0,1.0,0.0,0.0,1.0,Taxi
27.700000000000003,0.12795481321314933,-16.99531325512217,7.991563222191493,1.1552446776812442,-0.09765531981219559,33.60712964200741,10.2007123290826,0.0,1.0,0.0,0.0,1.0,Taxi
27.8,-0.23182003336795953,-5.077201964605706,8.609627606441434,1.2241065534229703,0.3839411236318336,33.35112088072162,9.763588444342284,0.0,1.0,0.0,0.0,1.0,Taxi
27.900000000000002,0.002889413758774378,-24.69877019124299,7.389250447627801,1.1406865836319162,-0.4736030510239729,33.555189889219605,10.648770941695572,0.0,1.0,0.0,0.0,1.0,Taxi
28.0,0.004460962256934183,64.02750141797786,8.061673087558507,0.9537800501574882,0.30920682834766333,33.49563953688619,10.381255325929748,0.0,1.0,0.0,0.0,1.0,Taxi
28.1,0.08831747372192957,2.7167621841378136,7.322851776136922,1.1237577434840393,0.33718114493447315,33.5117818900261,10.713669262374264,0.0,1.0,0.0,0.0,1.0,Taxi
28.200000000000003,0.016473224679463265,14.494031907584008,7.931561411756708,1.1683820938891352,0.21745254716641507,33.44191467875106,10.983752216708243,0.0,1.0,0.0,0.0,1.0,Taxi
28.3,0.07693112179485403,-19.04166322315844,8.33343775344393,0.8586617957312472,-0.05890130194698184,33.59982723746509,10.351499117003867,0.0,1.0,0.0,0.0,1.0,Taxi
28.400000000000002,-0.0068908423938628255,-1.1970459943081018,8.511615012343288,1.1646236127956326,-1.0109102710010522,33.65944900453451,10.550450180712518,0.0,1.0,0.0,0.0,1.0,Taxi
28.5,0.010487994707922568,32.69181278846709,8.494932737745632,1.1161812607781507,-0.3644071256055056,33.455572414372,10.51791827331154,0.0,1.0,0.0,0.0,1.0,Taxi
28.6,0.2403901857371893,0.44987364574967614,7.843747779498803,0.8811070958858572,0.5153012837541088,33.58455675523004,10.634632945167276,0.0,1.0,0.0,0.0,1.0,Taxi
28.700000000000003,-0.0046414741651146325,-38.68638997261835,7.624666180108431,0.9541212024711201,0.6642908828928307,33.51285101984905,9.66682550713849,0.0,1.0,0.0,0.0,1.0,Taxi
28.8,-0.18294395515516937,-50.12759978464285,8.791340261945,1.3094693136219053,-0.5433373008537012,33.56060008152929,10.53773546756606,0.0,1.0,0.0,0.0,1.0,Taxi
28.900000000000002,-0.010247813186025141,-49.593170773418784,7.803838963671464,1.042451808195216,0.7360417106630393,33.50108422379628,10.515085735412908,0.0,1.0,0.0,0.0,1.0,Taxi
29.0,-0.2526073280322087,60.50025566270458,8.388634986932884,1.0946215785533324,-0.2625354884924802,33.58690711202473,10.082074966109921,0.0,1.0,0.0,0.0,1.0,Taxi
29.1,0.11955732315835332,0.6874982729687531,6.760462253174664,1.1467813124361574,-0.7047470740643048,33.587210504948075,10.040908956145655,0.0,1.0,0.0,0.0,1.0,Taxi
29.200000000000003,-0.0068103218211815605,42.839967711064865,8.393166050321001,0.9138737695082007,0.6124772264968046,33.66753547594004,10.038957582535293,0.0,1.0,0.0,0.0,1.0,Taxi
29.3,-0.03840748947688455,-36.32286385365308,7.376721692510089,0.887298428859543,-0.3864380048439716,33.69955622187973,10.92757703209109,0.0,1.0,0.0,0.0,1.0,Taxi
29.400000000000002,-0.06205699610991225,-2.4791941728048172,7.765339700805293,1.2571139423426725,1.249352109112329,33.52332627318191,9.611381726028826,0.0,1.0,0.0,0.0,1.0,Taxi
29.5,-0.01920629268520579,35.78678140715604,8.392292832909975,1.1654054672272347,-0.8031871403274798,33.56894118669862,10.488215205375388,0.0,1.0,0.0,0.0,1.0,Taxi
29.6,0.14052641755889553,-19.889719140575334,6.895703786476025,1.205015203589433,0.03922724983927469,33.51752962626597,11.226077950862324,0.0,1.0,0.0,0.0,1.0,Taxi
29.700000000000003,-0.16150559181278903,-4.145419955883374,8.844893325926256,1.1364819866764586,0.8306458868614925,33.584064863821254,10.512574810676432,0.0,1.0,0.0,0.0,1.0,Taxi
29.8,-0.0399333924646228,-39.22857360327253,8.554335523729868,1.103880956943914,-0.8728513687876612,33.5208553572715,10.604728075462106,0.0,1.0,0.0,0.0,1.0,Taxi
29.900000000000002,-0.05561645045746724,31.223489303339743,7.812612026197619,1.400715364910682,0.16674226646013016,33.54344510628761,10.262380377033347,0.0,1.0,0.0,0.0,1.0,Taxi
30.0,-0.005388145296090483,12.093575684447385,8.403548697675424,1.1122774070795904,1.0428892291747904,33.359896745397066,9.653425583523786,0.0,1.0,0.0,0.0,1.0,Taxi
30.1,0.020534485957613983,5.575907762795832,8.143828508643795,1.1817505949636264,0.15017183902049622,33.491920211335525,10.54629746089628,0.0,1.0,0.0,0.0,1.0,Taxi
30.200000000000003,-0.027736911643488227,-3.7417084781154863,7.482985894691225,1.2747674664112534,0.7066814786982426,33.53246721971817,9.869654323939761,0.0,1.0,0.0,0.0,1.0,Taxi
30.3,-0.024096687686668054,3.5769358730966325,7.36562868341664,1.4577334994221571,0.2601958812560552,33.7183434306595,11.140465980441684,0.0,1.0,0.0,0.0,1.0,Taxi
30.400000000000002,0.038419165323097,2.1426190557619407,8.35812412275907,1.0192991250035874,-0.3550920154653423,33.55620251247416,10.063840465359679,0.0,1.0,0.0,0.0,1.0,Taxi
30.5,-0.01702381636467867,38.65353339757339,7.86731972086755,1.225240369486587,-0.6872845870177504,33.446010831542196,10.392191524018852,0.0,1.0,0.0,0.0,1.0,Taxi
30.6,0.16917097930119876,-4.999908272678795,7.199823068080027,1.1432187990039022,0.5331366431946805,33.597699940174266,11.176989562679932,0.0,1.0,0.0,0.0,1.0,Taxi
30.700000000000003,0.013419623959702882,10.320408467065866,8.983117283201492,1.0334744715507798,-0.06943604890310279,33.48370261895394,9.802294594465735,0.0,1.0,0.0,0.0,1.0,Taxi
30.8,0.03457822597065051,-60.06936881607111,8.58526124636679,1.1846700531500798,-1.0507670844093866,33.63032806812885,10.542925113188788,0.0,1.0,0.0,0.0,1.0,Taxi
30.900000000000002,-0.13117586477915694,14.672489839542143,7.538446151908136,1.2597821146836816,-0.44785480712439235,33.52555970852757,10.102185878407573,0.0,1.0,0.0,0.0,1.0,Taxi
31.0,0.08678207315741349,0.3746425102523598,8.486470463563885,1.3050782114874433,0.17016888118451248,33.48572229579423,10.306166962729828,0.0,1.0,0.0,0.0,1.0,Taxi
31.1,0.036451438521912204,15.931189660578283,8.000040284571732,1.443385221090201,0.0388260975249505,33.44300433538899,10.215180637072027,0.0,1.0,0.0,0.0,1.0,Taxi
31.200000000000003,-0.05151991647626561,-46.74593005141975,8.589990398207995,0.9898591998828632,0.2000365373706289,33.682581818729716,9.426675257365762,0.0,1.0,0.0,0.0,1.0,Taxi
31.3,-0.14694757709968534,-24.122156786787396,7.576714655327604,1.1339071106867202,0.16792182547020165,33.48070434831129,10.575922236601865,0.0,1.0,0.0,0.0,1.0,Taxi
31.400000000000002,-0.08415934541202488,14.298986125991789,7.8348538390242926,0.7947841682526162,-0.9298908782563501,33.682284500386345,10.26464672796034,0.0,1.0,0.0,0.0,1.0,Taxi
31.5,0.019975014153693228,3.2112468738322852,7.729518312055488,0.6604756243242751,0.7036644524111956,33.63410530228231,10.387065909106317,0.0,1.0,0.0,0.0,1.0,Taxi
31.6,-0.13089134273052402,24.89833208272121,8.204120565304333,0.8602758602885263,-0.837737815302878,33.6419627788805,10.883162377508036,0.0,1.0,0.0,0.0,1.0,Taxi
31.700000000000003,0.040332315001581034,-23.213260100722604,7.806619799395432,1.2459517480133178,0.40968784122162155,33.520083811891254,9.776469377617227,0.0,1.0,0.0,0.0,1.0,Taxi
31.8,-0.09609128634991994,13.48189946474426,7.6226100617919,1.0239725717664525,1.1826932615393417,33.528576655242944,10.273862678412714,0.0,1.0,0.0,0.0,1.0,Taxi
31.900000000000002,-0.06348184540680288,15.729711839565505,8.31316104841034,1.1974708738804942,-0.02010995979277667,33.489060848425424,10.553889784632494,0.0,1.0,0.0,0.0,1.0,Taxi
32.0,0.11898087419940845,48.03666928835772,7.141752771464199,1.5403151586373924,0.1647502789072745,33.750426511072476,10.86883807622524,0.0,1.0,0.0,0.0,1.0,Taxi
32.1,0.14409206009186856,14.7453586893225,8.147231328167837,1.334305367055318,0.35253990987597866,33.56895732233437,10.521990565639,0.0,1.0,0.0,0.0,1.0,Taxi
32.2,0.010244948039809479,-37.81051897731565,8.057393543910203,0.7199406528511485,-0.5097414402251956,33.58692723274413,10.083421704500234,0.0,1.0,0.0,0.0,1.0,Taxi
32.300000000000004,-0.07007172068716996,-29.438990545286583,8.062163793924698,1.03138313900655,0.07726228649828087,33.608177130330034,10.67651640206915,0.0,1.0,0.0,0.0,1.0,Taxi
32.4,-0.0031028926345644968,13.910116028068167,7.930789325029303,0.8238642684663271,0.036756454603588444,33.620884139161376,10.81057383259985,0.0,1.0,0.0,0.0,1.0,Taxi
32.5,0.0797955281801502,15.628639310970597,7.863788957851606,1.2293091438370494,-0.4714133913513199,33.41051679086786,10.224854065584276,0.0,1.0,0.0,0.0,1.0,Taxi
32.6,0.0080714758676829,-1.662534437640175,7.497117748568908,1.0182865205155982,-0.20201253079465087,33.23444571245733,10.915428131528968,0.0,1.0,0.0,0.0,1.0,Taxi
32.7,-0.011415564822765479,-61.40083731148328,8.40192394985476,0.9270143882296037,0.6307179343432247,33.524101391677505,10.170460172588221,0.0,1.0,0.0,0.0,1.0,Taxi
32.800000000000004,-0.22720865837726634,14.0335160117664,6.493018939842573,0.997360898929263,0.14477192781299564,33.491985270562054,10.60898968749794,0.0,1.0,0.0,0.0,1.0,Taxi
32.9,0.07823905592651477,16.188357055393485,7.667432728838998,1.4489684335155482,0.04334813500793379,33.63292637662903,10.07091400388005,0.0,1.0,0.0,0.0,1.0,Taxi
33.0,0.06952622045420183,26.55381477581122,8.314505709344623,1.050128803581872,-0.027690611397844296,33.38146502491361,9.857889153835945,0.0,1.0,0.0,0.0,1.0,Taxi
33.1,-0.09443958449821031,4.489532957992343,7.791957402787763,1.0628172378791663,0.3742102028637958,33.524164521482646,10.914061852015557,0.0,1.0,0.0,0.0,1.0,Taxi
33.2,0.10068672071647639,24.466033612152078,7.613463138521113,1.388221797236346,-0.803535749248349,33.61364616714752,9.277987786818711,0.0,1.0,0.0,0.0,1.0,Taxi
33.300000000000004,0.19185638851496212,25.182472868613118,8.275476493664748,1.0799053056296286,1.5380355972241113,33.5593992667753,10.73749859604689,0.0,1.0,0.0,0.0,1.0,Taxi
33.4,0.03147277984485518,1.2923354082684047,8.620461390496423,1.2352333021383386,0.15394187450855046,33.48732486948177,10.553014393236948,0.0,1.0,0.0,0.0,1.0,Taxi
33.5,0.10714839775781831,-27.37360421769171,7.776681521780676,1.331435024905241,-0.4636194980043407,33.37903619477743,10.371877842765075,0.0,1.0,0.0,0.0,1.0,Taxi
33.6,0.054988367426503475,3.4870497009387926,7.082727017007148,1.0477815687014596,0.13599806033195566,33.49787434013052,9.510132522962598,0.0,1.0,0.0,0.0,1.0,Taxi
33.7,0.04890802834954907,-34.98459776347489,7.982909406745154,1.5007387613605323,0.632333036160567,33.52898979466352,10.180650298042124,0.0,1.0,0.0,0.0,1.0,Taxi
33.800000000000004,-0.06777459105955617,-25.73975677140343,8.288037080280876,1.3241842137773336,0.03386353184350284,33.58195651432311,10.731309013907943,0.0,1.0,0.0,0.0,1.0,Taxi
33.9,-0.07371041643051372,-20.41074611477286,7.731837072763543,1.0569695841389688,0.018921349070255288,33.5007629177685,10.443639610796506,0.0,1.0,0.0,0.0,1.0,Taxi
34.0,-0.05314570222431528,25.18530985128774,7.751068928547617,1.3872846140896615,0.9442891243200054,33.643820658956486,10.367875411465246,0.0,1.0,0.0,0.0,1.0,Taxi
34.1,0.05815195819688245,5.937680697631961,7.779749673896431,1.0592923010737598,-0.712436512543519,33.489332464071595,10.315249650483167,0.0,1.0,0.0,0.0,1.0,Taxi
34.2,-0.044022012942354014,-12.30464687184564,8.349263880776311,0.9045034016358465,0.36504161003191554,33.671028761112325,10.532798888385129,0.0,1.0,0.0,0.0,1.0,Taxi
34.300000000000004,-0.11466893658354356,-14.634607215206993,7.653284914450817,1.511055345047771,0.28387405565540713,33.41403109332248,10.484362143298073,0.0,1.0,0.0,0.0,1.0,Taxi
34.4,-0.015021077879152595,-7.677530063625096,7.753994567180209,1.21103407182191,0.498078795363335,33.510473637146276,11.079968201603693,0.0,1.0,0.0,0.0,1.0,Taxi
34.5,-0.08240966326047956,6.062608215385395,7.468509050306232,1.1502922003539533,-0.34107366958113633,33.57300627442055,10.263695714579418,0.0,1.0,0.0,0.0,1.0,Taxi
34.6,-0.08435589550661665,23.85161431790642,8.301803394779089,1.1523646610545162,0.868702701744354,33.52538213857599,9.797752923118653,0.0,1.0,0.0,0.0,1.0,Taxi
34.7,0.10423699371037942,55.772142140115356,8.474297453733614,0.9642730208735929,-0.578039250967632,33.57577692148175,11.163593406346095,0.0,1.0,0.0,0.0,1.0,Taxi
34.800000000000004,0.19645104744009712,60.43857940538475,9.530841397479366,0.8314295395570208,0.03573408923627697,33.54061905097308,10.29997294204549,0.0,1.0,0.0,0.0,1.0,Taxi
34.9,0.21783700152030702,-19.477399761594125,8.494666202380072,1.5095850745253143,-0.327989181954626,33.40174961707794,11.52718743348911,0.0,1.0,0.0,0.0,1.0,Taxi
35.0,0.006849994902408738,-66.23633871538568,8.267858537746738,1.0275946655403678,0.18731100582383292,33.4431072185439,11.144176888789511,0.0,1.0,0.0,0.0,1.0,Taxi
35.1,-0.13473064613683136,-54.0708657778657,8.018180623718514,1.0266458706264214,-0.3314503205142194,33.467950537633044,10.81947995704158,0.0,1.0,0.0,0.0,1.0,Taxi
35.2,-0.05251732736902159,4.369775446425969,7.975506302664526,0.8696175255628675,0.9684104101317298,33.51867227301119,11.032561404084278,0.0,1.0,0.0,0.0,1.0,Taxi
35.300000000000004,0.028698872134538513,3.4513805813616947,7.763818290535713,1.0777815390581122,0.6120775204417075,33.45517351216819,10.679830709266984,0.0,1.0,0.0,0.0,1.0,Taxi
35.4,-0.11747374323002296,15.288353137853084,8.603636821194675,1.142624595670921,0.10285335812507004,33.67196565589194,10.323084137314767,0.0,1.0,0.0,0.0,1.0,Taxi
35.5,0.023924438320243734,5.728765659852932,8.474600639131733,1.4193739140212887,-0.7930381525524514,33.521709424687,10.408313528172357,0.0,1.0,0.0,0.0,1.0,Taxi
