time_s,altitude_ft,vertical_speed_fpm,ias_kt,pitch_deg,roll_deg,heading_deg,throttle_pct,afterburner_on,gear_down,flaps_deg,speedbrake_pct,weight_on_wheels,label
0.0,-0.21166578422774346,97.81931280108454,20.00993825576876,0.31151279218223565,-0.27591126615704875,272.27385654541854,22.3989793178396,0.0,1.0,0.0,0.0,1.0,Taxi
0.1,0.1143985917758717,67.2836480251991,19.58042776881138,0.48736565346914196,-1.091586628380244,272.34157731374637,22.023274833195067,0.0,1.0,0.0,0.0,1.0,Taxi
0.2,0.12475245589825211,48.44108003648014,20.631254080167803,0.6077560163275497,0.33285647173287325,272.38502352827186,22.07402146637137,0.0,1.0,0.0,0.0,1.0,Taxi
0.30000000000000004,0.030539615954657224,19.523526419902904,20.604549633055075,1.1131891787773978,0.29332021429089655,272.2177093621974,22.310694855511084,0.0,1.0,0.0,0.0,1.0,Taxi
0.4,0.2120162238753862,-34.73843842684612,19.696465866995965,0.24659663733013,0.05045854891009532,272.3334045565696,22.315455805444792,0.0,1.0,0.0,0.0,1.0,Taxi
0.5,-0.0489397362359785,-37.57229272919255,20.722508289106365,0.756528940319318,-0.09228451006665639,272.2076375662142,22.46881653008715,0.0,1.0,0.0,0.0,1.0,Taxi
0.6000000000000001,-0.1573218476913055,-30.476829499561138,20.11546195819688,0.7219673153189282,-0.1352144968179993,272.270491973386,22.86646864775858,0.0,1.0,0.0,0.0,1.0,Taxi
0.7000000000000001,0.05963207637758046,-7.869026256253292,20.370221947584174,0.5198456635724147,-0.9656704777016842,272.32309481250115,20.82876519169394,0.0,1.0,0.0,0.0,1.0,Taxi
0.8,-0.08828486751724499,49.30752336714476,20.20403608122821,0.6163698773554727,0.32459469843779876,272.3857823876847,23.165980499002067,0.0,1.0,0.0,0.0,1.0,Taxi
0.9,0.08921576914441828,-13.772047494950883,20.06980155302753,0.684831448565314,-0.33853216051126434,272.3806982536137,22.42704377805942,0.0,1.0,0.0,0.0,1.0,Taxi
1.0,-0.00922816109717395,44.39677567232588,20.46818546358087,0.5859160928197633,0.10349598183011591,272.2264147933579,22.437718578359355,0.0,1.0,0.0,0.0,1.0,Taxi
1.1,0.13369901084438443,-8.733714647900847,19.731567219842784,0.5984791747000556,0.07047115529762239,272.2836806671139,22.012126788806597,0.0,1.0,0.0,0.0,1.0,Taxi
1.2000000000000002,0.04554719590491404,-13.930497472624664,20.69845376482127,0.5859613797600175,0.4740213894431223,272.4106222101675,22.636405911589804,0.0,1.0,0.0,0.0,1.0,Taxi
1.3,-0.07888064846029728,39.344041674676795,19.309337383557402,0.5577149496575402,-0.1137374269920371,272.36451063380457,21.315490691847423,0.0,1.0,0.0,0.0,1.0,Taxi
1.4000000000000001,0.3304192192177684,7.15237394877992,20.53963205111558,0.499729052123139,-0.007522253129781102,272.2672287141047,21.606556147109565,0.0,1.0,0.0,0.0,1.0,Taxi
1.5,0.08130906564881368,5.603489745226497,19.958446565944943,0.6380245114301578,0.0359016843083589,272.1692368078959,22.54654285893235,0.0,1.0,0.0,0.0,1.0,Taxi
1.6,-0.05086319973416477,-80.36272067162817,20.112654216039527,0.6987903550590345,0.26046882777221425,272.25507954398677,22.822526209218243,0.0,1.0,0.0,0.0,1.0,Taxi
1.7000000000000002,-0.07139438414037247,-9.644184997510147,20.52670123140252,0.5724281733729848,-0.4206766974141153,272.34719475882457,22.62401613249299,0.0,1.0,0.0,0.0,1.0,Taxi
1.8,0.03308814066126294,-1.9626615517577288,20.706255194068543,0.35788846852999395,0.5785794511532167,272.28854342060754,21.212036284028844,0.0,1.0,0.0,0.0,1.0,Taxi
1.9000000000000001,-0.06067650749295339,3.4837470694730572,20.66003893292222,0.627776883580709,-0.5870458950343976,272.24925856040636,22.365295926829745,0.0,1.0,0.0,0.0,1.0,Taxi
2.0,-0.05397564879300716,-2.2824760308521186,20.144800667423915,0.858108755860513,-0.38080385495780866,272.2860078253618,22.116780468624658,0.0,1.0,0.0,0.0,1.0,Taxi
2.1,0.021675760507002387,-19.792085658363984,20.863277226141054,0.392401652706716,-0.657445159689502,272.3055686980399,22.580565974067834,0.0,1.0,0.0,0.0,1.0,Taxi
2.2,-0.15963693578477325,37.34317596627467,20.507185558067516,0.6054511343353182,-0.07229799780868126,272.36744189076126,22.2218773065112,0.0,1.0,0.0,0.0,1.0,Taxi
2.3000000000000003,0.1327402310383663,27.705371124832286,18.906836214583524,0.393574606783182,-0.12148597043030224,272.45234959737763,22.558230498629232,0.0,1.0,0.0,0.0,1.0,Taxi
2.4000000000000004,0.16020261613116393,-2.5319716708104543,20.01565017720057,0.5991719210779193,0.003175860501485726,272.2160073456748,21.530676314572137,0.0,1.0,0.0,0.0,1.0,Taxi
2.5,-0.17229679413882537,-4.4449025265746895,20.060825455091923,0.49190670093758787,-0.7676801432960033,272.3591040725869,22.608393545325573,0.0,1.0,0.0,0.0,1.0,Taxi
2.6,0.11051571840549297,-41.44199036592091,18.556874330650768,0.6618451461150888,-0.5302786937437572,272.26831131953395,22.736338945899547,0.0,1.0,0.0,0.0,1.0,Taxi
2.7,-0.047007335698440504,12.280858343522697,19.81877232007142,0.5411823697938027,0.9276767862218966,272.4189802891211,22.720362246995684,0.0,1.0,0.0,0.0,1.0,Taxi
2.8000000000000003,-0.11089250242121183,-52.876650305441935,20.24037534999361,0.6698219413868215,0.584457472352619,272.38412479681165,22.02531797422356,0.0,1.0,0.0,0.0,1.0,Taxi
2.9000000000000004,-0.1538675331217167,-4.4157808443310005,20.464813810678873,0.7112870537923032,-0.12352961433244156,272.1129891604803,22.237455477296617,0.0,1.0,0.0,0.0,1.0,Taxi
3.0,-0.06908623992009547,19.232953242810286,19.902715710675718,0.8414058165847385,0.23134785678812847,272.3113681942135,22.18430259313512,0.0,1.0,0.0,0.0,1.0,Taxi
3.1,-0.014727736207160362,18.028014673566144,19.368876888386833,0.8119792536170961,-0.06864561528119022,272.24045961665433,21.66410967104002,0.0,1.0,0.0,0.0,1.0,Taxi
3.2,-0.06372745975388595,14.851894077865026,20.11198443987158,0.699014284597608,-0.4616134099913349,272.21614572595877,22.52249411173796,0.0,1.0,0.0,0.0,1.0,Taxi
3.3000000000000003,0.005173230469229699,17.581483345051087,20.205557695657795,0.37150431321490385,-0.2116127790843687,272.1630614263561,22.793302548124995,0.0,1.0,0.0,0.0,1.0,Taxi
3.4000000000000004,0.0731796805180951,-29.481699740505235,19.901145760926266,0.8467441934022002,0.4704472580678204,272.20077454501006,22.260994068787912,0.0,1.0,0.0,0.0,1.0,Taxi
3.5,-0.2111359584564121,-29.74997644691935,20.501726573336654,0.8665108562882029,-0.6571853606541237,272.19759577819354,22.194234619177013,0.0,1.0,0.0,0.0,1.0,Taxi
3.6,-0.14357665176536702,-25.694747113199657,20.55315826506413,0.6069476688737753,0.12746343609293176,272.2162298053772,22.809060727724503,0.0,1.0,0.0,0.0,1.0,Taxi
3.7,-0.05529405504790316,78.76785287020884,20.48345636365425,0.5230557501096318,0.12915170364680054,272.2604522655099,23.331146411638866,0.0,1.0,0.0,0.0,1.0,Taxi
3.8000000000000003,0.18270330589463216,0.8849490126644923,19.59326257096833,0.5309146133333984,-0.39721425111496456,272.3032366115385,22.917225530385597,0.0,1.0,0.0,0.0,1.0,Taxi
3.9000000000000004,-0.13915190670204455,-3.0659860784930237,20.267150278658516,0.43330771370023646,0.3961388986004155,272.41239038917035,22.528212012305588,0.0,1.0,0.0,0.0,1.0,Taxi
4.0,-0.07062398544036828,-43.477572954345156,20.716744939124233,0.6323602618592851,0.1376405454378228,272.1146662754845,22.284748600656677,0.0,1.0,0.0,0.0,1.0,Taxi
4.1000000000000005,-0.034684558877093645,21.171157830261883,20.039098231124683,0.619659765273602,0.30490426590837305,272.2192216623233,22.269888505837006,0.0,1.0,0.0,0.0,1.0,Taxi
4.2,-0.03329611755073516,-16.01079624930777,19.143047840121465,0.568227862188658,0.9165038281545035,272.261334854644,21.73759326107011,0.0,1.0,0.0,0.0,1.0,Taxi
4.3,-0.15067796668690714,17.55485824770997,19.388585388290725,0.5365552251836653,-0.1331463499762369,272.36181831202066,22.222025297432186,0.0,1.0,0.0,0.0,1.0,Taxi
4.4,0.0530897323614562,-9.567216928027305,20.857497736909274,0.5617190991413529,-0.39724894118405984,272.27041133153216,22.509866079985475,0.0,1.0,0.0,0.0,1.0,Taxi
4.5,-0.08113220219087167,-2.119523694060632,20.029561255150043,0.62799074975366,-0.2722809402402784,272.4500443911786,21.546153980731887,0.0,1.0,0.0,0.0,1.0,Taxi
4.6000000000000005,-0.1612755851572103,-18.922955304773662,20.37941470921369,0.5298370546547877,-0.4205857420437889,272.31481212114613,22.10139957492005,0.0,1.0,0.0,0.0,1.0,Taxi
4.7,-0.04152504416241212,18.653832692314083,19.999669635363382,0.6350595411033161,0.9052397970014686,272.30853025625674,23.238965628720745,0.0,1.0,0.0,0.0,1.0,Taxi
4.800000000000001,0.012136961270698729,30.02281018904272,19.49850467237063,0.3966308546592313,0.020585821713988813,272.2181412642402,22.075178660084717,0.0,1.0,0.0,0.0,1.0,Taxi
4.9,-0.011161534211996713,0.9604177475689776,19.7048151754581,0.800454908801685,0.8240739645070595,272.2895315854512,22.75967261351669,0.0,1.0,0.0,0.0,1.0,Taxi
5.0,-0.03672295542456724,6.069974607131255,21.23780822340992,0.4249779654517005,0.5372259429431487,272.1989839945277,22.702593916929402,0.0,1.0,0.0,0.0,1.0,Taxi
5.1000000000000005,0.042486834306355,-10.143795227970836,19.722469824489554,0.8637564236530294,0.10886831775846591,272.32968142982077,22.09425940357675,0.0,1.0,0.0,0.0,1.0,Taxi
5.2,-0.06188051035185091,-2.4898842986891587,20.237932696537893,0.8393776845437284,-0.3781746895670596,272.2690641090851,21.602608886121565,0.0,1.0,0.0,0.0,1.0,Taxi
5.300000000000001,-0.049172376918013044,-12.713084885662411,20.007713676718947,0.5678460215133833,0.5230520108472273,272.3620427118651,22.170252637983832,0.0,1.0,0.0,0.0,1.0,Taxi
5.4,-0.021078590121957057,5.667009454852003,20.556482490314504,0.9490570244454353,-0.45588564032496265,272.3968890978347,22.240849430424742,0.0,1.0,0.0,0.0,1.0,Taxi
5.5,-0.0335454630775909,-5.055148002666791,20.269432995091865,0.6341605845296161,0.36890513739125513,272.0561007839797,21.929185780506884,0.0,1.0,0.0,0.0,1.0,Taxi
5.6000000000000005,-0.07444811693134701,18.57775248406934,20.642949320172157,1.0009357752459174,0.06644103953063142,272.2556887497949,22.237314336670433,0.0,1.0,0.0,0.0,1.0,Taxi
5.7,0.07181017229838964,-3.56532074635628,20.82250480131663,0.2751839326222256,0.20110966661734495,272.1688527585678,22.68138541099278,0.0,1.0,0.0,0.0,1.0,Taxi
5.800000000000001,-0.051372066809372334,15.732824758401103,19.677247940299967,0.5784471050624259,0.6454037831350218,272.1336789674883,21.714114606196144,0.0,1.0,0.0,0.0,1.0,Taxi
5.9,0.004216006860658461,-2.2627046745721153,20.440365700640104,0.4990897993138219,-0.05185130621996615,272.3265223847409,21.542001434519392,0.0,1.0,0.0,0.0,1.0,Taxi
6.0,0.06049664892552903,-24.013417140882165,19.62486262733179,0.641972569567851,0.47146681510612215,272.7215970979112,22.12960327397246,0.0,1.0,0.0,0.0,1.0,Taxi
6.1000000000000005,-0.17143915251378317,8.867472034641793,19.71231231584585,0.6002439079887607,0.07884468903522805,272.130197854372,22.9240731109121,0.0,1.0,0.0,0.0,1.0,Taxi
6.2,0.04855336703386738,20.605164951056057,19.64380476250705,0.516364680236361,0.5021483927463379,272.10934964095145,22.227297511898474,0.0,1.0,0.0,0.0,1.0,Taxi
6.300000000000001,0.1635224736808093,8.588611997136828,19.598628872567176,0.8159634831265368,0.15117687330363133,272.39947033501926,22.697962725993396,0.0,1.0,0.0,0.0,1.0,Taxi
6.4,-0.128496092528099,-28.444946969054723,18.85520427613016,0.4726469313087663,-0.6948288762757387,272.2572814791715,22.7153612967661,0.0,1.0,0.0,0.0,1.0,Taxi
6.5,-0.09367136781140617,-49.844222727564926,19.96380413965602,0.5917776261240855,-0.5843527677046557,272.2867744972182,22.049381809458083,0.0,1.0,0.0,0.0,1.0,Taxi
6.6000000000000005,-0.08569863995701527,58.229859138330944,19.40417871146858,0.7711769663497124,0.09870112483726604,272.3004165852095,21.947005094446297,0.0,1.0,0.0,0.0,1.0,Taxi
6.7,0.16265320316355578,32.152282315577,20.760769082533766,0.8043786820687558,-0.1909107854682426,272.24758627706115,22.027143073414912,0.0,1.0,0.0,0.0,1.0,Taxi
6.800000000000001,0.06709004376647884,-28.296401324093384,20.973993461099745,0.4898651060507693,0.7997890616924418,272.1920371530456,22.698064625372474,0.0,1.0,0.0,0.0,1.0,Taxi
6.9,-0.22718064657748216,-8.794785419141997,20.149339215324147,0.7010679229597346,0.2581045418986296,272.37026512464365,22.635812649617076,0.0,1.0,0.0,0.0,1.0,Taxi
7.0,0.11867927606784581,-25.893358650091784,20.1989464877211,0.5410531909992007,0.9829256894402703,272.31596409280223,22.491816217148855,0.0,1.0,0.0,0.0,1.0,Taxi
7.1000000000000005,-0.062376749483980025,64.20703528299029,20.157008847571937,0.7481848351978455,-0.7666162757459941,272.36219390853046,21.33727908825649,0.0,1.0,0.0,0.0,1.0,Taxi
7.2,0.09385452983746932,-19.51730331206647,21.455695277334687,0.7155984131999429,-0.4655693252209451,272.297293012909,22.000114045855415,0.0,1.0,0.0,0.0,1.0,Taxi
7.300000000000001,0.021092759507513492,34.56733955263292,20.55544495725251,0.3134243000499753,0.052062421356710895,272.24813110345826,22.158687547511345,0.0,1.0,0.0,0.0,1.0,Taxi
7.4,0.11045994827918462,-3.7563087183208146,20.786874661223173,0.8241709008212634,-0.8058889518811602,272.2918167629168,22.660695071986197,0.0,1.0,0.0,0.0,1.0,Taxi
7.5,0.07507298624586525,8.518479577769297,20.484513756754584,0.7343878015375161,-0.4388627606008325,272.291426631846,21.78009105420698,0.0,1.0,0.0,0.0,1.0,Taxi
7.6000000000000005,0.06368515739635996,-40.46932950056668,21.101430577000276,0.5037084976895655,0.5613031830139634,272.26571693545634,22.26616195963905,0.0,1.0,0.0,0.0,1.0,Taxi
7.7,-0.09188669922364878,-6.170448307137131,20.206821713293046,0.5217279999599289,-0.0029943404121219887,272.53614321351483,22.78456368786779,0.0,1.0,0.0,0.0,1.0,Taxi
7.800000000000001,0.04422074471017959,6.996491160723295,20.36611704698992,0.9906034895668115,-0.14300123621565242,272.2750772354909,22.63663893426211,0.0,1.0,0.0,0.0,1.0,Taxi
7.9,0.09866761319997644,28.820175250030672,19.943158489082577,0.6970109409019833,-0.8600268533284877,272.1924904853329,22.874714405584875,0.0,1.0,0.0,0.0,1.0,Taxi
8.0,0.052214177026504605,-0.2775082606082216,20.736208254152857,1.0692624053026745,0.9986530451729134,272.2427492545032,22.414902431651548,0.0,1.0,0.0,0.0,1.0,Taxi
8.1,0.042833203407138476,-23.987386272224047,19.75116026129551,0.3791763346222918,0.21145377896434636,272.39646101881704,22.17809891717833,0.0,1.0,0.0,0.0,1.0,Taxi
8.200000000000001,-0.021269318161143785,2.3100153252520386,20.357338513004798,0.5586108777989063,-0.003197298773696117,272.4208380221123,21.482775728257103,0.0,1.0,0.0,0.0,1.0,Taxi
8.3,0.0637642536527648,-40.17374561455927,19.931696073782465,0.43126310635773035,0.7415827418834444,272.3259801440961,21.705224491636617,0.0,1.0,0.0,0.0,1.0,Taxi
8.4,-0.15803552466565793,7.910974068831867,20.187320219559275,0.6660138102185293,-0.729487875486974,272.2013351416325,21.62672486123209,0.0,1.0,0.0,0.0,1.0,Taxi
8.5,0.018285552183015526,-6.3677824102800455,20.186206809114413,0.9303738258121168,0.6257927821407985,272.27187324920556,22.10332608027057,0.0,1.0,0.0,0.0,1.0,Taxi
8.6,0.031925341601364544,59.5680653488407,19.997716720383846,0.35761568010745776,0.8053559064572935,272.2855958799712,21.908697310875233,0.0,1.0,0.0,0.0,1.0,Taxi
8.700000000000001,0.13980480207854556,-23.22402158121841,20.195491450031497,0.5678686983770587,0.5488220858564327,272.1123746352114,22.600875379506025,0.0,1.0,0.0,0.0,1.0,Taxi
8.8,-0.09783455572307649,-29.590087949145353,20.084750056720633,1.0523087775146032,-0.059005786787647306,272.0139294808016,22.28525178185998,0.0,1.0,0.0,0.0,1.0,Taxi
8.9,-0.1160250981443622,-12.86502689447777,20.025663906355696,0.8008480874661846,-0.04288358424269685,272.5191368321647,21.951403328037543,0.0,1.0,0.0,0.0,1.0,Taxi
9.0,0.07547966760615672,-7.678717309912595,19.867310031924376,1.0159881093890488,0.7389347283881982,272.277774117572,22.78477209170638,0.0,1.0,0.0,0.0,1.0,Taxi
9.1,-0.13622814227263944,4.752307944085799,20.19959863826014,0.29388474191750846,-0.40173150128265,272.2890843928345,22.448639751019524,0.0,1.0,0.0,0.0,1.0,Taxi
9.200000000000001,-0.09226355842393318,-28.778632546532705,21.239253629181754,0.765499152717253,0.2810555748332115,272.2558638608913,22.11144305829557,0.0,1.0,0.0,0.0,1.0,Taxi
9.3,-0.06841349512650678,0.8732227733864922,20.57860927123131,0.7281418886683,0.1616962052438844,272.3518379076395,21.873754612949373,0.0,1.0,0.0,0.0,1.0,Taxi
9.4,-0.13186202840570696,12.044544058851969,19.71321138958855,0.3607785165640783,0.1318057129184582,272.3270289195765,22.480891555170007,0.0,1.0,0.0,0.0,1.0,Taxi
9.5,-0.03204083812967332,30.807401192380564,19.6235461365589,0.5964001229107203,-0.5176023716997384,272.3005398967349,21.751432972322647,0.0,1.0,0.0,0.0,1.0,Taxi
9.600000000000001,0.08562351083539606,18.38846957162741,19.387345525869115,0.4428756369806483,-0.06045895234548339,272.27370748842213,22.213047478943498,0.0,1.0,0.0,0.0,1.0,Taxi
9.700000000000001,-0.039919680547569864,19.446793233639283,20.09436612283358,0.7393672162714725,0.12982360356165576,272.2497929458043,22.64324825033439,0.0,1.0,0.0,0.0,1.0,Taxi
9.8,0.0651931280385231,-16.856671548642286,20.409904261712057,0.46932095268215396,0.672359657673723,272.31774712172796,22.170305924349222,0.0,1.0,0.0,0.0,1.0,Taxi
9.9,0.001340153092184662,1.6562172070333172,19.08254484545859,0.7150303603530387,0.7056809473121991,272.43488804725996,22.04502715269909,0.0,1.0,0.0,0.0,1.0,Taxi
10.0,-0.031638594512403244,-7.892924375769418,19.631527827313214,0.477300119736486,0.4214152734313405,272.13121784139594,23.24280810718876,0.0,1.0,0.0,0.0,1.0,Taxi
10.100000000000001,0.02572850615967607,-2.0517160296872787,19.774350157448765,0.4962848692056511,-0.5072487048372101,272.16197865931986,22.25599073959988,0.0,1.0,0.0,0.0,1.0,Taxi
10.200000000000001,-0.008918427056251687,-7.812825738208347,20.33692847972854,0.9418909772413657,0.057318717803225235,272.2175456689847,22.777889010140605,0.0,1.0,0.0,0.0,1.0,Taxi
10.3,-0.07070272320344494,7.318517420615119,20.16344404035953,0.5903844675703591,-0.7651664254326125,272.3345594539626,22.966812882277306,0.0,1.0,0.0,0.0,1.0,Taxi
10.4,0.06232109326275168,-2.525151361608323,19.356429401106748,0.3822015111766367,-0.25520682210732853,272.21687785418703,22.17470678243712,0.0,1.0,0.0,0.0,1.0,Taxi
10.5,-0.021544183864293288,12.081209070195447,20.47364689462205,0.22237942703632418,-0.10493827493631297,272.3573816634764,22.242549969405236,0.0,1.0,0.0,0.0,1.0,Taxi
10.600000000000001,-0.010296677852467694,-11.215471499296244,19.261925447637125,0.7502575084523377,0.2617143748790712,272.16960695794,21.8583694810776,0.0,1.0,0.0,0.0,1.0,Taxi
10.700000000000001,0.006243735766270483,-6.132442635842665,20.329451176738857,0.5006667661287411,-0.29798719297629744,272.3023747743845,22.158700118673003,0.0,1.0,0.0,0.0,1.0,Taxi
10.8,-0.05220639704350658,-17.673544837213885,20.30571983679467,0.662271451726617,-0.023937051233060277,272.14393368140463,21.989521868222738,0.0,1.0,0.0,0.0,1.0,Taxi
10.9,-0.09866440203853709,7.219882137234204,19.98559436351079,0.934148169585062,-1.1980862924989644,272.41450664860406,21.23404536813034,0.0,1.0,0.0,0.0,1.0,Taxi
11.0,0.04234314645244151,11.84182963077725,19.1452885258903,0.4362075776603612,-0.9702066233813138,272.28714761503204,23.0715685566937,0.0,1.0,0.0,0.0,1.0,Taxi
11.100000000000001,0.007002751110379699,31.891279676471175,19.884099460394236,0.5638064858242682,0.5611694513321199,272.21316716997967,22.791172812213084,0.0,1.0,0.0,0.0,1.0,Taxi
11.200000000000001,0.060791996343818815,18.772884017165065,20.99825901692516,0.45833678434475705,0.12360084592854866,272.1055575314483,21.972089440800133,0.0,1.0,0.0,0.0,1.0,Taxi
11.3,0.13620756653826688,-28.475454857432865,20.062227367031994,0.19338558451164767,0.06057438830126001,272.3542523600079,22.562258209306115,0.0,1.0,0.0,0.0,1.0,Taxi
11.4,-0.1353745231767846,-4.0482822633847535,21.837230074285486,0.4707847760919498,0.5160823877489942,272.3800062395417,21.721165965629375,0.0,1.0,0.0,0.0,1.0,Taxi
11.5,0.04055058502689505,-41.86842242002988,20.217024253482,0.7155091274883789,0.48011460335228684,272.3536146675307,22.038477878375385,0.0,1.0,0.0,0.0,1.0,Taxi
11.600000000000001,-0.07313454556188251,-1.8093315395413399,20.84714182784674,0.7148629557553872,0.20764039388777963,272.32993186034923,22.792737603579074,0.0,1.0,0.0,0.0,1.0,Taxi
11.700000000000001,-0.14442118087449127,-16.238939867423255,20.234929284604643,0.44697592185971413,0.8251204521404814,272.3263837263314,21.980413961095874,0.0,1.0,0.0,0.0,1.0,Taxi
11.8,-0.04064411431022119,-12.453528884978605,19.586255967882018,0.8425587971531838,-0.568937958017383,272.2729739474054,22.308563836871162,0.0,1.0,0.0,0.0,1.0,Taxi
11.9,-0.13540218998677553,60.34782092593553,20.09632360518891,0.8525356065769067,0.6097421711644774,272.3641646268877,23.13579500429986,0.0,1.0,0.0,0.0,1.0,Taxi
12.0,0.1573179237551864,-9.94753588706818,21.28852052455794,0.7560716566290208,0.4598061584785153,272.2774070111185,22.033741298406216,0.0,1.0,0.0,0.0,1.0,Taxi
12.100000000000001,-0.09038179374556203,25.13389103931006,20.67680143155483,0.19348873526795785,0.06882815450369609,272.22703339316536,22.713120375627167,0.0,1.0,0.0,0.0,1.0,Taxi
12.200000000000001,-0.009732734790225156,-33.81182753522916,21.032248842301094,0.5926806345651346,-0.6686153955559263,272.3386247202707,22.181380260138866,0.0,1.0,0.0,0.0,1.0,Taxi
12.3,-0.011741213920959372,1.7529431367783797,20.261850253736633,0.7880811859466722,-0.08436434935778596,272.45250811461733,22.63544537804874,0.0,1.0,0.0,0.0,1.0,Taxi
12.4,-0.08161707806167011,-9.905703140015994,20.08605139352059,0.5008035634134159,-0.5728564667421617,272.35907027928624,22.018970028456547,0.0,1.0,0.0,0.0,1.0,Taxi
12.5,-0.0592612504903051,29.547997141683656,18.634285801712558,0.660461051405099,-0.14249638263851697,272.27945956465214,22.313357298832262,0.0,1.0,0.0,0.0,1.0,Taxi
12.600000000000001,0.13599877178745895,30.663186209492114,19.616799424113804,0.4685208069783696,-0.7010529169148964,272.0592680641614,22.359558784351396,0.0,1.0,0.0,0.0,1.0,Taxi
12.700000000000001,0.07169885298579051,16.541180415965094,20.47686657215449,0.8943729223331187,-0.4407260411606266,272.22838604412505,22.70159709079036,0.0,1.0,0.0,0.0,1.0,Taxi
12.8,0.023444651589520412,-47.67433447460303,19.491039528351912,1.0036472115218644,0.6365611250788454,272.3218718288474,22.341168907706912,0.0,1.0,0.0,0.0,1.0,Taxi
12.9,-0.10237290058555618,-13.403055257614383,19.800777059433944,0.6343827003062185,0.2598184077676089,272.42056104607923,22.87459684215073,0.0,1.0,0.0,0.0,1.0,Taxi
13.0,0.004683576697718673,-4.073860851447776,19.040021984731293,0.3905422111451795,-0.18237199650446026,272.15867146114306,22.36781111984724,0.0,1.0,0.0,0.0,1.0,Taxi
13.100000000000001,0.0030753473322816124,-3.6013083634571075,20.956895875197294,0.4978000926254052,-0.304764392216514,272.16375177199825,21.862868187021107,0.0,1.0,0.0,0.0,1.0,Taxi
13.200000000000001,-0.12037944240284165,15.994010200711495,19.506206770134618,0.4608570678589524,0.338935518671283,272.16979750095993,22.56462298797362,0.0,1.0,0.0,0.0,1.0,Taxi
13.3,0.0846536277012762,-33.05054319926851,20.11949046679836,0.5403965784098306,-0.02173257826483572,272.4788696154417,22.319344653779645,0.0,1.0,0.0,0.0,1.0,Taxi
13.4,-0.1621773686640609,41.243458468549626,21.501625650767423,0.7533940945353511,-0.18696425473597544,272.26813702472145,21.716384910294536,0.0,1.0,0.0,0.0,1.0,Taxi
13.5,0.08583784993990652,-15.230634337205261,19.81207491309318,0.4931158226292801,-0.4781006965008893,272.27623296162574,22.633365337214173,0.0,1.0,0.0,0.0,1.0,Taxi
13.600000000000001,0.00850045601524995,30.580549645877486,20.42554380519184,0.2614134195098709,-0.08567811466427959,272.17218729365413,23.138295237049853,0.0,1.0,0.0,0.0,1.0,Taxi
13.700000000000001,-0.009274620434673432,-33.85434550622476,20.986187090735868,0.5538089968547921,0.12577363234100677,272.11004845776597,22.65739404728551,0.0,1.0,0.0,0.0,1.0,Taxi
13.8,-0.08343387759121725,-1.320713299592202,20.5719970564499,0.450366613416338,-0.3641647111564456,272.41461408330713,22.083005756797174,0.0,1.0,0.0,0.0,1.0,Taxi
13.9,0.001896889517288981,-10.658420144674542,19.45140720914698,0.40492109099127616,-0.12232182892363627,272.36782121781494,22.93198218341082,0.0,1.0,0.0,0.0,1.0,Taxi
14.0,-0.06256672115804611,34.914607027147035,19.537032392418922,0.5067051862434664,0.13149529413983643,272.30643742321945,22.441933522888693,0.0,1.0,0.0,0.0,1.0,Taxi
14.100000000000001,0.09113915754451796,7.935532028207386,20.148634767482864,0.6092809532323361,1.0686579347421727,272.33618098522436,22.145821636882026,0.0,1.0,0.0,0.0,1.0,Taxi
14.200000000000001,0.041574549658325924,-9.988618625329964,21.067547406810203,0.6457757432809247,0.467709709841674,272.1132905841516,22.137151685755306,0.0,1.0,0.0,0.0,1.0,Taxi
14.3,-0.11250981428469592,-38.21879919562299,19.369883266870517,0.8035407624799762,-0.4415057115998705,272.16191520688835,22.603001643775578,0.0,1.0,0.0,0.0,1.0,Taxi
14.4,-0.09995483843359697,-6.158604691683512,19.88344726541778,0.5879076722885374,-0.07398762287129758,272.2008351139766,22.120067943552147,0.0,1.0,0.0,0.0,1.0,Taxi
14.5,0.01078152619990837,27.13382489810068,19.697184130871012,0.39098460911383914,0.28851863883182544,272.20556264161496,22.488792710855982,0.0,1.0,0.0,0.0,1.0,Taxi
14.600000000000001,0.023159310205807485,19.84494733138955,20.070185079000343,0.5178017239832903,0.7000623941528277,272.2324066425489,22.052210757067957,0.0,1.0,0.0,0.0,1.0,Taxi
14.700000000000001,-0.0007301017766491976,-15.211341431141449,20.233025718369536,0.20765505957992347,0.5888152486299273,272.15201529160754,21.93359985609198,0.0,1.0,0.0,0.0,1.0,Taxi
14.8,-0.06527518095579886,18.83114166660611,20.77601729880619,0.9578417916367357,-0.21353675362767566,272.2317887871386,21.937192748386057,0.0,1.0,0.0,0.0,1.0,Taxi
14.9,0.11731501853883806,-8.435146974509076,20.42701470550036,0.7401638166226918,0.20391245220575985,272.19013052307196,22.30962259393776,0.0,1.0,0.0,0.0,1.0,Taxi
15.0,-0.04290583664919456,16.140014059612252,19.822085701716244,0.6489254280721384,0.7862042305130179,272.38348139694153,22.16223893580664,0.0,1.0,0.0,0.0,1.0,Taxi
15.100000000000001,0.015424889342262436,-32.55142016446976,20.23066269432346,0.42511191815839633,-0.14878255939987317,272.2471661039308,22.739593215261387,0.0,1.0,0.0,0.0,1.0,Taxi
15.200000000000001,-0.04544208228351072,10.429482310401866,19.53566678205815,0.5296903743784406,-0.40647920451758124,272.3012704322721,22.8329653375586,0.0,1.0,0.0,0.0,1.0,Taxi
15.3,0.009241574902814789,-26.380896557371745,19.64134176733658,0.5359457889490488,0.1939060500508511,272.23818388508244,22.80257841584955,0.0,1.0,0.0,0.0,1.0,Taxi
15.4,-0.11647959344459627,27.523511913896147,19.58632025302712,0.7273363768515325,-0.920149908174495,272.2274832497367,22.647934711066924,0.0,1.0,0.0,0.0,1.0,Taxi
15.5,0.09217547728597006,14.209999653899134,20.175742046977643,0.7868129818669932,0.5929277879367885,272.2281703988392,23.054848541777762,0.0,1.0,0.0,0.0,1.0,Taxi
15.600000000000001,0.0802915731723105,46.613337485379525,20.265744028150817,1.0976155658791618,-0.7738497115685741,272.26748320198635,22.115977918316148,0.0,1.0,0.0,0.0,1.0,Taxi
15.700000000000001,0.11658709398230134,-20.461646771112143,19.89024607540447,0.5831680722033846,-0.6713019356545412,272.2145098373362,21.440696096680842,0.0,1.0,0.0,0.0,1.0,Taxi
15.8,-0.010132756569590591,-54.71323099080538,20.628050427706672,0.3804529243659448,0.36790360989978693,272.42467623986954,22.74213265465445,0.0,1.0,0.0,0.0,1.0,Taxi
15.9,-0.1932745817817163,-43.82451606549074,20.07598152562353,0.6162462327735433,-0.1683174479450084,272.27183393916414,22.563106463487586,0.0,1.0,0.0,0.0,1.0,Taxi
16.0,-0.10253548634515229,-25.59862152072816,20.516338109543824,0.8562209215877438,0.21836625985929134,272.2279743685407,22.706335798708935,0.0,1.0,0.0,0.0,1.0,Taxi
16.1,-0.13812586417323133,68.26656765408156,19.16270558326569,0.656363624369389,0.7023363139069938,272.15225358735904,22.1714943696025,0.0,1.0,0.0,0.0,1.0,Taxi
16.2,0.1480582564886915,-2.833818139186377,20.370237863586706,0.391744990965596,-0.38042071956355,272.27750196502666,22.287618073781346,0.0,1.0,0.0,0.0,1.0,Taxi
16.3,-0.11670457704108413,51.52079929488159,20.378327551864167,0.4826518549405756,0.14205541237293082,272.1504062286708,22.174487181955666,0.0,1.0,0.0,0.0,1.0,Taxi
16.400000000000002,0.11947813230117668,-19.263926802273147,20.164462662846443,0.5147320801066464,-0.10383095205483642,272.24183527081163,22.046280515098882,0.0,1.0,0.0,0.0,1.0,Taxi
16.5,0.0517386224773258,9.333722795543617,20.942222577932053,0.37088898337328613,0.23142950222711134,272.53124472981494,22.707391362110993,0.0,1.0,0.0,0.0,1.0,Taxi
16.6,-0.07003596306336603,-18.02723942345148,20.063275565245213,0.6179596285141774,0.9287514291452849,272.1636300480021,22.96395305261923,0.0,1.0,0.0,0.0,1.0,Taxi
16.7,0.029341935183919327,-44.72741384578327,20.185538184834556,0.47212734475842644,0.397563104684281,272.2795488233055,22.242857929216168,0.0,1.0,0.0,0.0,1.0,Taxi
16.8,-0.17189844675159052,12.971379318729987,19.443912972947416,0.34738744016106643,0.01580392076002408,272.3321235708561,21.637372735230127,0.0,1.0,0.0,0.0,1.0,Taxi
16.900000000000002,-0.005179066469716088,-17.27390666492101,20.374624843315534,0.6551272148868733,-0.663461745966759,272.2757715425023,22.252728733541197,0.0,1.0,0.0,0.0,1.0,Taxi
17.0,-0.05702759814068571,67.6902780329163,20.518118627672973,0.8545517160650574,-0.16695600970445573,272.2986105561167,22.219520856143983,0.0,1.0,0.0,0.0,1.0,Taxi
17.1,0.16655294341299104,-1.5690428459864922,20.44153952769314,0.8525604653737066,0.29982908245948275,272.27748267317145,23.221277562155784,0.0,1.0,0.0,0.0,1.0,Taxi
17.2,-0.013024280699648439,5.234574429993606,19.684821267642953,0.33896601306167323,-0.07162234390619143,272.3427631257166,22.845930904211205,0.0,1.0,0.0,0.0,1.0,Taxi
17.3,-0.03085472599071757,-70.39793049475325,19.99360653157051,0.5443759866021274,-0.5332684430501511,272.18381678175047,22.569326199762298,0.0,1.0,0.0,0.0,1.0,Taxi
17.400000000000002,-0.18543670906077514,-23.44485085014124,20.025207958084234,0.2260383957316372,0.0954395499280786,272.37040116657226,21.776851600172087,0.0,1.0,0.0,0.0,1.0,Taxi
17.5,-0.13024853495035457,9.341039180490169,20.632257248779904,0.9331608557110751,-0.3430135432713661,272.2647073753358,22.25264012691528,0.0,1.0,0.0,0.0,1.0,Taxi
17.6,0.01585046991173337,39.795339526816775,19.225677115800437,0.42738270715882276,-0.2422094258667884,272.21349223651544,22.690292540350868,0.0,1.0,0.0,0.0,1.0,Taxi
17.7,0.01353998857330882,39.05198818132377,20.550306065184117,0.2812448744730946,0.06736837407145055,272.2770451127283,22.169434760381595,0.0,1.0,0.0,0.0,1.0,Taxi
17.8,0.0650114059562644,0.918144960676217,20.640061203686162,0.5204790090695856,-0.09916534384873145,272.18729732815893,22.46659129825979,0.0,1.0,0.0,0.0,1.0,Taxi
17.900000000000002,0.02044119471511455,30.967085177215733,19.685320631314376,0.5006702549103795,-0.5862204306236921,272.36163707575884,22.66682834057769,0.0,1.0,0.0,0.0,1.0,Taxi
18.0,0.16837541445938756,-51.82959742884187,20.475893744947367,0.3757463164090227,-0.5809052427972196,272.2136969167825,23.195364476203245,0.0,1.0,0.0,0.0,1.0,Taxi
18.1,-0.19413658118794486,1.9915984390456458,20.593320946283765,0.4884445736004331,0.07002297788577065,272.34428804784443,21.752490870803133,0.0,1.0,0.0,0.0,1.0,Taxi
18.2,0.030399186910342907,-57.339156318765525,20.87994457135071,0.530837728624447,-0.40041469757140963,272.04376272805507,22.177234372467435,0.0,1.0,0.0,0.0,1.0,Taxi
18.3,-0.11832036713443994,-3.1455259071672566,20.389017000721076,0.6224262299507299,-0.1141935406517162,272.11758004931403,21.586994909715543,0.0,1.0,0.0,0.0,1.0,Taxi
18.400000000000002,-0.20986421072378098,-19.562313758969925,20.83343861961916,0.7925318096454685,-0.65539448341867,272.37828204993025,22.76290868932573,0.0,1.0,0.0,0.0,1.0,Taxi
18.5,-0.06741238188450657,-3.2505432384545734,19.333124806308742,0.37520659251966726,-0.5735437613785942,272.32134122466687,22.40679960535837,0.0,1.0,0.0,0.0,1.0,Taxi
18.6,-0.13457308332671267,65.59369451544107,20.94450553828488,1.0741630144228944,1.2396170074512394,272.2298316523767,22.970977081928503,0.0,1.0,0.0,0.0,1.0,Taxi
18.7,0.11810426185342454,-33.41390401126586,20.371269237045084,0.606992901786507,0.9587585021519264,272.2109929138437,22.56677920876772,0.0,1.0,0.0,0.0,1.0,Taxi
18.8,-0.23448190194083574,34.57250392249167,20.03921644209772,0.6510873198413376,-0.2224292319192327,272.29849145679464,21.951791776250374,0.0,1.0,0.0,0.0,1.0,Taxi
18.900000000000002,0.03828943628574591,-8.21796621523097,20.929993722430332,0.6131705941446818,0.5581167977113095,272.2299719492951,23.527738248452323,0.0,1.0,0.0,0.0,1.0,Taxi
19.0,0.07701443077726988,27.218255849572927,19.81988188282934,0.4220049164695412,-0.3438081411184315,272.2956554005434,21.70824191873979,0.0,1.0,0.0,0.0,1.0,Taxi
19.1,-0.09839062269297089,-13.255156938395231,20.066416800941422,0.8287882900602206,-0.17914274066093244,272.20019252948737,22.080021482932256,0.0,1.0,0.0,0.0,1.0,Taxi
19.200000000000003,-0.0279863484062301,-19.388734477325432,19.65667316666854,0.8447076322929477,-0.4930694782721839,272.43994433863395,21.950593594434544,0.0,1.0,0.0,0.0,1.0,Taxi
19.3,-0.019929241609357135,26.59354818241097,19.680047815056774,0.5886251555546522,0.32977673930517826,272.3512999016307,21.830491623829,0.0,1.0,0.0,0.0,1.0,Taxi
19.400000000000002,0.03457711821908413,-0.4980559627778902,20.599186203496604,0.9745183841267848,0.1691179675528952,272.2504423144263,22.46050486959465,0.0,1.0,0.0,0.0,1.0,Taxi
19.5,-0.03047662822011939,-15.85224729579697,21.69816790799962,0.5972313794826875,0.8103707173589225,272.3610193839936,22.050863676766514,0.0,1.0,0.0,0.0,1.0,Taxi
19.6,-0.0991904780883418,8.940906643695257,20.149606394036816,0.6936024702414194,0.7383704120040697,272.4417532199127,22.370024807670326,0.0,1.0,0.0,0.0,1.0,Taxi
19.700000000000003,0.07928165143756061,21.20257162811981,20.47014701095736,0.5380458810335884,0.25164809849692427,272.3799804737614,23.34360090686245,0.0,1.0,0.0,0.0,1.0,Taxi
19.8,0.07553622992047984,62.798127730670934,19.92896689882686,0.581753121311155,-0.2525662064316575,272.17688073444344,22.62394636549738,0.0,1.0,0.0,0.0,1.0,Taxi
19.900000000000002,0.21480016056501305,-6.198863924060329,20.232412216767383,0.6682208245979537,-0.03667338638666269,272.2764629828482,21.57720615697568,0.0,1.0,0.0,0.0,1.0,Taxi
20.0,0.04828733181725914,14.883184469831187,20.315964816460188,0.9154146379090538,0.1765835945887528,272.3112557151702,22.478921706167146,0.0,1.0,0.0,0.0,1.0,Taxi
20.1,0.14995215226963596,-26.704843950085735,19.751439076738894,0.6927049683613284,0.4572749271861165,272.2879355826418,22.39167578546045,0.0,1.0,0.0,0.0,1.0,Taxi
20.200000000000003,0.08127594081458454,-19.955033524212265,20.875412360281253,0.6278578820426505,0.00019140936128204196,272.1970498908879,21.941713432277062,0.0,1.0,0.0,0.0,1.0,Taxi
20.3,-0.05148783580380201,-48.861764549794465,20.430673185906983,0.5139700547356771,0.3354263862627962,272.31184939008176,22.709865107198638,0.0,1.0,0.0,0.0,1.0,Taxi
20.400000000000002,-0.09435667047933621,-37.78331188142273,19.397645453379216,0.15619678978992124,0.7218234236090907,272.56579351974233,22.65238741518695,0.0,1.0,0.0,0.0,1.0,Taxi
20.5,-0.10764061859252894,-11.326666966620728,20.805480245263166,0.9499846233001742,0.005605567010856909,272.31913904814337,22.358444575632205,0.0,1.0,0.0,0.0,1.0,Taxi
20.6,-0.10812117063690548,0.8922212820197455,19.862403687941722,0.1940711918540976,-1.1140171089621955,272.20364513449067,21.863165319442768,0.0,1.0,0.0,0.0,1.0,Taxi
20.700000000000003,-0.08989556406923732,46.026678020177975,19.65254046733534,0.5498378378811523,0.4511498789980325,272.39552254272917,21.854424647971396,0.0,1.0,0.0,0.0,1.0,Taxi
20.8,0.12249277150836112,30.76711835330255,19.920997328636055,0.4962412195235747,0.3626867159508878,272.24408219185386,21.23192416713315,0.0,1.0,0.0,0.0,1.0,Taxi
20.900000000000002,0.04571442112960744,6.319863030510838,20.816423499529037,0.9502717511059053,-0.15882983249756527,272.2344530870769,22.25231166430893,0.0,1.0,0.0,0.0,1.0,Taxi
21.0,-0.058296248916682974,-4.500723575407169,20.0498001364119,0.4944784428279067,-0.6868480717848292,272.22885041256154,22.621110560262682,0.0,1.0,0.0,0.0,1.0,Taxi
21.1,0.09998915363132543,-18.862909217575517,20.32229247594798,0.8139873989304522,0.23682296612884754,272.2701610331917,23.21473470562915,0.0,1.0,0.0,0.0,1.0,Taxi
21.200000000000003,-0.04860012495826996,12.449080922531417,20.124143915700337,0.2130909147929393,-0.3678839172134513,272.1844657105314,21.5785053584959,0.0,1.0,0.0,0.0,1.0,Taxi
21.3,0.003949155695974305,-38.961674198735174,19.982972804262015,0.7474958587175552,0.3614143197186369,272.1588453464069,22.776007719882603,0.0,1.0,0.0,0.0,1.0,Taxi
21.400000000000002,-0.09481921736235027,0.11736032737009457,20.33935238231087,0.8598628173069909,-0.4932736126259456,272.1237466008704,21.504264558331382,0.0,1.0,0.0,0.0,1.0,Taxi
21.5,-0.04801332332141931,0.7568589749121936,19.889722746213646,0.26122517631668163,0.5207486912873182,272.4377085551291,22.129447414842577,0.0,1.0,0.0,0.0,1.0,Taxi
21.6,0.007733450570535441,-9.459560322070557,20.757210546605933,0.6691796089724517,-0.12214736270363401,272.1396136812773,22.92708114891399,0.0,1.0,0.0,0.0,1.0,Taxi
21.700000000000003,-0.14211701897270287,31.383820320504427,20.375707287908586,0.6957229131621152,0.2391414477203414,272.26723702249217,22.237414164977267,0.0,1.0,0.0,0.0,1.0,Taxi
21.8,0.10890577828110302,19.226044229172338,19.67019265780954,0.38592920938343533,0.8047771222220532,272.1490754536919,21.683198963367627,0.0,1.0,0.0,0.0,1.0,Taxi
21.900000000000002,0.10386367171639732,35.95587204851025,20.658646912205924,0.84979297918656,-0.21269411741089822,272.3061058701818,21.949031878224392,0.0,1.0,0.0,0.0,1.0,Taxi
22.0,0.03766234126984854,-16.431708789642915,20.377414152826702,0.23408778180647094,0.11067170499353063,272.2894560205576,23.051523953003457,0.0,1.0,0.0,0.0,1.0,Taxi
22.1,0.02674723433288863,8.30164922031691,20.03205010984167,0.553482978416473,-0.04993878479572661,272.3645564827681,22.30537496628251,0.0,1.0,0.0,0.0,1.0,Taxi
22.200000000000003,0.14537191781798206,-33.38190707207666,19.925365099496467,0.5086826296049125,-0.24732050823730922,272.209655587676,21.76946830871349,0.0,1.0,0.0,0.0,1.0,Taxi
22.3,-0.1292471940905346,-5.728839953288831,19.265186339269917,1.0106413261863496,-0.12787175696333797,272.2656098815745,23.720849278616768,0.0,1.0,0.0,0.0,1.0,Taxi
22.400000000000002,-0.0018969654335553783,-38.91417730674049,19.455790129608452,0.3992510463970948,-0.5786262550531323,272.15109749808425,22.5459238856948,0.0,1.0,0.0,0.0,1.0,Taxi
22.5,-0.049198968715720236,15.116752190602291,19.935374678461297,0.4652651106972582,-0.5764564992113258,272.24635808675066,22.335051075959512,0.0,1.0,0.0,0.0,1.0,Taxi
22.6,-0.05366343313752295,6.820081558121619,19.659837646983142,0.615792982100591,-0.23723979117424632,272.3134192191071,21.929230245410952,0.0,1.0,0.0,0.0,1.0,Taxi
22.700000000000003,0.03220344235705291,16.427516871435724,20.548553160375956,0.5418107727220536,0.3472233511492546,272.2754634043672,21.717651935921882,0.0,1.0,0.0,0.0,1.0,Taxi
22.8,0.03293861564145857,27.195885931919474,19.33939016970151,0.8891940948123058,0.03707041552307439,272.33301209819376,22.212870195971277,0.0,1.0,0.0,0.0,1.0,Taxi
22.900000000000002,0.08231599652207461,-2.9780914312000633,21.343945197304123,0.6633811105508032,0.37451096684304347,272.27222201304426,22.563322376939016,0.0,1.0,0.0,0.0,1.0,Taxi
23.0,0.01731298520105277,12.24636207833092,20.722567528813418,0.5373912001107587,-0.14032371748704517,272.34300862763405,23.019235234553495,0.0,1.0,0.0,0.0,1.0,Taxi
23.1,0.09417042603311335,-36.81066737162743,20.310384634392644,0.44900880091006923,-0.166501091865235,272.45603261457427,22.963587662998385,0.0,1.0,0.0,0.0,1.0,Taxi
23.200000000000003,-0.1017373403360624,10.165401202252431,19.632799364915655,0.7939914908755955,-0.07282620587530202,272.3371662840751,22.162320017425667,0.0,1.0,0.0,0.0,1.0,Taxi
23.3,0.06813999121231509,-10.831670551848182,20.71676864384268,0.4795388102732526,-0.40888347310039574,272.3216124216409,22.023423977917904,0.0,1.0,0.0,0.0,1.0,Taxi
23.400000000000002,0.040012073273872614,15.75936018944757,20.679483426003852,0.6721438758315769,0.5006457876574677,272.319960469404,21.723341919359992,0.0,1.0,0.0,0.0,1.0,Taxi
23.5,-0.022940539388824364,14.714856579781129,21.123640486638063,0.5321760707156011,0.22097009753739094,272.28600025740525,21.956994284681315,0.0,1.0,0.0,0.0,1.0,Taxi
23.6,0.14171427411122092,4.754671606115828,19.52744340822604,0.7049998370031375,-0.5909121122697274,272.31910335501846,21.591139295216774,0.0,1.0,0.0,0.0,1.0,Taxi
23.700000000000003,0.06378543130445193,-38.2869943931894,20.40900730989009,0.8199362167946312,0.7875452035639952,272.34498038991114,21.758380445010737,0.0,1.0,0.0,0.0,1.0,Taxi
23.8,-0.21437551135477123,-19.983587846566923,19.621732369309832,0.5613553596801449,-1.0939452800340825,272.2223955482401,21.465327361272784,0.0,1.0,0.0,0.0,1.0,Taxi
23.900000000000002,0.0417963348783864,-20.056992341390146,19.633381056962325,0.6197622536442057,-0.1618664007399567,272.2926401175921,22.22043306886231,0.0,1.0,0.0,0.0,1.0,Taxi
24.0,-0.03649953040249867,58.41894319785829,19.979847410078925,0.5471999316991214,-0.32882761683079736,272.2556092206796,22.627365239603236,0.0,1.0,0.0,0.0,1.0,Taxi
24.1,0.0777192046345204,13.553715247736116,20.345645195644977,0.5466239963736793,-0.5223257614548216,272.2420588101736,21.931490433568083,0.0,1.0,0.0,0.0,1.0,Taxi
24.200000000000003,0.10956491111706718,-27.562913299470335,19.673565376616498,0.7654149149458614,-0.7396925213010757,272.3111811088479,21.588014247135987,0.0,1.0,0.0,0.0,1.0,Taxi
24.3,-0.1743140968998502,-14.234195236116506,19.157111331579994,0.16783391826520944,0.4572884249493171,272.376359289799,22.959324062078835,0.0,1.0,0.0,0.0,1.0,Taxi
24.400000000000002,0.0065482284539380075,-34.36191063337719,20.58324635890353,0.7462094362638327,0.657701162555506,272.1983321937564,21.88014337552338,0.0,1.0,0.0,0.0,1.0,Taxi
24.5,-0.062244642049818645,32.21827515964673,18.754276845132885,0.7680939948273954,-0.32635848793831324,272.31835243333126,21.939923223560804,0.0,1.0,0.0,0.0,1.0,Taxi
24.6,-0.013222721101616383,-19.87321116180414,18.94120871309951,0.6355612773463281,0.09204204585460582,272.2834539750812,21.582349902705467,0.0,1.0,0.0,0.0,1.0,Taxi
24.700000000000003,-0.09281782735508251,-10.511619560427837,19.795572717594613,0.6480339535716383,-0.3144201757682815,272.34310057094467,21.22372896790504,0.0,1.0,0.0,0.0,1.0,Taxi
24.8,-0.11480273985195764,14.394599203987633,19.97353038825458,0.8209812610995605,-0.6425910750507018,272.23368189659163,22.94417246807076,0.0,1.0,0.0,0.0,1.0,Taxi
24.900000000000002,0.05875027491832198,24.533361935147898,20.096747405386488,0.6253397396498244,-0.2530727685857156,272.3290730265037,21.970595857876557,0.0,1.0,0.0,0.0,1.0,Taxi
25.0,0.02984898232065718,54.16542591610297,19.712579837998085,0.5747669784114748,-0.38046346768431105,272.40700428069476,22.506423495644423,0.0,1.0,0.0,0.0,1.0,Taxi
25.1,0.15602438972855737,-6.4081008795556755,19.576622602031314,0.7085525402467835,-0.2894702539529894,272.32227992824414,22.685735118232685,0.0,1.0,0.0,0.0,1.0,Taxi
25.200000000000003,0.026709770520543775,2.9847800471798016,19.91868127272106,0.428912057279344,0.08570913974963007,272.19491090315,21.9064683015873,0.0,1.0,0.0,0.0,1.0,Taxi
25.3,0.04477288255655636,11.197800062775878,21.09405341253373,0.704560737868207,-0.1740875151149136,272.2015577989421,23.740544605576655,0.0,1.0,0.0,0.0,1.0,Taxi
25.400000000000002,0.21201339004243694,-22.94860166628479,19.135579424646618,0.6546061396855875,-0.05276215368657713,272.2191712185851,21.518557019195875,0.0,1.0,0.0,0.0,1.0,Taxi
25.5,-0.08803323781087997,43.38924522407027,19.878272020764662,0.32782444717216414,0.7588000260337482,272.2408029592607,22.18649821328199,0.0,1.0,0.0,0.0,1.0,Taxi
25.6,0.261719108676908,-46.717620309325206,19.86286608383698,0.6808597899494997,-0.6768576411302237,272.3356153023285,23.338755923135924,0.0,1.0,0.0,0.0,1.0,Taxi
25.700000000000003,-0.021574711504188868,9.31454137221652,19.50593739791966,0.3608828494028467,1.568787097434318,272.28246643147156,22.19202866749257,0.0,1.0,0.0,0.0,1.0,Taxi
25.8,-0.041460530949797146,-57.26210037668029,19.26514163668206,0.6509775506072859,0.453818852817352,272.35610151191986,22.2517292519493,0.0,1.0,0.0,0.0,1.0,Taxi
25.900000000000002,-0.02459139320649322,30.221608080056118,19.482015236219723,0.5910528531409068,-0.21566750979029622,272.16805952552886,22.16397067598773,0.0,1.0,0.0,0.0,1.0,Taxi
26.0,0.1295333288960919,-9.581938866854538,21.518020476806363,0.6324325792352841,-0.18136098221055302,272.22826520635294,23.13350440468804,0.0,1.0,0.0,0.0,1.0,Taxi
26.1,-0.08937022528406964,20.326320902075977,20.602602187753817,0.53174645229866,0.09814340627457163,272.2796313751742,22.59768681177877,0.0,1.0,0.0,0.0,1.0,Taxi
26.200000000000003,0.07704021130388686,-32.88980131658347,20.867275842566396,0.33778891519903326,-0.2223307706900504,272.236779259644,22.767285618316063,0.0,1.0,0.0,0.0,1.0,Taxi
26.3,-0.03491567768682526,24.771701964163825,19.984576706002066,1.018404868023945,0.3331735752352957,272.1753537348666,21.896692052408948,0.0,1.0,0.0,0.0,1.0,Taxi
26.400000000000002,0.03448828453674967,17.22021328626282,20.36426839151362,0.5261337434311721,0.3678992870544707,272.2250061830981,22.26958115260617,0.0,1.0,0.0,0.0,1.0,Taxi
26.5,0.16314127773520115,23.248689926851483,19.24118528221832,0.8864736572089449,0.11291466427534241,272.2262407278631,21.675226066743797,0.0,1.0,0.0,0.0,1.0,Taxi
26.6,0.08132777194743235,-9.904354561252056,20.06782133047005,0.8390544419971073,-0.606292709572744,272.364289789213,21.992384847892588,0.0,1.0,0.0,0.0,1.0,Taxi
26.700000000000003,-0.015033488269510438,-64.42822518589905,20.15882659045849,0.40367458456659566,-0.07278667298785604,272.07595362514746,22.625198691901435,0.0,1.0,0.0,0.0,1.0,Taxi
26.8,-0.15899984819429386,3.372665219311017,20.68480279913944,0.4010766504686265,-0.6982068532112415,272.3095932227051,22.429426336662015,0.0,1.0,0.0,0.0,1.0,Taxi
26.900000000000002,0.09819109804398762,9.15499653252017,19.41383348675457,0.6091683553196159,0.42246982866211336,272.3025883888015,21.949543834604736,0.0,1.0,0.0,0.0,1.0,Taxi
27.0,0.030741494393090582,36.2151391624675,20.4426984783167,0.20481373104251438,-0.0021597732688880436,272.3656317104993,23.559550639622614,0.0,1.0,0.0,0.0,1.0,Taxi
27.1,0.022075847618043813,-16.52588203464696,20.00507640854993,0.5247815754981955,-0.1438517951434171,272.27736781601266,22.891718923326867,0.0,1.0,0.0,0.0,1.0,Taxi
27.200000000000003,0.01556168787075303,-0.8835259554724318,20.063270044626844,0.7801928545222128,-0.49583901465453745,272.22882823662917,22.763970907957162,0.0,1.0,0.0,0.0,1.0,Taxi
27.3,0.026323864615728623,13.831401971925667,19.218860476169915,0.3964201433239871,0.03370052088044299,272.16620915501676,22.839720846016885,0.0,1.0,0.0,0.0,1.0,Taxi
27.400000000000002,0.09123285747767235,4.333285336735237,19.77748676250099,0.714271299848563,-0.09503235753281204,272.36759029826726,22.731831959283422,0.0,1.0,0.0,0.0,1.0,Taxi
27.5,0.03722811455442942,-9.578677687981953,19.47503669585585,0.7152489622429617,0.28551132562458065,272.4339294876635,22.364405621274337,0.0,1.0,0.0,0.0,1.0,Taxi
27.6,-0.021569523824180935,-44.5795762287518,21.26782126598085,0.5680876299887346,-0.24101687092783716,272.1092902126011,22.402222446481662,0.0,1.0,0.0,0.0,1.0,Taxi
27.700000000000003,-0.13166502366608648,-11.070137395472315,19.812412856433912,0.21143431848971195,0.6743804400258215,272.4127101504939,21.714911820948114,0.0,1.0,0.0,0.0,1.0,Taxi
27.8,-0.018122572422931967,-2.6145280492196346,21.06286743512685,0.42016485922644686,-0.45206899524616473,272.21281807027776,21.566951902393832,0.0,1.0,0.0,0.0,1.0,Taxi
27.900000000000002,-0.03464216407027892,9.6901579536811,21.33791723059327,0.4120198301992808,-0.21859907480085727,272.22959102983555,22.340163878226917,0.0,1.0,0.0,0.0,1.0,Taxi
28.0,-0.08321423389768079,-18.928370917580068,19.81227674616984,0.4968683628622844,-0.07391424928754187,272.2558288760198,22.546477498692493,0.0,1.0,0.0,0.0,1.0,Taxi
28.1,-0.1127644270108321,29.143386254912116,19.81447455245076,0.8968496690112905,-0.37182815167555405,272.49053704932044,22.131288474740476,0.0,1.0,0.0,0.0,1.0,Taxi
28.200000000000003,0.11107476720428187,33.6066058277969,20.852953162725566,0.6389527210337228,0.37562100573119755,272.1845742298766,22.798807836975353,0.0,1.0,0.0,0.0,1.0,Taxi
28.3,0.0848187952413039,14.749277406519008,20.39762046976122,0.5214767387401843,-0.17233112699927935,272.221403736982,21.94927077377586,0.0,1.0,0.0,0.0,1.0,Taxi
28.400000000000002,-0.03901803997823687,-3.1049024353339454,19.980749211539063,0.5231950472875135,-0.03410820311509782,272.2392285581076,23.791745235496283,0.0,1.0,0.0,0.0,1.0,Taxi
28.5,0.09555025502761234,-19.2164201945018,20.873587698732347,0.57003346062473,-0.45540309296375625,272.21526286972096,22.02962548377499,0.0,1.0,0.0,0.0,1.0,Taxi
28.6,-0.011263305731204907,15.261268904247023,19.86490692621843,0.813567793711242,-0.5151290441568979,272.35756550488986,22.38935440436038,0.0,1.0,0.0,0.0,1.0,Taxi
28.700000000000003,0.03728830454299845,-29.613326863867158,20.05603552093719,0.6334020138138695,0.08074399407655353,272.2765041751443,22.20417736060966,0.0,1.0,0.0,0.0,1.0,Taxi
28.8,-0.05251637929172324,9.069809677001698,20.350891852514113,0.5794317087573125,-0.3825986641664113,272.4545928647691,22.412176545843092,0.0,1.0,0.0,0.0,1.0,Taxi
28.900000000000002,0.034085742653803784,15.52689889276074,20.54296053640114,0.5444193255876989,-0.0967328990831858,272.168558756758,21.903418473835195,0.0,1.0,0.0,0.0,1.0,Taxi
29.0,0.11492279900680236,26.050009269523088,19.526201072566995,0.4430013610795398,-0.7720460224424917,272.4318107366331,22.5054182596723,0.0,1.0,0.0,0.0,1.0,Taxi
29.1,0.07773366705589241,23.088130829801372,19.382770842584794,0.5175240435336813,0.39731482876810337,272.1703973977767,22.797198957396304,0.0,1.0,0.0,0.0,1.0,Taxi
29.200000000000003,0.14952639680281085,-24.091869586272356,19.59101615605238,0.7521358460397422,0.19575099910347085,272.40189170177973,22.118039383028893,0.0,1.0,0.0,0.0,1.0,Taxi
29.3,-0.0055365489245592335,-29.50364253918534,21.64720003642739,0.7928160531693251,0.24429272784517064,272.26644862498847,22.81574153602248,0.0,1.0,0.0,0.0,1.0,Taxi
29.400000000000002,-0.0697845456400341,-60.35912642346079,19.909971882026912,0.7048176341237715,0.21677869219819115,272.2804373932818,22.213700256557008,0.0,1.0,0.0,0.0,1.0,Taxi
29.5,-0.15226923531449293,-20.93298885322288,20.111141152587052,0.6973128579850083,0.1936531416307317,272.3504268683223,22.214444014611058,0.0,1.0,0.0,0.0,1.0,Taxi
29.6,-0.11020149319067346,17.890432634054516,20.6399379008593,0.47313825476840243,-0.10076148479060293,272.3441222590511,22.766467900886962,0.0,1.0,0.0,0.0,1.0,Taxi
29.700000000000003,0.01966761753023866,36.47955753391786,19.295087285470213,0.5907744935401396,-0.4345460766181977,272.33160978746696,22.586975896984285,0.0,1.0,0.0,0.0,1.0,Taxi
29.8,0.03012855235509654,12.925575214112015,21.096381388855665,0.7714792053648916,-0.28424207928419365,272.1167774343962,23.397960807092954,0.0,1.0,0.0,0.0,1.0,Taxi
29.900000000000002,-0.045573617120113194,11.334771192089795,19.463107964294522,0.39851688496596216,-0.23730132043601737,272.17867389058654,22.43325301108669,0.0,1.0,0.0,0.0,1.0,Taxi
30.0,0.07634147349068782,1.6659290083131673,20.562554565825256,0.8745977115147526,-0.127857203240956,272.28115110591943,22.924810406095457,0.0,1.0,0.0,0.0,1.0,Taxi
30.1,0.03845819739666256,19.892231668149808,20.53961736263972,0.5915079795271668,0.07083179545352164,272.0864683527126,21.65142986089674,0.0,1.0,0.0,0.0,1.0,Taxi
30.200000000000003,0.05388754122063605,-35.8715654893152,20.576307997698457,0.7607647303880601,0.5945599454977178,272.204771750841,21.868087374411658,0.0,1.0,0.0,0.0,1.0,Taxi
30.3,-0.103016353955888,-13.6369041786433,19.24048764891217,0.36472642817733647,0.5562195976552984,272.23374198550505,22.29106081034651,0.0,1.0,0.0,0.0,1.0,Taxi
30.400000000000002,-0.02972632349655373,-7.757380761126471,20.436622073970742,0.30490891430114275,0.0873426849774935,272.4919924223134,21.747993582402486,0.0,1.0,0.0,0.0,1.0,Taxi
30.5,0.015100637415003886,-18.441104387767314,19.46926251135859,1.1939801719148413,-0.23973922397926423,272.3066252356482,22.982735331384376,0.0,1.0,0.0,0.0,1.0,Taxi
30.6,-0.1952218758947244,25.261587611961787,19.31439525550518,0.8091689556350388,0.38346911733978334,272.327139343882,22.565142752941703,0.0,1.0,0.0,0.0,1.0,Taxi
30.700000000000003,0.09658161456325538,16.70706901312921,20.797205623013596,0.8505372724737645,-0.8188464226970288,272.11726138444374,22.235622918875336,0.0,1.0,0.0,0.0,1.0,Taxi
30.8,0.09863598248065011,3.514850734070033,19.972076115424702,0.6634089935789942,-0.3799144030652863,272.2527158649244,21.83268347776559,0.0,1.0,0.0,0.0,1.0,Taxi
30.900000000000002,-0.17764762222437405,-25.857174012258028,19.57592674599946,0.6844286532913046,0.07732313208567819,272.1655528903327,22.20808934849236,0.0,1.0,0.0,0.0,1.0,Taxi
31.0,-0.032704255498034566,-10.115060155286924,20.850070156875887,0.5627797003529689,-0.9522105361438442,272.332295307531,22.644617890649624,0.0,1.0,0.0,0.0,1.0,Taxi
31.1,0.04806068170421568,42.13408792295332,20.749535741887172,0.4400275711811634,0.38752403388591866,272.40951229595953,21.652401247897114,0.0,1.0,0.0,0.0,1.0,Taxi
31.200000000000003,0.03302281739039278,5.855229493326373,19.365990213780698,0.4813576576670389,0.28833839691643076,272.1570253294833,22.406726294136732,0.0,1.0,0.0,0.0,1.0,Taxi
31.3,-0.003428108031402501,-6.017852526315717,19.973249199082076,0.5145360292394999,-0.9055904507677547,272.1741121177214,22.200752858479575,0.0,1.0,0.0,0.0,1.0,Taxi
31.400000000000002,0.0179714190726373,-12.621428664708423,19.86788510792869,0.812848796053467,-0.03267698327919591,272.25046960007603,22.598916672992328,0.0,1.0,0.0,0.0,1.0,Taxi
31.5,-0.030084325933149136,18.872052634531176,19.116745628551794,0.3177177310607923,0.14814914604261506,272.2359710534861,22.260588797921063,0.0,1.0,0.0,0.0,1.0,Taxi
31.6,0.09093215514125357,-8.692032219631521,20.286956505296935,0.5483654760335351,0.4540269129387384,272.3412282966914,22.871671315778542,0.0,1.0,0.0,0.0,1.0,Taxi
31.700000000000003,-0.02548874202552012,-14.266345947515743,20.378525052477023,0.7668666420067817,-0.16930883192347554,272.43065267860607,21.70507328298957,0.0,1.0,0.0,0.0,1.0,Taxi
31.8,-0.10141605567072767,-46.1966409822152,20.660491608782927,0.7147387103157199,0.6379014964942501,272.08462754621223,22.916813812649735,0.0,1.0,0.0,0.0,1.0,Taxi
31.900000000000002,-0.14005104976982222,26.485679656499475,20.41054364780507,0.4171228168189405,-0.9372111642630754,272.19390956083,22.695501307192032,0.0,1.0,0.0,0.0,1.0,Taxi
32.0,0.10693965625697749,13.127922214278646,19.765958028764217,0.5483568907889934,0.282462745803961,272.32339182511237,23.035228906202533,0.0,1.0,0.0,0.0,1.0,Taxi
32.1,-0.0357764445993342,43.67124144327054,19.821849900292968,0.8161586122864841,-0.13401662341144555,272.3379780217016,20.974169083059174,0.0,1.0,0.0,0.0,1.0,Taxi
32.2,0.07830515744653072,-7.850120130597081,20.40320051921391,0.4698314994728213,0.5680714216318161,272.2224520189802,22.589215640014896,0.0,1.0,0.0,0.0,1.0,Taxi
32.300000000000004,0.0676890556039923,1.6184248165515551,19.937793646772263,0.5726834387394373,-0.12195226583698861,272.0263076822582,21.954929160517256,0.0,1.0,0.0,0.0,1.0,Taxi
32.4,-0.027684320516576218,-16.783025828726718,20.889087513525368,1.0749527475953355,-0.6494043818521897,272.1141528422793,22.44232346187269,0.0,1.0,0.0,0.0,1.0,Taxi
32.5,-0.005609971697102676,-22.68024910206815,20.447188144810205,0.5008433009092039,0.10312616741534353,272.26608549146465,23.13667680790496,0.0,1.0,0.0,0.0,1.0,Taxi
32.6,-0.04571218990634826,0.28726172018132345,21.02958952164246,0.5624981692325111,0.6864906725849997,272.25651478712564,22.561003881260266,0.0,1.0,0.0,0.0,1.0,Taxi
32.7,-0.026248011915669407,8.632840233759547,21.41636732760095,0.6698544268239626,-0.18612153289588323,272.3816589585765,22.295906820499358,0.0,1.0,0.0,0.0,1.0,Taxi
32.800000000000004,0.03755422947169525,-7.470099328837596,20.254991467488036,0.46783161419960806,-1.1944398402298964,272.3047574711484,22.248956756421446,0.0,1.0,0.0,0.0,1.0,Taxi
32.9,-0.08306268655053606,29.99157779869743,20.792190165918925,0.49625493077312144,-0.3020635485783712,272.1891838234692,22.03542765249805,0.0,1.0,0.0,0.0,1.0,Taxi
33.0,0.12370987707781794,-1.836472506878529,20.995033465297773,0.40996692316390293,-0.903113141555996,272.19622292738984,21.4076621440891,0.0,1.0,0.0,0.0,1.0,Taxi
33.1,0.028371866937302804,23.918856778947184,19.75218140242845,0.6326319607174129,-0.6104543942344517,272.386913203738,22.09353500155341,0.0,1.0,0.0,0.0,1.0,Taxi
33.2,0.03653159734420008,-2.27405894271894,19.545478079151213,0.8857731476392526,0.7896362713302894,272.150739759747,21.81242990948896,0.0,1.0,0.0,0.0,1.0,Taxi
33.300000000000004,0.11233958236422344,-10.403266924572199,20.502998458450936,0.8054829933206868,1.267580122397091,272.48358841471463,22.475539587638067,0.0,1.0,0.0,0.0,1.0,Taxi
33.4,-0.023644467685557995,-17.638360108149076,19.287675883054373,0.09890992666221454,-0.14379058946590048,272.22481130360825,22.050568644155515,0.0,1.0,0.0,0.0,1.0,Taxi
33.5,-0.05166020319654512,7.709065247015242,19.34204686881208,0.35121767810960697,-0.5310580852889711,272.3170666315534,22.378550856596327,0.0,1.0,0.0,0.0,1.0,Taxi
33.6,0.15088490859929982,31.85933036067667,19.845161208108312,0.6186582417535896,0.0902902051598656,272.28080763259254,21.727871812860982,0.0,1.0,0.0,0.0,1.0,Taxi
33.7,0.13565218411782554,35.06065490320085,19.26473051349481,1.062691046467107,-0.215412714470192,272.1930660550287,21.64917626135883,0.0,1.0,0.0,0.0,1.0,Taxi
33.800000000000004,0.12364307131945929,-25.979115058044744,20.50552795533272,0.5291964335988163,-0.3050259257766647,272.4162842743683,21.74277247898536,0.0,1.0,0.0,0.0,1.0,Taxi
33.9,0.02098933330907629,-56.43917581693953,19.80601644975161,0.5261241011626129,0.269809474759609,272.33340306169066,21.636568208580186,0.0,1.0,0.0,0.0,1.0,Taxi
34.0,-0.14654369496687195,-16.33493999094596,19.561597662202082,0.603610161444668,0.22430563367674106,272.3867117599848,22.22480735797776,0.0,1.0,0.0,0.0,1.0,Taxi
34.1,0.04196837136472968,7.685899350266236,20.456466925416827,0.5131546268225009,0.7106452964676806,272.20193030543135,22.513254294024378,0.0,1.0,0.0,0.0,1.0,Taxi
34.2,0.059418830060407685,41.0973626918512,20.083861666419192,0.5543671482301604,-0.1356311255725242,272.2732913989348,21.744473923459168,0.0,1.0,0.0,0.0,1.0,Taxi
34.300000000000004,0.05894311849238429,-15.205076257132697,20.24523157998438,0.5127763672875089,0.28233855848810163,272.40660068323825,22.330559765563102,0.0,1.0,0.0,0.0,1.0,Taxi
34.4,-0.0340570099209336,5.841352010006088,19.349905722580942,0.8014445870598539,-0.20117247640378655,272.5743145218398,22.63226383631318,0.0,1.0,0.0,0.0,1.0,Taxi
34.5,0.08862559011043833,3.971602569554264,19.524496228554355,0.37298994106049727,0.4036258776329868,272.307267464035,22.341280944744835,0.0,1.0,0.0,0.0,1.0,Taxi
34.6,0.07880113134015582,14.07532776055154,19.900724755226154,0.31150375907961725,-0.09403564479223857,272.25877407673295,22.191856459135064,0.0,1.0,0.0,0.0,1.0,Taxi
34.7,0.0363196288818243,-19.041278933075848,20.728565558618165,0.8794903645260248,-0.6337999469211285,272.24098479427084,22.811881478561364,0.0,1.0,0.0,0.0,1.0,Taxi
34.800000000000004,-0.006580804554940723,-24.943923799985935,20.45011540156503,0.41921309189674333,-0.9201500766945157,272.23964702746366,21.26977790740348,0.0,1.0,0.0,0.0,1.0,Taxi
34.9,-0.04591848765977366,-49.55799763489599,20.26441608455092,0.5466119291787078,0.6342096130368826,272.28757918707504,23.16332662463794,0.0,1.0,0.0,0.0,1.0,Taxi
35.0,-0.21147035929265545,-18.148974233919006,21.016880784075575,0.6845259627806617,-0.7420957678102226,272.3267198189262,22.429816900506314,0.0,1.0,0.0,0.0,1.0,Taxi
35.1,-0.09732567572453554,1.2027127775267594,19.786401225380263,0.34668816021585963,1.106938361246005,272.2847850312751,22.141941873974528,0.0,1.0,0.0,0.0,1.0,Taxi
35.2,-0.03990492377213966,69.18475389077445,20.10258736814162,0.8726567562604868,-0.11859635892771209,272.31833276161103,22.094625014731704,0.0,1.0,0.0,0.0,1.0,Taxi
35.300000000000004,0.13445341016121692,3.2885205788345786,19.685938070472695,0.5019050553148316,-0.41384679304379873,272.2953605439052,22.102303047056925,0.0,1.0,0.0,0.0,1.0,Taxi
