time_s,altitude_ft,vertical_speed_fpm,ias_kt,pitch_deg,roll_deg,heading_deg,throttle_pct,afterburner_on,gear_down,flaps_deg,speedbrake_pct,weight_on_wheels,label
0.0,0.036037494890232766,49.395020133435764,14.700630971094435,1.2203869812762334,-0.10279202989057035,128.7834029422654,12.354418584619514,0.0,1.0,0.0,0.0,1.0,Taxi
0.1,0.2006875620016853,13.799069691255411,14.776580929758824,1.3145297862526752,0.18283770944592137,128.71203940484577,11.81170744631701,0.0,1.0,0.0,0.0,1.0,Taxi
0.2,0.10503284334650981,-1.5208045944176927,14.500257258967096,0.7364699547136981,-0.412211716278158,128.54557636245033,12.6982821928097,0.0,1.0,0.0,0.0,1.0,Taxi
0.30000000000000004,0.028433471918144288,-38.03903324977272,14.991231834677242,0.7070640994336259,0.3029936246509237,128.56221735276927,13.40837183345281,0.0,1.0,0.0,0.0,1.0,Taxi
0.4,0.010492395752821713,-33.79807025910623,14.413073741176756,0.5839505049235256,-0.10300155405722776,128.60242819091235,12.557920569074064,0.0,1.0,0.0,0.0,1.0,Taxi
0.5,-0.06395750794902136,25.70163547169091,14.699586461791666,0.7981505632099226,0.5780632481650207,128.66779100198482,12.062865344662242,0.0,1.0,0.0,0.0,1.0,Taxi
0.6000000000000001,0.15694164927659884,-14.351997899207708,13.220031963807719,0.8290601841550133,0.12288657900770111,128.65780142610197,12.043109059418647,0.0,1.0,0.0,0.0,1.0,Taxi
0.7000000000000001,-0.06126759374321681,7.378164025512348,14.538165757916495,1.1181996507273535,0.5096574341479019,128.75568355363924,12.67608008755761,0.0,1.0,0.0,0.0,1.0,Taxi
0.8,-0.027066687821459597,-33.7466917296636,13.312831522125581,0.936864323904278,-1.8147528655651397,128.77280722084572,12.030650733256948,0.0,1.0,0.0,0.0,1.0,Taxi
0.9,-0.011791809371719152,32.99306387475145,13.563902562504474,0.98572187851239,0.12254785260215352,128.7184400084525,12.44443762031926,0.0,1.0,0.0,0.0,1.0,Taxi
1.0,0.10369772563054046,7.0087988312296945,14.012738967671359,0.9857385812030213,0.9660794750929476,128.90636481182617,12.30822984522441,0.0,1.0,0.0,0.0,1.0,Taxi
1.1,0.007977306334688879,-27.445163645894585,14.34131303690713,0.9138076306953977,-0.6321278942913209,128.72233249755993,13.150906777704359,0.0,1.0,0.0,0.0,1.0,Taxi
1.2000000000000002,-0.14901762760119208,-7.413127098818563,14.703571491944125,1.0050878735629212,0.5117311277029496,128.78108524984145,12.512983398428364,0.0,1.0,0.0,0.0,1.0,Taxi
1.3,0.06663209013644764,-12.216515973709948,14.014627634064489,1.2258200958226109,0.11505460967631193,128.7648838631178,12.011601798355043,0.0,1.0,0.0,0.0,1.0,Taxi
1.4000000000000001,-0.053105273533860846,9.55108750742829,14.263360932734942,1.4106527088679897,0.08810569280345606,128.8281945462595,12.732401099312714,0.0,1.0,0.0,0.0,1.0,Taxi
1.5,-0.1012621900640506,-17.6940212663001,14.29312608944482,1.1796927891406603,-0.04228053460622311,128.5516249073387,11.713455465470904,0.0,1.0,0.0,0.0,1.0,Taxi
1.6,-0.021838016195052844,21.23147011343971,13.863311026021384,1.240583731330637,0.6511939095220226,128.8110425011157,12.403611404782671,0.0,1.0,0.0,0.0,1.0,Taxi
1.7000000000000002,0.0530520770333377,1.8752764103628152,13.150638942200013,1.254918569267876,0.6390271506647146,128.7836686030331,11.704750860834828,0.0,1.0,0.0,0.0,1.0,Taxi
1.8,-0.09188580801223652,-5.5572367141200045,14.135417451329463,0.926243232878595,0.7591033309407761,128.8280340089006,12.619541111343658,0.0,1.0,0.0,0.0,1.0,Taxi
1.9000000000000001,-0.04962419976565287,-9.935704804019656,14.406598380043237,1.2317339383265515,-0.07230928338848618,128.69256034039608,12.15242448560974,0.0,1.0,0.0,0.0,1.0,Taxi
2.0,0.0033735530132394213,-1.9315430435449816,13.932737824332222,0.8948960239891177,-0.6448084801965543,128.81717786957745,12.905455741689886,0.0,1.0,0.0,0.0,1.0,Taxi
2.1,-0.10154352322996144,-3.548528986801339,14.994224247708928,1.0290463441138413,-0.2926355123337726,128.86117537271542,12.719459793477531,0.0,1.0,0.0,0.0,1.0,Taxi
2.2,-0.06736684469965958,9.261866256313652,13.973062200025275,0.9827207445268656,0.24797310205820897,128.76321984743026,12.419513284933565,0.0,1.0,0.0,0.0,1.0,Taxi
2.3000000000000003,0.04968288429480769,21.13347921775741,14.179515785506915,0.9401612740465365,0.10311425711508179,128.78589799419098,12.44474881473829,0.0,1.0,0.0,0.0,1.0,Taxi
2.4000000000000004,0.004123872858825635,-7.918168494430105,14.484570126393514,1.0783438930616525,0.009717063645231193,128.69338182703302,12.69924385897878,0.0,1.0,0.0,0.0,1.0,Taxi
2.5,-0.10695768717181008,-21.91195711846318,14.586626716159193,0.8317573774667696,-0.4734716008456867,128.7404464032653,12.077803426111386,0.0,1.0,0.0,0.0,1.0,Taxi
2.6,-0.05987690129750822,-13.246759160560481,14.40926344866862,0.799382709074066,-0.5555707775499419,128.66657578059596,12.729083730950913,0.0,1.0,0.0,0.0,1.0,Taxi
2.7,-0.06210992294397676,9.516679004019334,14.177362767457545,0.996152904674201,-0.026549815755900878,128.75553919640754,12.166770815246318,0.0,1.0,0.0,0.0,1.0,Taxi
2.8000000000000003,-0.05937429215171341,1.615217808211117,13.658753764453385,1.0675652633660593,-0.4342169194721895,128.71536520761845,12.530199930110799,0.0,1.0,0.0,0.0,1.0,Taxi
2.9000000000000004,-0.05180081225645264,-0.3130750331333238,14.348837812443252,1.0563216646442264,0.06350671230146816,128.5651418555144,13.044840767013188,0.0,1.0,0.0,0.0,1.0,Taxi
3.0,-0.06367529810964338,37.371424898816876,14.75768143664774,1.1754655244179437,-0.14614635704136644,128.60698428917794,11.47996330655737,0.0,1.0,0.0,0.0,1.0,Taxi
3.1,0.12748283234237098,-1.5642383735236791,14.927622585124212,0.8888345518711096,1.068592438519635,128.85696870649127,10.848562551083338,0.0,1.0,0.0,0.0,1.0,Taxi
3.2,-0.05962200412407101,20.06370366553479,14.688995266637878,1.216145266638704,0.09876265927101388,128.69083278202453,12.647147947453337,0.0,1.0,0.0,0.0,1.0,Taxi
3.3000000000000003,0.03664322021803057,-29.394294081750335,14.699921663885835,0.5719502228850637,0.2869839950238884,128.69980443254804,11.702235859287233,0.0,1.0,0.0,0.0,1.0,Taxi
3.4000000000000004,-0.01948863806638071,-10.254313377221358,14.333506783507652,1.2490865151061572,-0.12608826158852088,128.73017389675306,12.332697845626457,0.0,1.0,0.0,0.0,1.0,Taxi
3.5,-0.11089357101017781,-16.932606632533677,13.599272062093128,1.2378780982834225,0.15692594829118908,128.6759747417732,13.024360778558071,0.0,1.0,0.0,0.0,1.0,Taxi
3.6,-0.04801981294463783,33.235962838202646,14.332577696812349,1.2139577305484515,-0.633684685105504,128.64955993840795,12.577893217513761,0.0,1.0,0.0,0.0,1.0,Taxi
3.7,0.1466911761246325,29.719732813409294,14.429061890230232,0.9830447525518858,0.036196254965936106,128.74051525577403,12.3312648923501,0.0,1.0,0.0,0.0,1.0,Taxi
3.8000000000000003,0.0377050930568687,-22.101528905983894,13.734550273979064,0.823783589488106,-0.4027888082482738,128.7400657256452,12.445292724950933,0.0,1.0,0.0,0.0,1.0,Taxi
3.9000000000000004,-0.15852745747455727,-31.618992043070396,14.595450623444675,1.0094818428237295,0.6677628619905678,128.86711607558834,12.306878856354682,0.0,1.0,0.0,0.0,1.0,Taxi
4.0,-0.011403784090719498,-21.39477660316466,13.567414477532537,1.1025397217594117,0.08237024056752067,128.65467523379448,12.560912892802634,0.0,1.0,0.0,0.0,1.0,Taxi
4.1000000000000005,-0.06926878995895462,50.345134941663865,14.989231115634414,1.2056791911041695,-0.3794889629431677,128.7759718633422,12.44485004944669,0.0,1.0,0.0,0.0,1.0,Taxi
4.2,0.09319821723376202,-38.77389857552874,14.542033812402876,0.8906235976751984,-0.07899803822436406,128.6821706488626,10.844595552209364,0.0,1.0,0.0,0.0,1.0,Taxi
4.3,-0.20527327696836323,-19.541575310578438,14.284760401298913,1.074679598203404,0.5623034772055503,128.8099553287518,12.870313180026221,0.0,1.0,0.0,0.0,1.0,Taxi
4.4,-0.16697666651184684,0.934247878872327,14.238969715414731,1.0834598246840905,-0.06103999413592988,128.55131907103947,11.592831917482698,0.0,1.0,0.0,0.0,1.0,Taxi
4.5,0.09786945662812364,39.976158612620054,14.278022186688595,1.1706861011331373,0.4088590370722561,128.7267120636866,12.115049971248087,0.0,1.0,0.0,0.0,1.0,Taxi
4.6000000000000005,-0.005392483905262938,6.420404753912085,13.438819275104816,1.1256472622173643,-0.4484521832440247,128.73886648741325,12.263961823088955,0.0,1.0,0.0,0.0,1.0,Taxi
4.7,-0.13487464274228642,-34.31338020572643,13.432338314505337,0.8116976635650333,0.22647764618197594,128.88835840329642,13.14344588865265,0.0,1.0,0.0,0.0,1.0,Taxi
4.800000000000001,-0.07369744440050853,7.665351498618047,13.790448410026091,1.1923661056086703,-0.32143093116893084,128.61216523227006,11.920015800060934,0.0,1.0,0.0,0.0,1.0,Taxi
4.9,0.03293427358782728,26.06001983361756,14.335489406891185,0.85689624463762,0.09283001740934281,128.8395599677276,12.507339401493596,0.0,1.0,0.0,0.0,1.0,Taxi
5.0,-0.004574543574198613,3.2638409694752752,15.261598296306524,0.9297993521583026,0.4233815381652745,128.71670239438106,12.390238102570368,0.0,1.0,0.0,0.0,1.0,Taxi
5.1000000000000005,-0.05737823955313215,-1.6816561202526046,14.10418384626968,0.9089854474818092,-0.16347845516208526,128.6389102444041,12.349047397124055,0.0,1.0,0.0,0.0,1.0,Taxi
5.2,0.02452599298656427,6.85563085570431,13.393095811601484,1.1200422789784545,-0.47475925503296657,128.78766568969058,12.348834879178908,0.0,1.0,0.0,0.0,1.0,Taxi
5.300000000000001,0.029703610704322952,-3.5238226473915284,14.649133593314849,1.0168035418041195,-0.5793884881773458,128.757884337154,12.225568973909589,0.0,1.0,0.0,0.0,1.0,Taxi
5.4,-0.07499735279008977,-12.945409857494093,14.154320339285077,0.8476627938972199,-0.42595897761275825,128.64481577674235,12.768439551384173,0.0,1.0,0.0,0.0,1.0,Taxi
5.5,-0.040201056300906174,18.847427418081843,13.40986380360666,0.7072270021779371,0.11014736473794708,128.56558797775256,12.50666284987098,0.0,1.0,0.0,0.0,1.0,Taxi
5.6000000000000005,0.12394074779473219,41.97759854850684,13.544292338701451,0.9520881688021935,-0.26579367112477764,128.77891111637393,12.491278858675441,0.0,1.0,0.0,0.0,1.0,Taxi
5.7,0.13489063995244444,13.543838145203793,14.878500815675867,0.9346061285885634,-0.418980284438265,128.7045780832376,12.84968441068242,0.0,1.0,0.0,0.0,1.0,Taxi
5.800000000000001,0.027518134425112768,-6.255449909569914,14.01792177563758,1.125607830252835,0.613943674742194,128.6776103225833,11.748436769156722,0.0,1.0,0.0,0.0,1.0,Taxi
5.9,0.0926634982468826,-55.53305633238156,14.40108848916153,0.6943763842642343,-0.11301082410730583,128.69047639109328,12.597024451210318,0.0,1.0,0.0,0.0,1.0,Taxi
6.0,-0.1427746417094634,7.8074295197515085,13.22762274433112,1.26230942170717,-0.09506185521686944,128.6857667021892,11.872949875183135,0.0,1.0,0.0,0.0,1.0,Taxi
6.1000000000000005,0.06655528202387027,-50.173521140653065,14.926653469372106,1.0556127550440089,0.20643772321930104,128.6856201963484,12.498532140328223,0.0,1.0,0.0,0.0,1.0,Taxi
6.2,-0.15820410745638283,40.59531235961063,14.017781965419228,1.0611622247035775,-0.2755331945666996,128.57671628904575,12.451620410410007,0.0,1.0,0.0,0.0,1.0,Taxi
6.300000000000001,0.06020192008858968,-23.54390507802955,13.873590518331252,0.8739156715578041,0.5219165648870255,128.63015925559108,12.362407617798937,0.0,1.0,0.0,0.0,1.0,Taxi
6.4,-0.051164243366277506,32.39570361340742,14.946530192678152,1.1871451019188866,1.2704113710123344,128.55776813352065,11.88753413289463,0.0,1.0,0.0,0.0,1.0,Taxi
6.5,0.003774410610654264,-59.645968326657034,13.028493677084924,1.0038843872419014,0.2972171412886358,128.7889016431791,12.648943271854625,0.0,1.0,0.0,0.0,1.0,Taxi
6.6000000000000005,-0.23802792154469554,13.53488915475424,12.973391464286083,0.7601637109377238,-0.4184477459304409,128.70655831574663,12.399224762054871,0.0,1.0,0.0,0.0,1.0,Taxi
6.7,0.016510202407493693,12.682095999584066,14.917411114693122,0.8262215031023903,0.26084437278365397,128.63389425517403,12.639780974005662,0.0,1.0,0.0,0.0,1.0,Taxi
6.800000000000001,0.0671848906085746,94.3980344202616,14.087589564097854,0.7470889898803723,0.375261143784591,128.67659742343255,11.334994799500599,0.0,1.0,0.0,0.0,1.0,Taxi
6.9,0.23396225055661246,11.816612527324764,14.264707792474834,0.8365538743300956,-0.46941557632073083,128.7630169013553,12.374014556260422,0.0,1.0,0.0,0.0,1.0,Taxi
7.0,0.07559326504411745,-13.341276935989901,14.434369249508416,0.8561370053131508,-0.4300299747197473,128.847952786725,12.008701676949324,0.0,1.0,0.0,0.0,1.0,Taxi
7.1000000000000005,0.0004785059286250484,-25.637032710571436,13.938404224886574,0.9577706659332282,0.10388350130156239,128.7838380150643,12.897820546564507,0.0,1.0,0.0,0.0,1.0,Taxi
7.2,0.10577708700375521,-9.844219829202514,13.343450550430425,0.7458265508726175,0.1464259733969262,128.85149209393694,12.661167111992922,0.0,1.0,0.0,0.0,1.0,Taxi
7.300000000000001,0.02637216589810486,25.51945955185776,13.013105881473617,0.7168665966800598,-0.5892012754749458,128.78425914230115,12.573149154593994,0.0,1.0,0.0,0.0,1.0,Taxi
7.4,0.1280758036879138,-12.593890974162592,14.871765815006766,0.9384191443144386,-0.1311930290347866,128.58014046752078,12.401672091002725,0.0,1.0,0.0,0.0,1.0,Taxi
7.5,0.04280763213294221,32.78180902211327,14.251275880493163,1.1142633584685064,-0.21667009717348293,128.77875084141664,11.702055073071577,0.0,1.0,0.0,0.0,1.0,Taxi
7.6000000000000005,0.1902812110086712,-29.632639508198178,14.39935971610741,0.5634766767247532,0.2472203706594407,128.54595311056391,12.269946673547524,0.0,1.0,0.0,0.0,1.0,Taxi
7.7,-0.020087393853077097,-9.056491925369194,14.753293905656012,1.1657157247972278,0.15180988059461345,128.82066789304008,11.810187852997634,0.0,1.0,0.0,0.0,1.0,Taxi
7.800000000000001,-0.0024748274939037683,-32.52370735521727,13.054887990610407,0.9930378381761931,-0.6899632108217811,128.75506712643164,12.261526715743598,0.0,1.0,0.0,0.0,1.0,Taxi
7.9,0.027662674232584863,-11.8137929726692,13.35121453909916,0.9678479849529719,-0.20395809679297888,128.68110371066075,12.732432323306158,0.0,1.0,0.0,0.0,1.0,Taxi
8.0,-0.0791563587164231,47.239636198160746,13.037334753765052,0.6526225987855941,0.807806221788469,128.59751016061443,12.43058238965853,0.0,1.0,0.0,0.0,1.0,Taxi
8.1,0.23372335349689988,0.7337425629217526,14.450778248060006,0.5061444728843694,0.5342330050896504,128.81057782869607,12.568189200726778,0.0,1.0,0.0,0.0,1.0,Taxi
8.200000000000001,0.03133138704719354,1.3545583572695108,14.311224179361439,0.9108788091418091,-0.23105903146255105,128.77656488457558,12.763383994088013,0.0,1.0,0.0,0.0,1.0,Taxi
8.3,-0.07238356693007562,-36.448929755273056,14.216013801262331,1.1605241651710863,-0.5280075428821572,128.6386339619943,12.123293138840571,0.0,1.0,0.0,0.0,1.0,Taxi
8.4,0.05147870472053454,11.443906843555979,15.764567536724327,0.8718545472415313,-1.0526721140726312,128.48781921233052,12.078911294138619,0.0,1.0,0.0,0.0,1.0,Taxi
8.5,0.08855092126497344,5.622911029722981,14.445436494645719,0.29473990319381804,0.1123453186410366,128.67043458330465,13.328045587321391,0.0,1.0,0.0,0.0,1.0,Taxi
8.6,-0.04426901178146073,12.110166450761312,14.488900819999843,0.6926374757362039,0.08193093416799938,128.82896853328714,11.994368610935066,0.0,1.0,0.0,0.0,1.0,Taxi
8.700000000000001,0.11202953697434109,-14.795163246128562,13.60887179239438,0.9646592790176985,-0.9887398006610914,128.84921598072515,12.045959664081538,0.0,1.0,0.0,0.0,1.0,Taxi
8.8,0.014575105034330625,18.858886630170556,13.94363056204459,1.051218181445444,0.968128557567375,128.7453681905564,12.570583564105718,0.0,1.0,0.0,0.0,1.0,Taxi
8.9,0.050025421369392024,-23.119347610806077,14.734991110782975,0.8258975467867904,-0.23224713672665698,128.66484499771536,12.528542102902154,0.0,1.0,0.0,0.0,1.0,Taxi
9.0,-0.003567201079689294,-26.159148714219345,13.56622633102441,1.1563086932938262,-0.20371342688379954,128.5000611932985,13.696927289649533,0.0,1.0,0.0,0.0,1.0,Taxi
9.1,-0.1162206385367661,2.7938615387568384,13.63486149793815,1.1201208212982285,-0.09686487248531875,128.85417588182895,12.468036900283087,0.0,1.0,0.0,0.0,1.0,Taxi
9.200000000000001,0.06399472906317623,0.8470761974036188,13.190074446315577,0.8420121531579792,-0.5429962287837264,128.65186035543348,12.497443071897592,0.0,1.0,0.0,0.0,1.0,Taxi
9.3,0.0006681799073288224,19.993160419718222,13.99374964911135,1.3762370689392331,-0.5065289696208247,128.68259834450532,12.141995127514072,0.0,1.0,0.0,0.0,1.0,Taxi
9.4,-0.016254836438174974,30.92922921809212,14.103385642555347,0.8991052493320654,-0.2849023291088517,128.6979578360437,12.918659962778113,0.0,1.0,0.0,0.0,1.0,Taxi
9.5,0.21864087515363684,-2.756388259149626,13.018380853496772,1.3359326241627099,-1.255987360246263,128.74784204287118,12.853051085990126,0.0,1.0,0.0,0.0,1.0,Taxi
9.600000000000001,-0.013113761388419291,-11.892910091896965,14.324379772142496,0.8639975187942934,-0.5203852318841476,128.65125948460684,12.46337801136197,0.0,1.0,0.0,0.0,1.0,Taxi
9.700000000000001,-0.07571938689765977,-43.770813949261175,13.080429753434478,1.2601379269800959,0.40607909922167934,128.70825740696262,12.458823576733362,0.0,1.0,0.0,0.0,1.0,Taxi
9.8,-0.00021319459266902973,-5.281107883423356,14.20168522607727,1.2345221086190392,0.07660675894616141,128.61772201967653,12.678112305684815,0.0,1.0,0.0,0.0,1.0,Taxi
9.9,-0.03951930080553606,47.90645380988176,13.860319510022993,1.1902141172234457,-0.35931390429825744,128.81663947555728,12.997686270959246,0.0,1.0,0.0,0.0,1.0,Taxi
10.0,0.16381288215174905,-26.56756710080546,14.390725570790316,1.108953907336728,0.2905261423675851,128.8653992535643,12.824875284839816,0.0,1.0,0.0,0.0,1.0,Taxi
10.100000000000001,-0.13305103009669633,13.58209214452659,15.003363763159557,0.9072756740542945,0.026136827942304756,128.70820004605957,11.920201796542536,0.0,1.0,0.0,0.0,1.0,Taxi
10.200000000000001,0.028391159917096856,-40.072488298428624,14.941621005533275,1.039281935815443,-0.2499572882940743,128.79508432340754,12.503844343077285,0.0,1.0,0.0,0.0,1.0,Taxi
10.3,-0.036549559340394104,27.072827735051707,14.162257255680853,0.6145304412614965,0.2525480977097126,128.6492701731397,12.378797544181683,0.0,1.0,0.0,0.0,1.0,Taxi
10.4,0.0023131085785621985,9.185456372461474,13.688570373779635,0.6864999185906807,0.3057176895053825,128.7871527315703,12.924874736758763,0.0,1.0,0.0,0.0,1.0,Taxi
10.5,0.0743184417794042,14.770484104649086,13.84506546835861,0.6505550324662877,0.6933013295273905,128.77359784796647,12.695206884411437,0.0,1.0,0.0,0.0,1.0,Taxi
10.600000000000001,0.03730286118285133,12.627030639780036,13.960275285525473,1.0057363430429809,0.24880016728544552,128.7204744631798,11.932672835482323,0.0,1.0,0.0,0.0,1.0,Taxi
10.700000000000001,0.06544826177746237,0.9029082284457962,13.777042410419869,0.6375510657906306,-0.5686179505012126,128.59045840287672,12.766616224508255,0.0,1.0,0.0,0.0,1.0,Taxi
10.8,0.07883298292163318,-8.329071767921285,13.89094016646527,0.9852701915184199,-0.4293638252597478,128.6573011516217,12.621285482734255,0.0,1.0,0.0,0.0,1.0,Taxi
10.9,-0.0043424976567551015,-18.009498234762535,14.006143978941187,0.9957854388043071,0.2906425990075803,128.66496875792444,12.880138440375822,0.0,1.0,0.0,0.0,1.0,Taxi
11.0,-0.024599229396350307,-43.31819479205714,14.151247718608335,0.7435477615097481,1.1816802662706478,128.572388366307,12.63297812599855,0.0,1.0,0.0,0.0,1.0,Taxi
11.100000000000001,-0.13775799103865255,-36.351988736986236,13.77315169500097,0.7537940837487406,0.14345581288375808,128.57709805717013,11.292715350706965,0.0,1.0,0.0,0.0,1.0,Taxi
11.200000000000001,-0.1861024413416863,31.023895607899032,15.056988976193352,1.042630158364832,0.7222176012896245,128.8325569825388,12.431404888015686,0.0,1.0,0.0,0.0,1.0,Taxi
11.3,0.13052024864314482,26.726161569041654,14.72107091488836,0.8405823742790776,-0.24341548451535594,128.81408321279264,11.733755692462593,0.0,1.0,0.0,0.0,1.0,Taxi
11.4,-0.004127183193444307,46.740559180551685,14.682761417162043,1.051850237936875,-0.6336969702006946,128.6333790933565,13.20157831314314,0.0,1.0,0.0,0.0,1.0,Taxi
11.5,0.04760035456107209,-62.32286511261835,14.403290172945505,0.9406991079113207,-0.4932201541250204,128.90943046709583,11.654533670876981,0.0,1.0,0.0,0.0,1.0,Taxi
11.600000000000001,-0.18109407691994697,-5.739014368733014,13.79986349296277,1.0045747546103148,0.0370989369292214,128.69081941247737,12.271898679002966,0.0,1.0,0.0,0.0,1.0,Taxi
11.700000000000001,-0.032822255037109435,-1.2976362140467639,14.000642499323515,0.9973557506413062,-0.47852804065835686,128.8079200907565,12.179609529994874,0.0,1.0,0.0,0.0,1.0,Taxi
11.8,0.041112173490838205,42.25900145975023,12.97601868239181,0.8297039261193457,0.9527574481426118,128.59109178561363,13.055455869569958,0.0,1.0,0.0,0.0,1.0,Taxi
11.9,0.03020093037880416,16.322866776830566,13.83099481609654,1.0038523361461837,-0.3051323043667428,128.78427851233903,12.001748224851228,0.0,1.0,0.0,0.0,1.0,Taxi
12.0,0.048792078847043396,-25.785987127517416,13.981157620871185,1.0448848182195427,0.24277541828617002,128.76843450940112,11.469293332958834,0.0,1.0,0.0,0.0,1.0,Taxi
12.100000000000001,-0.08781776214674887,-9.686164961388348,13.792651533087678,0.801187743914684,0.754715366272406,128.85130331344476,11.50057865880137,0.0,1.0,0.0,0.0,1.0,Taxi
12.200000000000001,-0.01822989442813757,8.96497365313319,13.045068494686404,1.4246486289328555,-0.45236323267675815,128.75058634532837,12.106453651251202,0.0,1.0,0.0,0.0,1.0,Taxi
12.3,0.09361694711270935,19.14678770711029,14.253575178445656,1.2587984705156812,0.9686405563615285,128.70553583815456,12.268123450988439,0.0,1.0,0.0,0.0,1.0,Taxi
12.4,0.007916176388802605,15.343332439869663,14.279564129709376,0.9644309844994604,-0.4298992029581708,128.6675288325199,12.45671267746409,0.0,1.0,0.0,0.0,1.0,Taxi
12.5,0.05848676777121077,-37.277878263417215,13.729355412232362,1.0887823471405704,0.10554201503181408,128.92126540370202,12.110989430668297,0.0,1.0,0.0,0.0,1.0,Taxi
12.600000000000001,-0.09277244420437666,28.84836793238128,15.572544862605044,1.1136460794057021,0.31494565965050225,128.68806766360768,12.508543973841782,0.0,1.0,0.0,0.0,1.0,Taxi
12.700000000000001,0.15215801605070906,-12.172991977652122,13.39032896282199,1.0847515939419377,-0.16897010776984647,128.81564005222356,12.065723407541137,0.0,1.0,0.0,0.0,1.0,Taxi
12.8,-0.0023781921170498,31.064716176523415,13.982274572308937,0.9666647148877138,0.2760933534725929,128.93543670903813,12.574947024717273,0.0,1.0,0.0,0.0,1.0,Taxi
12.9,0.06255113667824046,-43.48112732471808,14.95559195306376,0.672478798333196,-1.1332292833152668,128.50088098694738,12.295420889924998,0.0,1.0,0.0,0.0,1.0,Taxi
13.0,-0.06524762057288132,-4.8262865622967395,14.73618273343486,0.6763769908005142,1.42751990332712,128.76573762230873,12.923141769463161,0.0,1.0,0.0,0.0,1.0,Taxi
13.100000000000001,-0.026509624928533433,-14.36497645811754,14.31914837228624,0.9997875960247571,0.7198503662906729,128.7526134110933,13.792665373007294,0.0,1.0,0.0,0.0,1.0,Taxi
13.200000000000001,-0.009273745612347194,22.430369734133166,13.569371239944852,1.0749362185929865,-0.4178264314789267,128.79797465992556,11.790767335935291,0.0,1.0,0.0,0.0,1.0,Taxi
13.3,0.04690422809778456,-33.561987054588165,13.884502471645103,1.0688485394844731,0.5558618454611325,128.49442076235107,12.583417807758597,0.0,1.0,0.0,0.0,1.0,Taxi
13.4,-0.19431956020147423,-29.263745893868137,13.821967935546267,0.8844249738532468,0.7642351015177737,128.66015210316277,12.365915388300976,0.0,1.0,0.0,0.0,1.0,Taxi
13.5,-0.15559247508168783,9.043740525997825,13.235784702330783,1.3290267809109957,-0.6175832672553471,128.53264657756648,12.124983555366084,0.0,1.0,0.0,0.0,1.0,Taxi
13.600000000000001,0.09212293072777372,26.457075248128017,15.226027378180843,1.0564950188250835,-0.32998203781455876,128.68162130472535,12.981472483340669,0.0,1.0,0.0,0.0,1.0,Taxi
13.700000000000001,-0.06203418396083409,37.92711964971311,14.77000338917211,1.0638776652159292,0.7644114321153338,128.68822949969467,12.266580276549027,0.0,1.0,0.0,0.0,1.0,Taxi
13.8,0.03404312316687776,-28.340689155931983,13.587592592370223,1.178463551118305,-0.8990317877662652,128.83970614851228,11.882822463054572,0.0,1.0,0.0,0.0,1.0,Taxi
13.9,-0.04958051505188614,14.631483238255989,13.960637965228738,0.8946819777913586,0.38433589281053443,128.51006047785245,12.627486208227614,0.0,1.0,0.0,0.0,1.0,Taxi
14.0,0.011123232230445899,-26.35756134230483,14.307936029662631,1.105643642545595,-0.1324454457403133,128.66811261203384,11.565479923533395,0.0,1.0,0.0,0.0,1.0,Taxi
14.100000000000001,-0.09774468354464633,-43.721578798726796,14.294997664473115,0.7242277111692812,-0.5887123007866943,128.7301230751002,12.599961626124369,0.0,1.0,0.0,0.0,1.0,Taxi
14.200000000000001,-0.26818840904552005,-44.463387971561396,14.500488007272898,0.9450660092944817,0.5929977111839179,128.66060054730758,11.620786785102657,0.0,1.0,0.0,0.0,1.0,Taxi
14.3,-0.21119370762736103,47.05282344767889,13.035287844734375,0.6733546090153333,0.009401677034063492,128.52753530180848,11.873064722019496,0.0,1.0,0.0,0.0,1.0,Taxi
14.4,0.1375194336937482,70.40103163658107,14.079940246779175,0.7368914917778626,-0.023304719856067083,128.7793868536727,11.932900846274778,0.0,1.0,0.0,0.0,1.0,Taxi
14.5,0.08381674913738531,15.301319816905002,14.979254324111281,1.0002463920148308,-0.3537846736386808,128.80151356792692,11.64640945367615,0.0,1.0,0.0,0.0,1.0,Taxi
14.600000000000001,-0.13468710854283597,-50.82471348575954,14.655350244284543,1.0852795938169317,0.9568014813353509,128.50126318531812,11.683014653338809,0.0,1.0,0.0,0.0,1.0,Taxi
14.700000000000001,-0.11660413373504948,-39.02463941985745,13.658132898412022,1.0642542703381934,-0.5238419383870414,129.00444684271588,12.843639216165712,0.0,1.0,0.0,0.0,1.0,Taxi
14.8,-0.11130644796190192,33.316488102084456,13.956568382310572,0.932594365565431,-0.20834066288260206,128.62874341858992,12.51719921725091,0.0,1.0,0.0,0.0,1.0,Taxi
14.9,0.03189533196758637,30.715757750800236,15.561524275801391,0.8812343271954617,-0.5526327130055041,128.71598005716675,12.650108577529684,0.0,1.0,0.0,0.0,1.0,Taxi
15.0,0.03697465501895174,58.63207754254129,13.755516039022906,0.8812724697540467,1.1542013842506078,128.74702665828062,12.347033618714157,0.0,1.0,0.0,0.0,1.0,Taxi
15.100000000000001,0.18185393975080458,1.9121387060088655,14.074787462466489,0.6679130261342124,-0.9708965436617982,128.80839586875277,12.534915743468634,0.0,1.0,0.0,0.0,1.0,Taxi
15.200000000000001,0.04145602549763072,-8.012596939669995,14.043595821605997,1.3187698697932575,-1.3579829412362778,128.70208854678594,11.271488974091223,0.0,1.0,0.0,0.0,1.0,Taxi
15.3,-0.003088329679398212,2.0133948318065173,14.230257506451904,1.120957968466008,0.0001940459709533148,128.82273758480096,12.381951285021186,0.0,1.0,0.0,0.0,1.0,Taxi
15.4,0.1919209139098372,-5.965504724847368,15.317453518564918,0.952449766505464,-0.24545582408726727,128.79856693966622,12.922718080501701,0.0,1.0,0.0,0.0,1.0,Taxi
15.5,0.011628501873393923,-16.689109932943023,15.004259050902553,1.0761941493452152,0.02596813405671069,128.78753607331413,12.695151427296244,0.0,1.0,0.0,0.0,1.0,Taxi
15.600000000000001,-0.08653387934411327,-15.733861780336374,14.776805794231006,1.0871975503679323,-0.19220459372521428,128.6694957041085,12.792629588786369,0.0,1.0,0.0,0.0,1.0,Taxi
15.700000000000001,0.1132516050081554,-6.4100422548925735,14.231216165737742,0.9892406425086674,0.22350537069804174,128.81723168501742,12.71431867741072,0.0,1.0,0.0,0.0,1.0,Taxi
15.8,-0.020421709401068893,30.035046118576464,14.530407226797012,1.009974011110657,0.18952452832632116,128.46760832427947,12.192893241971355,0.0,1.0,0.0,0.0,1.0,Taxi
15.9,0.0636413512487691,-24.076371079800555,13.1084846001941,1.0628614962625331,0.5933457638388597,128.64939304409495,11.68455956014035,0.0,1.0,0.0,0.0,1.0,Taxi
16.0,-0.007130250390847359,-16.95882172470421,14.104951717153343,0.9301412780387743,0.14807464520639677,128.7283056966678,12.532193205252987,0.0,1.0,0.0,0.0,1.0,Taxi
16.1,-0.10521581802458989,15.48333397379857,13.983460290845139,0.8678403401908239,-0.3529024542400251,128.72645824285803,12.067916281031492,0.0,1.0,0.0,0.0,1.0,Taxi
16.2,0.14105802111776203,3.1234120128755953,15.101861344910507,0.941287334723943,0.2551579388571074,128.65532931251983,12.61871906241987,0.0,1.0,0.0,0.0,1.0,Taxi
16.3,0.008486809673530648,59.446155339893444,14.191721667810798,0.8235909798986908,-0.67514168033783,128.65772917399698,12.692934945554391,0.0,1.0,0.0,0.0,1.0,Taxi
16.400000000000002,0.1920149586748774,-21.095845844448153,14.102632103655843,0.9687987891775576,-0.7224445495859946,128.62913526224906,12.010416380117462,0.0,1.0,0.0,0.0,1.0,Taxi
16.5,0.03557879189552129,8.72397344675256,14.451959421017195,0.8893963573511307,0.4215681488366398,128.76504922215827,11.405255787511603,0.0,1.0,0.0,0.0,1.0,Taxi
16.6,0.052106676907293495,-51.41756359142406,14.28130686343852,0.9250793786562383,-0.2589670473392567,128.60992418746207,12.481187113365392,0.0,1.0,0.0,0.0,1.0,Taxi
16.7,-0.06507285928224286,-15.759371598437317,14.08713077407057,1.2054082681193787,0.18783339070221397,128.85580801363324,11.754730453481997,0.0,1.0,0.0,0.0,1.0,Taxi
16.8,-0.04321806609666526,-21.954641025571295,12.397647674056783,0.6264631196646997,0.1932294153540125,128.6270587285489,12.28710023563021,0.0,1.0,0.0,0.0,1.0,Taxi
16.900000000000002,-0.05766652822056295,27.059174481434322,14.872177450679246,1.011732725697332,-0.0848695699976945,128.69950947443135,12.02432971563653,0.0,1.0,0.0,0.0,1.0,Taxi
17.0,0.0702230131249288,-4.7956248235355,13.746045003362854,0.9730121962985593,-0.7723620584059401,128.71232767168158,12.562524279997637,0.0,1.0,0.0,0.0,1.0,Taxi
17.1,-0.06719619021434271,23.91704030572471,14.290951417738434,0.9233017548036251,-0.008282924261133258,128.50954295156123,13.290629956634886,0.0,1.0,0.0,0.0,1.0,Taxi
17.2,0.06191867330806066,-13.995056409780176,14.249083589172479,0.9732290926129188,-0.047688767979651894,128.864381696159,13.12722237689802,0.0,1.0,0.0,0.0,1.0,Taxi
17.3,0.0002477310760279475,11.587004130385028,15.100607037387059,1.1406966727260723,0.9799966161819396,128.73588916892868,11.771285776534707,0.0,1.0,0.0,0.0,1.0,Taxi
17.400000000000002,-0.009261169562417534,-10.961681382395255,12.925138015482501,1.2564501662112517,0.14469339901516548,128.8179382777704,10.999794153468567,0.0,1.0,0.0,0.0,1.0,Taxi
17.5,0.007110266396084412,14.592615461308233,14.298635188121175,1.3130976874789697,0.5202800671655511,128.85261871847177,12.043138134356061,0.0,1.0,0.0,0.0,1.0,Taxi
17.6,0.07321080838256913,-27.60759773832037,15.040504268794802,1.019814965369911,0.5622679543441299,128.78025214673454,12.30655602158236,0.0,1.0,0.0,0.0,1.0,Taxi
17.7,-0.14729915825401935,8.691718084728825,14.447765442200108,1.1868761465062998,0.1855639283443433,128.7342365743466,11.613544135621453,0.0,1.0,0.0,0.0,1.0,Taxi
17.8,0.05056885681972857,-14.203839129458672,14.856878421909286,1.0574876521831524,0.17386736949916426,128.6754807396851,12.27615885873827,0.0,1.0,0.0,0.0,1.0,Taxi
17.900000000000002,0.0021916127352758245,25.18982609418556,13.902277112617604,1.2201251020235306,0.13685213635165933,128.6393373142081,12.716801545581738,0.0,1.0,0.0,0.0,1.0,Taxi
18.0,-0.021350027783091537,-31.644204549516587,13.948560526241053,1.3198335456863808,0.25908244137765307,128.80094948894168,13.067834676492113,0.0,1.0,0.0,0.0,1.0,Taxi
18.1,-0.10765216592785432,-13.309075746353871,14.728231659184107,1.22149801131851,0.045437642088350494,128.67015914855443,11.885159339682309,0.0,1.0,0.0,0.0,1.0,Taxi
18.2,-0.06435376599649349,-11.191621079478017,13.988549231084578,0.8687477655518159,-0.5938272875614038,128.69131018290068,11.758938167535804,0.0,1.0,0.0,0.0,1.0,Taxi
18.3,-0.07730813318048158,17.591445018362137,14.042361596199468,0.6569166331742635,1.0081589284189847,128.69718721436806,12.42238784462575,0.0,1.0,0.0,0.0,1.0,Taxi
18.400000000000002,-0.019694940836043607,25.420215398079282,14.587675818978566,0.695587764534716,-0.0547581936194249,128.83344153839937,11.858591209058359,0.0,1.0,0.0,0.0,1.0,Taxi
18.5,0.06274731099390295,7.859428664655444,13.961509185229927,1.0097384983667308,-0.35638307819216325,128.57212457273442,12.552173515811898,0.0,1.0,0.0,0.0,1.0,Taxi
18.6,-0.03801098985720433,23.347666411433323,14.93349865280261,0.7858879642515708,-0.04497194622316443,128.8445117807841,12.147534812131187,0.0,1.0,0.0,0.0,1.0,Taxi
18.7,0.09704339122112303,-30.979710270843253,14.315181839730334,1.2087517926056321,-1.1031351030533776,128.50953049357378,11.973966941053126,0.0,1.0,0.0,0.0,1.0,Taxi
18.8,-0.09215124036031327,-22.51714056947127,15.08881452921631,1.2110003165283638,-0.5832641106331601,128.7261030058927,11.793424019322572,0.0,1.0,0.0,0.0,1.0,Taxi
18.900000000000002,-0.1505966927045607,-18.137386413004066,14.103941017377945,1.1349834783423622,0.27068417412209417,128.81432445547853,11.427033781102104,0.0,1.0,0.0,0.0,1.0,Taxi
19.0,0.00635645915610269,44.522279567811296,14.23261320779938,0.9765294203422521,0.07363923997581204,128.61703467926418,11.884856719202954,0.0,1.0,0.0,0.0,1.0,Taxi
19.1,0.1304601574787432,31.618079050625102,15.070265087581305,1.1742359761847936,0.10588332111128725,128.39843458371814,12.300638184180272,0.0,1.0,0.0,0.0,1.0,Taxi
19.200000000000003,0.007493702548564807,50.92463551195663,13.735677647605858,1.1977943328343827,-0.9381931690859309,128.83480104611863,12.238344685943757,0.0,1.0,0.0,0.0,1.0,Taxi
19.3,0.2609796367158858,12.592553959552774,14.492360204604358,1.093930740339587,0.44853241617328465,128.89658169796797,12.909569572165939,0.0,1.0,0.0,0.0,1.0,Taxi
19.400000000000002,0.19342292727650703,-17.03885882410914,13.946338102739592,0.706395791085259,0.9499879964646564,128.6439945313864,12.284818422396965,0.0,1.0,0.0,0.0,1.0,Taxi
19.5,-0.07770059157198093,-66.15812227834444,14.44590488926604,0.7279759805203496,0.23172233203405906,128.606347967783,12.858246308068667,0.0,1.0,0.0,0.0,1.0,Taxi
19.6,-0.06981097467583645,-30.705020455009542,14.114293726492015,1.2417365229160107,0.21121764913185484,128.55581260123643,11.913707183303403,0.0,1.0,0.0,0.0,1.0,Taxi
19.700000000000003,0.0398978250014593,9.163090963113879,14.663251464538595,1.1252953227676135,-0.34970789997517526,128.68122731230068,12.400979883961448,0.0,1.0,0.0,0.0,1.0,Taxi
19.8,-0.03188513675641157,17.70160780186097,14.650401105861317,1.0248502798408923,-0.47871450928810744,128.69402760443796,11.39090081284461,0.0,1.0,0.0,0.0,1.0,Taxi
19.900000000000002,0.01869706433346836,-5.341369377570998,14.196907066492738,0.8672509322155605,0.425742255376865,128.59617118793597,11.861851925399902,0.0,1.0,0.0,0.0,1.0,Taxi
20.0,0.013190978113604312,18.790181939238757,14.791301113150055,1.1324030564739627,-0.15431008501352816,128.81368340348217,12.66079963564724,0.0,1.0,0.0,0.0,1.0,Taxi
20.1,0.062065772939782216,-21.667254016929935,14.947091477213277,1.1491475543808196,-0.619284197550608,128.66817122336863,12.746771290127377,0.0,1.0,0.0,0.0,1.0,Taxi
20.200000000000003,-0.08963920575118131,-29.73588015499079,15.085845580543008,0.8887756889703483,0.4127267510549712,128.4366778064791,11.656606186182282,0.0,1.0,0.0,0.0,1.0,Taxi
20.3,-0.13548842266134964,-29.306852867875843,14.263338595859247,1.0131680174194289,0.5935332108783015,128.71106887115832,12.97895569209642,0.0,1.0,0.0,0.0,1.0,Taxi
20.400000000000002,-0.08446849139959699,3.8932089138668515,14.334853358819553,0.9933744218980705,0.7047882844381014,128.61875926404815,13.239482918864951,0.0,1.0,0.0,0.0,1.0,Taxi
20.5,-0.07017316118184706,27.868322050806565,14.369126402486861,1.0754770755144893,0.6153568594791323,128.81503079729328,12.712447738597945,0.0,1.0,0.0,0.0,1.0,Taxi
20.6,0.0038531875926831696,30.518224275851708,14.449949582399237,0.9133168175578511,-0.123612015692917,128.76509938728356,12.513748962958568,0.0,1.0,0.0,0.0,1.0,Taxi
20.700000000000003,0.06812262997966155,-1.4632352479979431,13.871156004540072,1.144722157660236,0.5788078318369145,128.6874377391198,11.429312382838202,0.0,1.0,0.0,0.0,1.0,Taxi
20.8,-0.07748933742183678,-36.23892621987411,14.04882555476602,0.9842195795565161,-0.6811589443019843,128.77024581155518,12.455458921693795,0.0,1.0,0.0,0.0,1.0,Taxi
20.900000000000002,-0.17734144350668735,-50.68723832048249,14.672879476817828,0.8608142588894281,-0.8509046329331117,128.6445549098297,13.468085283256572,0.0,1.0,0.0,0.0,1.0,Taxi
21.0,-0.1853135616227509,12.615988334343356,13.420304338712398,0.8379369685395537,0.5095367873294615,128.6935143458095,12.546552004468005,0.0,1.0,0.0,0.0,1.0,Taxi
21.1,-0.014409395750119998,46.59835623145253,14.08562617775521,0.7773620420000077,-0.07629519805714456,128.85745193972105,11.643604112036645,0.0,1.0,0.0,0.0,1.0,Taxi
21.200000000000003,0.05565033765057528,26.351597660391317,14.566894357745225,1.445650464717505,-0.09114788037618315,128.68310186993972,12.212294081812006,0.0,1.0,0.0,0.0,1.0,Taxi
21.3,-0.05355557332079432,-12.512920122806621,13.370809135272264,1.0802626794164565,-0.260284470127034,128.8153275258785,12.752016777712084,0.0,1.0,0.0,0.0,1.0,Taxi
21.400000000000002,-0.0769739963641531,9.168322228580564,15.090900294276569,1.1819683733511144,0.1140770688826461,128.8649175798206,12.05796125481685,0.0,1.0,0.0,0.0,1.0,Taxi
21.5,0.10149194879347812,20.858617432117356,13.057169297072992,0.663318090165653,0.5875736576389567,128.68338342303196,12.385583826729926,0.0,1.0,0.0,0.0,1.0,Taxi
21.6,0.050737513839792484,18.09919567367109,13.927489534861964,1.0167624694835278,-0.2828421439438841,128.69773222634802,11.255305278945361,0.0,1.0,0.0,0.0,1.0,Taxi
21.700000000000003,0.013521982004202383,-9.273358671487873,14.4634849783243,1.0875013330588745,-0.28203690459845493,128.7982120709263,11.462892764943808,0.0,1.0,0.0,0.0,1.0,Taxi
21.8,0.05512515543603877,-5.051892734149046,12.690561865688048,0.8396849505647384,-1.2604911862525172,128.76288590734146,12.265506438677287,0.0,1.0,0.0,0.0,1.0,Taxi
21.900000000000002,0.025478050169047275,-50.804168939411845,14.536627518937669,0.8894463248362758,-0.43378917129932176,128.75419676547415,11.86781000674323,0.0,1.0,0.0,0.0,1.0,Taxi
22.0,-0.2404988626928568,-19.205313146801288,13.88538425194365,1.0779289720438023,1.2479510663028948,128.82851515405412,12.772325820533318,0.0,1.0,0.0,0.0,1.0,Taxi
22.1,-0.040901410297967636,-28.412746256589752,14.160161177384113,1.3573127301885257,-0.9813961998113079,128.72767935848378,13.229355645860759,0.0,1.0,0.0,0.0,1.0,Taxi
22.200000000000003,-0.11658568111390144,81.61609599005367,14.04370903940107,1.2577354038317985,0.44653954003743973,128.83879906965296,12.838000543721023,0.0,1.0,0.0,0.0,1.0,Taxi
22.3,0.16758161725741158,-20.967100688828598,13.673799769948193,1.3122103840327373,0.08422616854667174,128.7524997823026,11.89125159234064,0.0,1.0,0.0,0.0,1.0,Taxi
22.400000000000002,-0.1457369137421106,2.311836331698487,14.898791488391222,0.8530499416611894,0.16292096288625663,128.69647656373365,12.771239283205773,0.0,1.0,0.0,0.0,1.0,Taxi
22.5,-0.10502649945540897,-14.469718306116775,13.759817120127174,1.1574879407709737,0.2721846903296794,128.56175391988666,13.301126743855203,0.0,1.0,0.0,0.0,1.0,Taxi
22.6,0.09523302572682778,13.357855426834789,13.226139733670292,1.115823866172741,-0.749423710142953,128.6153377914518,11.790429188846035,0.0,1.0,0.0,0.0,1.0,Taxi
22.700000000000003,-0.0789476366079366,3.948508639949273,14.869797217847285,0.7678798044414138,0.47775594689417217,128.53616023046322,12.064705430430301,0.0,1.0,0.0,0.0,1.0,Taxi
22.8,-0.08528395625566251,-24.460528055042317,13.161708121192449,1.1635489793827367,0.05610795821867159,128.67661617425256,12.820430112481914,0.0,1.0,0.0,0.0,1.0,Taxi
22.900000000000002,-0.027069614548383716,6.879112520814544,13.720587054390489,1.1398659518240462,-0.5643410641709825,128.60076891583083,13.289778259352348,0.0,1.0,0.0,0.0,1.0,Taxi
23.0,-0.0445520740038638,-2.2836704600575524,14.598601152657013,1.0924410568998342,-0.9099155452598502,128.6673695639987,11.803070364108487,0.0,1.0,0.0,0.0,1.0,Taxi
23.1,-0.09670230855595019,9.876403787582072,14.120748647335132,0.9205880555760391,0.008844406421027018,128.86417436138532,12.402521839631959,0.0,1.0,0.0,0.0,1.0,Taxi
23.200000000000003,0.022312404389526724,-3.9316394668654766,13.945179531532544,0.8211845373128195,-0.491896015960753,128.86100822107733,12.801722576948766,0.0,1.0,0.0,0.0,1.0,Taxi
23.3,-0.06421027133819111,51.7658795035531,12.708932714299694,1.207325287443836,0.6716882074413131,128.8582447511905,12.154039618932005,0.0,1.0,0.0,0.0,1.0,Taxi
23.400000000000002,0.16212708896181538,-8.486884471733765,13.312620704868207,0.9437925548284544,-0.2908983274685935,128.5272881283264,12.35962123741307,0.0,1.0,0.0,0.0,1.0,Taxi
23.5,-0.02012201796914205,-10.281422656536344,14.484087722570548,1.2434374054985948,-0.2163332941850938,128.64684016970386,11.849505574133428,0.0,1.0,0.0,0.0,1.0,Taxi
23.6,-0.11561738462087279,-47.74367808312891,14.79022061034743,1.1797973025159338,-0.9153169413711773,128.6199122727905,12.82686522221094,0.0,1.0,0.0,0.0,1.0,Taxi
23.700000000000003,-0.07659130145382909,-22.278268476850116,14.029748408827196,0.757430043508627,-0.6196317044829704,128.71748912390774,12.880253569627527,0.0,1.0,0.0,0.0,1.0,Taxi
23.8,-0.13151336035339253,48.117265212155125,15.088355362426217,1.0928269880383066,-0.07243933298883075,128.55499612026654,12.38767009551101,0.0,1.0,0.0,0.0,1.0,Taxi
23.900000000000002,0.12496894143990295,-11.08787403942363,14.997793418213742,1.1999937020805391,0.7291777929186726,128.615409677534,12.608008879160941,0.0,1.0,0.0,0.0,1.0,Taxi
24.0,-0.13203067165094715,47.57375171455786,14.985813663481956,0.92709303417914,0.3185867020988743,128.80993433832646,12.378152397119187,0.0,1.0,0.0,0.0,1.0,Taxi
24.1,0.10635539821939688,-42.93433617607234,12.925218585565979,1.0146423874533708,-0.707011877128718,128.80977596123762,12.43461903450065,0.0,1.0,0.0,0.0,1.0,Taxi
24.200000000000003,-0.08970273944045865,8.657380398963701,13.637655604824674,0.9481569869132417,1.1608643866290855,128.5648143744355,12.145161297313406,0.0,1.0,0.0,0.0,1.0,Taxi
24.3,-0.08874376965612851,-18.077164391851387,13.54455249045372,1.3671742248312604,-0.048700801665959526,128.52025788535798,12.682366480657262,0.0,1.0,0.0,0.0,1.0,Taxi
24.400000000000002,0.015969576260140058,10.887851406477933,14.294272408127508,1.198908715025567,-0.670676521975588,128.71033559441327,12.786392015411776,0.0,1.0,0.0,0.0,1.0,Taxi
24.5,-0.035263482408068904,3.0227111308318833,13.813030857124312,1.0860416078135284,-0.39222769805838603,128.72961251818379,11.947939181900528,0.0,1.0,0.0,0.0,1.0,Taxi
24.6,-0.07363021400196902,-18.5678617806843,14.373251826011353,1.0842478179775514,-0.17932853782211783,128.89994629646105,11.556569167434136,0.0,1.0,0.0,0.0,1.0,Taxi
24.700000000000003,-0.07686973264328135,23.11098462109166,14.279754273791166,0.7725102670748589,0.8446529814505388,128.7719019555825,12.245671831600152,0.0,1.0,0.0,0.0,1.0,Taxi
24.8,0.0802914406973895,5.6807145676714965,14.054047365904175,1.097521984617548,-0.37215303688901075,128.75492720893544,11.74641639479981,0.0,1.0,0.0,0.0,1.0,Taxi
24.900000000000002,-0.04522664116361146,-13.590062303001716,14.054662079256493,1.0101836342516437,0.15517441313292432,128.739585684311,11.956322410430765,0.0,1.0,0.0,0.0,1.0,Taxi
25.0,-0.14482004415828986,23.02653682595597,13.210081755235528,1.3412655258355883,-0.21115969818494298,128.66156449272938,11.67964540482317,0.0,1.0,0.0,0.0,1.0,Taxi
25.1,0.1954241248271694,15.443371284857164,13.493455735904071,0.8648495051229379,-0.4116167938471969,128.82696162835657,11.63079295508114,0.0,1.0,0.0,0.0,1.0,Taxi
25.200000000000003,0.03199021526067438,6.635040443667634,13.547561946350505,1.096617922789788,-0.4154810436133013,128.58818478973058,12.292173912758146,0.0,1.0,0.0,0.0,1.0,Taxi
25.3,-0.11164484193995161,-23.08946235398325,14.308454688214876,0.9273450150415301,-0.8468258517711893,128.80683954197787,11.715727654203716,0.0,1.0,0.0,0.0,1.0,Taxi
25.400000000000002,0.07997681305725322,-24.33841234052814,14.15248076386435,1.13952716341283,0.3040710595921679,128.68469811118086,12.722708797320037,0.0,1.0,0.0,0.0,1.0,Taxi
25.5,-0.08970184644196623,-0.5158144127970843,14.84556646201017,1.041479774884741,-0.658331794249702,128.8582634429339,12.224137533524223,0.0,1.0,0.0,0.0,1.0,Taxi
25.6,-0.11422391400393694,-23.606492138577618,13.260562693945722,1.026284593274522,-0.2628777501172695,128.6673944197404,11.909451376934824,0.0,1.0,0.0,0.0,1.0,Taxi
25.700000000000003,-0.038055647635634765,39.76948442232667,13.579168111883186,1.2308814614412027,0.6029083575137185,128.65518975334237,11.82122134336371,0.0,1.0,0.0,0.0,1.0,Taxi
25.8,0.10914557566966723,51.78028734674668,14.320889743137087,1.098059399652675,0.3639027467310107,128.63620641885188,12.648750691755057,0.0,1.0,0.0,0.0,1.0,Taxi
25.900000000000002,0.14467752272979653,23.461076944247026,14.125039058609504,0.7548628493364569,0.09364058985677845,128.82658853407577,12.227238198384939,0.0,1.0,0.0,0.0,1.0,Taxi
26.0,0.07924973708560046,-18.92034821445522,14.847287140830396,0.7146444528240596,-0.41848001768385223,128.7663954145757,11.607906207110325,0.0,1.0,0.0,0.0,1.0,Taxi
26.1,0.014543834597391206,-42.983061957741775,14.766338025587702,1.0942282069407756,0.20520841301771572,128.6703798532373,12.840202402167868,0.0,1.0,0.0,0.0,1.0,Taxi
26.200000000000003,-0.07023778705891226,-27.535768234216132,14.250936842908473,1.2325008379025513,-0.7555870156324218,128.9411414925397,12.525993827120864,0.0,1.0,0.0,0.0,1.0,Taxi
26.3,-0.05842910408548011,8.560926152459501,14.490861264929544,0.702591574656699,-0.7316689160875621,128.87039207210177,12.586700337564462,0.0,1.0,0.0,0.0,1.0,Taxi
26.400000000000002,0.05734846535968882,3.522570984205752,14.120861804973218,0.6810244809773283,0.054027062237865964,128.92147091963864,12.72807506576546,0.0,1.0,0.0,0.0,1.0,Taxi
26.5,-0.052624932137883385,24.78556251479603,13.623418281749291,0.9761633122814337,0.7575470545029837,128.827860604176,11.678742563928381,0.0,1.0,0.0,0.0,1.0,Taxi
26.6,0.06549870848850016,-5.212131484868565,14.868436681917768,1.0024797591259045,-1.1611824429775421,128.78036865536524,13.358704329088333,0.0,1.0,0.0,0.0,1.0,Taxi
26.700000000000003,0.0312878079353461,4.174802467217691,14.245720661347713,1.3463554959669009,-0.6928951118764577,128.92348494148666,12.835125752981892,0.0,1.0,0.0,0.0,1.0,Taxi
26.8,-0.03175091980179484,-25.490519110267485,14.424499734454113,0.7489259793564211,0.32563847001125934,128.95561072167794,12.937915441260229,0.0,1.0,0.0,0.0,1.0,Taxi
26.900000000000002,-0.06195388706283718,6.205476866396116,13.986245354081621,1.2711405176825132,0.015744163623497162,128.63323335627388,12.324719813654793,0.0,1.0,0.0,0.0,1.0,Taxi
27.0,0.062315192267326784,4.199451311100366,14.33372988562407,0.9388099462449405,-0.07337042413716047,128.79302954105538,12.166358538637587,0.0,1.0,0.0,0.0,1.0,Taxi
27.1,-0.010753663246292922,4.678178400266444,13.70403110643975,1.0183979436653599,0.5799032826195765,128.64078821459384,12.455096340615887,0.0,1.0,0.0,0.0,1.0,Taxi
27.200000000000003,-0.038562995061504866,-17.964044275479242,14.490552154624158,0.7624981378210136,-0.2592068332046327,128.45184596203006,12.683019727538813,0.0,1.0,0.0,0.0,1.0,Taxi
27.3,-0.027505029110069364,10.432598836859574,14.60413897050685,0.6424822993191575,0.2065697154374669,128.82140718737537,12.840149927157555,0.0,1.0,0.0,0.0,1.0,Taxi
27.400000000000002,0.041409330938005036,-17.52778660908521,14.712722331313012,1.4367482430623886,0.9366613849407348,128.62310346602794,12.40395434403917,0.0,1.0,0.0,0.0,1.0,Taxi
27.5,-0.12620192810693084,8.780268394025583,13.568387699682663,0.8588590926726826,-0.19584887936844436,128.71528851917316,12.30235963233974,0.0,1.0,0.0,0.0,1.0,Taxi
27.6,0.016396312860058628,-45.15996861671736,14.355592120379024,1.236877519683321,0.30504084317632596,128.63372862671633,13.091040704066131,0.0,1.0,0.0,0.0,1.0,Taxi
27.700000000000003,-0.18439051214558166,53.012031295961236,14.052776093699636,0.7469869980705868,0.07760849810027091,128.82775758911959,12.953463661599011,0.0,1.0,0.0,0.0,1.0,Taxi
27.8,0.1388582283728754,-18.176046803082855,14.293735205429051,0.7616447066177302,0.47347576726718166,128.81850884328577,12.356800974853515,0.0,1.0,0.0,0.0,1.0,Taxi
27.900000000000002,-0.07448392115535563,19.04733749774385,13.89919915328101,0.6707037502211607,0.21681311659233465,128.75630445100137,12.214575688651323,0.0,1.0,0.0,0.0,1.0,Taxi
28.0,-0.08915382465686239,-6.984141049964312,13.548913297141262,1.084709617475927,0.6095051004607532,128.64993614592515,12.345270703308875,0.0,1.0,0.0,0.0,1.0,Taxi
28.1,0.10393752312305389,3.0950688651785563,14.122992110958982,0.97043540853633,-0.6833321645022532,128.71222221454792,12.390430007358207,0.0,1.0,0.0,0.0,1.0,Taxi
28.200000000000003,-0.059008576829462756,24.930793240312436,14.59704624013514,1.1395839561679868,0.9319609574987232,128.80930489198943,13.117426784820132,0.0,1.0,0.0,0.0,1.0,Taxi
28.3,0.035500141544699895,19.842544769498588,13.073554318150418,1.0016052567649334,0.26959151772021106,128.80567558837402,12.5211217383467,0.0,1.0,0.0,0.0,1.0,Taxi
28.400000000000002,0.2031502469705469,20.490094740048264,14.146568732391293,1.0712987406720118,-0.20584446576158516,128.72053048085024,12.408176400289701,0.0,1.0,0.0,0.0,1.0,Taxi
28.5,0.043441896870778623,11.034911786281285,14.382427555138877,0.9272634436019263,-0.30053492565808276,128.5901400789976,12.130677440178978,0.0,1.0,0.0,0.0,1.0,Taxi
28.6,0.09067470047610637,-45.50342341170076,13.49310986751571,0.9716937772806343,-0.5517007548797711,128.81515568050634,12.459163242295178,0.0,1.0,0.0,0.0,1.0,Taxi
28.700000000000003,-0.024366870087956807,-42.574388633631074,14.162707914714359,1.0602834064518718,0.25447780474243215,128.82483890766503,11.933087378087121,0.0,1.0,0.0,0.0,1.0,Taxi
28.8,-0.16943004629737662,-0.45100523792731906,13.970090710775743,1.1224417089737189,0.8684131265347832,128.61348292810004,12.857921857041315,0.0,1.0,0.0,0.0,1.0,Taxi
28.900000000000002,0.08841967428646991,-4.694553186754935,14.364528376633066,0.974302949481458,-0.2418895678578549,128.59498967941283,12.634336144795986,0.0,1.0,0.0,0.0,1.0,Taxi
29.0,-0.04783963602173136,55.17678350217276,14.351184582114515,1.2530844855898187,-0.09012471519594488,128.74205182124047,11.838870234107343,0.0,1.0,0.0,0.0,1.0,Taxi
29.1,0.10645387121348729,-20.335044544572977,12.990465250320664,0.8125394373497845,0.5850365434926812,128.67069302003165,11.792496288476842,0.0,1.0,0.0,0.0,1.0,Taxi
29.200000000000003,-0.013255548436394878,8.323190381695625,12.683574576924213,0.8333667579518345,-0.06889392549508198,128.69990375382883,12.086333574833972,0.0,1.0,0.0,0.0,1.0,Taxi
29.3,-0.00622368411325314,-47.5081982431143,12.688925118306598,0.869169244278281,0.06430209094881732,128.7988231332643,11.45476858717,0.0,1.0,0.0,0.0,1.0,Taxi
29.400000000000002,-0.13108712000208414,-17.57429632619859,14.493010495004379,1.2214175228691597,0.8995900366898503,128.64629413773082,12.327729423853794,0.0,1.0,0.0,0.0,1.0,Taxi
29.5,-0.10112703006738773,10.927066283442505,13.29381932782467,0.7336915359312679,0.3542255934621543,128.8397789317546,12.927769455385718,0.0,1.0,0.0,0.0,1.0,Taxi
29.6,0.04841164730395944,19.841275021244815,14.844839461149324,1.2334187351212855,0.31399826501402833,128.58953516031153,12.339217340372247,0.0,1.0,0.0,0.0,1.0,Taxi
29.700000000000003,-0.03188074489586001,35.48555155832011,13.100474189984777,1.3723429938864056,0.5545432914309356,128.69057785792984,12.746469341242793,0.0,1.0,0.0,0.0,1.0,Taxi
29.8,0.07630072772421287,-16.06458130536873,14.372696120343798,0.8534381621330508,-0.2610323027123124,128.6562061248676,12.291937112702511,0.0,1.0,0.0,0.0,1.0,Taxi
29.900000000000002,-0.03191125922288412,25.42172617319136,13.52695794568368,0.9236805120941449,0.5104235969514244,128.61368141547416,12.334396575942122,0.0,1.0,0.0,0.0,1.0,Taxi
30.0,0.09522788597009686,-7.118323921961547,13.524298112882802,1.4067624368466864,-0.2846503388387338,128.65513692317887,12.57577447657394,0.0,1.0,0.0,0.0,1.0,Taxi
30.1,0.040709108114405236,14.371444092440127,13.739952120512473,0.816727885295999,-0.34443317880582625,128.7777075222707,13.428213363234761,0.0,1.0,0.0,0.0,1.0,Taxi
30.200000000000003,0.039945961239316596,25.499336546326372,13.538554021668055,1.0370507574021792,0.4369696659718248,128.70882129860308,11.169308635084573,0.0,1.0,0.0,0.0,1.0,Taxi
30.3,0.2227245687017288,-34.22253518300402,13.629609539064681,0.7645347573377017,-0.1507943579205919,128.7916907365759,12.01428993393336,0.0,1.0,0.0,0.0,1.0,Taxi
30.400000000000002,-0.13040356780061474,-4.017475531435655,13.602421291938303,0.9334007188430085,0.003226719702750116,128.64073390505905,12.62504043512948,0.0,1.0,0.0,0.0,1.0,Taxi
30.5,0.019858583582138423,-62.00690859232147,14.029115619542573,0.38098078361057275,-0.3615689024897658,128.7483616985828,12.727606320171953,0.0,1.0,0.0,0.0,1.0,Taxi
30.6,-0.08730997425987846,27.01214132168558,13.789879657325377,0.9316280647335592,0.3425249234363212,128.86869425920975,12.25921584132323,0.0,1.0,0.0,0.0,1.0,Taxi
30.700000000000003,0.004657138807813256,-1.4775073916742691,13.85442594060845,0.9535481597031049,0.24847163410707018,128.69081353984905,12.68754963747128,0.0,1.0,0.0,0.0,1.0,Taxi
30.8,0.012471046623767173,29.42102931183037,13.952742509252008,1.0623797887293844,0.37353273893257416,128.7262804964147,12.096107983355799,0.0,1.0,0.0,0.0,1.0,Taxi
30.900000000000002,0.059795172299273495,15.624888590620225,13.913988496424796,1.104303720689164,0.2136261165437015,128.747159543563,11.920027486429538,0.0,1.0,0.0,0.0,1.0,Taxi
31.0,0.08278158176091448,-29.70086101411152,14.15093391459038,0.9646620036424799,-0.42910286377821744,128.8681645464485,11.806495485421813,0.0,1.0,0.0,0.0,1.0,Taxi
31.1,-0.13603325844679032,4.28263448002005,13.72540564677714,0.9187829313471306,-0.2311485159634608,128.78100091790532,13.054740914533493,0.0,1.0,0.0,0.0,1.0,Taxi
31.200000000000003,0.08120834469937385,-16.097454315662297,13.7514609526104,0.8367501384841161,0.17460314363667798,128.80271532027234,12.386513606245877,0.0,1.0,0.0,0.0,1.0,Taxi
31.3,0.0022943101826031105,40.56706147247949,14.018848747444416,0.9681722421486532,-1.156491250476948,128.7728067800004,12.263889827694051,0.0,1.0,0.0,0.0,1.0,Taxi
31.400000000000002,0.0668020489156072,-26.315060118408677,15.143208500031172,0.9366034965694027,0.30591206757573164,128.5018225211598,12.21455894883502,0.0,1.0,0.0,0.0,1.0,Taxi
31.5,-0.05036695589266944,0.607032767348438,15.798485545099812,0.94486062946857,0.17954586163433398,128.826780159674,12.326963210258992,0.0,1.0,0.0,0.0,1.0,Taxi
31.6,0.005329474019345377,1.9532437667379412,14.292946008317623,1.2328895513323384,0.25638931015161226,128.81494246241698,12.88441784665403,0.0,1.0,0.0,0.0,1.0,Taxi
31.700000000000003,0.07656826774929698,15.760356006251014,14.614947021977011,0.9210560006917436,0.7632313974806204,128.76941225979112,12.72050157754546,0.0,1.0,0.0,0.0,1.0,Taxi
31.8,0.028434824138585682,-8.935813220753076,14.379795020464133,1.1976435777688192,-0.8000048499943938,128.64229799928262,13.121921486438033,0.0,1.0,0.0,0.0,1.0,Taxi
31.900000000000002,-0.03934959208441993,2.307940430496861,14.957554739644346,1.2544483853783148,1.300264746303654,128.69470594477446,12.56552227430885,0.0,1.0,0.0,0.0,1.0,Taxi
32.0,0.08810796990178137,-0.7168465777026825,13.785292466491203,1.2196936157157179,0.11642306828959635,128.6844651584035,11.512490302248185,0.0,1.0,0.0,0.0,1.0,Taxi
32.1,0.024850591250072353,-10.862287857507676,14.264338801739104,0.9478082652898733,0.4996859249919644,128.74740150557386,11.639408686701383,0.0,1.0,0.0,0.0,1.0,Taxi
32.2,-0.09366103137195823,-24.334065677232143,14.124476794237072,0.5583924439616683,0.709119147848363,128.80090326633808,12.672837602107196,0.0,1.0,0.0,0.0,1.0,Taxi
32.300000000000004,-0.03356235848437927,-26.293259803571846,14.567789133210091,0.88985832525676,-0.2295129455753945,128.63023231644308,11.582951647570766,0.0,1.0,0.0,0.0,1.0,Taxi
32.4,-0.10661570776778682,40.0674211437938,14.834929900497569,1.1382184901770283,0.5866546297449267,128.8475422413345,12.21025957858918,0.0,1.0,0.0,0.0,1.0,Taxi
32.5,0.10667607434701082,5.144922456488288,14.279356678336905,1.5360109570069358,1.0535010890381626,128.66299029932247,12.489114077504281,0.0,1.0,0.0,0.0,1.0,Taxi
32.6,-0.007837746201937815,24.189507019536634,12.399525035572516,1.0671203184132088,-0.39874860978929433,128.81591797943958,12.363148138597166,0.0,1.0,0.0,0.0,1.0,Taxi
32.7,0.01433182732989638,-19.136299455582854,13.80949246481154,0.7835435253708859,0.2071622865366157,128.5584364290787,12.207408386616034,0.0,1.0,0.0,0.0,1.0,Taxi
32.800000000000004,0.010994577069096597,-23.756729817893927,14.420953459474006,0.6500786365456996,0.17620187203258741,128.8443364729619,12.106134970639863,0.0,1.0,0.0,0.0,1.0,Taxi
32.9,-0.1266213952914074,17.60332369453657,14.65703668520511,1.178913046030172,0.45794432532503165,128.7433395604483,12.71231214239505,0.0,1.0,0.0,0.0,1.0,Taxi
33.0,0.10234844580257929,-34.20119040824602,14.51438515063449,1.0209054682164889,0.3065024423228768,128.80697174738145,11.168907837816386,0.0,1.0,0.0,0.0,1.0,Taxi
33.1,-0.16001137497213347,47.364538120482905,14.799789035179709,0.7726148493331685,0.2709616551295173,128.70181484913667,12.159957014386853,0.0,1.0,0.0,0.0,1.0,Taxi
33.2,0.11020129531100716,-58.715146650434754,13.289328030976368,0.9706198587547299,-0.9057485037494231,128.66763404364173,13.141335382179427,0.0,1.0,0.0,0.0,1.0,Taxi
33.300000000000004,-0.19122728744959447,44.65705081327207,13.675441595989508,1.00470722205442,-0.4803819849458423,128.64452601468656,11.926400116894838,0.0,1.0,0.0,0.0,1.0,Taxi
33.4,0.06327387909422696,-24.256824608776544,14.341511693034965,1.22631078499454,-0.7707325313829148,128.74818628397503,12.911742711683484,0.0,1.0,0.0,0.0,1.0,Taxi
33.5,-0.011082827732875514,46.60230692178217,14.159044214937369,0.8966485947620515,0.33837598309238415,128.82564504455593,12.283458598038246,0.0,1.0,0.0,0.0,1.0,Taxi
33.6,0.04178424715931643,-20.684305417240466,14.055083025143047,0.8026583345339076,0.29161641988095777,128.79522038328003,12.445747802321423,0.0,1.0,0.0,0.0,1.0,Taxi
33.7,-0.040147647991975316,8.527799386697962,15.030905182686565,1.2069484969842361,0.05291994836377625,128.76521396133592,12.069578061137793,0.0,1.0,0.0,0.0,1.0,Taxi
33.800000000000004,0.03155616920061434,-25.18709821380537,13.91417565262079,1.1777854312441436,1.0071082880261204,128.72042565399033,11.991820298063718,0.0,1.0,0.0,0.0,1.0,Taxi
33.9,-0.08415124390971038,-10.56466961455024,14.570188297159723,0.49366232781272856,-0.585170422170241,128.59164960158319,13.35027519156689,0.0,1.0,0.0,0.0,1.0,Taxi
34.0,-0.09297099606472647,-12.493721513495538,14.5065181332684,0.9540664944431181,0.05922158627512351,128.6545783774929,12.872794744408365,0.0,1.0,0.0,0.0,1.0,Taxi
34.1,-0.030912438366863318,17.706762125006932,14.792531219008769,1.1851633205748477,0.48803304826436117,128.6956888146173,11.526838001457637,0.0,1.0,0.0,0.0,1.0,Taxi
34.2,0.004382566715324348,-14.145612151487802,12.67093167367561,0.8960661599142528,0.439549625250002,128.79277404662332,13.111978325599308,0.0,1.0,0.0,0.0,1.0,Taxi
34.300000000000004,-0.1636990568221654,14.931586713110752,12.903870234354207,0.7423657849636973,0.2693484226964326,128.68884156082765,12.399891070524491,0.0,1.0,0.0,0.0,1.0,Taxi
34.4,0.043745495198690504,11.281241474300465,13.046371120138573,1.0409559940196158,-0.5674842231189071,128.65317157415404,11.88666666270642,0.0,1.0,0.0,0.0,1.0,Taxi
34.5,0.06078877408682674,40.982135788538216,14.777245806506071,1.1464280809836045,0.44306311933850073,128.63246618356544,11.695097770264866,0.0,1.0,0.0,0.0,1.0,Taxi
34.6,0.04121162212052574,8.16755507923547,13.917577514501918,0.7994939810702201,-0.35833018053654736,128.6648754601776,12.180315221539754,0.0,1.0,0.0,0.0,1.0,Taxi
34.7,0.08458327059486791,-29.69424636215302,13.663011575971304,1.0151431755535476,-0.33828958284828037,128.61968903488042,11.732733677583559,0.0,1.0,0.0,0.0,1.0,Taxi
34.800000000000004,-0.0876824577239383,-20.790458895507427,14.319726038203914,0.8790028998234143,0.6855137878105804,128.70578969274612,11.993253399230252,0.0,1.0,0.0,0.0,1.0,Taxi
34.9,-0.06274067235701135,-54.211863330597225,15.1498840831381,0.7674884914846191,-0.5031519387001747,128.75536996784524,12.547493439217904,0.0,1.0,0.0,0.0,1.0,Taxi
35.0,-0.18647604605811816,23.197035026628527,14.167143332362025,1.265626119860176,0.3840618757298466,128.77416793053442,12.206479677233148,0.0,1.0,0.0,0.0,1.0,Taxi
35.1,0.028302717409204415,-7.703964977727661,14.955501585065726,1.1558810118649594,0.07684004312591511,128.75352029354053,12.27697572447647,0.0,1.0,0.0,0.0,1.0,Taxi
35.2,-0.10126049724564956,18.867825788551936,13.274287335852135,0.4877827355938028,0.3359561404585612,128.83346391143255,12.89737945595566,0.0,1.0,0.0,0.0,1.0,Taxi
