time_s,altitude_ft,vertical_speed_fpm,ias_kt,pitch_deg,roll_deg,heading_deg,throttle_pct,afterburner_on,gear_down,flaps_deg,speedbrake_pct,weight_on_wheels,label
0.0,0.035530024213803885,50.33686636417809,7.412472576177337,0.12402513881626323,-0.4361084692867639,94.40844923520154,12.098544683520085,0.0,1.0,0.0,0.0,1.0,Taxi
0.1,0.20331957876106418,-44.57789678009331,7.534936706548703,0.005919748908747663,0.21735274414408873,94.56688633532377,11.012006069801773,0.0,1.0,0.0,0.0,1.0,Taxi
0.2,-0.18735945968666273,13.709667996817577,7.602487893965416,0.18263389431824453,-0.4462557107787275,94.49203591095159,10.34129953454741,0.0,1.0,0.0,0.0,1.0,Taxi
0.30000000000000004,0.10407836419789165,-47.8387084788875,6.535621523091902,0.04826304313793334,-0.15802052980648343,94.6439427072529,10.987249275113243,0.0,1.0,0.0,0.0,1.0,Taxi
0.4,-0.03587396363337339,31.535444451597954,7.261815271637466,0.5284042241343465,-0.6146122397093866,94.73566447677598,11.02813075218924,0.0,1.0,0.0,0.0,1.0,Taxi
0.5,-0.029682237428673004,-55.248566584310986,7.64640503428204,0.18570018028733076,0.017680205725106667,94.53122545288949,11.42566255746194,0.0,1.0,0.0,0.0,1.0,Taxi
0.6000000000000001,-0.17216446872366326,3.0944994883575703,6.858569988438856,0.41613122168147126,-0.3130572965091969,94.73837997649474,10.878945061234656,0.0,1.0,0.0,0.0,1.0,Taxi
0.7000000000000001,-0.020401466191585546,22.690501470858834,8.054565895908683,0.04171762924426217,-0.36510150012413906,94.62243278012079,10.713841431785877,0.0,1.0,0.0,0.0,1.0,Taxi
0.8,0.08377026992562114,53.28721441836364,6.141514958012808,0.2627860694661422,0.547956065364143,94.65225686838698,11.84874106086216,0.0,1.0,0.0,0.0,1.0,Taxi
0.9,0.09427160336815492,-21.680711669560605,7.76773550264907,-0.028093866933368128,0.3787885994500611,94.64174907173935,11.663649471170901,0.0,1.0,0.0,0.0,1.0,Taxi
1.0,-0.12880502453938852,9.856869628962292,6.5267713625219415,0.3650846286476701,-0.0192298705618298,94.51218277452637,10.200894276481081,0.0,1.0,0.0,0.0,1.0,Taxi
1.1,0.13305461807043265,5.09564506057393,7.872640491924524,-0.027016061834081034,0.22099879188528312,94.71906459752569,11.104828281628036,0.0,1.0,0.0,0.0,1.0,Taxi
1.2000000000000002,0.1197498286710246,32.64762439332912,6.832812466973714,0.3030023515027115,0.10413986369657702,94.67452642406272,11.335437017265898,0.0,1.0,0.0,0.0,1.0,Taxi
1.3,0.034433097427257024,-44.57968176947393,7.846711236385029,-0.3849551357728992,-0.02007659939840649,94.69144914136518,11.24601064558757,0.0,1.0,0.0,0.0,1.0,Taxi
1.4000000000000001,-0.08984379077693701,-60.571535245125865,7.478001635980503,0.6424892997027893,-0.4597047944857928,94.51307292506851,9.852683675758195,0.0,1.0,0.0,0.0,1.0,Taxi
1.5,-0.18310784755460474,-5.356323697469638,8.069931986984688,0.22810634763663792,-0.03604098070245019,94.42378108005192,10.867771356880716,0.0,1.0,0.0,0.0,1.0,Taxi
1.6,0.007651478939908836,51.622637112898964,7.1424131724609,0.20073391299412296,-0.14878786861240656,94.71276872695432,12.252931337893553,0.0,1.0,0.0,0.0,1.0,Taxi
1.7000000000000002,0.16826939478755779,40.8614000113735,7.2796479347656575,0.5115315289743622,-0.6256743752627455,94.4801687922108,10.277468744130609,0.0,1.0,0.0,0.0,1.0,Taxi
1.8,0.02119915250226271,-25.545131618026613,6.9636762347530325,0.014662202977858058,-0.41936468627283185,94.56637776742724,11.359266461675602,0.0,1.0,0.0,0.0,1.0,Taxi
1.9000000000000001,-0.12007417915022425,-21.32569695683939,7.839804254118707,0.3082625581652554,0.13576967049632985,94.43309497271287,11.860338087370645,0.0,1.0,0.0,0.0,1.0,Taxi
2.0,0.0616409100033608,-2.4472596801675146,7.042358695062413,0.7057858033431489,-0.3027961395345705,94.60048192328225,10.578920764276782,0.0,1.0,0.0,0.0,1.0,Taxi
2.1,0.008962854101425088,39.545518254841504,7.532522930576022,0.4618327863093685,-0.2067489392701941,94.56850472703638,10.569774688191073,0.0,1.0,0.0,0.0,1.0,Taxi
2.2,0.0776534121239832,2.4442740369698304,7.407877164392023,0.2947421578879042,0.3685354893847324,94.65448929077758,11.356065536964577,0.0,1.0,0.0,0.0,1.0,Taxi
2.3000000000000003,0.07386228018820991,-5.1218936958209795,7.307278465569088,0.10750874236855011,0.5166195060205201,94.70303330485467,11.324438580924324,0.0,1.0,0.0,0.0,1.0,Taxi
2.4000000000000004,-0.016646614377679853,-29.999700993976614,6.745804094893074,0.12209926874256942,-1.0025310809671701,94.45001064783634,11.637227578400436,0.0,1.0,0.0,0.0,1.0,Taxi
2.5,-0.07234509284589988,-36.80573603365628,6.362293694723224,0.17632417583075333,-0.19687843780504866,94.66617739210324,11.087173760883385,0.0,1.0,0.0,0.0,1.0,Taxi
2.6,-0.11016639998007152,34.29449775288583,7.587952711966017,0.18223891780783552,-0.2952585889067199,94.54639973403653,10.51633783902423,0.0,1.0,0.0,0.0,1.0,Taxi
2.7,0.15482587438674933,4.9429375723977245,7.239971060829262,0.15885245697489989,0.7863900435309535,94.47425205542572,11.475708179879268,0.0,1.0,0.0,0.0,1.0,Taxi
2.8000000000000003,-0.047630404983911176,-3.7647664738899613,7.4032630592468,0.45925094173927594,0.097695716331231,94.669996851024,11.970485047262542,0.0,1.0,0.0,0.0,1.0,Taxi
2.9000000000000004,-0.12899023234952128,-50.62391814927444,6.928443259317513,0.07256685279810994,0.39355911802390303,94.7035492306909,12.585764765129476,0.0,1.0,0.0,0.0,1.0,Taxi
3.0,-0.09829371635962285,-15.505507349957938,6.821238124389275,0.4950540363406062,-0.9951861599967025,94.53819475873104,10.831701089045016,0.0,1.0,0.0,0.0,1.0,Taxi
3.1,-0.1251579417337009,9.8138572957587,7.119125472255346,0.26761606094992707,0.8495194206520498,94.83393551249003,10.972898019844585,0.0,1.0,0.0,0.0,1.0,Taxi
3.2,-0.0799209458707278,-22.96284669657879,7.114414213467363,-0.026735726849385633,-0.7546490772462299,94.70174712320414,12.140880617280896,0.0,1.0,0.0,0.0,1.0,Taxi
3.3000000000000003,-0.2131079498425168,24.21081775830507,7.751865556070735,0.26468044811751607,-0.1700178821908044,94.5814264644954,11.45458678245225,0.0,1.0,0.0,0.0,1.0,Taxi
3.4000000000000004,-0.004103852942175552,18.802966838264627,7.344798308137396,0.20592917600009802,0.09603594859764926,94.48692070926245,10.84698645414601,0.0,1.0,0.0,0.0,1.0,Taxi
3.5,0.014093888320595334,65.64226710935952,7.194667238047042,0.25421811773213737,0.1841236305145586,94.57953492003617,10.843313858118746,0.0,1.0,0.0,0.0,1.0,Taxi
3.6,0.11510338570428083,-23.62143960964559,7.359911802898919,0.2981383906151749,0.2004283866744314,94.63072527731481,9.878587141833064,0.0,1.0,0.0,0.0,1.0,Taxi
3.7,-0.12221105099040355,0.8589394009327312,8.273991771832968,-0.04531856853949867,0.03850512898901763,94.67987014564363,11.404286675448702,0.0,1.0,0.0,0.0,1.0,Taxi
3.8000000000000003,0.01838858532525895,-33.94199159066154,6.427348431070737,-0.0525511999598155,-0.41940380451019704,94.408365695692,10.617674731881474,0.0,1.0,0.0,0.0,1.0,Taxi
3.9000000000000004,-0.05460657224902691,20.702464904604085,7.618909133990249,0.37886017396375626,0.6809304865642433,94.60198173851359,11.819095188463102,0.0,1.0,0.0,0.0,1.0,Taxi
4.0,-0.01869872646738318,-18.016048038365415,7.291010751949677,0.06684595547978489,0.3082637120151809,94.46064437184174,12.01544737902008,0.0,1.0,0.0,0.0,1.0,Taxi
4.1000000000000005,-0.07169165486656819,9.228686876037365,6.905135819201066,0.3528225894103215,-0.5565192949687471,94.4980926036344,11.242709776838945,0.0,1.0,0.0,0.0,1.0,Taxi
4.2,-0.00846313786884014,6.688616511305315,7.71945750536208,-0.17956085183806775,0.28904450369766704,94.64626143265338,10.665526399477647,0.0,1.0,0.0,0.0,1.0,Taxi
4.3,0.014744356089143339,0.7657099820524991,7.318701064024937,0.11476446615630044,0.4264203738362677,94.74674185435708,11.670035382497359,0.0,1.0,0.0,0.0,1.0,Taxi
4.4,-0.06786310495630575,7.044965793388452,7.160745429917263,-0.22677336822380117,-0.5679094106427387,94.6407757599249,11.13802322432796,0.0,1.0,0.0,0.0,1.0,Taxi
4.5,0.02676169109810206,-8.334822565279758,6.139395665004288,-0.048680257380648545,-0.36624807059751213,94.48746489990737,10.615214275281582,0.0,1.0,0.0,0.0,1.0,Taxi
4.6000000000000005,-0.026929756737255502,-36.89355789850019,7.1349924154515625,0.28041211179487835,-0.31769198761116596,94.74239528816145,11.128387831646167,0.0,1.0,0.0,0.0,1.0,Taxi
4.7,-0.25233089444880674,-6.673501423835404,6.530015470716792,0.05651369213342125,0.5190726901828416,94.67458922288466,11.827975136110544,0.0,1.0,0.0,0.0,1.0,Taxi
4.800000000000001,-0.006605816021074996,13.514282843730674,7.5597496882760105,-0.035193708731140305,-0.10057603202187532,94.59459937058011,10.944183803631471,0.0,1.0,0.0,0.0,1.0,Taxi
4.9,0.04064165748139785,58.586158843203215,8.01706589190952,-0.040599456733168005,-0.5390180256255809,94.62282320927352,11.25897383194117,0.0,1.0,0.0,0.0,1.0,Taxi
5.0,0.0405998997672093,18.009176128968615,6.841462843132057,-0.01751572565750925,-0.3697140157557938,94.76062575390927,11.10807888437543,0.0,1.0,0.0,0.0,1.0,Taxi
5.1000000000000005,0.08344006462376803,-4.805356805867851,8.245010600323901,-0.11406200442469144,0.2525164804471321,94.48614867999663,12.102692150439605,0.0,1.0,0.0,0.0,1.0,Taxi
5.2,0.01661487345205855,21.45330092994355,7.262031027315537,0.05184414172240426,-0.5448599822397571,94.5859417217398,11.147071129895643,0.0,1.0,0.0,0.0,1.0,Taxi
5.300000000000001,0.147866404416927,21.794336720700795,8.568081942406536,0.5063468465972283,-0.20407256192661902,94.80358515917516,11.171191675112892,0.0,1.0,0.0,0.0,1.0,Taxi
5.4,0.19241174822727197,44.20850311794435,7.872770841595473,0.20326047320260293,-0.44774345012343947,94.76012999381425,12.251306016110908,0.0,1.0,0.0,0.0,1.0,Taxi
5.5,0.23765738904178024,-23.93664684100413,7.288456607171337,0.2349965971429139,0.681164589139018,94.6383218709193,10.9788496752473,0.0,1.0,0.0,0.0,1.0,Taxi
5.6000000000000005,0.028183170211906302,-16.695987217190567,7.879373808190607,-0.009428805578851979,0.4950172095661569,94.65447633437566,10.433306595413553,0.0,1.0,0.0,0.0,1.0,Taxi
5.7,0.10893181214131907,-34.20517782978704,6.694582329138845,0.2558295884533036,0.10293346056440654,94.56528650367898,11.656910768471265,0.0,1.0,0.0,0.0,1.0,Taxi
5.800000000000001,0.06663149989284498,-9.198706486844449,6.710891270656036,0.002224154746152812,-0.060403082956704844,94.62670429149455,11.447738746755238,0.0,1.0,0.0,0.0,1.0,Taxi
5.9,-0.017810362222316002,-19.31366808768591,8.313483245113932,0.46498765895597294,-0.2708552983966697,94.57545451374415,10.999464250589318,0.0,1.0,0.0,0.0,1.0,Taxi
6.0,0.012363471702889445,-7.049660464410981,7.6268971711428115,0.15884499347581366,-0.3028578914900557,94.6635315611482,11.122884861704566,0.0,1.0,0.0,0.0,1.0,Taxi
6.1000000000000005,0.031383197570790014,-47.535452217020215,6.945344322610214,0.12599367725859872,0.10940713423502753,94.32972306056348,10.579603123933506,0.0,1.0,0.0,0.0,1.0,Taxi
6.2,-0.2554876233074172,12.69591302837417,7.086393155275969,0.2201331187419852,0.038007404914168735,94.53002998926007,11.078541344680428,0.0,1.0,0.0,0.0,1.0,Taxi
6.300000000000001,0.07584303684476017,2.9230219581174595,7.9913994123069525,0.13390018273832965,0.8127177066975653,94.4878059764211,11.22065727677191,0.0,1.0,0.0,0.0,1.0,Taxi
6.4,0.04599830736137721,63.3541503576681,5.441758918579206,0.2892294891590967,-0.2552633245677735,94.49087189615966,10.814135135001191,0.0,1.0,0.0,0.0,1.0,Taxi
6.5,0.06128312848092324,39.60874675593889,7.754667302865373,-0.2730680459026834,-0.2646904535681392,94.77106641724879,11.433884697069981,0.0,1.0,0.0,0.0,1.0,Taxi
6.6000000000000005,0.27388677062445455,-24.272520538257595,7.988489088990936,-0.009737513321221913,-0.08439935349883866,94.5547026880447,10.389076830149854,0.0,1.0,0.0,0.0,1.0,Taxi
6.7,-0.07536429532991085,-0.13424600148087507,6.151282409575514,0.11545889308437617,0.031163769815548182,94.51139354276984,11.324396055655308,0.0,1.0,0.0,0.0,1.0,Taxi
6.800000000000001,0.06061189847351877,-85.81257643590703,8.02028544897882,0.20159560494460368,0.6408887165385471,94.42521850096989,11.241859040740591,0.0,1.0,0.0,0.0,1.0,Taxi
6.9,-0.15517611155508068,-25.764661633688863,6.660572202226567,0.033503278693252064,-0.8452003334357062,94.51330541849774,10.900424590738968,0.0,1.0,0.0,0.0,1.0,Taxi
7.0,-0.20418760349835524,34.45575600810802,6.289309047559952,0.04309642342438241,-0.2981058954831444,94.67426622208654,11.61988930246654,0.0,1.0,0.0,0.0,1.0,Taxi
7.1000000000000005,0.23289067851405876,27.30768112074993,7.511249620312983,0.7080607869350904,-0.152389179556159,94.67805186011805,11.248777947192226,0.0,1.0,0.0,0.0,1.0,Taxi
7.2,-0.01863770595133123,38.36804740724153,6.4620517332675185,0.22483407985071466,-0.20234840561333367,94.58423909469639,11.55850910945823,0.0,1.0,0.0,0.0,1.0,Taxi
7.300000000000001,-0.012347366462147794,-51.21913776586485,7.221627867221469,0.40330171902659206,-0.8539579341721941,94.61899833129928,11.126831374224444,0.0,1.0,0.0,0.0,1.0,Taxi
7.4,-0.023205010315265666,-5.565069357682414,6.974947140207016,0.17238375879455878,0.1981235998735963,94.5995171173455,10.947210353437033,0.0,1.0,0.0,0.0,1.0,Taxi
7.5,-0.04646305273974344,-1.0341789677746718,7.376304124958769,0.03754686518691375,0.7762635558453923,94.58597415489481,10.609485557129325,0.0,1.0,0.0,0.0,1.0,Taxi
7.6000000000000005,-0.017518261301021305,-8.783268772981641,7.48565177646319,0.25199173245950224,0.598629838774043,94.49454654509725,11.110834120469114,0.0,1.0,0.0,0.0,1.0,Taxi
7.7,-0.06712135418017402,1.3785848571387642,6.249754511615268,0.1853981883869543,0.453556809372807,94.58496187525895,11.621359985287283,0.0,1.0,0.0,0.0,1.0,Taxi
7.800000000000001,-0.03957012845404977,18.740700144769917,7.05350100900574,-0.07267713524588043,-0.14803801261078053,94.43284148177383,11.520110765876021,0.0,1.0,0.0,0.0,1.0,Taxi
7.9,0.07618523942282812,26.67323776851988,7.228433432395375,0.2683245160023417,-0.12968707941694524,94.63675710822315,10.605118731965453,0.0,1.0,0.0,0.0,1.0,Taxi
8.0,0.06624483466242519,-3.1337360888919363,6.799574856170257,0.21837770756194155,0.2039314245265414,94.61381838869579,11.155101973515993,0.0,1.0,0.0,0.0,1.0,Taxi
8.1,-0.05523880889850963,-12.370894011426827,7.227284444786948,0.2631540434398696,-0.3873055937653692,94.7220850508852,10.235627411635775,0.0,1.0,0.0,0.0,1.0,Taxi
8.200000000000001,0.014330769365693833,4.146314679720976,7.18733592985583,0.11125413729365498,0.6737627615797611,94.60734195006188,10.75544069412933,0.0,1.0,0.0,0.0,1.0,Taxi
8.3,0.08697640806102991,-0.854470207381714,7.773356760556886,0.0832175558449591,-0.13567188917775194,94.44460210291294,11.030551965516976,0.0,1.0,0.0,0.0,1.0,Taxi
8.4,-0.059511159935418334,14.979465544886267,8.058451946540568,-0.0593730429364642,0.8103248725410901,94.61582544705163,11.816913090996641,0.0,1.0,0.0,0.0,1.0,Taxi
8.5,0.08922809709012501,-33.230954350994644,6.166258007378991,0.2426802930522883,0.46635148329625437,94.50797642440955,10.413086060655885,0.0,1.0,0.0,0.0,1.0,Taxi
8.6,-0.07917836369394343,15.413298353305686,8.086832933562686,0.21563168506013114,-0.5854434353336965,94.7348058746814,11.335302181808814,0.0,1.0,0.0,0.0,1.0,Taxi
8.700000000000001,0.01755533183110997,8.315682413974216,6.124540916461031,0.22039406689944005,-0.47679236791205126,94.5974759025035,11.16214977463174,0.0,1.0,0.0,0.0,1.0,Taxi
8.8,0.13080650915999598,12.672504262333694,7.129256215219304,-0.2258151447236082,0.0674436616710831,94.67887377790805,10.963081408917342,0.0,1.0,0.0,0.0,1.0,Taxi
8.9,-0.015815842382275087,-17.339906331244915,7.68343935441183,0.24989339428666651,-0.13136745580905593,94.39915100855399,10.19248612021263,0.0,1.0,0.0,0.0,1.0,Taxi
9.0,-0.06914419982511472,-21.88553137378723,7.522457600425981,0.24306452625765737,-0.5704131326874174,94.58504566495566,10.822742649716828,0.0,1.0,0.0,0.0,1.0,Taxi
9.1,0.02137885229105971,7.5243565510992285,6.841191765350884,0.5193714772098796,-0.31628490713015495,94.6545760598944,11.717023042736937,0.0,1.0,0.0,0.0,1.0,Taxi
9.200000000000001,0.021805940373220936,-3.2140688711945415,8.189987533363837,0.6261132282471771,-0.2205591411004511,94.584887654846,10.889472071090173,0.0,1.0,0.0,0.0,1.0,Taxi
9.3,-0.08521454418108754,-11.092662730901958,6.511625534242489,0.39013721909120536,-0.49571116782892316,94.71007343653736,10.793054146537022,0.0,1.0,0.0,0.0,1.0,Taxi
9.4,-0.03408446136345022,5.920701355049438,7.19014657809833,0.02003777626215525,-0.4881240033007155,94.73133391472527,11.369958073251313,0.0,1.0,0.0,0.0,1.0,Taxi
9.5,0.051409447148468006,8.416285863388822,7.804407180767118,0.3334673675926667,-0.7974490554387943,94.6707382704812,11.472953557075074,0.0,1.0,0.0,0.0,1.0,Taxi
9.600000000000001,-0.04313311486414354,-32.41714590907312,7.100134292144401,-0.02525742966514516,-0.36343419946580957,94.54776881692374,11.839859610470498,0.0,1.0,0.0,0.0,1.0,Taxi
9.700000000000001,-0.19617019090881596,5.07715394962175,6.761815648462717,0.2672348181514284,0.04784532031988291,94.66912485353225,11.041066955144737,0.0,1.0,0.0,0.0,1.0,Taxi
9.8,0.07679521689657659,-20.24813566554178,7.710018656086179,0.19348049469473586,0.3459742427443305,94.30143664827415,10.360066136141425,0.0,1.0,0.0,0.0,1.0,Taxi
9.9,-0.1443737931918526,46.94293308816253,7.400885729067222,0.30849467034367895,0.22441747699231934,94.71275324498083,10.800431134623055,0.0,1.0,0.0,0.0,1.0,Taxi
10.0,0.038544474531996546,-7.047698347584344,7.745275123944217,-0.05920187306975633,-0.33812875706592316,94.63050758872765,11.583402958074668,0.0,1.0,0.0,0.0,1.0,Taxi
10.100000000000001,0.04155672515865476,17.487282941905608,6.654556265853671,0.014947634639481955,-0.45627877373188463,94.81633184021507,11.07586745766038,0.0,1.0,0.0,0.0,1.0,Taxi
10.200000000000001,-0.05693737848232469,-6.646530464158346,8.136110201141667,0.01788564397269285,-0.16355959008092952,94.72051033585672,10.24100611991452,0.0,1.0,0.0,0.0,1.0,Taxi
10.3,0.005311822211204662,-21.889947439586336,6.461814685769006,0.08605050469719185,0.978583926399146,94.41234091556959,10.800501267175518,0.0,1.0,0.0,0.0,1.0,Taxi
10.4,-0.0678930120392771,-25.13456631802411,6.985664637177852,0.33805582646770393,0.700944959387593,94.56344735772228,10.56437097620802,0.0,1.0,0.0,0.0,1.0,Taxi
10.5,-0.18261021007244538,31.665532505907915,6.780853347643307,0.4341129759135921,-0.5929623979397057,94.64234233284981,10.147639114390378,0.0,1.0,0.0,0.0,1.0,Taxi
10.600000000000001,0.16363948474074405,34.83989411042366,7.208325669669822,0.7093979460962393,0.31767458510519214,94.48202550305052,11.048710927770772,0.0,1.0,0.0,0.0,1.0,Taxi
10.700000000000001,0.10630645851284103,26.273682598483337,7.49980899486711,0.13993002802292537,0.49289026178406437,94.5347426969725,10.588275540399405,0.0,1.0,0.0,0.0,1.0,Taxi
10.8,-0.051241797080028885,-72.53974515817754,6.404324609738341,0.492373261493753,-0.031165811197187566,94.4387255530956,11.08732980794663,0.0,1.0,0.0,0.0,1.0,Taxi
10.9,-0.19905924105014372,-13.225168902048239,6.105408135688564,0.12932439371383878,-0.07358654333000648,94.56829036533884,10.428021209745518,0.0,1.0,0.0,0.0,1.0,Taxi
11.0,0.040180614002599764,18.635613308643112,8.601255542129675,0.20401434426980647,-0.03415893254145005,94.78772919689641,10.745014173544082,0.0,1.0,0.0,0.0,1.0,Taxi
11.100000000000001,0.04193626946318657,40.3128875363544,7.015724130758008,0.10488971912347245,-0.19324293944571994,94.43328289468099,10.353656733158164,0.0,1.0,0.0,0.0,1.0,Taxi
11.200000000000001,0.002505196631628208,-52.35753045884697,7.457341789275788,-0.06950267746997862,-0.10562758616309305,94.54002052329145,10.828412469064558,0.0,1.0,0.0,0.0,1.0,Taxi
11.3,-0.22160703829163522,-17.34681684715998,7.480291143515744,0.2652571522417106,0.11277683014544872,94.62794843843739,12.05880424217194,0.0,1.0,0.0,0.0,1.0,Taxi
11.4,-0.044797814772613444,-32.71433401351817,7.8243717472715435,0.04896498299822594,-0.9661591677281371,94.60152722495627,11.235050261542412,0.0,1.0,0.0,0.0,1.0,Taxi
11.5,-0.16106647343596278,41.505455643485796,6.523622338036199,0.18752511901567914,-0.12907249608690272,94.84347486723766,11.79666914972443,0.0,1.0,0.0,0.0,1.0,Taxi
11.600000000000001,-0.01407976007420641,-19.139568109360784,7.078334714616804,0.44221809401898776,-0.16419442114478094,94.6575572645715,10.98976124779863,0.0,1.0,0.0,0.0,1.0,Taxi
11.700000000000001,-0.14049565531941752,33.61461076700443,7.0324465791655335,-0.08637207957121995,-0.28782653172050054,94.69891828712895,10.496205896956107,0.0,1.0,0.0,0.0,1.0,Taxi
11.8,0.007006580399059205,-16.27742017825842,8.140350607219277,0.05285929789558855,-0.1435909662688022,94.5388736058066,11.048386438293562,0.0,1.0,0.0,0.0,1.0,Taxi
11.9,-0.09546686096549867,53.220289704099,7.454845341214094,0.1659574942070341,-0.2820150849798517,94.54498087357575,11.039270503622298,0.0,1.0,0.0,0.0,1.0,Taxi
12.0,0.12560579320107731,-13.979393608208193,7.636308934950223,-0.020403336074553136,0.0020801047099157956,94.54061313071486,11.56728973998639,0.0,1.0,0.0,0.0,1.0,Taxi
12.100000000000001,-0.06289038764198193,40.958812730332646,7.617699086284819,0.1527512818207205,-0.04011679762884441,94.551927475068,11.48039870572854,0.0,1.0,0.0,0.0,1.0,Taxi
12.200000000000001,0.10932720268616439,-35.91646826008753,7.090649659135121,0.03399301075411784,0.5021959075530275,94.6073086530007,11.255067638203903,0.0,1.0,0.0,0.0,1.0,Taxi
12.3,-0.05397654809936046,25.768028413819156,6.922930543674188,0.28853495635615656,0.8247065592891767,94.58860823197153,10.035001645303833,0.0,1.0,0.0,0.0,1.0,Taxi
12.4,0.06594975442711372,-3.321258873641072,7.662593618553848,0.5155479827553215,0.33942035569189083,94.54211354825247,11.567142637486283,0.0,1.0,0.0,0.0,1.0,Taxi
12.5,0.09272090831795889,19.39821239194782,7.594562284332968,0.3859369716677358,-0.5311169662290469,94.57595844302222,11.221739074551602,0.0,1.0,0.0,0.0,1.0,Taxi
12.600000000000001,0.043014513860378495,-35.01858807092354,7.689056287269881,0.07102867637013423,-0.38134743189057835,94.59769189986258,11.51175118107038,0.0,1.0,0.0,0.0,1.0,Taxi
12.700000000000001,-0.1091431859275041,0.6586306361066647,7.09606352196029,-0.19026662840857067,-0.8070149656658648,94.69873619139781,10.661601750954087,0.0,1.0,0.0,0.0,1.0,Taxi
12.8,0.09601406149849212,4.810593583168355,7.881820636534965,0.299004420921038,-0.3495059033847166,94.517133845984,10.940670917227232,0.0,1.0,0.0,0.0,1.0,Taxi
12.9,0.06706748177622017,6.695998516011907,7.40387024948293,0.394048782460687,0.1975015858934332,94.54818458738771,11.42117598450093,0.0,1.0,0.0,0.0,1.0,Taxi
13.0,-0.07566319334744469,-37.786123291184445,7.167678443051137,0.28925057535486964,-0.7014230792283473,94.57574114995805,11.58059176712138,0.0,1.0,0.0,0.0,1.0,Taxi
13.100000000000001,-0.09291655495743023,-21.00095601209709,7.479301779180607,0.05100086454454769,0.44626894795121863,94.72715930952234,11.018872322762123,0.0,1.0,0.0,0.0,1.0,Taxi
13.200000000000001,-0.03793729828426541,41.046985778786336,6.5462354806618235,-0.1411990147771961,0.12756253326114386,94.67087565117839,11.34258482810013,0.0,1.0,0.0,0.0,1.0,Taxi
13.3,0.12957173554648688,5.93286603002763,7.064387540843684,0.24197262809395947,0.2285955082839857,94.52531067207963,10.520827713320806,0.0,1.0,0.0,0.0,1.0,Taxi
13.4,-0.06325222480729217,-2.5995809609185856,7.982344944171567,-0.025222676183524056,-0.053623956237271085,94.61909747557735,10.275452930448507,0.0,1.0,0.0,0.0,1.0,Taxi
13.5,-0.050935203088858454,-15.299353691822967,7.588623023356152,0.2820848166619162,-0.2267567220060502,94.52014522132544,11.398072715351404,0.0,1.0,0.0,0.0,1.0,Taxi
13.600000000000001,0.053074967087371916,11.78458916145153,8.149393266201619,0.43263967504226836,-0.09727815729134076,94.74705179920954,11.817278395589327,0.0,1.0,0.0,0.0,1.0,Taxi
13.700000000000001,-0.004329279000034633,17.16768104841148,7.469542880906478,0.37533229107619315,0.5163028484486243,94.63130810726227,10.884980547373331,0.0,1.0,0.0,0.0,1.0,Taxi
13.8,0.03490320215319884,-38.77905483536471,8.032470704176054,0.04039592356877253,0.020533126309766878,94.54807593581393,11.075401511546948,0.0,1.0,0.0,0.0,1.0,Taxi
13.9,-0.14082030708945173,-32.755332235513556,7.142393295955599,0.1511735831091622,0.41938074454433644,94.629563458819,11.81610787517005,0.0,1.0,0.0,0.0,1.0,Taxi
14.0,-0.16810594017760253,-25.672046421741726,7.209396886480368,0.3779821701852133,-0.05640585591496208,94.67944127587214,10.778525647878812,0.0,1.0,0.0,0.0,1.0,Taxi
14.100000000000001,-0.09345702995550992,5.405144374482663,7.531340406609435,-0.20123043597854895,0.2960328298011416,94.64610936702513,10.965369566598916,0.0,1.0,0.0,0.0,1.0,Taxi
14.200000000000001,-0.11379458521703854,63.47447004644994,7.9323437709562175,0.19452013845727997,-0.18329375692318356,94.70259039186067,11.572845646533994,0.0,1.0,0.0,0.0,1.0,Taxi
14.3,0.14926641005464697,35.9481001202202,7.175269996362815,0.08091392680164967,0.7821177173034806,94.69801275362784,11.661148135006894,0.0,1.0,0.0,0.0,1.0,Taxi
14.4,0.08628347064559092,43.14815330981441,7.38362816074031,0.21200896797984906,-0.555050076121886,94.69284084105078,10.363157953817048,0.0,1.0,0.0,0.0,1.0,Taxi
14.5,0.10194618133203337,-22.69900250673005,7.589974478005707,0.10612183887802479,0.18673464182134525,94.51879107379273,10.915574263879964,0.0,1.0,0.0,0.0,1.0,Taxi
14.600000000000001,0.03577139752099658,-4.881559721946363,8.069936970260226,0.1772516563163245,-0.28105746822677735,94.66601798216732,9.919464733945262,0.0,1.0,0.0,0.0,1.0,Taxi
14.700000000000001,0.06187567203585895,-73.42301048278787,6.552552984998472,0.38948084782714554,0.8455646655547141,94.57252845480292,9.591820649146886,0.0,1.0,0.0,0.0,1.0,Taxi
14.8,-0.2651688710819062,-31.83256806631057,7.066407447804662,0.11627096798192235,-0.09870745703859873,94.90422966354686,11.561951948351625,0.0,1.0,0.0,0.0,1.0,Taxi
14.9,-0.12339144281055647,-0.2764901452081621,6.726665007549147,0.7467621079514309,-0.231469364742479,94.63884338559046,10.28341802610289,0.0,1.0,0.0,0.0,1.0,Taxi
15.0,0.06049322130981796,37.23864403974656,7.1271988535134,-0.048507156548669494,-0.6066691780414932,94.50006704905513,11.23463253578207,0.0,1.0,0.0,0.0,1.0,Taxi
15.100000000000001,-0.07897565088317354,-19.92916158474439,7.1494335344449125,0.40883851429645324,-0.04520100359436448,94.6139357158753,10.648604479622138,0.0,1.0,0.0,0.0,1.0,Taxi
15.200000000000001,-0.22303725073427852,-3.448732076140639,6.744616876674673,0.3540939814294318,-0.4976446727198802,94.4164928061839,11.480218790805486,0.0,1.0,0.0,0.0,1.0,Taxi
15.3,0.04324956092911467,-7.2199709308768405,7.39640531301431,0.4267835185470624,0.5917341709789385,94.61146581991113,11.901108526868882,0.0,1.0,0.0,0.0,1.0,Taxi
15.4,-0.11507550553755788,43.45419698566129,8.729878702636748,0.4842580839763948,-0.07129114649742863,94.65574516221182,11.49309775864843,0.0,1.0,0.0,0.0,1.0,Taxi
15.5,-0.00576626580597224,-18.75244762592626,6.512348123647056,0.12171457102908476,0.5233217178107998,94.63885761178136,11.21445964087378,0.0,1.0,0.0,0.0,1.0,Taxi
15.600000000000001,-0.050512677200516755,13.167941387488163,7.53652616397878,0.35750470494645836,0.15204276022770744,94.61825378023309,11.269322941203951,0.0,1.0,0.0,0.0,1.0,Taxi
15.700000000000001,-0.049235798600117196,10.050416587036407,7.138104771209724,0.1687780404119643,0.8280188272437731,94.49766073132491,11.509023444244134,0.0,1.0,0.0,0.0,1.0,Taxi
15.8,0.044485817129209654,19.67145709985699,6.776594000760291,-0.10709162437022673,1.3180750860080623,94.7093764251706,11.027295434283525,0.0,1.0,0.0,0.0,1.0,Taxi
15.9,0.04784460829876806,40.378968106478084,6.7248442008029246,-0.035904833986681484,-0.7701340743717369,94.74735621693787,11.761312256406722,0.0,1.0,0.0,0.0,1.0,Taxi
16.0,0.15265904193227306,35.281336558221824,7.774829470912542,0.31128762424934353,0.595303342068433,94.74653861017703,11.928871859613642,0.0,1.0,0.0,0.0,1.0,Taxi
16.1,0.22089249992031862,-22.973517296698123,7.2324183385606355,0.3966309094029876,-0.25645828165152595,94.62518718298605,10.941410659256233,0.0,1.0,0.0,0.0,1.0,Taxi
16.2,-0.06702297818472278,-33.529289761539516,7.913432955623136,-0.13115078633185906,0.3938599754054776,94.65471117669637,10.399643401720109,0.0,1.0,0.0,0.0,1.0,Taxi
16.3,-0.014987406875424759,-9.168698291941112,6.700724812209916,0.539056978165471,-1.34777546322659,94.5581071800832,11.462040100581715,0.0,1.0,0.0,0.0,1.0,Taxi
16.400000000000002,0.17504900846061283,33.65031584848856,7.246205826831605,0.1612920365613923,0.3658534591165073,94.64388802861072,10.655737235000503,0.0,1.0,0.0,0.0,1.0,Taxi
16.5,0.10122860105771991,-2.5538217866008446,6.702115524853223,0.04084486421672698,0.5730009659342504,94.61977094794088,10.885413264033115,0.0,1.0,0.0,0.0,1.0,Taxi
16.6,-0.02775651580842907,-23.99989879330936,8.24739989147588,0.4233840734234766,0.4392156240360498,94.68878307682581,11.544222952555735,0.0,1.0,0.0,0.0,1.0,Taxi
16.7,0.055049514494065956,44.169974861101906,7.837566184243359,0.269851592533345,0.1036530338290393,94.83936552832415,11.417466756339522,0.0,1.0,0.0,0.0,1.0,Taxi
16.8,0.32207847536322937,-18.340994314265448,7.360094715711809,0.3495493320261469,-1.238563302284433,94.57529734943694,10.935210589903297,0.0,1.0,0.0,0.0,1.0,Taxi
16.900000000000002,-0.11946148737975647,-0.9139157373430417,6.563197456167288,0.2605759625031918,0.280284581941264,94.72310326145339,10.497505023542535,0.0,1.0,0.0,0.0,1.0,Taxi
17.0,0.05047993580735061,-101.6896565722974,6.416289709949616,0.11244865944287971,-0.6338524920452441,94.83378907925822,11.62213537159202,0.0,1.0,0.0,0.0,1.0,Taxi
17.1,-0.18636980749825768,49.68017524158984,8.09140245230303,0.09746554859814639,-0.25149027454533573,94.59743444769384,10.842923355526034,0.0,1.0,0.0,0.0,1.0,Taxi
17.2,0.1289393888281926,-48.84957903998028,6.956273662356094,-0.09554798296239081,0.24662910223838866,94.71969201479737,11.145415028006104,0.0,1.0,0.0,0.0,1.0,Taxi
17.3,-0.19376795939255095,37.68154844146951,6.546183422145192,0.3851815857452774,-0.1175995634120739,94.5890618982416,11.02314573576476,0.0,1.0,0.0,0.0,1.0,Taxi
17.400000000000002,0.002037934709089726,-21.462170413596386,7.730169040141758,0.20571043811568704,0.036218629630174866,94.58419765107936,12.346505206140694,0.0,1.0,0.0,0.0,1.0,Taxi
17.5,0.021628536760210513,40.176694939079454,6.2611247373855266,0.5009211050582472,0.31683717874816925,94.55128284270694,11.33757217366917,0.0,1.0,0.0,0.0,1.0,Taxi
17.6,0.007115515302846174,1.7077816592613313,7.41449780287429,0.09696079354246098,-0.1269702379575885,94.81452505368406,10.64131551601416,0.0,1.0,0.0,0.0,1.0,Taxi
17.7,0.01057684300539624,-9.476778262762872,7.13934706247317,0.5066283955971893,0.31317010332576345,94.40366621760484,11.479542803458349,0.0,1.0,0.0,0.0,1.0,Taxi
17.8,-0.025755354553603994,-10.273137005354739,6.279919780791949,0.2101737852220403,-0.45471061542291874,94.60701006927968,11.018126295956284,0.0,1.0,0.0,0.0,1.0,Taxi
17.900000000000002,-0.04425016972392767,0.49490733115807234,7.075863042351893,0.18906055854056728,-1.0296926216059055,94.57087431708044,11.830764627528188,0.0,1.0,0.0,0.0,1.0,Taxi
18.0,0.013051379661186462,-1.0241598463119068,8.407808252082699,0.23439229335527784,0.11658696531595936,94.67319939923783,11.342361541897986,0.0,1.0,0.0,0.0,1.0,Taxi
18.1,-0.030876153785163663,15.558095746222046,6.504970537132699,0.08547579447779809,0.7440584855911117,94.70498028288534,11.355766131032402,0.0,1.0,0.0,0.0,1.0,Taxi
18.2,0.03354030900718243,27.847292479785352,7.223647307547672,0.8068117337799108,-0.3222124886252355,94.60060845769272,10.653987205648551,0.0,1.0,0.0,0.0,1.0,Taxi
18.3,0.1522878420601131,46.858785084029584,7.288149894310326,0.2788470701718353,0.5560817243577028,94.6055736514295,11.254256048677911,0.0,1.0,0.0,0.0,1.0,Taxi
18.400000000000002,0.2034177716349841,8.069513478733962,6.7304397546797015,0.24144037275049168,-0.29627092154752105,94.70958865526387,11.038971741159868,0.0,1.0,0.0,0.0,1.0,Taxi
18.5,0.07388787640085212,-38.05192039797783,6.045188147482578,-0.11962480631262734,-0.3525398520116173,94.60496638944255,11.821967902162461,0.0,1.0,0.0,0.0,1.0,Taxi
18.6,-0.03797175992977619,-20.05340862700606,7.771925567671461,0.16136998150890483,-0.02332895931710671,94.62947879375758,11.736373985188267,0.0,1.0,0.0,0.0,1.0,Taxi
18.7,0.10315072849995366,-1.9560953119161606,6.913122565219553,0.24568005064089582,0.21688343161164436,94.5841180388478,10.541030287715422,0.0,1.0,0.0,0.0,1.0,Taxi
18.8,0.06410739984127116,-14.344256776797254,7.850736621822468,-0.02812675481134208,-0.016791888707050628,94.5434019942569,11.53230341830272,0.0,1.0,0.0,0.0,1.0,Taxi
18.900000000000002,-0.10969304381376262,-3.289582225298588,7.968216624774136,0.2076415082618573,-0.8902270153940095,94.7590814534284,10.99280424766781,0.0,1.0,0.0,0.0,1.0,Taxi
19.0,0.08670281737346056,-4.947169710254649,7.721752652121108,-0.00466975785588486,0.7910169824142631,94.63004321524727,10.871795275347791,0.0,1.0,0.0,0.0,1.0,Taxi
19.1,0.03937155128999778,-2.409848582457149,7.187978130411378,0.26454553673481573,0.21247918694377302,94.67910010150405,11.504405945252449,0.0,1.0,0.0,0.0,1.0,Taxi
19.200000000000003,-0.12174228672604848,-54.3366483630109,7.557496226952712,0.2635899314651671,-0.2714830857520469,94.6699811179198,11.496221806627274,0.0,1.0,0.0,0.0,1.0,Taxi
19.3,-0.18498042444159407,-36.23630341179673,7.703410493849853,0.003742237924740044,-0.004800298975878709,94.6472774790401,10.900339784551644,0.0,1.0,0.0,0.0,1.0,Taxi
19.400000000000002,-0.141809965768986,-12.138148423203589,6.936266139713543,0.8197903252934818,0.0074332263401430095,94.67928834410571,11.004055902572754,0.0,1.0,0.0,0.0,1.0,Taxi
19.5,-0.18243302884206655,37.99898285223351,5.984258269074077,0.526345776425329,-0.14129511830215763,94.61909222197283,10.48367534972525,0.0,1.0,0.0,0.0,1.0,Taxi
19.6,0.005014489819573331,29.579955316832812,7.563939149434816,-0.13425795816970926,0.041144667258034257,94.45926058844361,10.773075725561629,0.0,1.0,0.0,0.0,1.0,Taxi
19.700000000000003,0.006089810815177921,38.93779051365599,7.039401946626659,0.22623879033115363,-0.4517925028436063,94.49915274916862,10.523221985098347,0.0,1.0,0.0,0.0,1.0,Taxi
19.8,0.01225592372621323,-5.423006052963395,8.314875315804937,0.6127547250398053,0.24250771795600526,94.77330330516378,11.526396225236562,0.0,1.0,0.0,0.0,1.0,Taxi
19.900000000000002,-0.022100540445243788,14.557694348192703,7.212893245524746,0.5964520812978611,-0.12219074261672044,94.43861260206262,11.695902527437791,0.0,1.0,0.0,0.0,1.0,Taxi
20.0,0.07887828255614128,-15.126332919112201,7.746118365161642,0.20949929277962762,0.9837836936253731,94.61912990371923,11.661364446592131,0.0,1.0,0.0,0.0,1.0,Taxi
20.1,-0.06337574086934791,4.637761260388847,6.824022762434103,0.35973369339926653,0.6962695674833885,94.71695042861177,12.092368349012437,0.0,1.0,0.0,0.0,1.0,Taxi
20.200000000000003,0.0010882658567002933,-5.204044285866277,7.168402696656431,0.11484983948368015,0.35410015537580597,94.63277246389151,10.348735788928819,0.0,1.0,0.0,0.0,1.0,Taxi
20.3,0.052858061126809755,-20.531729509814795,7.481628923757349,0.19087501030077378,-0.24819873782443316,94.66157705061255,10.677715983260692,0.0,1.0,0.0,0.0,1.0,Taxi
20.400000000000002,-0.16603438841842202,13.032004280856123,8.154136184689047,0.2956675226204803,-0.2832702649330168,94.62978860190111,11.32528260823429,0.0,1.0,0.0,0.0,1.0,Taxi
20.5,0.06624828726098077,8.961472992195267,7.334784970812798,0.13086774215564728,-0.09891134975564105,94.68188999195371,10.749910383065412,0.0,1.0,0.0,0.0,1.0,Taxi
20.6,0.09766542608778594,18.962250846136687,8.548817298502367,0.36451280529567787,0.34347764699795225,94.58811334864231,10.579631911977033,0.0,1.0,0.0,0.0,1.0,Taxi
20.700000000000003,-0.07122313418773872,20.055076272016873,8.578895356294426,-0.08761609633769263,-0.25829167545856363,94.43318321128123,9.977133067607342,0.0,1.0,0.0,0.0,1.0,Taxi
20.8,0.16652366862106502,-10.831179201765044,8.312769987351935,0.13280761105327613,-0.9801757346937264,94.62645071250301,11.179818311916554,0.0,1.0,0.0,0.0,1.0,Taxi
20.900000000000002,0.043509530078960634,23.77512614559682,7.006103797737456,0.5718936969755304,0.4050432668098734,94.6201929833993,11.070671035110383,0.0,1.0,0.0,0.0,1.0,Taxi
21.0,0.04765249654024527,-37.20443471966966,7.460215632739182,0.10785328375301907,0.5305850037457781,94.73186397657969,11.206687700235566,0.0,1.0,0.0,0.0,1.0,Taxi
21.1,-0.019498504977283435,-10.922327011898867,7.129069381638316,0.25188601708793895,0.3947338826735346,94.62762899154995,11.125977479026258,0.0,1.0,0.0,0.0,1.0,Taxi
21.200000000000003,-0.011102104980533859,-30.793328496982657,6.516308683738746,0.3206408208492434,0.33937589223059267,94.67401402340488,11.548893602209501,0.0,1.0,0.0,0.0,1.0,Taxi
21.3,-0.10631414594466818,-29.604450611270778,6.615142727110589,0.44466670191000185,0.3839865947420057,94.65771508546197,9.970890781481403,0.0,1.0,0.0,0.0,1.0,Taxi
21.400000000000002,-0.1675207580336375,-22.519493751269334,7.300712919114313,0.2704348720150798,0.17866320942796168,94.61112739992365,10.97971161173183,0.0,1.0,0.0,0.0,1.0,Taxi
21.5,-0.1236995737368807,6.500280676447662,6.722541670638972,0.08301373426718534,-1.0296442019915961,94.65412029364984,10.777785973074462,0.0,1.0,0.0,0.0,1.0,Taxi
21.6,-0.07381274256243003,17.997483024468966,7.7874767773233735,-0.01727855153066929,-0.3726115654302049,94.42545354193294,10.503443526688688,0.0,1.0,0.0,0.0,1.0,Taxi
21.700000000000003,-0.07753334291129284,26.332773763665667,6.862255197184753,0.26528719463535033,0.10696357943055138,94.51478894443483,11.513148009697789,0.0,1.0,0.0,0.0,1.0,Taxi
21.8,0.007964295081447454,20.987558046921304,7.667517351665444,0.38004033950466,1.1208983950839522,94.66860420317346,11.724656068901353,0.0,1.0,0.0,0.0,1.0,Taxi
21.900000000000002,0.03112504767217632,-30.102710091479313,7.281389537437229,-0.1820570805207471,0.12160564019846472,94.64879320345926,12.234300748972773,0.0,1.0,0.0,0.0,1.0,Taxi
22.0,-0.22804689336868955,46.325953898992275,7.650755725335556,0.02931837968746409,-0.21377420513187706,94.52962887085863,11.09673019983297,0.0,1.0,0.0,0.0,1.0,Taxi
22.1,0.23959406457640875,19.80412241840598,7.336607710558365,0.38323590554276327,-0.580596079435553,94.68093849343597,10.44419288729141,0.0,1.0,0.0,0.0,1.0,Taxi
22.200000000000003,0.13014565976420617,33.23832398646845,8.069190206660457,0.14399452126532394,-0.7176739962904798,94.46282962286125,11.549863447598334,0.0,1.0,0.0,0.0,1.0,Taxi
22.3,-0.06185527343634739,-11.030691841194633,7.540091819585266,0.22645971854047375,-0.3408164499869794,94.72083748546225,10.847445569743932,0.0,1.0,0.0,0.0,1.0,Taxi
22.400000000000002,0.18444060537043538,-9.214153671061778,6.596849575378472,0.3105549228439347,0.10785752614618303,94.42418275558327,10.373470295862164,0.0,1.0,0.0,0.0,1.0,Taxi
22.5,0.08407489140889708,31.76904052038573,8.073867220634213,0.11221005145928872,-0.5114769217704079,94.60456835142577,11.34360685094941,0.0,1.0,0.0,0.0,1.0,Taxi
22.6,0.09698992916558104,-58.32344593062604,7.815231659256589,0.2078488591996283,0.29996951462750054,94.58221642478753,10.858776850334829,0.0,1.0,0.0,0.0,1.0,Taxi
22.700000000000003,-0.10717662428269506,-26.85906733324805,8.159121745753584,0.5341099623805333,-0.29585509559469186,94.61681868147929,10.327652073194502,0.0,1.0,0.0,0.0,1.0,Taxi
22.8,-0.050220445257343364,-38.42674477699023,7.568104590413863,0.12140459216939614,0.5491982069518694,94.55986523287726,11.538119625017062,0.0,1.0,0.0,0.0,1.0,Taxi
22.900000000000002,-0.09514379471937034,44.796175735674524,7.0729883353584215,0.16169593985140263,0.9669923247747074,94.57884935205436,10.440036950897879,0.0,1.0,0.0,0.0,1.0,Taxi
23.0,0.11680425439567732,34.45527022639053,7.454699541255879,0.3560295542707689,0.3718963808042348,94.41799440119883,10.420640658499357,0.0,1.0,0.0,0.0,1.0,Taxi
23.1,0.12205590587460907,7.5538850132499915,7.351150549464651,0.3425852729017105,-0.6394848331546417,94.71726216670902,11.444771668904453,0.0,1.0,0.0,0.0,1.0,Taxi
23.200000000000003,-0.05737436965312063,11.493535437451337,7.678631987817991,0.5519648397441497,-0.6308966385432709,94.53701504950851,11.270881828491678,0.0,1.0,0.0,0.0,1.0,Taxi
23.3,0.17427193158293378,-18.093980972876448,8.743820869568308,-0.3085010822868441,0.6902531816364386,94.57140217876452,11.543650502034522,0.0,1.0,0.0,0.0,1.0,Taxi
23.400000000000002,0.031586001010226586,11.614052261205671,6.554924126522526,0.13192423358285646,0.18875209509337812,94.53835755779818,12.066356994521179,0.0,1.0,0.0,0.0,1.0,Taxi
23.5,0.0006958916529074895,-36.6878147960959,7.592872088743311,0.13781524522141508,0.0643452721686527,94.72498352215769,10.952103532680622,0.0,1.0,0.0,0.0,1.0,Taxi
23.6,-0.009167142397545961,-37.376244967408596,7.3403740880400505,0.44712750851900435,-0.040012960222200425,94.52063729024349,11.416399205210231,0.0,1.0,0.0,0.0,1.0,Taxi
23.700000000000003,-0.15529522382681663,-21.781744804069017,6.879994220881095,0.3321074057545522,1.0898983996799676,94.60638119775643,11.160263964880944,0.0,1.0,0.0,0.0,1.0,Taxi
23.8,-0.1082128323674378,-27.491297348943885,6.82025617494107,0.2209012181102372,-0.8828251580850353,94.50530854172189,10.868516444970115,0.0,1.0,0.0,0.0,1.0,Taxi
23.900000000000002,-0.14662362914226562,26.834352030161792,7.116512958157853,0.10474144956881731,-0.17786858208586195,94.59085389699698,11.163132655572426,0.0,1.0,0.0,0.0,1.0,Taxi
24.0,-0.021123463676007925,15.006044635097632,7.636304745002745,-0.13291437718162885,-0.3462846022672899,94.4987406676205,10.617282694971578,0.0,1.0,0.0,0.0,1.0,Taxi
24.1,-0.03318260919194989,35.0621319884359,7.635974384583023,0.14758394383447773,0.7014217414083294,94.5722365247824,11.128435307506649,0.0,1.0,0.0,0.0,1.0,Taxi
24.200000000000003,0.028687030799913638,23.286165803279214,6.929537903699085,0.4555609539990972,0.060198164882572514,94.69633513973184,10.810787433972838,0.0,1.0,0.0,0.0,1.0,Taxi
24.3,0.0953073653403879,16.710563486129548,7.44534027522946,0.29121455472452223,-0.24623569583160074,94.72992625630326,11.260418517742135,0.0,1.0,0.0,0.0,1.0,Taxi
24.400000000000002,0.050370208238697624,-21.455940717438065,7.671303943586021,-0.04730267787908754,0.7183756482472216,94.55533390239998,11.467871502467794,0.0,1.0,0.0,0.0,1.0,Taxi
24.5,-0.07859267278727694,-15.125453197842118,7.430326260864881,0.06538815269938482,0.19799249290779877,94.71211340233111,10.81110576099311,0.0,1.0,0.0,0.0,1.0,Taxi
24.6,0.019680099351177066,-7.149815356652951,7.4019203405416185,-0.0019338470135713826,1.0255558287564688,94.49639009921032,11.68041108904864,0.0,1.0,0.0,0.0,1.0,Taxi
24.700000000000003,0.014621131455432616,31.795565874622778,7.250401343134435,0.398979679965196,-0.5386774286989042,94.38735924789842,11.013113137965963,0.0,1.0,0.0,0.0,1.0,Taxi
24.8,0.08038515658583671,7.138777020723726,7.749390966876939,0.23451153571972594,-0.43830392528815354,94.51195437314584,11.01332247278363,0.0,1.0,0.0,0.0,1.0,Taxi
24.900000000000002,0.05537398445479546,-12.548387832833127,8.017044762364954,-0.25381792583895335,0.2509957802030766,94.59682504567218,11.722952349514681,0.0,1.0,0.0,0.0,1.0,Taxi
25.0,-0.04812080770873323,-39.374004824207205,7.667615787239033,0.19645191757387506,0.3357803616988911,94.49031029997207,10.644835109131451,0.0,1.0,0.0,0.0,1.0,Taxi
25.1,-0.11648486753519956,-30.32368403755731,7.551609220798128,-0.02476239749969189,-0.1457704805539109,94.5102745367106,10.991214560179458,0.0,1.0,0.0,0.0,1.0,Taxi
25.200000000000003,-0.09624443573299131,29.523528044148886,6.560712322330435,0.31141773584947874,-0.8040399149924641,94.66788596400835,10.732363725315095,0.0,1.0,0.0,0.0,1.0,Taxi
25.3,0.09949683251201097,25.881299147940993,6.867317504775402,0.39066948667527,-0.7724413164190415,94.51999527126304,10.539899146961133,0.0,1.0,0.0,0.0,1.0,Taxi
25.400000000000002,0.01292162820450519,-10.19209734988362,6.82110846568837,0.27611402747986,-0.08319459359614369,94.49792534360779,11.455233735925683,0.0,1.0,0.0,0.0,1.0,Taxi
25.5,-0.14720492248240963,-54.19106867976999,7.667890710168106,0.11310293040853749,0.03790344776470592,94.60863959927087,10.940762176843045,0.0,1.0,0.0,0.0,1.0,Taxi
25.6,-0.17145851088683928,14.75362773634373,6.788432559621986,-0.08562211831488925,0.6946897652111066,94.40544926635312,11.756178407434463,0.0,1.0,0.0,0.0,1.0,Taxi
25.700000000000003,0.0866897668862236,59.96246296063115,7.804734674365156,0.13907864240738332,0.5494161985022098,94.64727907113297,10.713388856513097,0.0,1.0,0.0,0.0,1.0,Taxi
25.8,0.1526073923207459,2.8694768748030888,7.884034778537606,0.26339093438310934,0.5414850314354329,94.67767362194951,11.207071057692442,0.0,1.0,0.0,0.0,1.0,Taxi
25.900000000000002,-0.157111126512824,-47.810472924315896,7.2264303145080335,0.005885133730579667,-0.2023892206798243,94.67418868456656,10.612459825176321,0.0,1.0,0.0,0.0,1.0,Taxi
26.0,-0.15236259773535607,-61.20851225151111,7.184197150800752,0.4155739381231448,-0.12024076801102687,94.7498995423926,11.240352851933862,0.0,1.0,0.0,0.0,1.0,Taxi
26.1,-0.15343516893680983,52.45551297967982,7.757414076611999,0.32231130577054046,-0.23737659732294553,94.62740176163743,11.610535058550262,0.0,1.0,0.0,0.0,1.0,Taxi
26.200000000000003,0.10516643838557488,2.6878729909971546,6.710288726073671,-0.04318870360365812,-0.019846238476443078,94.59422303522229,10.994319664930876,0.0,1.0,0.0,0.0,1.0,Taxi
26.3,-0.13892323278037053,53.25545631644476,8.572009647968514,0.06306440374515243,-0.39511810499601896,94.66961725576897,10.623338752259102,0.0,1.0,0.0,0.0,1.0,Taxi
26.400000000000002,0.11284211264541366,0.4486419907818018,7.676363970024537,-0.16918249320905593,0.5948315086439666,94.73533517164572,11.51643118902867,0.0,1.0,0.0,0.0,1.0,Taxi
26.5,0.10740964833948359,24.252246772412352,7.844839312362437,0.045055638193801234,-0.308184184373161,94.53083849291983,11.705374328662492,0.0,1.0,0.0,0.0,1.0,Taxi
26.6,-0.017661998918309076,-8.632740278916634,7.971211336222552,0.29324589188941297,-0.15440261193847094,94.71916591810106,11.06315217905533,0.0,1.0,0.0,0.0,1.0,Taxi
26.700000000000003,0.06967841125083023,22.995733133846745,7.706923289667528,0.1235416746077744,0.4748037464235357,94.46734418573976,10.247583432664559,0.0,1.0,0.0,0.0,1.0,Taxi
26.8,0.22238831400871706,1.648853865239327,7.101740822349574,0.5061230131637735,-0.26221798651941497,94.73838826982262,10.77828335920509,0.0,1.0,0.0,0.0,1.0,Taxi
26.900000000000002,-0.009417729592112643,-27.358144216625664,7.300484952683883,0.14282546996224466,0.07741488937291124,94.72023647893661,10.73163188879644,0.0,1.0,0.0,0.0,1.0,Taxi
27.0,-0.06711230983229834,-22.310891336156274,8.216504003372306,0.3955083861074341,0.5766805444898219,94.37373868303445,10.652042425287453,0.0,1.0,0.0,0.0,1.0,Taxi
27.1,0.11083385732793549,22.230059823754058,7.7596079319152444,-0.13509301025622011,-0.22566720454602673,94.50125915709896,10.787856702739498,0.0,1.0,0.0,0.0,1.0,Taxi
27.200000000000003,0.10173256952665742,33.599447849852844,7.514956556821682,0.24660445617885743,0.17444724738763764,94.60589643156948,10.839193935807339,0.0,1.0,0.0,0.0,1.0,Taxi
27.3,0.1008849294169657,5.694280567585373,8.792127462369338,0.22603812494043463,-0.3841336672653676,94.4979178145179,11.16504638038044,0.0,1.0,0.0,0.0,1.0,Taxi
27.400000000000002,0.13930526016586214,-34.69358671785941,7.174928581587037,0.06458191394815117,-0.10701744528109584,94.48622685613208,10.036015952313766,0.0,1.0,0.0,0.0,1.0,Taxi
27.5,-0.07173536406263983,18.306202638610316,6.5403684500772235,0.27119929343034505,0.501831440358753,94.66782981556128,11.067645140810143,0.0,1.0,0.0,0.0,1.0,Taxi
27.6,0.19241594261001707,-48.85650155075246,7.09301043981658,0.4141687134512465,0.6230223971756559,94.55071957356967,11.417825907232492,0.0,1.0,0.0,0.0,1.0,Taxi
27.700000000000003,-0.10497724758790042,-13.120736177450672,6.827764203924589,0.32336449869000883,0.3497990111972629,94.57961217115366,11.705998943570577,0.0,1.0,0.0,0.0,1.0,Taxi
27.8,-0.13733904494989344,-24.159102177910956,7.759914347265219,0.6439151236694949,-0.8573546043019802,94.65405253745251,10.620134074533448,0.0,1.0,0.0,0.0,1.0,Taxi
27.900000000000002,0.07162043172046206,44.581756446857405,7.010232328950909,-0.06032072248266229,1.2394905942684649,94.47558502626515,10.877844619075676,0.0,1.0,0.0,0.0,1.0,Taxi
28.0,0.11793153464638642,8.263782756833365,6.9634276461281335,0.10007115129022989,-1.127053602083771,94.54415450572554,11.297416988775996,0.0,1.0,0.0,0.0,1.0,Taxi
28.1,-0.0960201311657268,-33.75603640572045,7.256235162715669,0.40236025630500183,-0.5434037373771614,94.74826508021954,10.89686782588499,0.0,1.0,0.0,0.0,1.0,Taxi
28.200000000000003,-0.09715975030814039,-43.4743203338904,7.391460543103723,-0.18322270023073534,-0.06951686722735467,94.65866745187918,11.308721233671164,0.0,1.0,0.0,0.0,1.0,Taxi
28.3,-0.09944006702306575,-0.1316136764451563,7.43091209462527,0.22175772894081036,0.7210950752620434,94.72356678965502,9.137020277860485,0.0,1.0,0.0,0.0,1.0,Taxi
28.400000000000002,-0.09667819954795277,-13.727929280384295,6.581523751011065,-0.06530739321993653,-0.10940907282881882,94.5312508374659,11.595233841107827,0.0,1.0,0.0,0.0,1.0,Taxi
28.5,-0.16579939671006205,12.476026656237883,6.904713465642549,-0.07586858386841783,-0.43165709824184734,94.68350875174019,10.923918927381402,0.0,1.0,0.0,0.0,1.0,Taxi
28.6,-0.037059933741876515,6.943405364417973,7.158149247103396,0.22987427513925154,-0.8132795550180879,94.58980255075835,11.817342891250588,0.0,1.0,0.0,0.0,1.0,Taxi
28.700000000000003,-0.06196117272586307,26.012262422399676,7.581932824473522,0.1703714156580567,0.5094351676183395,94.54893626310411,11.602139195465497,0.0,1.0,0.0,0.0,1.0,Taxi
28.8,-0.03573808459806384,25.827748399686275,7.558380766528456,0.00032698806651040857,-0.047886652318720406,94.49087584573073,10.934505629193676,0.0,1.0,0.0,0.0,1.0,Taxi
28.900000000000002,0.09207880825655469,-22.538288670768335,7.611059468847317,0.08164638510116608,0.4072111467884667,94.54074232230136,11.662669864795479,0.0,1.0,0.0,0.0,1.0,Taxi
29.0,-0.17465261607970492,-3.500578301364859,7.47588271292566,0.36180292294982686,0.7056834282168459,94.65527496540028,11.25435218687095,0.0,1.0,0.0,0.0,1.0,Taxi
29.1,-0.05324097610488833,-11.511325074819839,7.151903123918817,0.21878318653038203,-0.3797087906022334,94.5542040412746,10.754470067996841,0.0,1.0,0.0,0.0,1.0,Taxi
29.200000000000003,0.03452218288245529,11.370305624256796,7.369755262265183,0.19467315427988002,-0.4531776241990396,94.78802053429825,11.96732848224544,0.0,1.0,0.0,0.0,1.0,Taxi
29.3,-0.11780108795842115,-27.798781079839568,6.947021023233566,0.3014018837695375,-0.4017320590011099,94.74533089701026,11.102526624943387,0.0,1.0,0.0,0.0,1.0,Taxi
29.400000000000002,-0.19223488150408635,15.169317140927879,7.250805539108018,0.18088715769310817,-0.850754041598739,94.50151426758742,10.890534269955578,0.0,1.0,0.0,0.0,1.0,Taxi
29.5,0.11036876858709449,-8.29182740761622,6.913338096612519,-0.11418332240052687,-0.39621899220496837,94.69799877430489,10.993515245280943,0.0,1.0,0.0,0.0,1.0,Taxi
29.6,-0.15926022499650247,63.368180766148434,6.245140111412704,0.6604050512839716,-0.7595834100108978,94.68794122256844,11.421951315899324,0.0,1.0,0.0,0.0,1.0,Taxi
29.700000000000003,0.12460602232665555,15.362776573700282,6.941671277762085,0.440924031632175,0.9686008467223125,94.43375226239573,11.751050079048953,0.0,1.0,0.0,0.0,1.0,Taxi
29.8,0.18718265145559565,35.62555078236593,7.163492137484264,0.4003033280197329,-0.7630648876861621,94.69739016332949,10.690666679998362,0.0,1.0,0.0,0.0,1.0,Taxi
29.900000000000002,0.018867528915326955,-43.328051364488125,7.744257634398586,0.23688407017884416,0.5974986240901795,94.49530619619333,11.1376939449648,0.0,1.0,0.0,0.0,1.0,Taxi
30.0,-0.0920342344957853,-22.71324691507709,7.371026736316637,0.5066254858287003,0.490611275886516,94.59150955835685,11.77899417825776,0.0,1.0,0.0,0.0,1.0,Taxi
30.1,0.07361641688021002,-8.316111925177141,6.7112010965433155,0.6023639035964461,0.37243633662991443,94.46443979537366,11.676742763784777,0.0,1.0,0.0,0.0,1.0,Taxi
30.200000000000003,-0.02271303071055895,39.76132433467964,7.506064191737681,0.4332266143898275,-0.20743872396301458,94.7263159335186,11.13626689234859,0.0,1.0,0.0,0.0,1.0,Taxi
30.3,0.10677238717761273,-22.795428535261376,6.76445542652837,0.3926030471729518,0.6631527173301728,94.59007165109648,10.8824150396977,0.0,1.0,0.0,0.0,1.0,Taxi
30.400000000000002,-0.040360725796097036,24.424275309976366,6.4915345538900135,0.1190348193721867,-0.45011615720185927,94.49132377011313,11.940921828192582,0.0,1.0,0.0,0.0,1.0,Taxi
30.5,0.09940834583932268,1.4861081863151142,6.58653961819429,0.3216781231187359,-0.21192932735332828,94.50937732172173,11.209441519590447,0.0,1.0,0.0,0.0,1.0,Taxi
30.6,0.11420292810918808,-0.030504721920986338,6.715942310415488,0.08081969144013801,0.08307994964928789,94.67682218238042,11.467353952113127,0.0,1.0,0.0,0.0,1.0,Taxi
30.700000000000003,-0.040513249405702174,-41.443901332924035,7.058301788048404,0.3613479257925093,0.5193224062036618,94.5679730319606,12.112879421757949,0.0,1.0,0.0,0.0,1.0,Taxi
30.8,-0.10781116082529772,-37.35771647287613,8.16737742228676,-0.00587500790539347,0.2119006647970899,94.55774773001639,12.338177286865225,0.0,1.0,0.0,0.0,1.0,Taxi
30.900000000000002,-0.07258565425519278,3.8837994620810683,7.043005146928489,0.10716920731100972,0.5116146954403337,94.66066067346571,11.059265369283864,0.0,1.0,0.0,0.0,1.0,Taxi
31.0,-0.021094252095297056,33.07139430350657,7.90364941836025,0.15016180475664784,-1.1121377713949865,94.52096638503531,10.206913895168237,0.0,1.0,0.0,0.0,1.0,Taxi
31.1,0.057545810692234904,28.794888034212523,6.737395781350599,-0.0295744645868021,0.7525456303083145,94.57420403980274,10.719108730004908,0.0,1.0,0.0,0.0,1.0,Taxi
31.200000000000003,0.07138878591586963,-31.70610124132612,5.96943590041398,0.061810133229104794,-1.125699333220524,94.7251476220411,11.799487414654175,0.0,1.0,0.0,0.0,1.0,Taxi
31.3,-0.17962475830192792,-48.938772776514554,9.28795133182445,0.20673618859480872,0.12478465218152761,94.67924695470299,11.390407354101994,0.0,1.0,0.0,0.0,1.0,Taxi
31.400000000000002,-0.18714805319033817,-23.46835272485411,7.380332803996642,-0.07149350947310151,-0.4549636344190184,94.66160003815526,10.500982068402912,0.0,1.0,0.0,0.0,1.0,Taxi
31.5,-0.0459529777084012,17.93335086519164,6.546895960169026,0.37413545890555533,-0.6534405385617004,94.65386562020694,10.84382114818912,0.0,1.0,0.0,0.0,1.0,Taxi
31.6,-0.08995800397596998,44.48940981517447,7.118072434917024,0.3012017780705661,0.22419480189537008,94.66075840014389,10.698623065329416,0.0,1.0,0.0,0.0,1.0,Taxi
31.700000000000003,0.03529899588553393,-1.1759054231082093,6.888104833646537,0.40249912053529724,-0.0004467775152957912,94.541652847661,10.142256096126555,0.0,1.0,0.0,0.0,1.0,Taxi
31.8,-0.0518325048239425,-1.0319879461346464,7.749251177097381,0.22030219405059193,-0.5408338627307463,94.57131691851566,11.700212782277502,0.0,1.0,0.0,0.0,1.0,Taxi
31.900000000000002,-0.09511794370664346,13.887304115058498,8.065924496407712,0.3997885831633788,0.7677429209395313,94.46856469013977,11.013189795466506,0.0,1.0,0.0,0.0,1.0,Taxi
32.0,0.10473551646082618,2.3292872249369245,6.649089739440512,0.17012108078129934,0.0911014111646805,94.59431887428224,11.906346847861041,0.0,1.0,0.0,0.0,1.0,Taxi
32.1,-0.04018606869925811,-2.533696018515459,7.851452038971246,0.1265918013426772,-0.54307482628248,94.49264113666021,11.130972367665242,0.0,1.0,0.0,0.0,1.0,Taxi
32.2,-0.10778642379922102,-25.226532319152962,7.4592414434128544,0.26296317446436607,1.4947326379209582,94.69215357973786,11.50539470018211,0.0,1.0,0.0,0.0,1.0,Taxi
32.300000000000004,-0.0213971451349389,29.133832092763274,8.00437068071695,0.31823681691957995,-0.28293468221947965,94.7051291275477,10.13819567745512,0.0,1.0,0.0,0.0,1.0,Taxi
32.4,0.10548309176455802,33.79398672894714,7.8203760543770935,0.3159927939792666,0.17842036686672047,94.56778484720394,11.247355093824833,0.0,1.0,0.0,0.0,1.0,Taxi
32.5,0.06118350984551443,11.960829305298034,6.75744936358797,-0.1692366130941585,0.10357078029310983,94.667494918817,11.053470993460444,0.0,1.0,0.0,0.0,1.0,Taxi
32.6,0.03840700139155103,-8.669630809045268,7.364382849192743,0.2188208204029689,0.23429617279072731,94.59276724605542,11.005297968929169,0.0,1.0,0.0,0.0,1.0,Taxi
32.7,0.06213493771933143,9.181686811667452,6.532296414920079,0.29044924767856706,0.5550814998018433,94.59209739220353,9.873528720489254,0.0,1.0,0.0,0.0,1.0,Taxi
32.800000000000004,0.10709194390385145,20.793018822636512,6.37422960941867,0.2195376242906209,-0.5170476186867582,94.71679170337927,11.595743043397047,0.0,1.0,0.0,0.0,1.0,Taxi
32.9,0.14237209550473334,-38.43434983996885,6.979826562774353,0.43023873064818435,-0.13701587103739815,94.67580463652428,11.550694455530751,0.0,1.0,0.0,0.0,1.0,Taxi
33.0,-0.1300368114805131,-1.9481842841021546,7.592058984774688,-0.041193496205463837,-0.14302865884878097,94.49520448359999,11.563643525157428,0.0,1.0,0.0,0.0,1.0,Taxi
33.1,0.0973510224833404,-32.84370339682197,6.887872439851354,0.006497905499906476,0.9771504324948852,94.67348639798496,11.531003110992478,0.0,1.0,0.0,0.0,1.0,Taxi
33.2,-0.02184642147937679,35.756412476818696,6.182461189106837,-0.08046588311739278,-0.6538495383276561,94.61380557961394,11.384862979857216,0.0,1.0,0.0,0.0,1.0,Taxi
33.300000000000004,0.04874525090358015,-10.302418190448792,7.48159886345719,-0.22047680866283353,0.4170475932646932,94.59072156164598,11.258244180062686,0.0,1.0,0.0,0.0,1.0,Taxi
33.4,0.04583893153109619,-15.867111972945784,7.357686064678588,0.6323452543505552,-0.2262607245925049,94.86565144382718,10.794823046412247,0.0,1.0,0.0,0.0,1.0,Taxi
33.5,-0.10118198134410597,-36.956455806068725,7.418637359799137,0.10782829749176161,0.5168986412012899,94.68096915306239,10.450932037799447,0.0,1.0,0.0,0.0,1.0,Taxi
33.6,-0.13603702812676374,-21.45738248347021,6.921838435645972,0.39323057216606605,0.487314930404384,94.60864233680076,11.54592776975818,0.0,1.0,0.0,0.0,1.0,Taxi
33.7,-0.061447980886255096,25.321705345320197,7.2343418473131695,-0.09270401071669737,-0.3092923546559015,94.431835219054,11.102301400638158,0.0,1.0,0.0,0.0,1.0,Taxi
33.800000000000004,0.025426545382494777,13.302057766640077,7.178412704034511,0.1551807900256577,0.9629846828345776,94.6815780300351,10.175459789842188,0.0,1.0,0.0,0.0,1.0,Taxi
33.9,-0.0695267392935636,5.47254084834427,7.43650437761358,0.03097102948671898,0.6665087923353633,94.60986226185446,9.407391222314908,0.0,1.0,0.0,0.0,1.0,Taxi
34.0,-0.034085276644534,22.080314780283302,7.995185909321189,0.2824468519721177,-0.26645194396117833,94.63337294511877,11.577948545444748,0.0,1.0,0.0,0.0,1.0,Taxi
34.1,0.13582811928391103,15.579346597462864,7.916520189756279,0.027899675617146236,0.30145570020278584,94.65201885128624,11.518525248646716,0.0,1.0,0.0,0.0,1.0,Taxi
34.2,0.008369993693750471,16.9779792275417,6.925676250177993,-0.23987680671983808,0.0015121663868776277,94.61789255776739,11.696658652099854,0.0,1.0,0.0,0.0,1.0,Taxi
34.300000000000004,0.05080461949317422,-40.663386848556854,7.264954902853776,0.06716836667680627,-0.2039514278245951,94.61869487494687,11.278769838937023,0.0,1.0,0.0,0.0,1.0,Taxi
34.4,-0.06748881495887347,31.818314735304185,7.872102187034461,0.23366264911621437,-0.3598685361201129,94.55893471808952,11.103102223411964,0.0,1.0,0.0,0.0,1.0,Taxi
34.5,0.16746156737027115,-36.01455026190051,7.401561793661895,-0.11161825931477087,-1.0021001823156677,94.57743688287059,10.694481156295854,0.0,1.0,0.0,0.0,1.0,Taxi
34.6,-0.1292681318163286,-31.926550618607067,8.210587849933269,0.05691855470920934,0.8364219358806816,94.74189730013461,10.927643491500183,0.0,1.0,0.0,0.0,1.0,Taxi
34.7,-0.22712156805190908,-35.732327526837,8.292788040011459,0.0908889576595508,0.6403782861691406,94.57286802623321,11.533617987004362,0.0,1.0,0.0,0.0,1.0,Taxi
34.800000000000004,-0.011200070263914114,28.434448244578604,7.076810223164188,0.3788237069791232,0.10283660059803228,94.6624310038327,11.023628857898597,0.0,1.0,0.0,0.0,1.0,Taxi
34.9,0.012904109406564161,56.85190357506357,6.213291891742618,-0.006318125304592831,-0.26991395055812484,94.61151111133825,10.5605081226358,0.0,1.0,0.0,0.0,1.0,Taxi
35.0,0.05713794982340851,4.744386519359449,7.052633320150319,-0.0036332869562497316,-0.2888250430247689,94.67316670736068,10.70537248809915,0.0,1.0,0.0,0.0,1.0,Taxi
35.1,0.012521862332882872,44.54758489453807,7.492699165822911,-0.020836538877907707,-0.7010520481451064,94.62677952652729,11.245190343302047,0.0,1.0,0.0,0.0,1.0,Taxi
35.2,0.23564203387925425,3.828731250071096,7.5769390184826,0.07803804485239638,0.7902302181278278,94.62613286339717,11.680771900454696,0.0,1.0,0.0,0.0,1.0,Taxi
35.300000000000004,0.07628160607376372,33.069930431145906,6.995815470351784,0.1537631697077328,0.15109272288514863,94.61490393847635,11.034768779547335,0.0,1.0,0.0,0.0,1.0,Taxi
