time_s,altitude_ft,vertical_speed_fpm,ias_kt,pitch_deg,roll_deg,heading_deg,throttle_pct,afterburner_on,gear_down,flaps_deg,speedbrake_pct,weight_on_wheels,label
0.0,0.056944683100498876,-2.2791686460190252,14.138126432140089,1.819639087149368,0.5808470240298945,205.57655447082027,21.861589379794236,0.0,1.0,0.0,0.0,1.0,Taxi
0.1,0.04934745428043546,3.035388452457001,13.987820500030518,1.5452195367280688,-0.47363138843014885,205.5539398318715,22.718322196131503,0.0,1.0,0.0,0.0,1.0,Taxi
0.2,0.07212162536278388,1.7544712573447765,13.488692906618471,1.9125641999196636,0.04450278389472963,205.6531541817294,23.518487015397607,0.0,1.0,0.0,0.0,1.0,Taxi
0.30000000000000004,0.06571703938722276,-9.458437974161464,13.473127233552587,1.7468540900269949,0.11234383187958977,205.51263491359032,22.501513396924214,0.0,1.0,0.0,0.0,1.0,Taxi
0.4,0.002055264409628142,15.604375117465246,13.41923061334064,1.5710766834838694,0.3128359473920727,205.42703164631735,23.177079641823266,0.0,1.0,0.0,0.0,1.0,Taxi
0.5,0.15014350095011011,3.062153300456091,13.804332891022204,1.6713496459978439,0.24745998660186294,205.60165247804582,23.00706864308465,0.0,1.0,0.0,0.0,1.0,Taxi
0.6000000000000001,0.08102780588950323,26.071631976849346,14.58848157908662,1.1878447475667193,0.5080148770957096,205.58089681410127,22.303240487851333,0.0,1.0,0.0,0.0,1.0,Taxi
0.7000000000000001,0.13241342429387487,-40.260742421482036,14.246799543971132,1.5983070856346986,0.4548917612910594,205.56104871143987,22.267687838188497,0.0,1.0,0.0,0.0,1.0,Taxi
0.8,-0.051160211157300045,-0.7553658541832627,13.537361366873899,1.9935853179340728,0.9906545991911319,205.7256186524587,22.833145604635064,0.0,1.0,0.0,0.0,1.0,Taxi
0.9,0.07725097661858693,-57.41880840257165,13.724387622635554,1.6980010009781514,0.5395926010485599,205.53020937130327,22.525247852579913,0.0,1.0,0.0,0.0,1.0,Taxi
1.0,-0.15468061771898342,-25.40841118349508,14.511169349364557,1.2803565231720522,-0.8792765498038395,205.5308080827192,21.830308777925218,0.0,1.0,0.0,0.0,1.0,Taxi
1.1,-0.1782022670747755,24.808215120319705,13.170092491915034,1.538466396532369,-0.4031903889309887,205.4149744385843,22.80137029276898,0.0,1.0,0.0,0.0,1.0,Taxi
1.2000000000000002,0.20129205222018542,27.693119002331997,14.673760575622326,1.4864939860331596,-0.497714402967372,205.66107763939192,21.610172627865087,0.0,1.0,0.0,0.0,1.0,Taxi
1.3,-0.016215022707323407,59.487125662298375,13.638375520407257,1.5063720856970666,0.0687980822786864,205.50923165610925,22.60555212193288,0.0,1.0,0.0,0.0,1.0,Taxi
1.4000000000000001,0.1192333612367164,-31.76853541099094,14.010999143943959,1.4258998682896318,0.3915407396873674,205.53172558076096,22.404056665990847,0.0,1.0,0.0,0.0,1.0,Taxi
1.5,0.04244937516523074,4.874308877476801,13.817683805343275,1.4075861607595708,0.4159253248408057,205.46151014472355,22.009020215304677,0.0,1.0,0.0,0.0,1.0,Taxi
1.6,0.008156521680060596,-8.270892647723358,13.115970355192434,1.7011817472445903,0.6602606453177478,205.32674950800595,22.958569760028464,0.0,1.0,0.0,0.0,1.0,Taxi
1.7000000000000002,0.07787889799809962,28.104859272387376,12.849138447694093,1.9445338792068567,-0.3150237267809555,205.7017193872025,22.77283343878513,0.0,1.0,0.0,0.0,1.0,Taxi
1.8,0.18297367152716765,-4.335655182872467,14.113105068414056,1.6174698496542672,-1.4928516505458853,205.46256027930053,22.76333392552611,0.0,1.0,0.0,0.0,1.0,Taxi
1.9000000000000001,-0.013521754234301735,5.794299730280713,12.910115214315308,1.8113948583543382,-0.3762471169031944,205.73574623182697,22.001291437899244,0.0,1.0,0.0,0.0,1.0,Taxi
2.0,0.10685039664950319,-37.80384857350782,14.62167914147063,1.7886196194388781,-0.8961602954348228,205.6470842358383,22.706126147279615,0.0,1.0,0.0,0.0,1.0,Taxi
2.1,-0.006045571340371466,12.290355296811674,14.47812767785011,1.2398615055051727,-0.3081402391105764,205.41948013156855,21.81108020888576,0.0,1.0,0.0,0.0,1.0,Taxi
2.2,0.047930022249756614,14.191582407757528,13.930648969610003,1.8312815761310066,0.27299844864052886,205.60810802796448,21.747881172125062,0.0,1.0,0.0,0.0,1.0,Taxi
2.3000000000000003,0.1778083086882908,23.306884260678203,13.81654387210465,1.8161930843743006,0.5023368831903768,205.5316351897187,22.24787412038201,0.0,1.0,0.0,0.0,1.0,Taxi
2.4000000000000004,0.11048884996301954,-25.553119772017975,13.432733973344089,1.4833188625461449,-0.7451951094749291,205.53080240391057,22.794455239793386,0.0,1.0,0.0,0.0,1.0,Taxi
2.5,-0.07983557661033326,-26.643860425357236,14.796465868273836,1.6188078523765925,0.4364115209617219,205.69612949692225,22.04367982515117,0.0,1.0,0.0,0.0,1.0,Taxi
2.6,0.04458900656150461,-1.9146820691969613,13.85221715385053,1.0503685072291495,0.14541568736050184,205.5302090306418,22.92041623223648,0.0,1.0,0.0,0.0,1.0,Taxi
2.7,0.10091543961703471,30.491562243261058,13.436196766023935,1.6224585769573716,0.03859319387536656,205.42695403577477,22.700809928078158,0.0,1.0,0.0,0.0,1.0,Taxi
2.8000000000000003,0.07262223460597199,-1.3570814058527745,14.699789717781101,1.6881851296220676,-0.3806658225827999,205.54891949026114,23.350369576296995,0.0,1.0,0.0,0.0,1.0,Taxi
2.9000000000000004,0.03780359953224071,-26.9216144056867,14.373591967379319,1.5438979674513322,0.43652260847453167,205.422840429271,22.518445710609218,0.0,1.0,0.0,0.0,1.0,Taxi
3.0,-0.03369263241139881,-4.902451324979299,14.309730747749017,1.6802259723495623,0.24996754317917763,205.4820165433332,23.098766591079148,0.0,1.0,0.0,0.0,1.0,Taxi
3.1,0.048109977981075476,-31.96686895662005,13.29592280163729,2.117828239418363,-0.7250006839581324,205.44370027360173,22.204369690690708,0.0,1.0,0.0,0.0,1.0,Taxi
3.2,-0.12203074525085958,20.145456620144078,14.293664532018521,1.9024093709650787,0.3428868598809409,205.37558062113453,21.81968299191903,0.0,1.0,0.0,0.0,1.0,Taxi
3.3000000000000003,0.06703465068932156,14.052863568768979,13.829593465448962,1.5595409641945777,-0.5135160344860218,205.56075189586932,23.056279237634413,0.0,1.0,0.0,0.0,1.0,Taxi
3.4000000000000004,0.11837429582492034,29.268463733345655,13.922118319126442,1.6170537422534212,0.32252288695477205,205.40870626288665,22.503508160722294,0.0,1.0,0.0,0.0,1.0,Taxi
3.5,0.024311573415868645,-18.2077684814749,13.605513856747466,1.6680937352595553,-0.5347188141063234,205.56344502110358,23.081829183150845,0.0,1.0,0.0,0.0,1.0,Taxi
3.6,-0.024004191718052983,-20.72423602990618,13.20565955940883,1.5872075874402152,0.4191557116458515,205.51855672278566,22.092067595981895,0.0,1.0,0.0,0.0,1.0,Taxi
3.7,0.01475311567538942,5.167112564306226,14.397684461575485,1.6353029904562941,0.2400735053434553,205.39590031366743,23.115077222208843,0.0,1.0,0.0,0.0,1.0,Taxi
3.8000000000000003,0.05014713623739975,11.08928691471776,14.813574712312652,1.6807834014565868,-0.036773589631607206,205.66699930508594,23.06192959485573,0.0,1.0,0.0,0.0,1.0,Taxi
3.9000000000000004,0.0314422428555358,28.366806519787655,12.877699313019786,1.8001674456172634,-0.07407741140924377,205.47999431800076,22.09537446664761,0.0,1.0,0.0,0.0,1.0,Taxi
4.0,0.15658714827432768,-4.5094644050064945,13.004411150423252,1.3605512641947488,-0.7357387132080714,205.5410321549498,21.941062259006276,0.0,1.0,0.0,0.0,1.0,Taxi
4.1000000000000005,0.02759981421236727,34.32928516065207,15.142158321948877,1.8681211795405144,0.02376868114858005,205.4480198834343,22.94040703276997,0.0,1.0,0.0,0.0,1.0,Taxi
4.2,0.20308866865879616,-31.273048201439977,13.864261993530329,1.893794801096397,0.19707849920225015,205.52966748583083,22.51273624943076,0.0,1.0,0.0,0.0,1.0,Taxi
4.3,0.0002219072671277813,-29.039024634899288,14.584951947777611,1.7506585630176152,0.2179477038023452,205.55440369486155,23.068959832484424,0.0,1.0,0.0,0.0,1.0,Taxi
4.4,-0.11759530896212916,-31.475772455083483,13.913300242639401,1.677556039988037,0.96539240700059,205.64194922755837,21.73389945426321,0.0,1.0,0.0,0.0,1.0,Taxi
4.5,0.04570980638337873,-6.328811812028626,13.97833223679233,1.2667484347666134,-0.6465666466069321,205.46556811410608,21.802509469500382,0.0,1.0,0.0,0.0,1.0,Taxi
4.6000000000000005,-0.03142215179301532,27.122641490097198,13.94093136770748,1.7824599528389842,0.22184691201241222,205.57269190676925,22.977964375962717,0.0,1.0,0.0,0.0,1.0,Taxi
4.7,0.018017898488356828,-20.450537306104888,13.840401385296087,1.5382656544917206,0.35535168642384274,205.5509251010509,22.47057583388554,0.0,1.0,0.0,0.0,1.0,Taxi
4.800000000000001,-0.0565428801471457,-12.367504727987347,13.355884115097062,1.4328917944187933,0.21964097400923444,205.48324448464746,22.51296984716879,0.0,1.0,0.0,0.0,1.0,Taxi
4.9,-0.09325967543295205,25.533237232379065,14.127149979073145,1.5606635154407384,-1.057882670615802,205.4670107515642,22.47395835572991,0.0,1.0,0.0,0.0,1.0,Taxi
5.0,0.14568408465025215,27.315691765954313,13.925795213054263,1.4647480587905937,-0.04650155347857155,205.415510805655,22.05240217498494,0.0,1.0,0.0,0.0,1.0,Taxi
5.1000000000000005,0.08003557868262584,6.6441331680673885,14.627604616148266,1.740380190666182,1.0626055335108626,205.48474985512257,22.14114186893148,0.0,1.0,0.0,0.0,1.0,Taxi
5.2,-0.060039009592615135,-47.84613428247939,15.527556905349172,1.845571128507569,-0.8474028502133752,205.5370533406151,22.168756568335144,0.0,1.0,0.0,0.0,1.0,Taxi
5.300000000000001,-0.0935465867621448,-37.55643821013196,12.932561920965716,1.5530767786672328,0.7090505388510867,205.58826557567795,22.37289144487182,0.0,1.0,0.0,0.0,1.0,Taxi
5.4,-0.10774661236803396,21.429132734345142,14.181374328517453,1.4593959078421084,0.11206895478957832,205.7322231866956,22.582952389751682,0.0,1.0,0.0,0.0,1.0,Taxi
5.5,0.04710665407911058,34.78247456129037,13.307035280560157,1.816880550619164,-0.7993888097026746,205.63439547024518,22.16506608121193,0.0,1.0,0.0,0.0,1.0,Taxi
5.6000000000000005,0.08036578604430707,2.637606276833239,13.424755015612877,1.876703499069646,0.03202947980991512,205.53276855900845,22.861536149277356,0.0,1.0,0.0,0.0,1.0,Taxi
5.7,-0.09455858098386777,-19.069235019746078,14.38235058853396,1.694172789456503,-0.3695878872147432,205.5374994395694,22.26024880483776,0.0,1.0,0.0,0.0,1.0,Taxi
5.800000000000001,-0.04823952101961983,-24.692273686681613,13.95192761032973,1.8135503560130215,-0.07468265197183882,205.55658016942812,21.76583193572284,0.0,1.0,0.0,0.0,1.0,Taxi
5.9,-0.04309558238910102,24.075910890871427,13.67892476350137,1.4050662323158467,-1.2527222742254038,205.46989659581652,22.086481097667466,0.0,1.0,0.0,0.0,1.0,Taxi
6.0,0.025820973470489363,8.390363078694696,13.805977010603225,1.4890226042701777,0.15476390908673213,205.5463663149137,22.808364131191436,0.0,1.0,0.0,0.0,1.0,Taxi
6.1000000000000005,-0.006287705626146359,-14.054524397615467,13.358281723025398,1.7608198821458338,-0.6963149923869625,205.75892998141921,21.991550009913645,0.0,1.0,0.0,0.0,1.0,Taxi
6.2,-0.11336820437717837,-1.444517172460441,13.784286358830334,1.7378269739694334,0.8942030575642528,205.4271672051933,21.912422233430444,0.0,1.0,0.0,0.0,1.0,Taxi
6.300000000000001,0.018598387608187134,13.457239978766466,13.759089386030244,1.239183743436086,1.1364882257314484,205.45545385356854,22.838194779814604,0.0,1.0,0.0,0.0,1.0,Taxi
6.4,0.06099849426768594,30.46655625682955,14.450851277614735,2.1471672761406606,0.5264218722153279,205.54687317653622,21.770715795902078,0.0,1.0,0.0,0.0,1.0,Taxi
6.5,0.03896457690696936,21.40411167023669,13.189135690682676,1.5402962848433919,-0.5998497089559363,205.51174066999772,22.462913414718866,0.0,1.0,0.0,0.0,1.0,Taxi
6.6000000000000005,0.1256189459593706,-8.100827959571722,14.726248515048923,1.7005589020562453,0.3137845820904774,205.4955169533148,22.755794676565348,0.0,1.0,0.0,0.0,1.0,Taxi
6.7,0.02049435446982735,-33.45030832282033,13.424913434120644,1.3235494782571324,0.46518023576002326,205.36596306436468,21.398323330925106,0.0,1.0,0.0,0.0,1.0,Taxi
6.800000000000001,-0.12828696470713227,-9.409334890902182,13.544635563551575,1.9949997835814328,0.8002566669261613,205.37140970009762,21.764893393267414,0.0,1.0,0.0,0.0,1.0,Taxi
6.9,0.07857227150485971,-23.657842673729842,13.542363890143543,2.064674312558311,-0.2434538382404094,205.32870890737388,22.851515211257386,0.0,1.0,0.0,0.0,1.0,Taxi
7.0,-0.09779485889882183,51.69836084721364,14.263726162419587,2.037283565878274,-0.4337092594792827,205.53358887462696,22.528245716987566,0.0,1.0,0.0,0.0,1.0,Taxi
7.1000000000000005,0.13020483952893597,14.177015833746792,14.71159714222828,1.380003740753547,-0.4842722263359777,205.56578802262322,22.370858648126287,0.0,1.0,0.0,0.0,1.0,Taxi
7.2,0.14945735067359364,25.661279415830013,13.438259936986258,1.5017622395265453,-0.2718513717064088,205.62794294958144,21.93166581940643,0.0,1.0,0.0,0.0,1.0,Taxi
7.300000000000001,0.030511538180328174,-71.03790264724766,13.801299537568655,1.7984567961588458,-0.021423124301207127,205.42813968397513,22.111366647462454,0.0,1.0,0.0,0.0,1.0,Taxi
7.4,-0.22498467370730243,-11.720361190444047,13.640878802624565,1.4588966484908297,-0.58419041479034,205.44124424205597,22.77229795146646,0.0,1.0,0.0,0.0,1.0,Taxi
7.5,0.09085554472137335,-49.01168482555325,14.657239715407309,1.5350566658902887,0.4311177623074903,205.3994124688329,23.034816016276576,0.0,1.0,0.0,0.0,1.0,Taxi
7.6000000000000005,-0.21454688594743804,40.09897386560542,13.94096661811531,1.497129073719767,0.3590678324472239,205.561042987395,22.867923901615978,0.0,1.0,0.0,0.0,1.0,Taxi
7.7,-0.024489804379275316,-44.93558056257427,13.745385741552948,1.5377518923525724,0.544061723018969,205.5267964858582,21.78080860105162,0.0,1.0,0.0,0.0,1.0,Taxi
7.800000000000001,-0.13382235809149803,-0.8218048480681995,14.431715521463097,1.7682554536625776,0.5741537543331469,205.5533945626546,21.964952624900608,0.0,1.0,0.0,0.0,1.0,Taxi
7.9,-0.21865591018777908,2.6057900798991653,14.083982160181348,1.8087420139850319,-0.33341514356678154,205.5774624340345,23.320501489791333,0.0,1.0,0.0,0.0,1.0,Taxi
8.0,-0.011460853979779499,13.199808621006923,14.174064367925453,1.4830747703153815,-0.4936114628041027,205.5983899178991,22.985791547025922,0.0,1.0,0.0,0.0,1.0,Taxi
8.1,-0.06782331498646343,29.548545758077964,13.693265314193798,1.5064830450103872,-0.010510380605782032,205.39045811698475,22.02465472113389,0.0,1.0,0.0,0.0,1.0,Taxi
8.200000000000001,-0.07091318139738928,20.547346771811643,13.389422479712126,1.6189487491649055,0.19990757609897472,205.52056616859568,22.260727848375645,0.0,1.0,0.0,0.0,1.0,Taxi
8.3,0.0912758798792787,68.6486205649933,14.420608840365869,1.5970826022609215,0.1737777839693717,205.49986645169474,22.542581474802837,0.0,1.0,0.0,0.0,1.0,Taxi
8.4,0.275419787838503,27.470308466864818,13.41737555882226,1.548058489457819,1.1046997258415663,205.621619737301,22.300796593492773,0.0,1.0,0.0,0.0,1.0,Taxi
8.5,0.06643836093693478,-5.601018035955608,13.490052045643557,1.5346438996969536,0.5398018772540722,205.64124775232324,22.66157389148138,0.0,1.0,0.0,0.0,1.0,Taxi
8.6,0.06327078969950062,-53.38275202540259,14.460460278712292,1.8351861272486976,0.713085282834451,205.51300624704777,22.315017153865405,0.0,1.0,0.0,0.0,1.0,Taxi
8.700000000000001,0.008506027711490073,8.791274377320919,13.419430790320952,1.5287816897773292,-0.7590723337489274,205.3584900920407,22.390952052925954,0.0,1.0,0.0,0.0,1.0,Taxi
8.8,0.11039473282353936,16.212139621080965,12.039797715199771,1.913232165576297,-0.1233705498129909,205.41404217005845,23.082923107763317,0.0,1.0,0.0,0.0,1.0,Taxi
8.9,0.14433148780490543,-2.0601630336309427,13.874821461682533,1.6954165697775887,-0.03888909201634025,205.68991340570904,22.37520789170402,0.0,1.0,0.0,0.0,1.0,Taxi
9.0,-0.0017947874566646633,-4.397275599081117,13.937670778689894,1.4610989880284457,-0.12717597311613324,205.50706090756137,22.312687421824762,0.0,1.0,0.0,0.0,1.0,Taxi
9.1,0.08840835482813376,-3.9176368174648437,13.213201818751203,1.265436739931357,0.17400200204540092,205.45411712941575,23.495608995284485,0.0,1.0,0.0,0.0,1.0,Taxi
9.200000000000001,0.12474330371758119,7.680417583571665,13.143223777593796,1.7725427905464783,-0.4170071431032031,205.46223198197094,22.565520936389117,0.0,1.0,0.0,0.0,1.0,Taxi
9.3,0.03660730046119364,-9.622425234120255,14.039529578353266,1.7152125410787336,-0.14312800800973724,205.7022788421815,22.011049850747696,0.0,1.0,0.0,0.0,1.0,Taxi
9.4,0.04029622865753247,-27.165847568801592,14.628194413874311,1.3638981241339556,-0.5508802406726158,205.59007127047585,22.440061047712746,0.0,1.0,0.0,0.0,1.0,Taxi
9.5,-0.011085934126426793,5.084694518164319,12.546166292552808,1.7491021987512052,0.1103492396978769,205.45756917345,22.1910863476606,0.0,1.0,0.0,0.0,1.0,Taxi
9.600000000000001,0.06203077305201522,-52.61361015173795,14.357596581356374,1.584086495301313,-0.4968295936781721,205.39230461900627,22.41758834924235,0.0,1.0,0.0,0.0,1.0,Taxi
9.700000000000001,-0.2227718221011573,-7.173933112471933,13.505353199063078,1.4776746052345862,-0.13732504364520542,205.48913329030268,22.641042165228296,0.0,1.0,0.0,0.0,1.0,Taxi
9.8,-0.04695559968878648,4.979449485368477,13.559673242517052,1.826456248312359,1.2110811244904562,205.35934419866294,23.129716022148248,0.0,1.0,0.0,0.0,1.0,Taxi
9.9,0.08692802047885756,58.09620400492892,14.39434413181202,1.5735270407254442,0.33047294190598775,205.63283520510845,22.275394069910032,0.0,1.0,0.0,0.0,1.0,Taxi
10.0,0.06770919792348727,29.65368348105025,14.240990717930556,1.447533517291941,0.06946285409709974,205.47663885899783,22.056698766424287,0.0,1.0,0.0,0.0,1.0,Taxi
10.100000000000001,0.10131281771646475,-50.141124866903645,13.699017162900216,1.6934181287205199,-0.6989522482077729,205.34686037741528,22.118163217164597,0.0,1.0,0.0,0.0,1.0,Taxi
10.200000000000001,-0.1637776038556606,-16.42441659102452,13.535178438742726,1.8245784682161652,0.45880198706921177,205.47745212684606,21.585919637756746,0.0,1.0,0.0,0.0,1.0,Taxi
10.3,-0.014412885031635276,-49.04879041219257,14.749591915772605,1.860131154407716,0.7368635178786266,205.5945748769841,21.494034476896303,0.0,1.0,0.0,0.0,1.0,Taxi
10.4,-0.143931134344498,58.22403993812876,14.105050724132154,1.7982511744312366,0.5680413347015203,205.52695746756729,22.575763067966665,0.0,1.0,0.0,0.0,1.0,Taxi
10.5,0.12734259583498325,26.44443412034106,13.12192860255351,1.7795915200480046,0.5570470238686186,205.4805813051778,22.222889729935265,0.0,1.0,0.0,0.0,1.0,Taxi
10.600000000000001,0.11780928557007007,26.137391160842654,14.501893755712054,1.8437923156044729,-0.17657443764782768,205.6091847912902,23.004741458233827,0.0,1.0,0.0,0.0,1.0,Taxi
10.700000000000001,-0.013244178540284677,-32.80255429707256,13.494566031526075,1.4688894974444398,-0.5367955963681036,205.53751333765206,22.085537858318986,0.0,1.0,0.0,0.0,1.0,Taxi
10.8,-0.0366701756503795,-8.732800850719741,13.7161049055937,1.9583568956794497,-0.348003825696919,205.404474370333,22.47538572974488,0.0,1.0,0.0,0.0,1.0,Taxi
10.9,0.07414528131647144,-38.52560250216108,13.90766692471706,1.434224981007096,-0.41575525976718286,205.57423283808907,23.2979568531495,0.0,1.0,0.0,0.0,1.0,Taxi
11.0,-0.20587219105109003,6.729946364942928,13.921923455425224,1.677567114435421,-0.19726698054086433,205.61724528373406,22.62176449601021,0.0,1.0,0.0,0.0,1.0,Taxi
11.100000000000001,-0.003020443825664836,-6.322157367864292,13.964339687140738,1.4605368885475714,0.5693818971996457,205.49670927240982,22.0527636246292,0.0,1.0,0.0,0.0,1.0,Taxi
11.200000000000001,0.04253449447715,59.26003993559942,14.376977427949393,1.8493571534265547,0.21805190939832605,205.5117451014478,21.945927716665167,0.0,1.0,0.0,0.0,1.0,Taxi
11.3,0.09042800862690713,8.988474383102592,13.747590861511245,1.9623066576644934,-0.03034145420694194,205.5910502464244,22.05512402817763,0.0,1.0,0.0,0.0,1.0,Taxi
11.4,0.04192192808984818,9.322842607242864,14.572258376950723,1.6109221155444444,0.07221160043141953,205.58030122895423,21.7763427638467,0.0,1.0,0.0,0.0,1.0,Taxi
11.5,0.08914870751336437,-19.21907052764421,12.98620429018589,1.6962783235322507,-0.10372674896894214,205.43312914419857,22.67550596408645,0.0,1.0,0.0,0.0,1.0,Taxi
11.600000000000001,-0.0056673440113138756,-66.59168427775644,13.641017223464791,1.6145902601080695,-0.34959148897281117,205.48238656064643,22.70175333780538,0.0,1.0,0.0,0.0,1.0,Taxi
11.700000000000001,-0.29103649329893394,-14.028989309241533,14.441958902848096,1.9806776092977638,0.05243941623145669,205.31236845940862,22.756668969313377,0.0,1.0,0.0,0.0,1.0,Taxi
11.8,0.019003760967156794,-22.831620061978374,14.310636981432092,1.837609272638625,0.2568821642266667,205.41638008178552,22.50907449491085,0.0,1.0,0.0,0.0,1.0,Taxi
11.9,-0.11982544432120568,36.38323932287624,13.246775247281663,1.337703802102905,-0.3248003416000828,205.56145713863657,22.279157749211986,0.0,1.0,0.0,0.0,1.0,Taxi
12.0,-0.10912029668455264,-20.099563731331678,13.667348998703284,1.8277572760428695,0.38984155463227854,205.4829794372372,22.81265464154844,0.0,1.0,0.0,0.0,1.0,Taxi
12.100000000000001,-0.08149405768950155,59.59167730155141,14.250419482427711,1.7195176565224646,-0.0909701135256016,205.633471956839,22.21362304066375,0.0,1.0,0.0,0.0,1.0,Taxi
12.200000000000001,0.1781329421865514,-7.167264672046504,13.647793925998757,1.732867989862319,0.11293006474576024,205.52874535578485,22.392825615330246,0.0,1.0,0.0,0.0,1.0,Taxi
12.3,-0.14495662004478513,35.62928881678659,13.29170719133551,1.7354617617056056,0.48458378232843025,205.54743558252903,21.926120245619913,0.0,1.0,0.0,0.0,1.0,Taxi
12.4,0.09665238639443144,-61.46460571539834,13.40630494302063,1.7270977003475116,-0.510070147554654,205.5040216983532,22.655021435629877,0.0,1.0,0.0,0.0,1.0,Taxi
12.5,-0.12919008639044033,15.652777541260221,12.918178429393858,2.029058421162162,-0.26215722975571465,205.49469875962927,23.01112774216195,0.0,1.0,0.0,0.0,1.0,Taxi
12.600000000000001,-0.06669273233848404,-0.7050733696677914,13.58930494103434,1.6533731573081192,0.41539275756118477,205.48401603831792,23.040773118957176,0.0,1.0,0.0,0.0,1.0,Taxi
12.700000000000001,0.0931270195460925,22.059210594382137,13.057998202421718,1.8570684334776995,-0.44221070138821544,205.47411488566024,23.07737508226468,0.0,1.0,0.0,0.0,1.0,Taxi
12.8,-0.01889403341852959,-5.265937398395593,15.183576207377627,1.7192805712860948,-0.7478798254548378,205.67504558883638,23.786797326473774,0.0,1.0,0.0,0.0,1.0,Taxi
12.9,-0.093022419330462,-22.191283287390263,13.860294685695214,1.6128608332943772,-0.11680057160338307,205.38519394504624,22.202575880444375,0.0,1.0,0.0,0.0,1.0,Taxi
13.0,-0.017829396890858832,21.23850930444232,13.964832972306741,1.7478184613812462,-0.21183921131348687,205.55936367881327,22.421061022012776,0.0,1.0,0.0,0.0,1.0,Taxi
13.100000000000001,0.08729851310368202,25.602917811473247,12.98367012034474,1.585061977257123,0.35889191547503996,205.5861758089752,23.427476193767003,0.0,1.0,0.0,0.0,1.0,Taxi
13.200000000000001,0.03499216972690425,6.903602307411734,13.561468254299037,1.6966153128062587,-0.6253691769443409,205.62833069792714,22.388872223796863,0.0,1.0,0.0,0.0,1.0,Taxi
13.3,0.016688614646199848,-51.31139900159875,14.510916600956481,1.4585985458646114,0.7196763292735954,205.55396231792452,21.874419227297974,0.0,1.0,0.0,0.0,1.0,Taxi
13.4,-0.16925848190431173,25.91102413669834,12.43793462728294,1.3076766936499062,0.37201502940620435,205.49654419309536,22.795051309430068,0.0,1.0,0.0,0.0,1.0,Taxi
13.5,0.16454729041039598,-6.11338582257017,14.221564321659692,1.623836755739152,-0.5444054267539327,205.57611240167637,22.866501548927157,0.0,1.0,0.0,0.0,1.0,Taxi
13.600000000000001,-0.013878314466650993,29.066305857504062,12.403949392168437,1.7463594614895996,-0.05829514732642979,205.47063258298726,22.049360415587014,0.0,1.0,0.0,0.0,1.0,Taxi
13.700000000000001,-0.023926952616791387,-21.985550891445115,14.109660635459477,1.6021822661965157,0.41354592831322196,205.60144469460238,22.191120295275127,0.0,1.0,0.0,0.0,1.0,Taxi
13.8,0.05461953595317044,-15.664402248056073,14.018505337964289,1.6821880839872014,0.18474397499194217,205.73239183417286,22.252191687202224,0.0,1.0,0.0,0.0,1.0,Taxi
13.9,-0.09220032570693137,15.095927360689158,14.547328224214755,1.7019056543543574,-0.41666224413382424,205.41374786520237,23.26406218892206,0.0,1.0,0.0,0.0,1.0,Taxi
14.0,0.05155268418665441,-16.76591366323309,13.326067054928611,1.7454872491063167,0.5153691340668347,205.6042396461088,21.837852479028413,0.0,1.0,0.0,0.0,1.0,Taxi
14.100000000000001,-0.029210032362995,29.0884034931294,13.588520404009039,1.3728595984749798,-0.33501440587710285,205.58155939979486,23.333626808445075,0.0,1.0,0.0,0.0,1.0,Taxi
14.200000000000001,0.053241691758715674,-4.656147902593535,14.335535315541913,1.877313257416576,0.5109020406468944,205.52374035265302,22.438131608204923,0.0,1.0,0.0,0.0,1.0,Taxi
14.3,0.028271944673686746,-39.123608174920804,13.246929858190423,1.775325213237203,-0.06050271800041108,205.48265826056354,22.548107874346442,0.0,1.0,0.0,0.0,1.0,Taxi
14.4,-0.22482807323759904,28.614219625123923,14.119203550039282,1.4189337121886427,0.09248763648618198,205.54461197758974,22.781772088400537,0.0,1.0,0.0,0.0,1.0,Taxi
14.5,0.19631278988433531,-10.44405669965622,14.024743400650218,2.0774125426186076,0.8275205362483746,205.51043031407573,23.143384392053044,0.0,1.0,0.0,0.0,1.0,Taxi
14.600000000000001,-0.023948338824594323,26.01233327083898,13.203756891829618,2.0192779587276646,0.333823921424096,205.48343144095543,22.848398026708054,0.0,1.0,0.0,0.0,1.0,Taxi
14.700000000000001,-0.09476640688340407,-40.310812598540714,13.779337269325254,1.4777452273326495,0.10480545750333717,205.4291220792261,22.31343260225766,0.0,1.0,0.0,0.0,1.0,Taxi
14.8,-0.005241273108368232,10.637415613484476,14.184593727367394,1.7476093243294213,0.3967569308156692,205.44465158099115,22.06831179168205,0.0,1.0,0.0,0.0,1.0,Taxi
14.9,0.029238739242828094,29.87630270562934,13.341307922963338,1.819733050645921,-0.052190242596692256,205.58573120159554,21.764348288334723,0.0,1.0,0.0,0.0,1.0,Taxi
15.0,0.054615106644742666,16.505056731980908,12.984639595900633,1.4951131314911779,0.38902920205397623,205.6388021239502,22.826976313014264,0.0,1.0,0.0,0.0,1.0,Taxi
15.100000000000001,0.07728401055153633,-22.799496933953503,12.466690718830021,1.71497660773972,-1.252746933416361,205.5947735003258,23.148139146509674,0.0,1.0,0.0,0.0,1.0,Taxi
15.200000000000001,-0.08475874542693938,-24.28788093428538,13.925668331607154,1.9195065050666682,0.4497425085079263,205.6913708974771,22.084702791435724,0.0,1.0,0.0,0.0,1.0,Taxi
15.3,-0.0668242980266842,-14.092763472181801,13.331928163356643,1.367939429381225,0.5584379365624351,205.52771558555548,22.950718018826645,0.0,1.0,0.0,0.0,1.0,Taxi
15.4,0.006820193190627367,21.064947974131087,13.635378826831293,1.566475431293171,0.7459245713932576,205.61296575332733,22.126507049736166,0.0,1.0,0.0,0.0,1.0,Taxi
15.5,0.020565994443716092,5.689232647931608,13.401783901497494,1.8252382498120356,-0.17703457721684618,205.62509305629055,22.314265897475174,0.0,1.0,0.0,0.0,1.0,Taxi
15.600000000000001,-0.03837813478702611,13.058583552380929,14.38071856120925,1.472691306436195,-0.4348404633020101,205.58634602916254,22.044167376076878,0.0,1.0,0.0,0.0,1.0,Taxi
15.700000000000001,0.07211311095253203,15.835592623673781,14.278794077689904,1.5360958054165632,-0.1903732066567466,205.69258242792,22.671708127712872,0.0,1.0,0.0,0.0,1.0,Taxi
15.8,0.09974395756208501,0.8238837778079121,13.458989882126357,1.6496033862129083,-0.440951920334916,205.38623424076775,22.622858666168074,0.0,1.0,0.0,0.0,1.0,Taxi
15.9,-0.03425871589798653,-9.499348685793679,13.731470077058155,1.5940098943326164,-0.9021923767083699,205.4016255447816,22.767903817199496,0.0,1.0,0.0,0.0,1.0,Taxi
16.0,0.024616367523563668,2.6849989931224436,13.62608770641039,1.5532201053201231,0.23155127586939808,205.44715337160483,23.49200290027972,0.0,1.0,0.0,0.0,1.0,Taxi
16.1,0.11316895252769726,-6.20589539652175,14.326379863370592,1.5628508054593018,0.6011953819367397,205.64714127797765,22.21948374218722,0.0,1.0,0.0,0.0,1.0,Taxi
16.2,-0.06528819288059526,-4.234369899594827,13.69779816614528,1.564972619259388,-0.38813923472723466,205.68639155976916,22.396429974617543,0.0,1.0,0.0,0.0,1.0,Taxi
16.3,0.003444518025589539,-18.89568304491455,14.18643864322448,1.6463555040511284,-0.24752984122440683,205.55939002858042,23.127985031996445,0.0,1.0,0.0,0.0,1.0,Taxi
16.400000000000002,0.01869053730312453,48.70855861061677,12.797718728730894,1.6929126855896568,0.006704859440122948,205.411934760686,23.11500740410492,0.0,1.0,0.0,0.0,1.0,Taxi
16.5,0.17825460017248862,-21.858205886528882,14.737963661364901,1.3300286812734545,0.6500668402948696,205.63756282630334,22.450313528577375,0.0,1.0,0.0,0.0,1.0,Taxi
16.6,-0.1058465114070548,-8.124184531451954,14.02056675059414,1.9095072051692623,-0.5239265480281619,205.66981678689456,23.391525152322977,0.0,1.0,0.0,0.0,1.0,Taxi
16.7,-0.02193038535413517,-15.154418326555382,13.776718971243234,1.5416796979280387,-0.13079807712124228,205.45755402055295,22.297627600599697,0.0,1.0,0.0,0.0,1.0,Taxi
16.8,0.1024825085397118,19.920381478805027,14.038729880254344,1.61139676268925,-0.6625289159215125,205.6193537053124,21.87228173944123,0.0,1.0,0.0,0.0,1.0,Taxi
16.900000000000002,-0.0062446040130296285,14.444217242629962,14.063054358844264,1.6395231412650297,0.04881984420720038,205.47926049821604,23.13027433200401,0.0,1.0,0.0,0.0,1.0,Taxi
17.0,0.050290700859014686,-30.516639243241666,14.311660053112433,1.7673506965231551,-0.2957348596458438,205.5106501845553,22.726008650159553,0.0,1.0,0.0,0.0,1.0,Taxi
17.1,-0.050100687676496475,-12.743457749155743,14.650989520911308,1.562998372648587,0.4742214404816635,205.33681240126975,22.94358871610843,0.0,1.0,0.0,0.0,1.0,Taxi
17.2,-0.0699618927588083,-12.018950971994892,13.587294381479134,1.5054434195879027,0.8272520480214085,205.49331966412933,22.230766085621312,0.0,1.0,0.0,0.0,1.0,Taxi
17.3,-0.009804054000959725,-22.993989885725778,14.390835999961302,1.6457401227639266,-0.7161556154478184,205.53303162836835,22.33148528149227,0.0,1.0,0.0,0.0,1.0,Taxi
17.400000000000002,-0.16507063710512537,-0.4554802598383721,13.11257304531851,1.6371172256071413,0.3237795665241326,205.4079312310065,22.303741367092037,0.0,1.0,0.0,0.0,1.0,Taxi
17.5,-0.07223929405800016,13.215696125872318,13.968712844076363,1.5542117147911094,0.1509610251187931,205.55645556107777,22.9760420810219,0.0,1.0,0.0,0.0,1.0,Taxi
17.6,0.05627442662840189,36.612028697936374,14.343874129459799,1.6736581567884066,0.40885065164239026,205.64558481735958,22.376968845528545,0.0,1.0,0.0,0.0,1.0,Taxi
17.7,0.017989506384556566,16.932942331994592,14.458963985724123,1.6302591286730987,0.3534272839511194,205.60171563248275,22.204384087182973,0.0,1.0,0.0,0.0,1.0,Taxi
17.8,0.012425417601972846,25.797549252156035,14.105604189360799,1.5471482622203874,0.5836480212642293,205.53625902614044,21.85783281974774,0.0,1.0,0.0,0.0,1.0,Taxi
17.900000000000002,0.18526217288918212,34.73476272797672,13.768997295722297,2.001616056162152,0.8726653221238059,205.5112304050375,22.574384160080093,0.0,1.0,0.0,0.0,1.0,Taxi
18.0,0.19166332002444023,-7.4372851543899685,14.568568792143338,1.6479802433366073,0.9018232678984053,205.5423281892257,21.06058590957444,0.0,1.0,0.0,0.0,1.0,Taxi
18.1,-0.024761008169976954,-35.50552902121292,13.631086934753137,1.2337349867782632,-0.9067585568639254,205.395093544446,23.060835657381876,0.0,1.0,0.0,0.0,1.0,Taxi
18.2,0.007734527783117526,-56.41526522627263,13.628709353381641,1.5528381544528134,0.5125264359503966,205.6999023304079,22.226910700126616,0.0,1.0,0.0,0.0,1.0,Taxi
18.3,-0.09041300610692292,20.90033058370143,14.123863201103816,1.0922297370416083,-0.11218660522315965,205.60450437035354,22.87981645758309,0.0,1.0,0.0,0.0,1.0,Taxi
18.400000000000002,0.07974064474853024,-10.987637631109374,13.104083306595195,1.4222464959854697,-0.21139105304004435,205.56342928645313,23.196282680894356,0.0,1.0,0.0,0.0,1.0,Taxi
18.5,-0.0472036603724293,27.916962971696833,14.715939987744383,1.6853761676660002,0.0787589683940666,205.4709373821364,22.107278620766067,0.0,1.0,0.0,0.0,1.0,Taxi
18.6,0.049171808751561304,-6.606906545749905,15.194275842818174,1.7820227751701336,-0.22552133578051914,205.40370922468378,23.2720599151883,0.0,1.0,0.0,0.0,1.0,Taxi
18.7,0.046706112019780734,1.6126179665340412,13.75710054130096,1.3601278746468248,0.23155469508853496,205.56892577740473,22.798434754269326,0.0,1.0,0.0,0.0,1.0,Taxi
18.8,-0.03914057053975906,-20.72377269140153,13.636251357913634,1.6243647968439625,0.4931226278196749,205.7670448500079,22.504118947900693,0.0,1.0,0.0,0.0,1.0,Taxi
18.900000000000002,-0.05444705470544631,28.587685618787706,14.006098209905325,1.6059411835261266,0.7268746230670448,205.5259898579909,22.46865339650734,0.0,1.0,0.0,0.0,1.0,Taxi
19.0,0.1896445401137193,14.955158272830275,13.413858231488588,1.2944360981810672,-0.4317662993677165,205.58333405284043,22.550250576453863,0.0,1.0,0.0,0.0,1.0,Taxi
19.1,0.03563522082439236,-1.1538562581332574,14.574828630776956,1.3957744864120838,0.5842028518935419,205.405178343976,22.836645143565775,0.0,1.0,0.0,0.0,1.0,Taxi
19.200000000000003,-0.06021633599611255,-24.084479574726576,14.498608020837851,0.9759223785961078,-0.6212021386988661,205.3748839220948,23.423758634565857,0.0,1.0,0.0,0.0,1.0,Taxi
19.3,0.06922214224008646,25.800467280428318,13.546293670261461,1.50781498519792,-0.09752340919301,205.4197091049059,22.687693056168126,0.0,1.0,0.0,0.0,1.0,Taxi
19.400000000000002,0.16463755722653398,25.091809032514977,12.986195982503576,1.6187664929974013,-0.3810080813359439,205.41044262878995,22.325499415132143,0.0,1.0,0.0,0.0,1.0,Taxi
19.5,0.06524270916646235,-43.171634455392045,13.892701878605278,1.722409660410429,0.36179459129081093,205.59712248704693,21.732677676053136,0.0,1.0,0.0,0.0,1.0,Taxi
19.6,-0.1466360300368737,-15.799453191568574,13.333027974335417,1.8028802194530749,0.04490379651738459,205.52029635685642,21.981970688614297,0.0,1.0,0.0,0.0,1.0,Taxi
19.700000000000003,0.08564029126869119,1.0444888251898725,13.532090968386303,1.8000108957886682,0.47983017103125597,205.41638706235915,21.771651107985406,0.0,1.0,0.0,0.0,1.0,Taxi
19.8,0.07046515329241179,-10.943238146514366,14.313060718652183,1.6460020775640118,-1.1113266083546438,205.50969075844716,22.33561312723362,0.0,1.0,0.0,0.0,1.0,Taxi
19.900000000000002,-0.20135222076944542,-12.742444866899811,14.650199143112593,1.8739051542059388,-0.9638817652932119,205.76608780301922,22.328081783833717,0.0,1.0,0.0,0.0,1.0,Taxi
20.0,0.0219280669341922,30.091641634954044,13.931394104597105,1.2925236860124376,-0.06916386467911216,205.53358751980898,22.07238776869673,0.0,1.0,0.0,0.0,1.0,Taxi
20.1,0.22092336146718208,1.1217102371491212,14.394181753512113,1.5593091614932844,0.010994402604264963,205.57198618822463,23.1588978705169,0.0,1.0,0.0,0.0,1.0,Taxi
20.200000000000003,-0.19574366958369982,10.498870174573094,13.889375299145767,1.904225768224851,0.2784415926662487,205.64010337390073,22.35416899162895,0.0,1.0,0.0,0.0,1.0,Taxi
20.3,0.0744224178070577,-45.71063299523154,14.163992628046811,1.696253604234795,0.24943222043303281,205.47346996172507,22.20724568940798,0.0,1.0,0.0,0.0,1.0,Taxi
20.400000000000002,-0.007629803508975571,48.258610613126905,12.984413252730398,1.7413548121521512,1.0056253500184174,205.55250235229892,22.831661570953973,0.0,1.0,0.0,0.0,1.0,Taxi
20.5,0.04554938348193481,-30.37208861249108,13.099497374947113,1.549043292713429,-0.4176371645130916,205.63513085167642,21.702009757975144,0.0,1.0,0.0,0.0,1.0,Taxi
20.6,-0.07743802525539761,-25.01974117144654,13.916230705444201,1.699732762519569,-0.5359302683775721,205.4761343362968,22.473331941504757,0.0,1.0,0.0,0.0,1.0,Taxi
20.700000000000003,-0.1327285093662082,14.50675456304216,14.185993512211759,1.9049064339259134,0.13154984969674707,205.5789204285718,23.231519439967173,0.0,1.0,0.0,0.0,1.0,Taxi
20.8,0.11808315629714566,52.46137754629103,14.289936941820823,1.8294756712846751,-0.9270675823644136,205.715945921865,22.609507277959253,0.0,1.0,0.0,0.0,1.0,Taxi
20.900000000000002,0.1848688624760576,19.123898871593013,14.228370436538363,1.4402206236079895,-0.3516415376179467,205.58591200919113,22.313461195707138,0.0,1.0,0.0,0.0,1.0,Taxi
21.0,-0.03710901500824309,-42.71705100748537,13.793241300913254,1.4166761883948806,-0.022861158735348518,205.55559153160857,23.047523677008943,0.0,1.0,0.0,0.0,1.0,Taxi
21.1,-0.09550209874028111,-5.929533919471567,13.544439928330842,1.4909350925807399,0.5932394673863233,205.58572836426367,22.102333574857603,0.0,1.0,0.0,0.0,1.0,Taxi
21.200000000000003,0.15522119287869982,13.190190472451505,13.951695324955278,1.4342981212728678,-0.3619500895541828,205.6686772971933,23.613623380817916,0.0,1.0,0.0,0.0,1.0,Taxi
21.3,0.028841937354014427,58.645326787694366,14.892645463361143,1.7100923013332763,0.18264365080599712,205.65374119290436,22.332045004292745,0.0,1.0,0.0,0.0,1.0,Taxi
21.400000000000002,0.19772453519819072,-87.74802100555918,13.441293190567364,1.6096402173686617,-1.1579699816218691,205.48801239284046,22.407826827216866,0.0,1.0,0.0,0.0,1.0,Taxi
21.5,-0.283518912149096,-0.09905108470708986,13.686132942003495,1.5873804756824426,-0.25238295684755746,205.2408801585068,23.04355568587565,0.0,1.0,0.0,0.0,1.0,Taxi
21.6,0.028346681930479137,-45.20160648915032,13.940140265892744,1.943279324393748,0.1859456821894852,205.53234540397705,22.88978466329155,0.0,1.0,0.0,0.0,1.0,Taxi
21.700000000000003,-0.028283497247560747,17.8307091959902,12.752262231866624,1.6452856022275195,-0.20096590570812228,205.60001615296937,22.096496127172596,0.0,1.0,0.0,0.0,1.0,Taxi
21.8,-0.1943653661691449,-6.117745745328222,14.482589027166489,2.0440583070564293,0.2281290063698755,205.5041547392077,22.95328375049804,0.0,1.0,0.0,0.0,1.0,Taxi
21.900000000000002,-0.0022420467961618805,-6.7058636968310665,12.655264870060604,1.9710995210172024,-0.00723261026167934,205.51530811202315,22.260060853810522,0.0,1.0,0.0,0.0,1.0,Taxi
22.0,-0.06181281573171599,36.09724402095938,13.041407921559708,1.895553586330593,0.9040347726133131,205.8467378937845,22.791588907228455,0.0,1.0,0.0,0.0,1.0,Taxi
22.1,-0.013879146064347914,-22.5219234944225,14.788267451476536,1.5696775155764098,0.04676369446571777,205.37111548504618,22.097851968216208,0.0,1.0,0.0,0.0,1.0,Taxi
22.200000000000003,-0.1148516642682743,58.014223904701,13.286821188173404,1.5788178185413497,-0.060011306036810416,205.4272135560118,22.10219737243512,0.0,1.0,0.0,0.0,1.0,Taxi
22.3,0.2282583037917891,0.41246938714113907,13.348768575098445,1.827352200167807,-0.13315437905819671,205.33421107081722,22.43699869657948,0.0,1.0,0.0,0.0,1.0,Taxi
22.400000000000002,-0.01181679912864213,-4.096214508763867,14.001789184111946,1.5587635891230922,-0.05956491131011277,205.32312276181062,22.25567835009901,0.0,1.0,0.0,0.0,1.0,Taxi
22.5,-0.13533273681209354,-53.18254244390716,14.24238611539151,1.83118664846395,0.12133012127690118,205.4068552015749,21.64348646242408,0.0,1.0,0.0,0.0,1.0,Taxi
22.6,-0.03765440842774664,-26.465898014556785,13.820498922926042,1.4791808594879599,-0.6823780663034412,205.43463076310206,22.732428926848556,0.0,1.0,0.0,0.0,1.0,Taxi
22.700000000000003,-0.14414628920142597,34.16441484784729,14.329683428274265,1.090663635092468,-0.6474980142943836,205.49955416905925,22.71266907416329,0.0,1.0,0.0,0.0,1.0,Taxi
22.8,0.035489337427142977,28.503791137127763,14.414023607997724,1.0567130171861452,-0.4947851165972345,205.466619719218,22.269518468748036,0.0,1.0,0.0,0.0,1.0,Taxi
22.900000000000002,0.10486454725789225,-7.590268783065994,14.024641783205574,1.646696896942665,0.05798194183887821,205.52635872832866,22.06913368648052,0.0,1.0,0.0,0.0,1.0,Taxi
23.0,-0.18209763311675592,16.161934765910132,14.280343890735132,1.7785804347862053,-0.14962985507899226,205.41259464328243,22.85684981605436,0.0,1.0,0.0,0.0,1.0,Taxi
23.1,0.11629901125669365,-21.09339370806777,13.274345570792356,1.523669652375565,-0.7765548862340459,205.5795733373027,22.31019027113731,0.0,1.0,0.0,0.0,1.0,Taxi
23.200000000000003,-0.000602421282446577,40.49259646568883,14.14300923905357,1.935331833514447,0.2657713873417254,205.43604343431764,22.64784052845883,0.0,1.0,0.0,0.0,1.0,Taxi
23.3,0.020365349211688283,-26.01576459526648,13.07416975691058,1.91297413772743,-1.2643391257003636,205.47010866023152,22.47570959915291,0.0,1.0,0.0,0.0,1.0,Taxi
23.400000000000002,-0.013779811719638647,2.281833685335125,13.852506721497093,1.8555337322641874,0.7756765609663414,205.4282195635849,21.88229963664624,0.0,1.0,0.0,0.0,1.0,Taxi
23.5,0.010806747144229134,-3.7231962831270535,13.91757288075534,1.5169767911340846,0.5860285848326362,205.42759751658537,22.841488377307794,0.0,1.0,0.0,0.0,1.0,Taxi
23.6,0.0017493677960531,8.859390673932197,14.22314833258343,1.651705904934807,-0.07863075237366335,205.69325892746463,22.80506627124782,0.0,1.0,0.0,0.0,1.0,Taxi
23.700000000000003,0.030517141650022422,-3.982417433876852,13.215645081692447,1.6673562969638165,0.010342286892675794,205.5742906570108,22.062854436042933,0.0,1.0,0.0,0.0,1.0,Taxi
23.8,-0.00910534002515504,-1.7432455490840066,13.062133112450962,1.8484483456540586,-0.8412433652759198,205.3652701513629,22.59631761931815,0.0,1.0,0.0,0.0,1.0,Taxi
23.900000000000002,-0.006966859949366848,3.578171462708165,14.15296921553007,1.5854680616209078,0.5445193699377058,205.43634598278175,23.232770552733026,0.0,1.0,0.0,0.0,1.0,Taxi
24.0,0.04840799896356334,15.739072329760248,13.247587316744406,1.5525812396828123,0.9330241537032049,205.29192042103364,21.225171389690896,0.0,1.0,0.0,0.0,1.0,Taxi
24.1,0.06959002162364628,-0.2555098880076348,13.783457069274943,1.8522005800972137,-0.07595556396656739,205.6289937766294,22.819685968508647,0.0,1.0,0.0,0.0,1.0,Taxi
24.200000000000003,-0.008244409389404945,-25.574564341129527,13.210365732785466,2.0034241103368235,0.020780204299434342,205.66733536680113,21.640941662181813,0.0,1.0,0.0,0.0,1.0,Taxi
24.3,-0.07946482274208422,-47.16131036990041,14.125552953744569,1.536270831517975,-0.1677428525158724,205.42004485309678,21.95106959391891,0.0,1.0,0.0,0.0,1.0,Taxi
24.400000000000002,-0.16621653022585572,14.690747899209276,14.182809731556205,1.7091587407672582,-0.7489217967178942,205.50960620495766,22.354950132741504,0.0,1.0,0.0,0.0,1.0,Taxi
24.5,0.06520933010664151,46.38467877916315,14.507694022287376,1.283397239672137,0.5258371559817699,205.6458790340639,22.562570023532334,0.0,1.0,0.0,0.0,1.0,Taxi
24.6,0.15245857115373163,66.07913531693204,14.293156923803966,1.4235410783128233,-0.2607761278313886,205.45380505226115,22.311681780593087,0.0,1.0,0.0,0.0,1.0,Taxi
24.700000000000003,0.16417914635880454,9.134280395284108,13.869318748278635,2.013024758882348,0.20327548752669597,205.53015420765576,23.09718429886119,0.0,1.0,0.0,0.0,1.0,Taxi
24.8,0.11088073208306215,-30.776716121154035,14.234129124257585,1.9044452670035883,0.4315960533777384,205.49405010337262,22.71491482914228,0.0,1.0,0.0,0.0,1.0,Taxi
24.900000000000002,-0.0014250094520384575,-63.081401419637736,14.53532749864343,1.8443521946354775,0.4588719494116262,205.57993865660478,22.899879145536957,0.0,1.0,0.0,0.0,1.0,Taxi
25.0,-0.1512278607393841,6.380265815742594,13.689464202123395,1.6046654903057287,-0.42056695945402955,205.5945423474949,22.884661088141808,0.0,1.0,0.0,0.0,1.0,Taxi
25.1,0.14278206116177516,3.8335691295406256,14.222998220241433,1.5335575034183249,-0.637288570930517,205.5338055350178,22.959345143361933,0.0,1.0,0.0,0.0,1.0,Taxi
25.200000000000003,0.01774283619566476,36.92325239822362,13.726876597776029,1.6125229273541155,-0.32124325322808,205.59983108044503,22.71083850082155,0.0,1.0,0.0,0.0,1.0,Taxi
25.3,0.03338840125173409,-54.964912596968354,14.287168368045068,1.156936316497555,-0.38938753254573677,205.4715205935829,22.808706279780253,0.0,1.0,0.0,0.0,1.0,Taxi
25.400000000000002,-0.13204250182306645,-11.12167817245185,14.551960536196656,1.514366523034881,0.17520516394932004,205.5244479647929,22.893631499693747,0.0,1.0,0.0,0.0,1.0,Taxi
25.5,-0.03786555466659436,-26.505199975358263,13.78821031381459,1.4242988913389425,1.207033656918452,205.53990062129537,21.95542764630297,0.0,1.0,0.0,0.0,1.0,Taxi
25.6,-0.09913759862505708,27.455312405170513,14.04676459373351,1.3300923133032474,-0.019286247977780308,205.53336289174808,22.67872053851837,0.0,1.0,0.0,0.0,1.0,Taxi
25.700000000000003,0.005234060202786263,25.257302036727328,14.80235307664952,1.7925133192239897,0.9808127006972516,205.5506623266042,22.95616716482762,0.0,1.0,0.0,0.0,1.0,Taxi
25.8,0.08842095551704245,44.77536245711226,13.986694309569886,1.532482770870733,0.3789431157834809,205.30427269340908,22.386856383696475,0.0,1.0,0.0,0.0,1.0,Taxi
25.900000000000002,0.12473921366050432,18.765005697126096,13.340326195419784,1.7087877403567788,0.18756212582055035,205.63610121938427,22.65760412900246,0.0,1.0,0.0,0.0,1.0,Taxi
26.0,0.09905908868841685,7.7196252757316985,14.952573091332418,1.3378448676300758,-0.44199530976113494,205.35355306437782,22.287368694175804,0.0,1.0,0.0,0.0,1.0,Taxi
26.1,0.12701908189570107,-17.773012101472073,14.54107820380112,1.494521521951532,-0.39861239780654,205.58681214517264,22.15361964089815,0.0,1.0,0.0,0.0,1.0,Taxi
26.200000000000003,0.03587415315314407,-0.6616489248443855,13.020656752007072,1.8004495231127746,-0.25819844608072134,205.562515010605,22.271887973158588,0.0,1.0,0.0,0.0,1.0,Taxi
26.3,0.09575084406419504,-34.91783213162092,14.688591154924152,1.730054420422552,-0.01343670650036969,205.51663270951167,22.812091846230615,0.0,1.0,0.0,0.0,1.0,Taxi
26.400000000000002,-0.04757007876240341,23.2241157206097,13.040233780384414,1.7155671316806866,0.05072325391290069,205.56614793153005,22.43797629772135,0.0,1.0,0.0,0.0,1.0,Taxi
26.5,0.15199473175619269,-29.719666525807764,13.999852328344197,1.5110105413881072,-0.6461396390365219,205.59080344494305,22.517477880110313,0.0,1.0,0.0,0.0,1.0,Taxi
26.6,-0.05284748856484365,38.865041927830724,13.87647386798617,1.7378679325985742,-0.9395932102078619,205.47042652615073,22.13885719161538,0.0,1.0,0.0,0.0,1.0,Taxi
26.700000000000003,0.14675513087675032,-39.21787372107237,14.026653257792264,1.4098848557245132,-0.40020637405928977,205.77346196942597,23.688766797605947,0.0,1.0,0.0,0.0,1.0,Taxi
26.8,-0.04409463684916906,-10.107163537676575,14.519255728878496,1.2931460819817082,0.6515140911315922,205.3965962917996,22.70035844958642,0.0,1.0,0.0,0.0,1.0,Taxi
26.900000000000002,-0.10338330625322639,-18.196407130046257,12.875816844018463,1.8809174589006434,-0.29421497501543076,205.44869109379147,22.54084218446511,0.0,1.0,0.0,0.0,1.0,Taxi
27.0,0.055773095226519166,-23.72262397933477,13.94760686932501,1.2574774864254787,0.760349466338491,205.57942346747097,22.21957469500947,0.0,1.0,0.0,0.0,1.0,Taxi
27.1,-0.16270775674584276,1.9714836967628007,14.515487429032405,1.3419124673197325,0.23563737060829,205.37721685840563,22.17856250629892,0.0,1.0,0.0,0.0,1.0,Taxi
27.200000000000003,-0.09352588776941223,-1.6252270516724632,14.301245520523167,1.4524058475218622,-0.3150020914301393,205.52774409680478,22.006531086932153,0.0,1.0,0.0,0.0,1.0,Taxi
27.3,0.047646959968157,-24.018967961375637,14.255601242836885,1.6731655212207475,0.1296861986475876,205.53212845515304,22.51496990875561,0.0,1.0,0.0,0.0,1.0,Taxi
27.400000000000002,-0.2828025965527208,9.118775309536574,14.662816672090495,1.7810438867536176,0.05971496044207916,205.55437446148926,23.11623733534724,0.0,1.0,0.0,0.0,1.0,Taxi
27.5,-0.04793201122172919,-32.15135349314402,14.00642665018453,1.5977799286320975,-0.42622803994951886,205.38656061378003,22.04368930645804,0.0,1.0,0.0,0.0,1.0,Taxi
27.6,-0.11310980749756297,61.48343695428232,13.745983368848968,1.4539870613991477,0.19189988709137454,205.63528362089733,22.20098275193754,0.0,1.0,0.0,0.0,1.0,Taxi
27.700000000000003,0.024614588218690937,41.343126529135795,13.82887412887957,1.6568872535612535,0.2875016120492771,205.4300560239884,22.156973760251898,0.0,1.0,0.0,0.0,1.0,Taxi
27.8,0.1587836214239499,42.72935866469189,13.795332958034392,1.693572781302578,-0.7338567372924293,205.55538603154855,22.293171210392565,0.0,1.0,0.0,0.0,1.0,Taxi
27.900000000000002,0.1005369858258966,-18.061800406263202,13.011605736762593,1.5331219267109675,-0.24088442096368434,205.63114009481365,22.89171460786509,0.0,1.0,0.0,0.0,1.0,Taxi
28.0,-0.06569441381262493,-44.71461019615334,13.60308918974158,1.7293663997452544,-0.3152411208550019,205.48847672875866,22.83618911757244,0.0,1.0,0.0,0.0,1.0,Taxi
28.1,-0.06478942955681671,-40.18859240406383,13.830459519695253,1.4181503984412132,0.4192443256840977,205.52229959579233,23.589044640112142,0.0,1.0,0.0,0.0,1.0,Taxi
28.200000000000003,-0.10040597619442243,5.357953335359871,13.364600374618998,1.5045751605578073,-0.7056331023512152,205.7230568322085,21.767840275079735,0.0,1.0,0.0,0.0,1.0,Taxi
28.3,-0.03890464713582542,8.530110049037619,13.616702537014955,1.756434854271148,0.11051249127944149,205.5300410511403,22.640925682614327,0.0,1.0,0.0,0.0,1.0,Taxi
28.400000000000002,-0.022138879311628463,-1.078283258555513,13.96411423694233,1.4452441954680104,-0.35647430674137986,205.42338319192572,23.44180849308535,0.0,1.0,0.0,0.0,1.0,Taxi
28.5,-0.10579739248719984,7.010752679889168,13.319576792247949,1.6446338829534202,0.306186747989884,205.54299522418273,22.39154333668731,0.0,1.0,0.0,0.0,1.0,Taxi
28.6,-0.003850883736379429,-20.554068435458152,13.613224681750932,1.6376633700440741,-0.4956401850194022,205.66427704735202,22.45834046569068,0.0,1.0,0.0,0.0,1.0,Taxi
28.700000000000003,-0.12490922148891909,0.23518596547531287,12.862625545947076,1.4080000657682334,0.24002941944997336,205.45821183829844,22.458916387285807,0.0,1.0,0.0,0.0,1.0,Taxi
28.8,-0.10462146265982314,28.34737884966869,13.10373972608378,1.8459297339738143,0.3506780285998097,205.48212481703638,22.224973557748378,0.0,1.0,0.0,0.0,1.0,Taxi
28.900000000000002,0.13788601051196414,0.40306577612186817,13.401786930662066,1.841215781898461,-0.3696501807889805,205.4620444186429,22.70977868016738,0.0,1.0,0.0,0.0,1.0,Taxi
29.0,-0.12289389260830962,32.22901434391289,14.250102889008081,1.6629315307938117,-0.6002860215445556,205.39604515769952,22.569254539269515,0.0,1.0,0.0,0.0,1.0,Taxi
29.1,0.05652360905974142,-35.128170478773804,14.709676350389566,1.5414820364792254,-1.0892026612536423,205.4248356615136,21.922461127744775,0.0,1.0,0.0,0.0,1.0,Taxi
29.200000000000003,-0.037754841881904734,44.31492147636849,13.688109832929694,1.6023665619773084,0.09790316975551719,205.36992431063015,22.151805657671908,0.0,1.0,0.0,0.0,1.0,Taxi
29.3,0.09868071477353302,-20.589816442884622,14.014086064953641,1.8560393546725893,0.03887575627277429,205.70076855407558,21.992465519253848,0.0,1.0,0.0,0.0,1.0,Taxi
29.400000000000002,-0.04642547315468155,-4.291728437674084,13.846618758197499,1.8623116971887528,0.2795606126871069,205.59377233064095,21.78108237790675,0.0,1.0,0.0,0.0,1.0,Taxi
29.5,-0.05921348407027502,-45.63968458294139,14.536508163051069,1.43026899204355,0.1053508242079997,205.4353532770043,22.44891249495838,0.0,1.0,0.0,0.0,1.0,Taxi
29.6,-0.1295177081411738,5.273048370522218,13.864793353492619,1.629473935638852,-0.05516658957132728,205.4994060627696,21.6193183996008,0.0,1.0,0.0,0.0,1.0,Taxi
29.700000000000003,-0.020060231302070304,17.427517909965427,13.17611101906685,1.558131916458875,0.38451685751141734,205.5018596638639,22.818528104232925,0.0,1.0,0.0,0.0,1.0,Taxi
29.8,0.027924105479552253,6.698878345020499,13.842561496918055,1.6514772316533843,-0.3806566881402206,205.50650413776407,22.338509810039156,0.0,1.0,0.0,0.0,1.0,Taxi
29.900000000000002,-0.09602331641607115,-25.71149072767014,14.713462360274255,1.7855056425225238,0.375791558801381,205.5225843837443,22.28337810397157,0.0,1.0,0.0,0.0,1.0,Taxi
30.0,-0.14861768494042082,-6.6215281578288385,12.717970810747847,1.5932954323363147,0.8011810337542167,205.54300675458956,22.658311905691367,0.0,1.0,0.0,0.0,1.0,Taxi
30.1,-0.005183535309591746,6.683769507138716,13.922571187720266,1.5314303093024362,0.8224441350679892,205.38701564544078,22.30145761347576,0.0,1.0,0.0,0.0,1.0,Taxi
30.200000000000003,-0.06260446888037738,13.26453777788221,13.845813251354997,1.8054895893340803,0.021032686084109374,205.4320140208472,22.187853285806565,0.0,1.0,0.0,0.0,1.0,Taxi
30.3,-0.0822949960510096,2.550370934739734,15.061103513373876,1.3824779806943197,-0.8765766665832515,205.44592606750666,21.47802400287038,0.0,1.0,0.0,0.0,1.0,Taxi
30.400000000000002,0.007568319364107097,-28.87543164499637,15.143059853654483,1.5082211662847762,-0.2898969367177552,205.5100732857868,21.913272889524784,0.0,1.0,0.0,0.0,1.0,Taxi
30.5,-0.20698162710535906,29.65378035372629,14.545381490976503,1.710298340146738,-0.18515283621095724,205.59700220540753,22.671649809437007,0.0,1.0,0.0,0.0,1.0,Taxi
30.6,0.06597390571762207,9.756843801943281,13.95245375660137,1.811644679883633,0.2735054242424634,205.57692695004505,22.552555500417867,0.0,1.0,0.0,0.0,1.0,Taxi
30.700000000000003,0.056352538373823716,41.889175769796,13.678930640503834,1.7735013815720855,-1.0616976216618021,205.64073695343745,22.59945086256391,0.0,1.0,0.0,0.0,1.0,Taxi
30.8,0.0024642517436211254,-12.299607480610668,13.901862786677695,1.7814515688025734,-0.16900187828884755,205.63843175123463,22.142502366806337,0.0,1.0,0.0,0.0,1.0,Taxi
30.900000000000002,0.004475868314568922,-37.07591227400562,15.063773324947118,1.6687667915870752,-0.0072845865306079855,205.598890621,22.775503061913927,0.0,1.0,0.0,0.0,1.0,Taxi
31.0,-0.1290270229962042,22.591945309452665,13.95135369202346,1.5515604344989506,-0.6100863789498179,205.63748927287384,23.340846770215634,0.0,1.0,0.0,0.0,1.0,Taxi
31.1,0.11542397829088463,16.48540113703798,14.016662990543015,1.4687753428416566,0.002733376908897686,205.49653147299,22.949568190806684,0.0,1.0,0.0,0.0,1.0,Taxi
31.200000000000003,0.08690287399975899,35.68094453884495,13.583083890674411,1.8720043933829542,-0.6914784312016,205.6547668660205,22.80625881434492,0.0,1.0,0.0,0.0,1.0,Taxi
31.3,0.04937769969802072,-30.592343520839147,15.367149673089983,1.7240003341400014,1.162638736377268,205.55112272648046,22.5115938971203,0.0,1.0,0.0,0.0,1.0,Taxi
31.400000000000002,-0.03753773931331092,11.724531753923467,13.990471214425211,1.4486961865616412,-0.8397382299522409,205.60632295267465,22.449574657589512,0.0,1.0,0.0,0.0,1.0,Taxi
31.5,0.1455255327693765,-11.271563243461594,14.200501806287695,1.9794726151622437,-0.7756894775960128,205.53214950031077,22.396875761733927,0.0,1.0,0.0,0.0,1.0,Taxi
31.6,-0.006980116519287098,-14.50503994349694,14.290325419830983,1.8619322522171087,0.2928651922979227,205.5021259236065,23.227711653440284,0.0,1.0,0.0,0.0,1.0,Taxi
31.700000000000003,-0.11006293903079548,7.590682724429182,15.187906135249188,1.6184834009164137,-0.169670341531903,205.56607100192696,22.9912479663043,0.0,1.0,0.0,0.0,1.0,Taxi
31.8,0.18347894639152254,-13.879270135487024,13.323695869568136,1.5930384575402048,0.14419985522683587,205.42558209263257,22.52644995547682,0.0,1.0,0.0,0.0,1.0,Taxi
31.900000000000002,-0.07637646719672204,31.698753973650387,15.31487086910637,1.583843988846936,1.1193359725565013,205.6309694921722,22.77489134391974,0.0,1.0,0.0,0.0,1.0,Taxi
32.0,0.048430830837456626,-31.820603076933626,14.570363011686961,1.2793238735749008,-0.37297360280204805,205.6785049353207,22.503602671030922,0.0,1.0,0.0,0.0,1.0,Taxi
32.1,0.024375931006854548,26.629720151132137,13.807969915973425,1.5710230026507084,-0.03155067050746831,205.74496711902657,22.0443161858354,0.0,1.0,0.0,0.0,1.0,Taxi
32.2,0.056772133558938814,-44.93852816986268,14.287348717871057,1.632930898299713,-0.9263652606443404,205.461432754023,22.031295898751367,0.0,1.0,0.0,0.0,1.0,Taxi
32.300000000000004,-0.1762618100118566,-25.61337859025159,13.279352916837206,1.710412507349891,-0.20826046418771182,205.5291950797607,22.811341758407163,0.0,1.0,0.0,0.0,1.0,Taxi
32.4,-0.10369096194440322,-35.367576714330575,13.955526549828903,1.7321625517739316,0.2945633181512105,205.53939996725444,23.25649595508721,0.0,1.0,0.0,0.0,1.0,Taxi
32.5,-0.1200657500127139,34.97677590573151,13.329041621433557,1.4545757319090282,-0.29750399077437967,205.57789903217258,22.502801531706773,0.0,1.0,0.0,0.0,1.0,Taxi
32.6,-0.0013779304831988998,37.165412654690016,13.972085738707435,1.7460793615563133,0.08857899866788942,205.64627329458767,22.640124029729797,0.0,1.0,0.0,0.0,1.0,Taxi
32.7,0.08213610132904703,-2.426996859436604,14.456406558978555,1.5689977793708325,-0.18215299148728847,205.5370203901316,23.04281709967983,0.0,1.0,0.0,0.0,1.0,Taxi
32.800000000000004,-0.13220073430989673,3.9191035901262077,15.134212115582013,1.692142594538322,-0.07504588084600318,205.68832465047274,22.74663204117141,0.0,1.0,0.0,0.0,1.0,Taxi
32.9,0.018217587467432305,-15.879640664757503,14.568869181669161,1.3538519053056268,0.12813452955644505,205.62041689861508,21.90075001139066,0.0,1.0,0.0,0.0,1.0,Taxi
33.0,0.002737898005259684,34.71363905430643,14.808074875448519,1.3192396970519473,-0.6999100072486516,205.4128321599012,22.362762394482942,0.0,1.0,0.0,0.0,1.0,Taxi
33.1,0.04136746096163556,-2.880132507922667,14.175016433727878,1.5331075591061694,0.26975033589999436,205.48029004540274,22.492657314121132,0.0,1.0,0.0,0.0,1.0,Taxi
33.2,0.003816924927819133,21.416800694362507,14.579421855141845,1.6420723437902836,0.33304128151524126,205.53597975381604,22.18056664198609,0.0,1.0,0.0,0.0,1.0,Taxi
33.300000000000004,0.10982190147707237,-2.65123658243661,13.707782823409392,1.604703898213534,0.24228598408885962,205.48478326782947,22.269910510641864,0.0,1.0,0.0,0.0,1.0,Taxi
33.4,0.028111278049452654,17.079230417146146,13.72863031272142,1.221709298873756,0.5698805921470027,205.59470256494137,23.26165217510395,0.0,1.0,0.0,0.0,1.0,Taxi
33.5,0.08921307701355001,-23.766598957084366,13.846593937163153,1.340376664335917,0.3058768881278002,205.5321654454401,23.339623479676867,0.0,1.0,0.0,0.0,1.0,Taxi
33.6,-0.009011093308349283,6.202917221333517,13.797511500101802,1.7362476409994787,0.29479676742294314,205.51408290263464,21.863988343604888,0.0,1.0,0.0,0.0,1.0,Taxi
33.7,0.059125864156120415,-14.269624193574373,14.898406638931133,1.6776462585942546,-0.1795230236867511,205.4799701159916,22.168438757050374,0.0,1.0,0.0,0.0,1.0,Taxi
33.800000000000004,0.017864956045678317,-2.052209067578693,14.018328958132837,1.6515859670074347,0.20768662075442784,205.5554852550788,23.08696686572651,0.0,1.0,0.0,0.0,1.0,Taxi
33.9,-0.01927213864624258,-9.63308449754387,14.067493528486876,1.7676856367939,0.24129039588382953,205.4971361343778,22.084461485675668,0.0,1.0,0.0,0.0,1.0,Taxi
34.0,0.010960441668401228,-22.29954788183771,14.591202439523896,1.6640724446011461,-0.31854465523622627,205.58632333571484,22.71229674129346,0.0,1.0,0.0,0.0,1.0,Taxi
34.1,-0.09363278336351008,16.163946205847676,15.503203188499386,1.3232953865753212,-0.14613622565628742,205.61828547058462,22.411333911097664,0.0,1.0,0.0,0.0,1.0,Taxi
34.2,0.061547592382995946,27.292710847311255,14.038978915751063,1.5377681284674751,-0.48505496496879813,205.46533160268496,22.835153828172608,0.0,1.0,0.0,0.0,1.0,Taxi
34.300000000000004,0.14742399590495767,2.5905950752249303,14.046805160987057,2.0812386936719514,-0.7956302581775684,205.50679323464033,23.38005628575258,0.0,1.0,0.0,0.0,1.0,Taxi
34.4,-0.08067980798738522,-8.853099456618347,13.880124070371307,2.0596465060132614,0.11520417598916027,205.45899060375007,22.16584253840506,0.0,1.0,0.0,0.0,1.0,Taxi
34.5,0.0172820950999044,-16.022831135750646,13.544376555532525,1.6902834974715197,0.7962017714367576,205.51878774032548,22.461708581991,0.0,1.0,0.0,0.0,1.0,Taxi
34.6,0.0673098402262046,-4.30920695668982,13.428058797808564,1.5229995545189783,-0.16641163018798155,205.35045389238257,22.40746935138644,0.0,1.0,0.0,0.0,1.0,Taxi
34.7,-0.1022258427708342,36.231887762611315,13.725661833834513,1.4842241195381702,-0.5445203925578823,205.55250413733393,22.809493810530466,0.0,1.0,0.0,0.0,1.0,Taxi
34.800000000000004,0.19844153391296113,-11.613959316787216,14.211188174879966,1.4116665098894008,-0.4570851550286058,205.53626716548774,23.234803592722606,0.0,1.0,0.0,0.0,1.0,Taxi
34.9,0.009240043642268655,21.443064803782548,13.54764102568395,1.6748138949730211,-0.47605978464930565,205.67694004773045,22.816382804070454,0.0,1.0,0.0,0.0,1.0,Taxi
35.0,0.004989481248078681,-60.08743281804078,14.447424819760213,1.712347763268813,0.15427713778605995,205.58773828887502,22.605909289123645,0.0,1.0,0.0,0.0,1.0,Taxi
35.1,-0.10199563017724265,-33.57356820067944,13.47190077389461,1.5570660127382616,-0.37938553513871637,205.45582603991124,22.091997329116335,0.0,1.0,0.0,0.0,1.0,Taxi
35.2,-0.15862779736112842,-7.4050465773847804,14.437697951956144,1.6230011844685308,-0.8167853041917167,205.46402787109992,22.570986982394395,0.0,1.0,0.0,0.0,1.0,Taxi
35.300000000000004,-0.03203575163884508,16.270922466866562,14.062894761954528,1.4048084290023874,-0.13658556418602893,205.4539790739674,22.66091106483384,0.0,1.0,0.0,0.0,1.0,Taxi
