time_s,altitude_ft,vertical_speed_fpm,ias_kt,pitch_deg,roll_deg,heading_deg,throttle_pct,afterburner_on,gear_down,flaps_deg,speedbrake_pct,weight_on_wheels,label
0.0,-0.0850563253162318,13.588877602393497,22.10251552755094,1.7061886515539277,0.4231466909316852,255.6144002051377,14.88517473582511,0.0,1.0,0.0,0.0,1.0,Taxi
0.1,-0.039760066641586815,25.366138307681897,22.233235519908796,1.6846205439563295,-0.2668900810248395,255.44971779658442,15.06045297729711,0.0,1.0,0.0,0.0,1.0,Taxi
0.2,0.04177436622217767,21.105181576261543,20.9069687470004,1.2793060308860489,0.6999459533883292,255.386674760436,14.526356783142518,0.0,1.0,0.0,0.0,1.0,Taxi
0.30000000000000004,0.02046958256507591,0.21509686733919864,22.419751700944744,1.9162445065957392,-0.17608719953395544,255.42136112005414,14.030304224908361,0.0,1.0,0.0,0.0,1.0,Taxi
0.4,-0.03868458230489083,15.122219198139021,21.569274827294326,1.472488549064972,-0.11689786578827582,255.4076758444529,14.684903817411996,0.0,1.0,0.0,0.0,1.0,Taxi
0.5,0.11738546221287278,-49.245061269411536,22.404094721328676,1.7475374071734968,0.32921204987686253,255.4708357471426,14.148801703829564,0.0,1.0,0.0,0.0,1.0,Taxi
0.6000000000000001,-0.22575572378198175,31.96446038495787,21.09308878607158,1.381816165328609,0.08249084081807542,255.49944927953106,14.502447358457715,0.0,1.0,0.0,0.0,1.0,Taxi
0.7000000000000001,0.12113771961989857,-10.49383793048176,22.07240848413945,1.9941396994870872,0.6781484037649173,255.3024307051419,14.739629580233618,0.0,1.0,0.0,0.0,1.0,Taxi
0.8,0.06491627256046405,78.3706746904384,22.007284162479824,1.7761947435040588,0.7934667398039422,255.63260198329635,14.421805752752261,0.0,1.0,0.0,0.0,1.0,Taxi
0.9,0.16609764967021035,-53.90237301347745,21.658044236982224,1.8600516917446224,0.5299892022269648,255.28401496905212,14.842796074886138,0.0,1.0,0.0,0.0,1.0,Taxi
1.0,-0.14837414544748873,-8.644047869458623,22.931265833318847,1.8858490643712105,-0.16561269575249796,255.50408048073052,14.883426380312383,0.0,1.0,0.0,0.0,1.0,Taxi
1.1,0.02169603321317089,-46.64933968191112,21.291986011311067,1.4590287332846303,0.03368772431185049,255.57726961625121,14.97875173934369,0.0,1.0,0.0,0.0,1.0,Taxi
1.2000000000000002,-0.06714904873934531,15.679700549712996,21.25536103955222,1.868497681274119,-0.5622382773536049,255.46131647874586,14.441969784381778,0.0,1.0,0.0,0.0,1.0,Taxi
1.3,-0.06997564269892374,12.718915456675148,21.858527121744185,1.1762868790644578,-0.4019120210237126,255.6197218487249,15.252149815083751,0.0,1.0,0.0,0.0,1.0,Taxi
1.4000000000000001,0.08529061049654664,44.230896061181475,22.071659663047058,1.56654753730945,0.009482761868764972,255.44061863468824,14.435569490959983,0.0,1.0,0.0,0.0,1.0,Taxi
1.5,0.15400543156656207,22.320613461436977,22.977056889945274,1.9047368640738997,-0.3075748596187515,255.29563122999093,14.092655980538659,0.0,1.0,0.0,0.0,1.0,Taxi
1.6,0.04162742460826113,2.7785148265664597,22.357375244096087,1.6045205742730293,0.6456647490798749,255.53672880631598,14.625836044521865,0.0,1.0,0.0,0.0,1.0,Taxi
1.7000000000000002,0.09918318462937896,-18.152367330356924,22.07207779800528,1.677716525974645,0.5420413213797204,255.30340267093743,15.221746338921042,0.0,1.0,0.0,0.0,1.0,Taxi
1.8,0.06324359491477748,-2.5497056753499394,21.96118684066365,1.8076011385967994,-0.4214811826133908,255.37014752819323,14.925040488060157,0.0,1.0,0.0,0.0,1.0,Taxi
1.9000000000000001,0.02887889623151146,10.680955906200097,21.39143968453597,1.4276765833628597,-0.21866349799009252,255.47458774406095,15.209824562432598,0.0,1.0,0.0,0.0,1.0,Taxi
2.0,0.15258796416037948,2.380798877090735,21.457597917843803,1.7616696866603758,-0.3904904783994684,255.3103914167225,15.58530206928899,0.0,1.0,0.0,0.0,1.0,Taxi
2.1,0.07514758930023119,20.41524603419354,21.792644936186154,1.5592938625877786,-0.8056167795236069,255.3637358120751,13.829520294150306,0.0,1.0,0.0,0.0,1.0,Taxi
2.2,0.1309551264024792,-24.66153567493099,21.320498086861303,1.8950952419983909,0.2467873605095294,255.40968488165254,14.04482221089239,0.0,1.0,0.0,0.0,1.0,Taxi
2.3000000000000003,0.029280285785724572,-18.579024528111912,21.908255140648205,1.7553381002519322,0.12667229085242435,255.45731963265484,14.817004054357103,0.0,1.0,0.0,0.0,1.0,Taxi
2.4000000000000004,-0.017747533340328334,-36.65480154031591,22.251733466360182,1.829826411293854,-0.1139159710050313,255.39370762631506,14.663923817299581,0.0,1.0,0.0,0.0,1.0,Taxi
2.5,-0.05231888129910031,-6.996267307008719,22.022279488240986,1.5330256687569581,0.6591726276471785,255.31938820333448,14.529948474469474,0.0,1.0,0.0,0.0,1.0,Taxi
2.6,-0.005701050749318996,5.119999357106637,22.192350174066288,1.5816855716907112,0.46832377803191527,255.40051175306553,15.247107647951653,0.0,1.0,0.0,0.0,1.0,Taxi
2.7,0.007852463445204875,20.14008061956132,23.024022568958237,1.8978075117680275,0.40083374308178044,255.55600968339002,15.734735880037016,0.0,1.0,0.0,0.0,1.0,Taxi
2.8000000000000003,0.048381521798706306,39.78664398399418,21.952499813329432,1.6425487512370092,-0.599143953823658,255.48624955092157,15.089144462034138,0.0,1.0,0.0,0.0,1.0,Taxi
2.9000000000000004,0.19323216917065192,6.515474067527852,21.989878392844705,1.170753193239481,-0.5138614940658047,255.42696642479223,14.694230496564948,0.0,1.0,0.0,0.0,1.0,Taxi
3.0,0.040429833782844156,-27.770299047153486,21.46313746947446,1.3916739274079255,1.0229811849558235,255.55146813846977,15.642879722930008,0.0,1.0,0.0,0.0,1.0,Taxi
3.1,-0.09046997343706112,-18.172349042598157,22.003289400022293,1.2688291070050526,-0.244134951123397,255.3674112046375,15.88079637309712,0.0,1.0,0.0,0.0,1.0,Taxi
3.2,0.10237042395766116,-14.794483509538628,20.488956518771936,1.412036634437313,-0.16896441477100219,255.40621811462051,14.800560512419592,0.0,1.0,0.0,0.0,1.0,Taxi
3.3000000000000003,-0.033542583764848984,22.051939047053427,23.523056533447313,1.5740465080067534,-0.35432556361762235,255.38761201735247,14.88809929987719,0.0,1.0,0.0,0.0,1.0,Taxi
3.4000000000000004,0.019789721798206032,-40.69179163877143,21.56900971606499,1.4842078920221617,0.5117603735087782,255.4874185878275,15.114109699381908,0.0,1.0,0.0,0.0,1.0,Taxi
3.5,-0.10108853423619597,23.05047841093138,20.800945105418975,1.4941523661235552,-0.5887833645296412,255.4877016479811,14.303859762623953,0.0,1.0,0.0,0.0,1.0,Taxi
3.6,0.08170980828980795,3.5940422844889355,21.791932728559196,1.5598645245355687,1.2921065514436443,255.4652134400119,14.596772652138688,0.0,1.0,0.0,0.0,1.0,Taxi
3.7,0.037759933220650736,34.29757494423085,21.375911015567933,1.9794294247722308,0.33867191145979375,255.5351655650818,15.160436690732064,0.0,1.0,0.0,0.0,1.0,Taxi
3.8000000000000003,0.07039934048495833,-42.47470337790859,21.268985378425747,1.6601721986395224,-0.7686397010563436,255.52870860415612,14.186034736083993,0.0,1.0,0.0,0.0,1.0,Taxi
3.9000000000000004,-0.13066370859973495,-2.741231759185922,21.923642000046225,1.6645843152775264,0.8265599708992947,255.39740049512147,15.015457761217041,0.0,1.0,0.0,0.0,1.0,Taxi
4.0,0.024053774424721164,16.564009381590278,21.295351861197354,1.5543970473771107,0.3779792580836865,255.3144838777763,15.477738798809936,0.0,1.0,0.0,0.0,1.0,Taxi
4.1000000000000005,0.15321938739290974,17.391094066658464,21.576203415389386,1.768155182059769,0.16047064707648911,255.29513031232023,15.408471737474033,0.0,1.0,0.0,0.0,1.0,Taxi
4.2,-0.04370823826644263,-10.323194232329449,21.287620035102883,1.897257161891522,-0.5694210829442895,255.30290122991312,13.810352834215413,0.0,1.0,0.0,0.0,1.0,Taxi
4.3,-0.02756219673692605,-40.266096221731594,21.93706910114154,1.5575731088469427,-0.18587161067700286,255.40637139833098,14.936330350615007,0.0,1.0,0.0,0.0,1.0,Taxi
4.4,-0.04811109371574819,2.861463295447266,23.27970526131298,1.4251760657892452,-0.19283990660491188,255.3562450617037,14.236098430341801,0.0,1.0,0.0,0.0,1.0,Taxi
4.5,-0.029400921789206287,-7.248331355857204,22.4108968184109,1.6380685390131084,0.2571191688206184,255.5060899754891,15.6695104595322,0.0,1.0,0.0,0.0,1.0,Taxi
4.6000000000000005,-0.06380385351621205,18.53148114260938,23.029655041372713,1.5409796111413108,0.054860061163006194,255.41399086874912,14.55207165194974,0.0,1.0,0.0,0.0,1.0,Taxi
4.7,0.04454631199729872,27.10961285683399,20.451808509193327,1.6150860126326896,-0.0709650329204178,255.34858800221082,13.937636532807701,0.0,1.0,0.0,0.0,1.0,Taxi
4.800000000000001,0.1061471424949637,12.985901025505783,21.270966736285985,1.7702126106583478,0.3573010038616668,255.4941425796643,14.967041695422811,0.0,1.0,0.0,0.0,1.0,Taxi
4.9,0.0011256516113168817,-7.088982034856104,21.003557538036834,2.015710564190976,-0.6088304314665692,255.487418207696,16.402723296210574,0.0,1.0,0.0,0.0,1.0,Taxi
5.0,0.009101401823018216,5.229874791007646,21.900538003781698,1.2968417016606835,0.45214703011954044,255.45351488561528,14.826141345144807,0.0,1.0,0.0,0.0,1.0,Taxi
5.1000000000000005,0.13229651645000193,24.731544586112307,22.324287904778075,1.2458393092379123,-0.35358789642697447,255.4314088614069,15.44314679378354,0.0,1.0,0.0,0.0,1.0,Taxi
5.2,0.1247833745418784,-5.313548454676483,22.294284746329183,1.532619422872643,0.7056883854207997,255.47194630663853,14.671219684869635,0.0,1.0,0.0,0.0,1.0,Taxi
5.300000000000001,-0.01746634045036422,-29.800532895521044,21.33152376602661,1.748664881182825,-0.6899138285870184,255.4806319712511,15.582877500472847,0.0,1.0,0.0,0.0,1.0,Taxi
5.4,-0.016706148027603306,-18.90936086528894,21.446792826850388,1.586763138112363,-0.25570758811821154,255.50433705205,14.060356091702447,0.0,1.0,0.0,0.0,1.0,Taxi
5.5,0.030236570215433713,-28.721455513296934,20.82871665162409,1.532546664645806,-0.11231915135695446,255.5622536208199,14.715575949706146,0.0,1.0,0.0,0.0,1.0,Taxi
5.6000000000000005,-0.16107361801684889,30.28140697958906,21.74508102902117,1.9337577100161663,-0.1737354226331855,255.34597620894988,14.21236185412094,0.0,1.0,0.0,0.0,1.0,Taxi
5.7,0.13470088687034198,12.897294864536647,22.047658631164254,1.8431069961200788,0.1546372239032262,255.57081843009473,15.070517064033464,0.0,1.0,0.0,0.0,1.0,Taxi
5.800000000000001,0.09472304453811693,45.152178395557655,22.475262557793204,1.5499959248118271,-0.7853106027345904,255.57794657654608,14.467497145529396,0.0,1.0,0.0,0.0,1.0,Taxi
5.9,0.0646872739609394,-58.76962987569368,21.72970882720694,1.6390874766666927,0.42683610604348887,255.5052993292312,15.337113706901544,0.0,1.0,0.0,0.0,1.0,Taxi
6.0,-0.15914726250812639,-20.19809259563505,22.481319498066377,1.6581876759768641,0.87453859451838,255.47522720518702,14.398246652711608,0.0,1.0,0.0,0.0,1.0,Taxi
6.1000000000000005,-0.006267418440058264,-26.93334277605037,21.27480817929672,1.7430289655842273,-0.6454247709430417,255.31822086069872,15.123400810055253,0.0,1.0,0.0,0.0,1.0,Taxi
6.2,-0.06997943991931242,22.85169038230384,22.34818996887589,1.516063238669688,-0.8525878661650278,255.35276489616342,14.389987933808195,0.0,1.0,0.0,0.0,1.0,Taxi
6.300000000000001,-0.04488881059660716,1.899945825025507,21.61153841888824,1.545877969175134,0.16048964053169779,255.52626953665526,14.240986996599727,0.0,1.0,0.0,0.0,1.0,Taxi
6.4,0.003232310685069282,27.502103980755567,22.29380560405354,1.4530509237220706,0.43221530948988957,255.28721882431284,15.449913963082869,0.0,1.0,0.0,0.0,1.0,Taxi
6.5,0.06753107998446543,67.48396949787178,21.68204949221938,1.2374315378468963,-0.5752907153625153,255.56583135819017,14.34617181332922,0.0,1.0,0.0,0.0,1.0,Taxi
6.6000000000000005,0.2925310368927518,7.808737822450875,21.584048398710042,1.8282922995386963,-0.11515418916303807,255.5298763032108,15.02831884813301,0.0,1.0,0.0,0.0,1.0,Taxi
6.7,0.0422759997973237,10.583355177024872,22.478622859288546,1.7631791239960553,0.28757817088457466,255.52841764258847,15.191909133438998,0.0,1.0,0.0,0.0,1.0,Taxi
6.800000000000001,0.12044785586958982,-41.53527954671713,21.407008036758892,1.7534557658289616,0.2717079125639085,255.66016977565994,15.434040644582126,0.0,1.0,0.0,0.0,1.0,Taxi
6.9,0.08485463915916618,18.488757966708324,22.317051075603928,1.6941226183237734,0.04678595728545853,255.49770319298625,14.285937057624462,0.0,1.0,0.0,0.0,1.0,Taxi
7.0,0.13471978963086534,-9.42428860725296,21.068129218365538,1.6111909758925573,-0.14585423252986168,255.37067396452278,15.204014674379925,0.0,1.0,0.0,0.0,1.0,Taxi
7.1000000000000005,0.07332641283332506,-4.086932883173966,22.07427995184839,1.7923991696088424,1.4763210607903727,255.35510025904784,14.336340969381519,0.0,1.0,0.0,0.0,1.0,Taxi
7.2,0.06441997474329637,-6.5801587666406585,21.88484989452653,1.5129958710695532,0.2119630911519481,255.37770971408122,14.341291937182957,0.0,1.0,0.0,0.0,1.0,Taxi
7.300000000000001,0.10181899579766207,10.34170377044658,22.432696803897468,1.5091987727747438,-0.49313539006033513,255.37657307351105,15.06920005705025,0.0,1.0,0.0,0.0,1.0,Taxi
7.4,0.125034931685558,12.99123822271948,21.71746494352343,1.2556679442351295,0.05031662319801687,255.34893068281986,14.352736876608159,0.0,1.0,0.0,0.0,1.0,Taxi
7.5,0.1293761658568938,-14.390977519957806,20.93161865912111,1.3836579624047782,-0.3322679714664217,255.3998603056425,14.564266858499156,0.0,1.0,0.0,0.0,1.0,Taxi
7.6000000000000005,0.02986410819787308,-1.4972777011812255,22.631834944886307,1.3825101028062168,-0.1555543073364306,255.46793762241043,13.822792111667885,0.0,1.0,0.0,0.0,1.0,Taxi
7.7,0.1175485431796519,-45.73720986442978,23.21161931494825,1.4616297801810556,-0.262925227533839,255.6533074186858,15.072061602126938,0.0,1.0,0.0,0.0,1.0,Taxi
7.800000000000001,-0.0993098834652551,2.7763063335174345,22.20905672579706,1.4855680011711612,0.8351746312747649,255.69228558083,14.806435247030103,0.0,1.0,0.0,0.0,1.0,Taxi
7.9,0.04374563986546024,-22.344012779056843,22.746280195176805,1.804851831539356,-0.710818293856337,255.39689671975134,14.769360740191749,0.0,1.0,0.0,0.0,1.0,Taxi
8.0,0.005828479284367666,6.533540910426564,22.75337867068361,1.3263329372051977,-0.2547949287232624,255.5122773478056,15.199156804863156,0.0,1.0,0.0,0.0,1.0,Taxi
8.1,-0.06664217891312227,8.570772368060133,22.308193926429404,1.5209411779664848,1.2004445223159363,255.4761969302889,14.933862824397867,0.0,1.0,0.0,0.0,1.0,Taxi
8.200000000000001,0.08659950170576088,22.611800240417555,22.526019820345287,1.898880395234675,-0.9409643540509688,255.33183218044837,14.469300248266098,0.0,1.0,0.0,0.0,1.0,Taxi
8.3,0.11888748048645544,30.315418534134235,21.983103803660548,1.62552429412574,0.3757391567249998,255.39912579145607,15.058940980534908,0.0,1.0,0.0,0.0,1.0,Taxi
8.4,0.08493491375754889,-22.00675993881438,22.910364530004397,1.5854224538195218,-0.24598987468946107,255.3399720110915,15.788415386884383,0.0,1.0,0.0,0.0,1.0,Taxi
8.5,-0.023434297988310995,-9.888599923096455,22.780111753184187,1.4256370236658078,0.18349398051356233,255.59198329774802,14.726383939073335,0.0,1.0,0.0,0.0,1.0,Taxi
8.6,0.06944448087097317,-36.45796369881024,22.04813759598402,1.510600177178349,-0.3454401327225173,255.46005226252032,15.547645115946413,0.0,1.0,0.0,0.0,1.0,Taxi
8.700000000000001,-0.09735490473650228,-16.713808344125496,22.47955287832321,1.6667877320903035,-0.13058623256429247,255.4717761387534,14.78730930823194,0.0,1.0,0.0,0.0,1.0,Taxi
8.8,-0.10700333970893844,6.543806685462305,21.83298387854856,1.7344551606702723,0.10171247316351588,255.38034971526793,15.404780309636493,0.0,1.0,0.0,0.0,1.0,Taxi
8.9,0.10216351429828473,21.31040891123254,22.800909761267192,1.6186966637468037,0.2666337236993934,255.47079662972806,14.8312741973759,0.0,1.0,0.0,0.0,1.0,Taxi
9.0,0.009197139819660445,51.27613478639813,22.977009333371523,1.5581940623504633,-0.05660107601449263,255.58637235226104,14.76501557001023,0.0,1.0,0.0,0.0,1.0,Taxi
9.1,0.14937733422305227,-43.50066355395253,21.3717207304176,1.7488435252190537,-0.7123718837982851,255.32320264088094,15.121784528595706,0.0,1.0,0.0,0.0,1.0,Taxi
9.200000000000001,-0.11533980347147786,29.691461841141535,22.56014129240559,1.6423678914366928,0.04075268184246521,255.4514857935577,14.653329330410221,0.0,1.0,0.0,0.0,1.0,Taxi
9.3,0.15765444902536815,-24.410459688186254,22.211154525331757,1.6408888115124387,0.49624884402244673,255.44337682337562,15.478250799980966,0.0,1.0,0.0,0.0,1.0,Taxi
9.4,0.02732503578212102,31.842380050986517,21.661532015167623,1.8815977218544901,-0.22491145943530644,255.4196215085692,14.424385705829971,0.0,1.0,0.0,0.0,1.0,Taxi
9.5,0.043872096783454745,-25.93046250459292,21.727799434405473,1.2603184766076523,-0.09821804228237013,255.31324873669337,15.222847209832457,0.0,1.0,0.0,0.0,1.0,Taxi
9.600000000000001,0.028002136502403602,8.314644096251643,22.00073790394995,1.681401078040657,-0.2904796310433982,255.61169281060563,14.582954642928213,0.0,1.0,0.0,0.0,1.0,Taxi
9.700000000000001,0.06889825626337928,-10.317745814671584,22.084099106868774,1.1684702602755754,-0.18215155880856987,255.27548362309767,14.499946770902998,0.0,1.0,0.0,0.0,1.0,Taxi
9.8,-0.007716632289903137,17.411925899804547,20.729975411755582,1.3130643375239508,-0.37057910686345485,255.4006409123781,14.827089827902178,0.0,1.0,0.0,0.0,1.0,Taxi
9.9,0.11506176600142637,-22.176349511398048,21.234163773772075,1.6690053965261757,0.27348275931359367,255.46736478806588,14.704826557651032,0.0,1.0,0.0,0.0,1.0,Taxi
10.0,-0.04198349129361092,-18.078423744462935,20.959477681445883,1.1392503765789894,-0.14874464367331194,255.5043942933845,15.273641229307747,0.0,1.0,0.0,0.0,1.0,Taxi
10.100000000000001,-0.09810875101221778,3.2005502634993186,22.0157093359558,2.032350802732026,-0.36142196058200965,255.3803164128301,14.487186152785927,0.0,1.0,0.0,0.0,1.0,Taxi
10.200000000000001,0.13106451731892305,66.57610323087373,22.70092768520618,1.3250360913699009,0.3331189592049894,255.46025143035365,15.069501117748983,0.0,1.0,0.0,0.0,1.0,Taxi
10.3,0.2908970248607578,-37.498192181275066,22.91789891842401,1.5170979492210268,0.4121935241439697,255.26615214419428,15.16092176278855,0.0,1.0,0.0,0.0,1.0,Taxi
10.4,-0.2855997119185929,8.69556155574916,22.23015853396352,1.5580935147937243,0.16636389221016215,255.52182971859588,15.090938970628034,0.0,1.0,0.0,0.0,1.0,Taxi
10.5,0.174542325097669,-41.45994768118036,21.983640664680735,1.3873591126270097,-0.18206779108390017,255.30540985173343,15.19382048697147,0.0,1.0,0.0,0.0,1.0,Taxi
10.600000000000001,0.08359728645485617,44.40282466749979,22.834477621976646,1.7894443933182111,-0.11880100005946037,255.364530172502,15.14715823476916,0.0,1.0,0.0,0.0,1.0,Taxi
10.700000000000001,-0.06358558858109391,-30.073671753535468,20.84655570877405,1.5223316595793186,0.3034339963434044,255.357332664689,14.811507216536238,0.0,1.0,0.0,0.0,1.0,Taxi
10.8,0.024173966329991706,-21.14131370322323,22.239178416178802,1.8095777416368235,-0.3038266302278412,255.5004515677416,14.43121529847686,0.0,1.0,0.0,0.0,1.0,Taxi
10.9,-0.022109282061259936,48.4242975618745,21.678773693946365,1.6084559998754624,0.16232559825335927,255.51796857531826,14.750171089965303,0.0,1.0,0.0,0.0,1.0,Taxi
11.0,0.17853589922827862,26.175003893070738,22.450856237064926,1.8092042080364448,-0.1364946716424423,255.4446997555608,14.902045587172346,0.0,1.0,0.0,0.0,1.0,Taxi
11.100000000000001,0.1550489857953454,-6.746884215733435,23.55449574913819,1.9848133948513984,0.17024531637573212,255.58931865095417,14.20422725336049,0.0,1.0,0.0,0.0,1.0,Taxi
11.200000000000001,-0.05584370313992709,-63.95677330840729,22.836718804366814,1.873848025168688,0.00339185253809505,255.43349852557276,14.941311523117104,0.0,1.0,0.0,0.0,1.0,Taxi
11.3,-0.14124796731375777,-38.10508722806578,21.6724158180682,1.7365506977464578,0.8135862411096344,255.26483845166524,15.382339550962675,0.0,1.0,0.0,0.0,1.0,Taxi
11.4,-0.03547645034498341,10.023667799855266,21.661607671002706,1.643922529564299,-0.10223236744612395,255.50420412604944,14.600398067420793,0.0,1.0,0.0,0.0,1.0,Taxi
11.5,-0.005725364140650726,49.94454502099067,21.314623805389054,1.5865338090150978,-0.09255269299269529,255.40213939318244,14.588624435090274,0.0,1.0,0.0,0.0,1.0,Taxi
11.600000000000001,0.1084747577911956,18.06211352670558,22.77101450026187,2.0015032885049426,1.0078352576005585,255.49626543217732,14.263027066622408,0.0,1.0,0.0,0.0,1.0,Taxi
11.700000000000001,0.054834117288544516,25.112436223558365,22.36088851510149,1.798738473470832,-0.1241487623247623,255.36004699955186,14.868128774215123,0.0,1.0,0.0,0.0,1.0,Taxi
11.8,0.11983681697714117,-28.565791708410654,22.076365943580438,1.6552641335256602,0.07614288536936124,255.4593534235339,14.438830679828905,0.0,1.0,0.0,0.0,1.0,Taxi
11.9,-0.03435420075085761,4.655500943341946,22.46214019028441,1.0948030771322834,0.25256046180335456,255.55933811996113,15.332400882085077,0.0,1.0,0.0,0.0,1.0,Taxi
12.0,0.0781116220052543,-24.115200535801126,22.06142687316242,1.817740818873137,0.7164933339479358,255.44881376853505,14.362659122717428,0.0,1.0,0.0,0.0,1.0,Taxi
12.100000000000001,-0.0007391857018644195,43.76715778532675,22.237130104370273,1.7913611427495169,0.139736463922604,255.429270572851,15.850747143436509,0.0,1.0,0.0,0.0,1.0,Taxi
12.200000000000001,0.18448158817577617,-41.84205553152499,21.879422967630298,1.993149112086445,0.2629781036239019,255.48677116376098,14.535706184382917,0.0,1.0,0.0,0.0,1.0,Taxi
12.3,-0.13109865565237064,-8.432406733875228,22.31563460460198,1.414296036528322,0.5666668013475277,255.44555297545696,15.547430866856114,0.0,1.0,0.0,0.0,1.0,Taxi
12.4,-0.04290121937124056,-73.93312472717275,21.535796382326993,1.8509553452733638,-0.10224826514232134,255.4271128207347,15.60497877526045,0.0,1.0,0.0,0.0,1.0,Taxi
12.5,-0.18518403546008755,48.12330521831205,21.507156501390266,1.753233641497992,-0.7942332518090661,255.22989259773567,14.905714234497854,0.0,1.0,0.0,0.0,1.0,Taxi
12.600000000000001,0.10951787043918966,11.971193030222858,21.741425124175148,1.1413228681657475,1.3797813052243162,255.3147763931695,14.852311845684707,0.0,1.0,0.0,0.0,1.0,Taxi
12.700000000000001,0.0169547457798738,43.113475183733065,22.28477634087466,1.6627879391018303,-0.08129365379369066,255.36182632074463,15.417363837774511,0.0,1.0,0.0,0.0,1.0,Taxi
12.8,0.030383340458577875,-33.01649020947303,21.90426194825625,2.0645744754897715,-0.0505302089649224,255.4929049709242,14.943543329494265,0.0,1.0,0.0,0.0,1.0,Taxi
12.9,-0.05556458060817537,7.921095624754145,21.480351388369893,1.6141316180690621,-0.0359021987187171,255.44955951426755,14.322794239891017,0.0,1.0,0.0,0.0,1.0,Taxi
13.0,0.05656022390364462,15.442523946698772,23.094214103619752,1.5912532097891956,-0.5496367778669875,255.43895765080265,13.92782661185816,0.0,1.0,0.0,0.0,1.0,Taxi
13.100000000000001,0.10759596019207184,9.797398154271383,22.405257224638284,1.468754441691856,0.009600336894683308,255.524128505597,14.706859148266785,0.0,1.0,0.0,0.0,1.0,Taxi
13.200000000000001,-0.006577589836818363,-24.319821155348137,22.09217029752696,1.7067653663244156,-0.6966020628710904,255.23897139832638,14.487064521922722,0.0,1.0,0.0,0.0,1.0,Taxi
13.3,-0.06503888187309596,-45.23474275973589,22.265612247127148,1.4891011096334938,-0.0909021647066291,255.60187025074856,14.29647982159161,0.0,1.0,0.0,0.0,1.0,Taxi
13.4,-0.1185777536066075,-18.187240171151142,20.74559334643655,1.573733075949142,-0.5949061165369647,255.38181596178117,15.16558227004024,0.0,1.0,0.0,0.0,1.0,Taxi
13.5,-0.09751379069257397,10.404024031836409,22.895806489795717,1.6330502720405735,-0.4840986494910811,255.43881331235832,14.413929667662538,0.0,1.0,0.0,0.0,1.0,Taxi
13.600000000000001,-0.013018761713913828,3.298003386309373,21.951670373890202,1.8884441873458644,0.1802391329267258,255.45690186853926,14.760488615603673,0.0,1.0,0.0,0.0,1.0,Taxi
13.700000000000001,-0.10208773667506055,41.81785441309919,21.813993035554635,1.5858959894486708,0.06678821892252892,255.38757067937843,14.367407486212592,0.0,1.0,0.0,0.0,1.0,Taxi
13.8,0.11157548137292209,-36.65342221136988,21.96926475157102,1.558184223816124,-0.558007392444741,255.5349860402763,14.39540402474334,0.0,1.0,0.0,0.0,1.0,Taxi
13.9,-0.19628587277076315,12.688423617185215,22.19935917088875,1.5601038347424867,-0.47687062202486424,255.5133565098239,14.155458093086681,0.0,1.0,0.0,0.0,1.0,Taxi
14.0,-0.03864561858913441,-26.473497953867476,23.076840192702125,1.6966544561378787,0.1998475275053222,255.4473539557905,15.364026063384944,0.0,1.0,0.0,0.0,1.0,Taxi
14.100000000000001,-0.020792008396415262,44.008146483064365,21.499722507155223,1.6398901244270452,-0.16458695181256286,255.40305356295733,15.604603219844954,0.0,1.0,0.0,0.0,1.0,Taxi
14.200000000000001,0.02375485964455873,47.02128250339593,22.26192910936946,1.8268818788644086,-0.7503414393353666,255.29765865191985,15.174522557447832,0.0,1.0,0.0,0.0,1.0,Taxi
14.3,0.19646079392784532,-0.5732962427942709,22.49111388475482,1.4254326332290108,0.1557098890964346,255.7885578308933,14.807535552425554,0.0,1.0,0.0,0.0,1.0,Taxi
14.4,-0.0236584896103866,-41.76113484238093,21.13816274589109,1.5065197399551329,-0.00826711285991079,255.35709376415105,15.447588633903912,0.0,1.0,0.0,0.0,1.0,Taxi
14.5,-0.1850508145673459,-22.786684101603964,21.629139290789666,1.5285224010817313,-0.5627649696137824,255.5299502898573,14.912845595829243,0.0,1.0,0.0,0.0,1.0,Taxi
14.600000000000001,0.08252737341982559,-3.793528081721154,22.78111255662227,1.9949543640868634,-0.2526242683436907,255.38781971693948,15.305840943797765,0.0,1.0,0.0,0.0,1.0,Taxi
14.700000000000001,-0.04262613001899228,41.911176673073754,23.007410279960844,1.620352489089192,0.09682894541188902,255.26855766370136,14.791606440783179,0.0,1.0,0.0,0.0,1.0,Taxi
14.8,0.024505068798022955,6.868141640933672,20.978778101487634,1.5327821981873055,0.03239491828228886,255.30802650237672,14.364363137104107,0.0,1.0,0.0,0.0,1.0,Taxi
14.9,0.11686808162449402,33.6265154629149,22.155873616910178,1.5438027587884726,-0.19346372607638412,255.4174960364594,14.285638905904738,0.0,1.0,0.0,0.0,1.0,Taxi
15.0,0.1255064472955823,4.27526867535492,22.01817650802849,1.5934182483883956,0.1672453795767,255.51730267531696,13.717677082404165,0.0,1.0,0.0,0.0,1.0,Taxi
15.100000000000001,0.045881412174797666,-33.51582898626655,22.569858840025706,1.5419721286041086,1.3182291325022513,255.4092554275403,14.577690029456377,0.0,1.0,0.0,0.0,1.0,Taxi
15.200000000000001,-0.05071106330683864,-35.8155257402237,21.80174889242868,1.960559864530771,-0.5627356163804281,255.26421085924608,15.205167568333328,0.0,1.0,0.0,0.0,1.0,Taxi
15.3,-0.05357118140553605,-6.04672610557031,21.386512579797202,1.5003064399727855,0.14886903698864604,255.49108752664984,14.680158940408601,0.0,1.0,0.0,0.0,1.0,Taxi
15.4,0.0156477816469462,-12.322597874069857,22.48403126827133,1.8014272167042222,-0.01072497589433861,255.46338747654113,14.653581552297798,0.0,1.0,0.0,0.0,1.0,Taxi
15.5,-0.11232405267718784,32.00946139517229,22.675663728438543,1.7862682405869503,0.19193001614585753,255.42678861292347,15.355825995884182,0.0,1.0,0.0,0.0,1.0,Taxi
15.600000000000001,0.10647612557032544,-1.9529999113790264,21.486525510392998,1.7566737729403246,0.40137298185468956,255.40360786174983,15.33860354649559,0.0,1.0,0.0,0.0,1.0,Taxi
15.700000000000001,0.005882782090051136,32.09892531487096,20.98577703273015,1.6248319688973123,-0.058036366781208736,255.3848874685409,14.829610542710704,0.0,1.0,0.0,0.0,1.0,Taxi
15.8,0.048170573897167036,-22.93454307390248,21.31678050409706,1.5031173696812319,0.2876571891372467,255.52506593999874,15.223403628360517,0.0,1.0,0.0,0.0,1.0,Taxi
15.9,-0.008196589799186877,-4.0306224380407745,21.91281518849679,1.6274467663233794,-0.6514861843758453,255.39018909042534,14.807354565992267,0.0,1.0,0.0,0.0,1.0,Taxi
16.0,-0.014270330100152646,-14.573200751538815,20.401699154298417,1.715576025666567,0.190741166369977,255.49158284542546,14.946272584871544,0.0,1.0,0.0,0.0,1.0,Taxi
16.1,-0.024695429860526946,3.836394872173315,21.851025270001575,1.768356413168202,1.1806064066773148,255.29794796433703,14.663998668156605,0.0,1.0,0.0,0.0,1.0,Taxi
16.2,0.01098538456167979,-9.045976710394335,21.611116501504362,1.4450376364076156,-0.9989753481264012,255.51047202859274,15.570264634780413,0.0,1.0,0.0,0.0,1.0,Taxi
16.3,-0.05950021365212424,20.12068912310715,22.80795914131338,1.585759649107032,-0.352543378621168,255.21916602081376,15.215311870362148,0.0,1.0,0.0,0.0,1.0,Taxi
16.400000000000002,0.07590801575500888,19.906843952741056,21.728369620845395,1.6397253304709822,-0.6175556489675817,255.34105604890044,15.41226788717814,0.0,1.0,0.0,0.0,1.0,Taxi
16.5,0.11051960432538516,15.095344701212275,22.204766766005818,1.4379088598364407,0.23454299172564827,255.54927486047632,15.30438324757598,0.0,1.0,0.0,0.0,1.0,Taxi
16.6,0.015976509853937195,-27.00411632884043,20.874357558435413,2.1462528961596936,-0.2968804135621591,255.623803709473,14.620490374528838,0.0,1.0,0.0,0.0,1.0,Taxi
16.7,-0.059112565889193204,-18.033190638928005,21.82643289639792,1.7259879225103476,-0.5670232069040265,255.35626768838995,14.946480671135294,0.0,1.0,0.0,0.0,1.0,Taxi
16.8,0.02035365113074518,30.684997470012018,22.442991725769133,1.5822620207864593,0.43263571051539434,255.52618990370286,15.080196771637508,0.0,1.0,0.0,0.0,1.0,Taxi
16.900000000000002,0.16940149720399736,22.462648584680466,22.039172996530382,1.6328649586538169,0.5409101010245053,255.5446436385514,15.388389681068873,0.0,1.0,0.0,0.0,1.0,Taxi
17.0,0.05320067703420918,16.2428970174657,22.06139255071941,1.8317600511371588,-0.43524681939411675,255.29264832281024,15.462973347313604,0.0,1.0,0.0,0.0,1.0,Taxi
17.1,0.10156813621807377,9.032013307164393,22.65992171701554,1.3595606273446037,0.30657044803095757,255.45737308700973,14.599254684675348,0.0,1.0,0.0,0.0,1.0,Taxi
17.2,0.21456156373981938,-11.867594491838512,20.74975252051435,1.940734618140069,-0.9682659918069253,255.36959428367618,14.808938421285294,0.0,1.0,0.0,0.0,1.0,Taxi
17.3,-0.006137295424983327,-39.31533878259571,23.199560232460975,1.7024337125700044,0.2602685403772173,255.40435336506482,14.456497634426754,0.0,1.0,0.0,0.0,1.0,Taxi
17.400000000000002,-0.09500855769490471,-19.22932486558351,21.597293581829458,1.703058319731757,0.296484145009557,255.3485475968348,14.082791439780415,0.0,1.0,0.0,0.0,1.0,Taxi
17.5,0.11841493941190191,-12.313284960464761,22.962524967453394,1.8428632919838999,0.24015569581000934,255.43534414211138,15.0826089379431,0.0,1.0,0.0,0.0,1.0,Taxi
17.6,-0.067703720227307,-19.335548159229937,22.57589835615272,1.6914613186424396,-0.05247421642801997,255.42933987456456,14.346626691900392,0.0,1.0,0.0,0.0,1.0,Taxi
17.7,-0.19168629849105426,-24.41127271925734,21.11951855809976,1.77824591153407,0.24975611928494618,255.56760323428875,14.1355498964883,0.0,1.0,0.0,0.0,1.0,Taxi
17.8,-0.00364142418438468,4.653141875048907,22.385364471042983,1.7479916928926753,-0.4514415131724094,255.3518944930504,14.531444477565453,0.0,1.0,0.0,0.0,1.0,Taxi
17.900000000000002,-0.04443801085206238,33.94784100866817,22.247266378931013,1.906133760340822,0.7021229518791193,255.27657073996022,14.859611220099627,0.0,1.0,0.0,0.0,1.0,Taxi
18.0,-0.021947093447713333,-9.448767505930308,21.361487678865956,1.485069530698459,-0.08763719948700427,255.58408430494455,16.017494239766144,0.0,1.0,0.0,0.0,1.0,Taxi
18.1,-0.05088526171403615,-2.1680581516457362,20.83444182686849,1.6434533664590287,-0.35758368668522933,255.39436129926503,14.62350780123385,0.0,1.0,0.0,0.0,1.0,Taxi
18.2,-0.05527830161029099,16.727754714934786,21.40451486748619,1.5416478249918741,-1.00844795506857,255.28465200134474,14.895927957181994,0.0,1.0,0.0,0.0,1.0,Taxi
18.3,0.06169168012696067,-2.3795272874938056,21.90608195023313,1.8980875988423995,-0.6702144474196431,255.3112131788165,14.935629491706832,0.0,1.0,0.0,0.0,1.0,Taxi
18.400000000000002,-0.06278289815150512,0.10156557535669937,21.827008543800435,1.617608930943216,0.1441779813746971,255.4648720980747,15.078195388733786,0.0,1.0,0.0,0.0,1.0,Taxi
18.5,-0.054770473733507435,-1.135199593217564,22.062829158901533,1.4641889876354548,0.5336677928905802,255.62311773053943,14.172465439445327,0.0,1.0,0.0,0.0,1.0,Taxi
18.6,0.056015682160872875,10.220916695474843,22.44748670562711,1.5003369789518946,0.14470245402539908,255.40368006574363,15.041332136171617,0.0,1.0,0.0,0.0,1.0,Taxi
18.7,-0.011678314674130831,6.034617672217496,22.22558947395419,1.6526141787426714,0.7311279171209182,255.44728570180177,14.826162226711897,0.0,1.0,0.0,0.0,1.0,Taxi
18.8,-0.024597385372419886,-6.01215644751925,21.420036476005812,1.6757927380025681,0.2813937897288399,255.2879450842836,14.83778329061119,0.0,1.0,0.0,0.0,1.0,Taxi
18.900000000000002,0.025954899923276716,-13.86092214114865,21.795605365711015,1.750609414165322,0.6445314876157153,255.4628386655495,15.890367868190692,0.0,1.0,0.0,0.0,1.0,Taxi
19.0,-0.080982925379874,-10.286993698854916,21.925511987831776,1.7501781668454193,0.12473710223530075,255.30028279241571,14.859341772228484,0.0,1.0,0.0,0.0,1.0,Taxi
19.1,-0.07603235386669438,-7.729620947842153,22.269937963447724,1.3525487340596891,-0.07951306237945541,255.54017206834715,14.793357700931105,0.0,1.0,0.0,0.0,1.0,Taxi
19.200000000000003,-0.012693204815933966,-55.30857380435498,21.68624298621672,1.7057426608894484,0.2827240837558747,255.1514967287178,14.65179992956369,0.0,1.0,0.0,0.0,1.0,Taxi
19.3,-0.3575257944016488,39.89024943029094,21.429087174852942,1.6179059697786036,-1.1935727219013024,255.57094076327064,14.718153630091466,0.0,1.0,0.0,0.0,1.0,Taxi
19.400000000000002,0.12341889328476041,18.520534924158103,21.247566766875497,1.6623924308224973,-0.25436309579641647,255.417112014827,15.421158098870153,0.0,1.0,0.0,0.0,1.0,Taxi
19.5,0.07990946980485664,88.45606008913593,22.484780322747756,1.9542165526432442,-0.08550473147429304,255.69174663346985,15.195705223941546,0.0,1.0,0.0,0.0,1.0,Taxi
19.6,0.08475450604403093,-10.476500655916903,21.06908477524207,1.7430809679876202,0.029303123685072804,255.46838612025147,14.794341330946718,0.0,1.0,0.0,0.0,1.0,Taxi
19.700000000000003,0.07103639000517595,-3.9961229404942116,23.38023440357589,1.759812866967385,-0.033663983781074554,255.38618066170238,15.712022370726562,0.0,1.0,0.0,0.0,1.0,Taxi
19.8,0.05992885510238563,-14.41689935236976,22.803348207089286,1.5060911616084984,-1.0393886405538093,255.31842014859035,14.445509472437287,0.0,1.0,0.0,0.0,1.0,Taxi
19.900000000000002,0.012670009282182171,-30.71424365116559,21.986883759916932,1.4008462719004973,-0.1633787208944174,255.38549737994583,14.416493620019228,0.0,1.0,0.0,0.0,1.0,Taxi
20.0,-0.08253482825065195,-52.128497888700416,22.150163335740274,1.820974769598097,0.19382914481349936,255.4645768258,14.931758254222872,0.0,1.0,0.0,0.0,1.0,Taxi
20.1,-0.20071363434111636,-20.003964061874683,21.332123111356008,1.381326869784885,0.22298271138318784,255.4061954665658,13.622882085813705,0.0,1.0,0.0,0.0,1.0,Taxi
20.200000000000003,-0.0873498110271912,35.18602342456486,22.905740382257743,1.7458493528314474,0.20015804080217814,255.39531217046397,15.14857720452394,0.0,1.0,0.0,0.0,1.0,Taxi
20.3,0.0933952888721724,18.493448880288174,21.92931419044102,2.0277097114164344,-0.12497745363815707,255.37974430326017,14.966337246739052,0.0,1.0,0.0,0.0,1.0,Taxi
20.400000000000002,-0.10824638993967545,18.33390327260115,21.9140865302215,1.5546929611698947,-0.8224823682855781,255.41442555283265,14.42723720930352,0.0,1.0,0.0,0.0,1.0,Taxi
20.5,0.0043197053358146244,-8.379896014791655,22.03366008238056,1.6674740637165255,0.39963453584231784,255.4001074944598,14.693285571177862,0.0,1.0,0.0,0.0,1.0,Taxi
20.6,0.051495808798214186,5.517570706176433,21.56630384589607,1.2574926094076464,0.1495006670990799,255.13423077045036,14.613471121957,0.0,1.0,0.0,0.0,1.0,Taxi
20.700000000000003,-0.08065853640879322,-27.251524626322198,21.596505680467168,1.7113485203897287,0.17909309225778622,255.35832296640967,14.580528207185194,0.0,1.0,0.0,0.0,1.0,Taxi
20.8,-0.1319379177957963,-14.73964616176652,21.38268895095437,1.4704706734422577,1.0094409610849857,255.46472468478885,15.53908502164282,0.0,1.0,0.0,0.0,1.0,Taxi
20.900000000000002,-0.022202422010618353,28.405894378441843,21.980163658184715,1.6430960827766643,-0.3599526559795079,255.53513938364722,16.3123454339244,0.0,1.0,0.0,0.0,1.0,Taxi
21.0,0.06137093548341604,10.05723888243054,22.4338602549853,1.7066914620790081,-0.4595359859516638,255.38990956318935,15.217717079625418,0.0,1.0,0.0,0.0,1.0,Taxi
21.1,-0.08165172338364354,18.848751506413606,22.631013906155356,1.6142369856290293,-0.13609573108919554,255.38402262483953,15.179214936979596,0.0,1.0,0.0,0.0,1.0,Taxi
21.200000000000003,0.07204133552144974,-20.04211129051115,21.442392161123536,1.574800795648376,0.04841131156452878,255.33051729321141,15.041576501113644,0.0,1.0,0.0,0.0,1.0,Taxi
21.3,-0.03883962096913967,29.150413847391736,22.190280067018296,1.9112116337436118,0.07338013587501549,255.43947241835747,14.973474939530137,0.0,1.0,0.0,0.0,1.0,Taxi
21.400000000000002,0.06410034585331519,-12.165606734815546,21.4256117028916,1.6693819025095789,0.40305784906304415,255.48509808880885,14.83072176550597,0.0,1.0,0.0,0.0,1.0,Taxi
21.5,0.011213301847372063,-31.820992003122495,21.72683169175585,1.3972359843239626,-1.0318906985795226,255.36408895043905,14.051449325618039,0.0,1.0,0.0,0.0,1.0,Taxi
21.6,-0.19794458098475207,-2.042237507473781,22.15105511317054,1.71947490666904,1.1003282051270287,255.4787777464403,14.79549412279984,0.0,1.0,0.0,0.0,1.0,Taxi
21.700000000000003,0.0538891583159464,11.830781209163542,21.97468554399982,1.7977528725586869,-0.6414533415404029,255.4808129333054,14.53520993718201,0.0,1.0,0.0,0.0,1.0,Taxi
21.8,0.07036720789318987,57.23915541066744,21.81388517151442,1.7991964449040672,-0.01040340834773597,255.3805050275853,15.153010124370763,0.0,1.0,0.0,0.0,1.0,Taxi
21.900000000000002,0.08825119606858522,-30.985112587958998,22.693889213210035,1.6512332067495634,1.3126821889720677,255.45393775533466,15.565448097752975,0.0,1.0,0.0,0.0,1.0,Taxi
22.0,-0.10103640462384855,4.112474217143567,21.700233661515192,1.602707592218811,-0.0027549645589932535,255.37761749716378,15.497924828988522,0.0,1.0,0.0,0.0,1.0,Taxi
22.1,0.09092957897890776,9.142303241735776,21.635463707022527,1.5717243429181436,0.21785590553217424,255.4480768269582,14.440034138381792,0.0,1.0,0.0,0.0,1.0,Taxi
22.200000000000003,0.13396271227726417,-11.495077485520511,21.487391209916247,1.7944670869432675,1.0955319723335752,255.26543738061662,15.937106670001993,0.0,1.0,0.0,0.0,1.0,Taxi
22.3,-0.15851179205145108,-2.3879707750654973,21.726924833958147,2.0120261008961053,0.2666489035128791,255.42212938919533,15.284708537749932,0.0,1.0,0.0,0.0,1.0,Taxi
22.400000000000002,0.0789897251035803,-24.191390372037915,20.536182628201686,1.5488429800229575,0.09431468437191232,255.62071934489143,14.073772182569115,0.0,1.0,0.0,0.0,1.0,Taxi
22.5,0.013005760417074633,38.628777943592084,21.432117294949705,1.6911528281538528,-0.21338535595974928,255.3945765010095,15.247651553912341,0.0,1.0,0.0,0.0,1.0,Taxi
22.6,0.0346320976665094,-39.88146537387918,21.53692048245155,1.476638213303943,0.22259315543446198,255.38149269270696,15.09064024604344,0.0,1.0,0.0,0.0,1.0,Taxi
22.700000000000003,-0.12041760176581558,25.42769266002868,21.886341328293728,1.674546995819539,0.08647935259961569,255.28696928184877,15.18980655399746,0.0,1.0,0.0,0.0,1.0,Taxi
22.8,0.14014422371721807,-30.77035971379152,22.136511162423588,1.9914939240108431,-0.0697779729469651,255.55610681871485,15.855725710946954,0.0,1.0,0.0,0.0,1.0,Taxi
22.900000000000002,-0.11921970090244816,52.25065999445338,22.484271268997983,1.6771261764986898,-0.13147959240901386,255.4554906786734,14.622168390496125,0.0,1.0,0.0,0.0,1.0,Taxi
23.0,0.1408356982064514,-9.103913436483785,21.940404259386437,1.779566838257105,0.06578919717106567,255.5370810151784,14.876937155383667,0.0,1.0,0.0,0.0,1.0,Taxi
23.1,0.0946246565347992,-6.162309308989592,22.08225131856329,1.926512066853025,0.8422241137393924,255.4366937756621,14.892199306103253,0.0,1.0,0.0,0.0,1.0,Taxi
23.200000000000003,-0.15003124744739607,-30.044660459224957,22.558745142713605,1.5761179208371687,-0.2631357000983384,255.4763268780897,14.872949858149736,0.0,1.0,0.0,0.0,1.0,Taxi
23.3,-0.00938760408967335,-10.866780846589677,22.69957647923669,1.8203652162691606,-0.1656351573187649,255.4968322151086,14.866585957919193,0.0,1.0,0.0,0.0,1.0,Taxi
23.400000000000002,0.04029075230185086,2.106721487595337,20.61751949241488,1.883566754453047,-0.7517917145497742,255.3509575366444,15.168393091246044,0.0,1.0,0.0,0.0,1.0,Taxi
23.5,-0.13949764000941936,53.94609457688713,22.830895881606313,1.8204804099621446,-0.27551538737462317,255.55588295646703,14.483100013853818,0.0,1.0,0.0,0.0,1.0,Taxi
23.6,0.26034286879476226,-19.479786745143997,22.096637832875427,1.5996836447912703,0.4032823476740801,255.5677340317974,15.73192041549608,0.0,1.0,0.0,0.0,1.0,Taxi
23.700000000000003,-0.05710818142386914,47.85768859344216,22.2958313023864,1.5408356154027871,0.40611781187757584,255.27573387915584,15.147206309065261,0.0,1.0,0.0,0.0,1.0,Taxi
23.8,0.09979080295779141,-64.25717242646725,22.175369652666248,1.6225425268987768,-0.831577921010136,255.31538382225835,14.536649409699315,0.0,1.0,0.0,0.0,1.0,Taxi
23.900000000000002,-0.06094299333757391,0.4412142278910555,22.406278865393507,1.1827152788955284,-0.10882316237952126,255.5430579347934,15.10879428061129,0.0,1.0,0.0,0.0,1.0,Taxi
24.0,-0.05490211028441382,-14.023941805259051,22.38658526594433,2.040265130683912,0.3707291673242982,255.32619800627913,15.109639943500273,0.0,1.0,0.0,0.0,1.0,Taxi
24.1,0.02967109393149621,10.289276839184003,22.107922164056365,1.4431630693382465,-0.12773264210162072,255.5450164401235,14.480270037402382,0.0,1.0,0.0,0.0,1.0,Taxi
24.200000000000003,-0.009496609141653843,11.10906093382358,21.303282242769402,1.895076186134458,0.060901745055217026,255.42206859177782,14.76505402334755,0.0,1.0,0.0,0.0,1.0,Taxi
24.3,0.0006431943847041325,5.2626689843568615,22.22260549424556,1.797577838107298,0.3459529511737129,255.32326848602088,15.465781895628863,0.0,1.0,0.0,0.0,1.0,Taxi
24.400000000000002,0.055984438853280555,-53.38116747667808,22.443631091547072,1.660180514816762,-0.19433700918594504,255.40453796035786,15.638427786131722,0.0,1.0,0.0,0.0,1.0,Taxi
24.5,-0.2764024465250442,16.944208304634827,21.778704760077822,1.8251971710167079,-0.24550715518041205,255.3978594274579,14.52942906893971,0.0,1.0,0.0,0.0,1.0,Taxi
24.6,0.08536423590787835,-9.342303552669106,22.17256156586038,1.5084039283704274,-0.07277811385979735,255.26462469593218,15.562156516563428,0.0,1.0,0.0,0.0,1.0,Taxi
24.700000000000003,0.009272921089935111,80.88671886269718,22.56767256810434,1.2919753290995604,0.020763355591142632,255.35084578411193,14.800225901050043,0.0,1.0,0.0,0.0,1.0,Taxi
24.8,0.1280311477884418,-25.265514438910028,21.587142349512416,1.7103641916542254,0.9286288650296636,255.42848219960285,15.168585959514905,0.0,1.0,0.0,0.0,1.0,Taxi
24.900000000000002,-0.0409633362866717,-20.659919448835584,22.249096324200686,1.46474347545628,-0.4125124207216543,255.37068373701118,14.49668201860254,0.0,1.0,0.0,0.0,1.0,Taxi
25.0,-0.09402667615424273,7.540906891270443,22.051095617895633,1.435116847489923,0.3476486651175349,255.09979382514211,15.392956893458525,0.0,1.0,0.0,0.0,1.0,Taxi
25.1,0.1657356822447941,59.53970680974885,20.872377564014947,1.7789059636105604,-0.6543680910125079,255.3444519072981,14.25726074803147,0.0,1.0,0.0,0.0,1.0,Taxi
25.200000000000003,0.2567351977620726,41.54509095752377,21.16013734092288,1.758091329207542,0.11709220985920568,255.44629906518117,14.433791898705492,0.0,1.0,0.0,0.0,1.0,Taxi
25.3,0.11369877863337614,-20.815076478195078,21.687003115710873,1.4832942090588102,0.18945314156358706,255.49403119978376,14.915218577128222,0.0,1.0,0.0,0.0,1.0,Taxi
25.400000000000002,0.06166029985381877,-56.95149447019924,20.879932427348464,1.7570414698136558,-0.6846965374640465,255.6403923790333,14.633763765745831,0.0,1.0,0.0,0.0,1.0,Taxi
25.5,-0.02802227458892358,-41.8217908276595,23.856458064939908,1.4850719129119394,0.4868734394941335,255.54534006692018,14.72658673454269,0.0,1.0,0.0,0.0,1.0,Taxi
25.6,-0.09541017550492129,-13.794547239802915,22.05557989798307,1.4284851121029776,-0.304103041349551,255.473831625784,14.616030256133996,0.0,1.0,0.0,0.0,1.0,Taxi
25.700000000000003,-0.007312436345195749,-5.948126833902603,22.875771029091844,1.5483676098671781,0.4288693795938202,255.46921903696477,14.874734789873678,0.0,1.0,0.0,0.0,1.0,Taxi
25.8,-0.05776290875843654,17.075246630530675,22.681858842500827,1.890539893801258,-1.6736700963224203,255.45194099604544,14.220113603242401,0.0,1.0,0.0,0.0,1.0,Taxi
25.900000000000002,-0.01003394235226785,6.463403984130423,20.530898944403766,1.388214833405145,0.32872890379413144,255.40685547464705,13.950044795734126,0.0,1.0,0.0,0.0,1.0,Taxi
26.0,0.02500458357545641,7.445041848459635,22.127735671611116,1.2940092813187447,0.4928534474860877,255.29611268419274,15.810995576845533,0.0,1.0,0.0,0.0,1.0,Taxi
26.1,-0.02053769951613832,42.42616130885407,20.97792019254105,1.7255745356700944,-0.39235598683828077,255.40794676367523,15.92051318671059,0.0,1.0,0.0,0.0,1.0,Taxi
26.200000000000003,0.20209686419200257,-17.191172868790318,23.27126185861031,1.491360422399845,1.1836217617235123,255.54406202513144,14.393248137054067,0.0,1.0,0.0,0.0,1.0,Taxi
26.3,-0.0609512807684951,-15.773101640096158,22.113257262191244,1.8155575846066017,-0.5062418983783177,255.50880678255987,14.524772526837227,0.0,1.0,0.0,0.0,1.0,Taxi
26.400000000000002,-0.09940320771661904,-40.47764623308321,22.220850838407145,1.61187743006352,-0.870410990680616,255.61508768841804,14.801841666361517,0.0,1.0,0.0,0.0,1.0,Taxi
26.5,-0.00029136697341339914,21.502424324926263,21.78261346804136,1.5674849927818997,-0.10247550773227053,255.264205012945,15.282949834182835,0.0,1.0,0.0,0.0,1.0,Taxi
26.6,0.04656084085613623,15.495465961802717,21.008693629371624,1.8401828822344939,-0.1975642161770731,255.33744637789835,15.428580236702086,0.0,1.0,0.0,0.0,1.0,Taxi
26.700000000000003,-0.021925877907605435,-6.919459830718986,21.566869020767133,1.3973245790814093,0.3272366585357966,255.61524263714568,15.14100999616646,0.0,1.0,0.0,0.0,1.0,Taxi
26.8,-0.03488866612700829,-32.679499895583916,22.57414120081521,1.6768813598075207,-0.09147403978979406,255.38681905900717,14.46762474455493,0.0,1.0,0.0,0.0,1.0,Taxi
26.900000000000002,-0.1168366586217833,11.105935825610416,21.966719787968366,1.405303532159948,-0.8235364524413716,255.30201701902104,14.973150467290214,0.0,1.0,0.0,0.0,1.0,Taxi
27.0,0.033603801220446705,37.88969916078919,22.556769150887487,1.7393499798485386,-0.3385980401795333,255.3971611336293,14.936381573928735,0.0,1.0,0.0,0.0,1.0,Taxi
27.1,0.15455982967693774,23.2563505001671,22.495392242178767,1.7164971587187055,0.9508145164067976,255.5207985573287,15.34700929729663,0.0,1.0,0.0,0.0,1.0,Taxi
27.200000000000003,-0.0005549061209477491,-7.255301881514888,22.126165211157826,1.4650947498317204,-0.28505987044876346,255.50562451389146,15.344770125731403,0.0,1.0,0.0,0.0,1.0,Taxi
27.3,-0.0026727081871276786,15.887254212127033,21.950989463618775,1.3037199250816918,-0.120708579918677,255.34700580662775,14.694040596889888,0.0,1.0,0.0,0.0,1.0,Taxi
27.400000000000002,0.23399610073757296,-14.964945354471183,21.655465903481243,1.8670162793665643,0.7544432355864206,255.4208989868689,14.999372410511256,0.0,1.0,0.0,0.0,1.0,Taxi
27.5,-0.0753796328933036,19.663527787925137,21.313411641520936,1.9213031131107712,-0.00027321131352141443,255.49066496111072,14.891661837813775,0.0,1.0,0.0,0.0,1.0,Taxi
27.6,0.09564493075249808,-22.150121999647382,21.245364670735565,1.6623187935605073,-0.3580762440624572,255.49006814080371,14.50007568839647,0.0,1.0,0.0,0.0,1.0,Taxi
27.700000000000003,0.12324549073933609,3.755374645735794,21.501751454625207,1.6110425632633165,0.12007324002097713,255.5120535184684,15.36074448764413,0.0,1.0,0.0,0.0,1.0,Taxi
27.8,-0.05660275966462458,-32.55706236513148,21.379402254793124,1.7945368074189634,-0.1567960535534499,255.46103811649823,15.248076869191578,0.0,1.0,0.0,0.0,1.0,Taxi
27.900000000000002,-0.06714038107315928,-31.7731332290931,21.702545949686403,1.614980323383688,-0.2873023427552929,255.5154584836937,14.516837483566071,0.0,1.0,0.0,0.0,1.0,Taxi
28.0,-0.03562017540612935,28.635102520206114,21.846324563828233,1.7510164396954144,0.1958456946401788,255.5393503103221,15.318129565966323,0.0,1.0,0.0,0.0,1.0,Taxi
28.1,0.08657275293640604,-30.929058455063668,21.305019372295266,1.4976838697203536,-0.4269915640857682,255.4278706430514,14.084780238323852,0.0,1.0,0.0,0.0,1.0,Taxi
28.200000000000003,-0.2217856733484776,-10.87071042772753,21.176008705474846,1.8383514612961378,-0.14400186688233754,255.43705120786285,15.188752232055485,0.0,1.0,0.0,0.0,1.0,Taxi
28.3,-0.08997372754476698,12.053537609961987,22.516806661839805,1.4516237889239754,0.21331295468925446,255.4063081695508,14.233851429307373,0.0,1.0,0.0,0.0,1.0,Taxi
28.400000000000002,0.146840440986216,56.82929585344039,21.102659401414392,1.725108310270954,0.8706336499919117,255.47977772708657,14.75763556962373,0.0,1.0,0.0,0.0,1.0,Taxi
28.5,0.06236080591872443,7.699368268966045,22.239179309473826,1.809268902406308,0.36769812152752723,255.34441987379796,14.860435787170385,0.0,1.0,0.0,0.0,1.0,Taxi
28.6,-0.05147688619993671,-27.52373613881961,21.98726912437069,1.840196523315409,0.8903218647918524,255.26563398590235,14.586442051882054,0.0,1.0,0.0,0.0,1.0,Taxi
28.700000000000003,0.009221760292117995,0.4308932978966311,21.808623484409054,1.5241890016177224,-0.17250703920917515,255.40547735773794,14.47030247358287,0.0,1.0,0.0,0.0,1.0,Taxi
28.8,0.06451527240820763,1.1350231027973952,22.108021357923207,1.6367058385714086,0.22110511665281135,255.6055404704831,14.942389688378404,0.0,1.0,0.0,0.0,1.0,Taxi
28.900000000000002,-0.045801770685949685,-22.118075201052577,22.22785054316185,1.4282379050911809,0.2204856196841824,255.4252810515983,14.938132427430622,0.0,1.0,0.0,0.0,1.0,Taxi
29.0,-0.10136861571314484,6.872580366891943,22.18354723985253,1.341566893602483,0.4655876273791873,255.48716257090405,14.749273167468518,0.0,1.0,0.0,0.0,1.0,Taxi
29.1,0.0988781742426674,8.807371955381711,22.00309163687804,1.476754053425243,-0.7614094400509213,255.53314094460654,15.28607676364862,0.0,1.0,0.0,0.0,1.0,Taxi
29.200000000000003,-0.001764910909041085,24.46768751645472,22.745323097201407,1.129904497619087,-0.7437814566486664,255.54156501405578,15.143727661236495,0.0,1.0,0.0,0.0,1.0,Taxi
29.3,0.020969821869128807,9.319522029545723,21.34567942098818,1.644238244751962,-0.23586944165087442,255.36587755920118,13.96809707102025,0.0,1.0,0.0,0.0,1.0,Taxi
29.400000000000002,0.14547578439039605,-14.273257983116054,21.737206173822145,1.611512730799661,-0.0357756489110868,255.32306992008478,14.99859209047312,0.0,1.0,0.0,0.0,1.0,Taxi
29.5,-0.07313120082462131,33.24517658886092,21.79670437495603,1.8051313893804684,0.1682187711783993,255.27156553768202,14.62557560087921,0.0,1.0,0.0,0.0,1.0,Taxi
29.6,0.18719570481343348,-53.9238877018274,21.38957423673288,1.7760788127201308,-0.05659223230144803,255.62355815032583,14.923277259329595,0.0,1.0,0.0,0.0,1.0,Taxi
29.700000000000003,-0.12414365411874087,5.699049546146199,22.15848446943786,1.879346582853735,0.9508856148701332,255.50873113844818,15.615403418528832,0.0,1.0,0.0,0.0,1.0,Taxi
29.8,-0.04463595309389025,-30.84487273610594,21.638750246885518,1.3611258174796543,0.8451984461246782,255.36562567952717,14.722668824196361,0.0,1.0,0.0,0.0,1.0,Taxi
29.900000000000002,0.032971341132903835,38.450373545991006,22.83215875346123,1.526799783552079,-0.4497777034720942,255.37679719973187,15.386388595087988,0.0,1.0,0.0,0.0,1.0,Taxi
30.0,0.0681082136112142,14.175351282569729,22.86784284146512,1.4698998211052672,-0.04352171888396511,255.4505543197398,15.371883152283663,0.0,1.0,0.0,0.0,1.0,Taxi
30.1,0.026240803318958447,8.139178778840519,21.624936374571952,1.6551865965300414,-0.4672738955863396,255.46918405871793,15.770277888530815,0.0,1.0,0.0,0.0,1.0,Taxi
30.200000000000003,0.07366723502710647,4.920674174563813,22.5307427828587,1.7322865841183444,-0.0952231584741503,255.44821034503047,14.201343932866413,0.0,1.0,0.0,0.0,1.0,Taxi
30.3,0.09271158448403331,22.635858255959885,22.230598010273344,1.8641115692877912,0.4736800329356358,255.67555987558933,15.483053547965586,0.0,1.0,0.0,0.0,1.0,Taxi
30.400000000000002,0.1394200945987579,0.755628086169402,21.647279379804893,1.6366205173940174,0.680781177876747,255.2337254476098,14.923450329223556,0.0,1.0,0.0,0.0,1.0,Taxi
30.5,0.07744537545795352,-56.506051327543425,21.635234676339984,1.405277257432656,-0.33560161494138946,255.43075846432487,14.961813529265328,0.0,1.0,0.0,0.0,1.0,Taxi
30.6,-0.18981867215368378,-22.292364450138127,21.976855349897534,1.1709183543396695,0.18030755997040848,255.4016998857819,14.506616827892799,0.0,1.0,0.0,0.0,1.0,Taxi
30.700000000000003,0.0279582723480673,-18.960836815098318,23.413850265262123,1.9773184412048574,-0.3153161895172383,255.38629298664955,14.1749847371855,0.0,1.0,0.0,0.0,1.0,Taxi
30.8,-0.01735880861753804,42.7495254993546,21.703240771224788,1.2843998202671298,-0.6938240956554806,255.43705653937775,15.089581937743862,0.0,1.0,0.0,0.0,1.0,Taxi
30.900000000000002,0.023928955343089205,-10.922281877224203,21.96218641967209,1.7596556396704943,0.09037136746618989,255.47755252654895,14.460310705570066,0.0,1.0,0.0,0.0,1.0,Taxi
31.0,-0.02665313703805369,52.03339391143916,21.92255485352561,1.2691460303703246,-0.23389132939641885,255.50960104963065,14.65728719306616,0.0,1.0,0.0,0.0,1.0,Taxi
31.1,0.2428081609396578,25.822054022598635,22.41192385589027,1.472579348949758,-1.0613756520470263,255.47282296409526,14.50143031012207,0.0,1.0,0.0,0.0,1.0,Taxi
31.200000000000003,0.1530392254560824,12.178101672087672,21.47247026696721,1.785509700367857,-0.291498754222744,255.57896045368284,15.675860669510737,0.0,1.0,0.0,0.0,1.0,Taxi
31.3,0.034237371322384726,-45.39189340907245,21.627071777849434,1.8188819324016599,0.1013461608895462,255.29018031785915,14.381527222925785,0.0,1.0,0.0,0.0,1.0,Taxi
31.400000000000002,0.015848693894295617,-16.32221157606379,21.038695838140395,1.7923093989496282,0.13296871874104732,255.3747812293916,14.315622799655522,0.0,1.0,0.0,0.0,1.0,Taxi
31.5,0.07142816757576352,-23.135141915396048,22.45375621437769,1.4302690871714205,0.17331459099225277,255.42652913515406,15.190711996188972,0.0,1.0,0.0,0.0,1.0,Taxi
31.6,-0.08143833825459548,-6.570142294643472,21.697416791578785,1.3703098344495293,-0.37431212792917873,255.43213691846427,14.410537512374038,0.0,1.0,0.0,0.0,1.0,Taxi
31.700000000000003,-0.017002017578921707,-16.0158028436237,22.743615515902114,1.6805672444255704,-1.001618658206725,255.40826414869673,14.913948276753267,0.0,1.0,0.0,0.0,1.0,Taxi
31.8,-0.008650846642354961,35.42337758192783,21.204186755212657,2.005738091612022,-0.029001780889487454,255.4184725925337,14.295107974891156,0.0,1.0,0.0,0.0,1.0,Taxi
31.900000000000002,0.09567854965504369,-18.365570261123604,21.919039902568365,1.5784038081778724,-0.28233935782642006,255.39138676644836,15.808422078944954,0.0,1.0,0.0,0.0,1.0,Taxi
32.0,-0.10882986888453967,-44.932776770308415,22.111753811588986,1.721893553661601,-0.6062332819576396,255.44430001429043,14.864600000197909,0.0,1.0,0.0,0.0,1.0,Taxi
32.1,-0.233314730493897,-29.371510174543477,22.153086146564398,1.510816193280608,0.5065409165219884,255.33754881439313,14.824976186908655,0.0,1.0,0.0,0.0,1.0,Taxi
32.2,-0.05117900121767371,70.21492201283863,22.788077848681674,1.5816767167973214,0.06648886953425177,255.28698890083854,14.14953198692049,0.0,1.0,0.0,0.0,1.0,Taxi
32.300000000000004,0.24224474117965353,28.064737620501244,21.05276418417967,1.7761936425057874,-0.16043249353703604,255.52405565199535,14.775367425745548,0.0,1.0,0.0,0.0,1.0,Taxi
32.4,-0.09299104239139072,11.91538969776233,20.540619104337654,1.3940434399845398,0.7567223253606304,255.50027169096677,14.907139837884301,0.0,1.0,0.0,0.0,1.0,Taxi
32.5,0.00839794727113799,-22.083782677838048,21.98012176523836,1.7509847968592376,0.5086537459127118,255.46818844696088,14.387915453153182,0.0,1.0,0.0,0.0,1.0,Taxi
32.6,0.13182582779046328,41.45226003043449,22.323877803228463,1.5986765496799404,-0.5544998792358006,255.49060784252833,14.159362218169449,0.0,1.0,0.0,0.0,1.0,Taxi
32.7,0.11427025776078176,15.885576170322949,22.587420893645795,1.6424522257171321,-0.46892247088193384,255.35262212784596,14.099839130539204,0.0,1.0,0.0,0.0,1.0,Taxi
32.800000000000004,0.08782582812275277,-48.72205625593611,20.811777972586324,1.4933404861864636,0.34854813570264526,255.37565774007533,14.3451775840781,0.0,1.0,0.0,0.0,1.0,Taxi
32.9,-0.1117844534892172,-15.90005234190381,21.246302194080997,1.576992017123631,0.7248867384921647,255.54890602931164,14.249043972783314,0.0,1.0,0.0,0.0,1.0,Taxi
33.0,0.03476999605126277,-35.518318703177684,22.315424992726822,1.6732301426632514,0.3021069375169111,255.45250869665256,14.354873282409711,0.0,1.0,0.0,0.0,1.0,Taxi
33.1,-0.08976576539313558,22.57036996356254,21.71035779878115,1.7197508186312052,0.2048265238638798,255.4122781410415,14.70301217024739,0.0,1.0,0.0,0.0,1.0,Taxi
33.2,0.0010673963285955377,-13.626499267172028,22.10339721420428,1.2628122739815852,-0.7420403961297698,255.47277688881923,15.251777232912772,0.0,1.0,0.0,0.0,1.0,Taxi
33.300000000000004,-0.033362500284597314,8.913483431409473,21.954339358917863,1.6171332252810182,0.441736703073991,255.6556749607263,14.403627731423322,0.0,1.0,0.0,0.0,1.0,Taxi
33.4,-0.045198348236088176,24.188598915412246,22.278704837041666,1.5368031102386255,-0.04143703900454449,255.44898625915778,14.470928197834807,0.0,1.0,0.0,0.0,1.0,Taxi
33.5,0.12201039090565682,6.221217561979837,21.10340091355309,1.2509435486350753,-0.2969918154472465,255.55426674105593,14.325969303720052,0.0,1.0,0.0,0.0,1.0,Taxi
33.6,-0.002256412474698106,15.349920919264662,22.306541289415264,1.589255806824672,-0.6721847674520957,255.73814838950352,14.557901335985937,0.0,1.0,0.0,0.0,1.0,Taxi
33.7,0.03155125636023517,-18.74444516704602,22.633908945882794,2.0431513087691417,-0.2810539132714731,255.32384835450068,15.273762951713639,0.0,1.0,0.0,0.0,1.0,Taxi
33.800000000000004,0.02828816507042676,-16.83574563720144,22.349401206932797,1.789081234814178,0.8299176852257167,255.18196572637407,15.08884811681199,0.0,1.0,0.0,0.0,1.0,Taxi
33.9,-0.08643514066070525,-16.65212463187338,22.156573225871455,1.767191443798602,-0.4366204619893945,255.41287885940358,15.255786744636337,0.0,1.0,0.0,0.0,1.0,Taxi
34.0,-0.05170936679913168,11.558472214613568,22.673927579297615,1.9019649204767795,0.8355701218519397,255.40750234414065,15.117454715208437,0.0,1.0,0.0,0.0,1.0,Taxi
34.1,0.08608052614349465,52.507863058082414,22.90410581051071,1.675823296111402,0.9316187377872389,255.298424818106,15.310450860628206,0.0,1.0,0.0,0.0,1.0,Taxi
34.2,0.17610417462970684,-5.085914187679795,21.99530679223981,1.4679486784126077,-0.025087934209050644,255.457212042513,15.171145074009774,0.0,1.0,0.0,0.0,1.0,Taxi
34.300000000000004,-0.0771389377375306,-52.044054571076835,22.21391010388582,1.66623293054929,0.16901894527707187,255.65429268401215,14.572713209483423,0.0,1.0,0.0,0.0,1.0,Taxi
34.4,-0.17413974671188948,-36.94474390037265,21.91309420671266,1.8569264831120285,-0.22228359733765946,255.26491045330965,15.008618803078326,0.0,1.0,0.0,0.0,1.0,Taxi
34.5,-0.008619544872156366,28.996069598329665,22.281582006958303,1.8005189223749425,-0.5525046301713759,255.43638591452702,15.02539048905283,0.0,1.0,0.0,0.0,1.0,Taxi
34.6,0.06784141025411779,31.633332682689854,21.3300380418056,1.6762909271951503,-0.354034308309097,255.40253283766174,15.23318224672458,0.0,1.0,0.0,0.0,1.0,Taxi
34.7,-0.0159730832984401,-13.677429362008574,21.92137783195911,1.816885448918427,-0.37410705139654904,255.5114991193018,14.657319055948605,0.0,1.0,0.0,0.0,1.0,Taxi
34.800000000000004,-0.07700669168219915,9.827957525614451,21.40923864349468,1.7468568410126941,0.2917218643446385,255.4508943374924,15.151890577699477,0.0,1.0,0.0,0.0,1.0,Taxi
34.9,0.11698119788219015,14.39512411793826,23.52530774542999,1.716146067091949,0.21340718229766123,255.50254348829412,15.45249691204291,0.0,1.0,0.0,0.0,1.0,Taxi
35.0,0.0560025372912513,11.868313577258474,22.03342141122136,1.8226766409665072,-0.21061794927777272,255.56233958348025,14.38362750255193,0.0,1.0,0.0,0.0,1.0,Taxi
35.1,-0.017665123795906658,-23.496364169159804,21.95408893829073,1.3877458743723263,0.365867741497144,255.20907794256595,14.995144679411688,0.0,1.0,0.0,0.0,1.0,Taxi
35.2,-0.0005006229636088003,-4.3494307273086585,21.324139070019495,1.7102280063087894,0.014725023940771414,255.29153292283058,14.636332697413138,0.0,1.0,0.0,0.0,1.0,Taxi
35.300000000000004,0.034255383654708066,10.393747892999496,22.93910728663869,1.5129231431777055,-0.7624456266530311,255.55830830692048,15.279187357309889,0.0,1.0,0.0,0.0,1.0,Taxi
