time_s,altitude_ft,vertical_speed_fpm,ias_kt,pitch_deg,roll_deg,heading_deg,throttle_pct,afterburner_on,gear_down,flaps_deg,speedbrake_pct,weight_on_wheels,label
0.0,-0.08187960493806533,-1.481566666877128,20.4696892106924,1.603711150877859,0.6279644039622193,64.48807609153658,15.484609473512625,0.0,1.0,0.0,0.0,1.0,Taxi
0.1,-0.08681816049432242,5.745678987521694,20.352256152774498,1.3503671527506427,0.6591626338470336,64.32757277126973,14.705933737305461,0.0,1.0,0.0,0.0,1.0,Taxi
0.2,-0.053151210000456854,-10.089364165308405,20.18742875471699,1.6878226762434938,0.14858056452414456,64.40805411094254,15.307503780150919,0.0,1.0,0.0,0.0,1.0,Taxi
0.30000000000000004,-0.13232642576460735,-7.716102104884576,18.635398745907622,1.3101696669323337,-0.48047127088241254,64.3951295539074,14.600413055596436,0.0,1.0,0.0,0.0,1.0,Taxi
0.4,-0.1253986710187453,10.983292888597598,20.514666306165104,1.6683053478721706,0.8955319029949429,64.40185553466017,15.167931804971424,0.0,1.0,0.0,0.0,1.0,Taxi
0.5,0.0017652544425311402,42.04567104170783,19.484879836787158,1.4852183829852885,0.10125378423155366,64.34780240474589,14.878708159037231,0.0,1.0,0.0,0.0,1.0,Taxi
0.6000000000000001,0.0779019294439318,13.243282473395661,20.972210762462215,1.7662021974880497,0.18660313369534978,64.46574061516623,15.711151928316085,0.0,1.0,0.0,0.0,1.0,Taxi
0.7000000000000001,-0.05918225865176696,-29.583199228814106,19.512457657829813,1.6793509166551779,0.3311622073913427,64.4277327545276,14.992413748601379,0.0,1.0,0.0,0.0,1.0,Taxi
0.8,-0.14615074170153936,-5.9959162714189675,19.78629641968291,1.5639965459899103,0.6715796670887144,64.50104089023,15.412333849002662,0.0,1.0,0.0,0.0,1.0,Taxi
0.9,0.04792234808683695,7.650312208047708,20.642281990690744,1.2830578129073436,-0.5054702212267767,64.39191049686826,15.383258625586814,0.0,1.0,0.0,0.0,1.0,Taxi
1.0,-0.020930697611528423,11.008464188553255,19.467526234413427,1.5765645843757543,-0.5576505070602044,64.31729270597708,15.33964922231952,0.0,1.0,0.0,0.0,1.0,Taxi
1.1,-0.09110842075877308,2.2437093414372384,20.315145694475294,1.5341242920222165,1.0510521411632052,64.38939917798075,15.945946924165458,0.0,1.0,0.0,0.0,1.0,Taxi
1.2000000000000002,0.05914089479402314,-21.61425751828004,20.647275121466425,1.3981921069927146,-0.4614640471955437,64.37688042398457,15.756319775140405,0.0,1.0,0.0,0.0,1.0,Taxi
1.3,-0.12900198520292858,-11.053140539985518,20.511785277262096,1.6217415778526252,0.6898252846515146,64.37717533302543,14.424720685364035,0.0,1.0,0.0,0.0,1.0,Taxi
1.4000000000000001,-0.14637412345870063,-53.54513325683394,20.425761262529996,1.5792607318771164,0.22481423446604018,64.37727237971063,15.566432351534868,0.0,1.0,0.0,0.0,1.0,Taxi
1.5,-0.20858477149014654,37.39584104558575,20.08410025096143,1.688259204003529,-0.09637120421428967,64.52012676711274,15.608338648647358,0.0,1.0,0.0,0.0,1.0,Taxi
1.6,0.05797722002500019,22.97670881975994,20.170300881590556,1.4698744312734928,-0.4513544312822624,64.39704063173133,15.606251471604901,0.0,1.0,0.0,0.0,1.0,Taxi
1.7000000000000002,-0.03149057935990087,49.18612100632836,19.329745389334295,1.35516080522312,-0.09777980154211452,64.380324865778,14.816051228760283,0.0,1.0,0.0,0.0,1.0,Taxi
1.8,0.0373458335414953,15.09888385812146,19.916101590248957,1.662709505634603,-0.042114746305968495,64.52554810708352,15.171667610459005,0.0,1.0,0.0,0.0,1.0,Taxi
1.9000000000000001,0.13347163931560754,-8.008499354560007,19.9745907848362,1.9933120443395336,-0.9100888380116816,64.53981621827745,16.52651711695203,0.0,1.0,0.0,0.0,1.0,Taxi
2.0,-0.07153307613270088,-34.04859201623091,20.316912550605764,1.5284959424018787,0.3609168911972539,64.43728316239378,15.029549010098645,0.0,1.0,0.0,0.0,1.0,Taxi
2.1,-0.1328971265396592,-49.66480354628221,20.328513480832672,1.6276904893328648,0.09320002034731971,64.50524644114927,15.744997845309715,0.0,1.0,0.0,0.0,1.0,Taxi
2.2,-0.1148523784158035,7.806600278859283,20.97524836737702,1.3021520548397083,-0.28357411104282326,64.42893725252304,15.288192142817866,0.0,1.0,0.0,0.0,1.0,Taxi
2.3000000000000003,-0.03250007473840443,35.13087692446182,20.1335552645274,1.4262485539360663,-0.8150687137914223,64.42622503574461,15.070248995151248,0.0,1.0,0.0,0.0,1.0,Taxi
2.4000000000000004,0.04275725808264991,44.97304015373245,20.742060167421926,1.4802351704401506,0.8352768739543828,64.42425076452571,16.136978801560804,0.0,1.0,0.0,0.0,1.0,Taxi
2.5,0.11001282235285877,24.057840118929693,19.595101905477897,1.6333334249353477,-0.0742534866408197,64.5631742626336,15.84804651189045,0.0,1.0,0.0,0.0,1.0,Taxi
2.6,0.08778912585624404,-16.28513571206159,20.185445112600895,1.7025767795835132,0.0796567093553318,64.57884180705139,16.114525200827575,0.0,1.0,0.0,0.0,1.0,Taxi
2.7,-0.038668420477658005,-26.500624055148645,19.90736015244087,1.798006032087831,-0.571679022756388,64.49845704373314,15.13318811823782,0.0,1.0,0.0,0.0,1.0,Taxi
2.8000000000000003,-0.02249029792288442,-22.106524153487957,20.701218720542574,1.5268684959198116,0.6496538643578416,64.54849642290719,15.404017786190622,0.0,1.0,0.0,0.0,1.0,Taxi
2.9000000000000004,-0.022743494911195712,5.90361045186172,19.848432506213065,1.8753834767834923,-0.8128796794787858,64.4778265469489,14.860664437454734,0.0,1.0,0.0,0.0,1.0,Taxi
3.0,-0.009150368218349378,14.421511549538115,20.45184806341964,1.4757471879364934,-0.08589022891528389,64.47438948144537,15.948418258460174,0.0,1.0,0.0,0.0,1.0,Taxi
3.1,0.04961725982480617,51.63001194986757,20.989768897602737,1.8615992463067104,0.19116599573677906,64.23391046113738,15.628348107280036,0.0,1.0,0.0,0.0,1.0,Taxi
3.2,0.23540656483814218,21.8146378848446,20.864200738601518,1.8570041423471342,-0.42614912135102617,64.43349320144478,14.984720263201408,0.0,1.0,0.0,0.0,1.0,Taxi
3.3000000000000003,0.09992282120587365,1.7452605469134852,20.43692405908106,1.892641323255083,0.48103491441229146,64.50886230156664,15.044868928694266,0.0,1.0,0.0,0.0,1.0,Taxi
3.4000000000000004,0.05834356255937362,-23.987249159824845,19.560455566484748,1.5383674189083538,0.2565482885504499,64.40651992068496,14.91385812019298,0.0,1.0,0.0,0.0,1.0,Taxi
3.5,0.11547031903901797,2.410878091719557,19.36420335777371,1.4886147168580184,-0.09256435222650085,64.2594547225458,15.03183719157013,0.0,1.0,0.0,0.0,1.0,Taxi
3.6,0.11197721166447146,-53.92941452236443,18.785205502927496,1.3120826800659615,0.33281054746047495,64.6068293685405,15.568473964896882,0.0,1.0,0.0,0.0,1.0,Taxi
3.7,-0.21130351005244857,-32.678891814368605,20.239477574776064,1.424388105353775,0.5221417502496462,64.42236811849205,15.821280540026725,0.0,1.0,0.0,0.0,1.0,Taxi
3.8000000000000003,-0.04792414003282507,-29.61924529341727,19.615602243531058,1.3482615084191283,0.07513426010428087,64.5395690386535,15.16752328857894,0.0,1.0,0.0,0.0,1.0,Taxi
3.9000000000000004,-0.036119014802614896,16.751767575856558,20.192225702550406,1.4897408925773985,0.83071662626901,64.488231145609,14.804396378247134,0.0,1.0,0.0,0.0,1.0,Taxi
4.0,-0.12754467217316576,3.561604335500777,21.092503336095664,1.6521617771852035,-0.47438528416787457,64.35892945060232,15.878864382574344,0.0,1.0,0.0,0.0,1.0,Taxi
4.1000000000000005,-0.030116118355321155,9.99045141264594,19.970169478007943,1.5299194177153732,-0.1834076997917038,64.48926250188845,15.183260256245271,0.0,1.0,0.0,0.0,1.0,Taxi
4.2,0.01383324226061483,36.15575260678902,19.964481864838483,1.2223206076642983,0.29175882724705243,64.37814333349655,15.158871995115861,0.0,1.0,0.0,0.0,1.0,Taxi
4.3,0.05323409086077938,-3.522468779456908,19.480803818811786,1.5532649272493815,0.2790021043888152,64.45164283900687,15.539449709885837,0.0,1.0,0.0,0.0,1.0,Taxi
4.4,-0.04772846225260566,-6.682129427741473,19.745519267665816,1.1504665169970507,-0.7222692801400951,64.50426563303529,15.164467503233462,0.0,1.0,0.0,0.0,1.0,Taxi
4.5,-0.019577404878092505,-44.973358422631435,19.306065586346694,1.7252610735482774,0.14168887486957327,64.4323410601557,15.419808716574249,0.0,1.0,0.0,0.0,1.0,Taxi
4.6000000000000005,-0.17163270125237776,5.631983540746181,21.20213562449259,1.5276889568308056,-0.6839171236780497,64.37070207287934,15.117570338969635,0.0,1.0,0.0,0.0,1.0,Taxi
4.7,-0.019568544548874713,-18.25771966324521,20.119442174914123,1.7886961243384016,-0.15417350891267806,64.36467624801918,14.949231096573108,0.0,1.0,0.0,0.0,1.0,Taxi
4.800000000000001,-0.11086600319431852,9.37651492926409,20.199219261187896,1.9362162029747567,0.09241839242603543,64.616011745084,14.509356780215313,0.0,1.0,0.0,0.0,1.0,Taxi
4.9,-0.12475012660605728,-7.013335064747705,20.63585057022743,1.5320957430877102,0.24971817599307344,64.50639925547478,15.963081339611014,0.0,1.0,0.0,0.0,1.0,Taxi
5.0,-0.05463521987261322,27.922584776609067,21.127952593070912,1.739137652942587,-0.07371942703393128,64.49608811502628,15.222231944532796,0.0,1.0,0.0,0.0,1.0,Taxi
5.1000000000000005,0.02874692068872685,9.03955287388096,19.41889999869274,1.504637426817954,0.45178457583735676,64.57222408293,15.577491090041136,0.0,1.0,0.0,0.0,1.0,Taxi
5.2,-0.07955236223665246,19.765873068335967,19.156910689959737,1.5900387985545328,0.11459015561419647,64.42038582329974,15.68355254751634,0.0,1.0,0.0,0.0,1.0,Taxi
5.300000000000001,0.04419414546906662,-41.03220153850188,19.435409276225673,1.401656482286562,0.4931047280018462,64.54181502079928,15.151054355171903,0.0,1.0,0.0,0.0,1.0,Taxi
5.4,-0.17641408700378253,37.858235893045055,20.43918496427122,1.3161452270659606,-0.2268044284495107,64.43321974161552,14.903162338667087,0.0,1.0,0.0,0.0,1.0,Taxi
5.5,0.10973881722857282,-23.9082959056627,20.527129711530772,1.6367243610874063,0.7059980070892623,64.64665502943097,14.95831216277674,0.0,1.0,0.0,0.0,1.0,Taxi
5.6000000000000005,-0.07534733405924686,51.98900559641739,20.1828741749314,1.6261343834628994,0.2944513889441577,64.43994469970556,14.920180843315023,0.0,1.0,0.0,0.0,1.0,Taxi
5.7,0.08353094097830444,-21.59460715616542,19.033421724134616,1.5517300055101837,0.36800306797269433,64.61518492050322,15.571292721676171,0.0,1.0,0.0,0.0,1.0,Taxi
5.800000000000001,0.0017657814477457824,13.598823954136185,19.729943351627462,1.9014321980174786,-0.1709480572354624,64.56042818321464,15.610045206702146,0.0,1.0,0.0,0.0,1.0,Taxi
5.9,-0.007353214288565904,-51.52220479567213,20.14935343934049,1.4924489917272323,0.20537337901506378,64.47698924927442,16.0814868803704,0.0,1.0,0.0,0.0,1.0,Taxi
6.0,-0.17408008300005617,-27.284820148329818,20.7941871119891,1.4899009702455903,0.45531296703528373,64.5749083419663,15.570273213705375,0.0,1.0,0.0,0.0,1.0,Taxi
6.1000000000000005,-0.13465831929390326,22.077434770756224,20.022168599544212,1.9375278792945616,-0.18047348355115508,64.61658526543158,14.937042365846866,0.0,1.0,0.0,0.0,1.0,Taxi
6.2,0.10303395956521527,20.18325148645827,20.540118897217013,1.4495117053795872,-0.06461891831358901,64.44084681161632,15.383352224282175,0.0,1.0,0.0,0.0,1.0,Taxi
6.300000000000001,-0.07316382556776473,45.958110912265624,20.098667786080956,1.7158389128783138,0.041107676174939406,64.48699268185607,14.696703055149284,0.0,1.0,0.0,0.0,1.0,Taxi
6.4,0.09513223526742492,-57.848800188538455,20.490585844811175,1.704947342979557,-0.25128420656493167,64.6425305099865,15.34612601562308,0.0,1.0,0.0,0.0,1.0,Taxi
6.5,-0.18621004137747696,-29.68878174561497,20.578933078751653,1.649343476074976,0.1987716994306537,64.45694122717646,16.182659366222293,0.0,1.0,0.0,0.0,1.0,Taxi
6.6000000000000005,-0.22160773429583955,-25.671892892569304,20.339188171094264,1.6892255356732389,-0.7526365959520053,64.42575598801864,15.835839409352985,0.0,1.0,0.0,0.0,1.0,Taxi
6.7,-0.03322722919542156,18.599295374934655,20.905414573796254,1.5547251639700757,0.20036121668910342,64.47249995278531,15.359725974789326,0.0,1.0,0.0,0.0,1.0,Taxi
6.800000000000001,-0.09321356450280364,22.525198715394044,18.924781956933632,1.5746476062954267,0.6982131576877613,64.3609085247545,14.39739954897162,0.0,1.0,0.0,0.0,1.0,Taxi
6.9,-0.1089817407188693,-17.073085053630923,20.25426490617126,1.761526588592769,0.022969160388711104,64.51008175398749,16.12346639143803,0.0,1.0,0.0,0.0,1.0,Taxi
7.0,-0.11859265446357617,27.683718869850498,20.51338936056929,1.6317283612958442,-0.4211900845359426,64.3433627217438,15.55998493425235,0.0,1.0,0.0,0.0,1.0,Taxi
7.1000000000000005,0.045205029846448856,40.48611523231707,20.07586096901917,1.3027953101857188,0.5775877361502807,64.68530479615112,14.780193380160608,0.0,1.0,0.0,0.0,1.0,Taxi
7.2,0.09344883544271607,8.969170113679121,20.198216269675125,1.6077819386848489,-0.9004188050079059,64.64144188889918,15.465527494157907,0.0,1.0,0.0,0.0,1.0,Taxi
7.300000000000001,-0.07374680389518054,-0.7957093253611399,20.38645780849004,1.8369608123766277,0.04024721806898981,64.39318855161895,15.29438194743414,0.0,1.0,0.0,0.0,1.0,Taxi
7.4,0.0412264832196432,-49.825393613535844,20.341522832082802,1.538541782672535,0.3522021424431377,64.47533905446357,14.441830727303271,0.0,1.0,0.0,0.0,1.0,Taxi
7.5,-0.1556781326249631,43.40182677248034,20.097580749420825,1.4213919708662734,0.36991225553954044,64.29533428761385,15.543870250683247,0.0,1.0,0.0,0.0,1.0,Taxi
7.6000000000000005,0.14326232996722124,-48.97527530499056,20.85136031414037,1.9923474895432047,-0.7719410180608486,64.51529879256634,15.954888704062622,0.0,1.0,0.0,0.0,1.0,Taxi
7.7,-0.20364989330530953,8.39120052331459,20.792527515094132,1.8069556480814548,0.11385755256286045,64.51123099433744,15.06095940670706,0.0,1.0,0.0,0.0,1.0,Taxi
7.800000000000001,-0.11372213000839007,-20.216755950267622,20.164084243344604,1.5204460933032646,-0.5851253162422965,64.15931675846969,15.102631162270125,0.0,1.0,0.0,0.0,1.0,Taxi
7.9,0.042178550215883216,79.82200774690875,20.11544984668083,1.5607043737502448,0.42793452359407874,64.38716977927305,15.293584672900334,0.0,1.0,0.0,0.0,1.0,Taxi
8.0,0.19546014542923432,-14.76549641968048,20.03999147924113,1.842343295714467,0.037954988189761577,64.56386277999394,15.031139175791385,0.0,1.0,0.0,0.0,1.0,Taxi
8.1,-0.1875496121067924,-8.742762528345898,19.81126721516166,1.3999283900939676,0.04076680713595519,64.7081796843101,15.318170448354886,0.0,1.0,0.0,0.0,1.0,Taxi
8.200000000000001,-0.001535262425846223,-65.45224707935859,19.98965174150864,1.581726527683039,-0.8149511436355641,64.4620692706676,15.625127335101679,0.0,1.0,0.0,0.0,1.0,Taxi
8.3,-0.13180108996755854,-16.60223550389634,20.791801234717216,1.4385248702045947,-0.3995450800774614,64.36284045983712,15.511265942069706,0.0,1.0,0.0,0.0,1.0,Taxi
8.4,-0.27056078962627406,43.43788745729566,19.806470306048965,1.7509255042288092,0.190755788868192,64.46612954042888,14.264620966251641,0.0,1.0,0.0,0.0,1.0,Taxi
8.5,0.21565417486063213,24.77283272646118,22.289069333190668,1.165995366441909,0.3612387904251575,64.39469513130007,15.773076611809724,0.0,1.0,0.0,0.0,1.0,Taxi
8.6,-0.007936926335252587,59.79177629748862,20.667142068943143,1.6696921320843061,0.11254052496195494,64.49643627930675,15.723086331561863,0.0,1.0,0.0,0.0,1.0,Taxi
8.700000000000001,0.028398091861169063,-69.12864525422985,20.527506578387445,1.5188194214463435,0.6475574081136725,64.29871374426114,15.831824514504389,0.0,1.0,0.0,0.0,1.0,Taxi
8.8,-0.12998905141051711,-10.876477726308037,19.27476292700108,1.6984339711830092,0.6049688101380726,64.37048974565283,15.146720742256232,0.0,1.0,0.0,0.0,1.0,Taxi
8.9,-0.06231931496679273,16.756102908037132,20.24282746449638,1.7588787041256697,-0.4826005534042262,64.6303922772662,15.032287721726828,0.0,1.0,0.0,0.0,1.0,Taxi
9.0,0.11217860640135478,30.045770311991404,18.731080001105276,1.4382658703987263,-0.022788195312544425,64.42214899857322,15.352479961637101,0.0,1.0,0.0,0.0,1.0,Taxi
9.1,0.02023980014943998,24.723080931442592,20.502898678447377,1.6242457573087625,-0.3416928088094225,64.46145071050512,14.750927632862334,0.0,1.0,0.0,0.0,1.0,Taxi
9.200000000000001,0.06129608969042029,-31.96950245760406,19.72499137007454,1.3841680675707357,-0.2461812840802923,64.4703778805914,15.742386577992267,0.0,1.0,0.0,0.0,1.0,Taxi
9.3,-0.04766890588666548,-28.463115122201135,20.547916316286642,2.0841166130159223,0.18002387416409288,64.38119766230523,15.529552294300068,0.0,1.0,0.0,0.0,1.0,Taxi
9.4,-0.12207577546156566,-39.745909221215705,20.388279193705127,1.885851940863952,-0.33880913292225007,64.35704478823129,15.423993091033664,0.0,1.0,0.0,0.0,1.0,Taxi
9.5,-0.1374334564156582,15.200063518316673,20.165125761690092,1.7370381830408268,-0.2524629238337675,64.31872978555032,15.706786994045885,0.0,1.0,0.0,0.0,1.0,Taxi
9.600000000000001,0.028331411704917955,11.828712281379593,19.14177219016423,1.6510748107095796,-0.9669477331035591,64.6190048396436,15.118738200169622,0.0,1.0,0.0,0.0,1.0,Taxi
9.700000000000001,-0.06293221405466759,23.88145780581625,19.433110120772493,1.5033453816622835,0.37997890480940805,64.33495868218421,14.575755952212937,0.0,1.0,0.0,0.0,1.0,Taxi
9.8,-0.018026167386576863,-26.49125248407447,19.892496098901766,1.5285914837850332,-1.0829124237044354,64.50277647077826,15.298643531402515,0.0,1.0,0.0,0.0,1.0,Taxi
9.9,-0.1041248507154543,18.867641904107852,20.072913320174806,1.4739730984368051,0.8640730394760738,64.39719888707793,14.976152907970388,0.0,1.0,0.0,0.0,1.0,Taxi
10.0,0.031405995465871736,28.429341750963275,19.52025252397175,1.7230265040477006,-0.9046574199472214,64.35908845754,14.584575286169526,0.0,1.0,0.0,0.0,1.0,Taxi
10.100000000000001,0.12412054136823956,-2.5826152165697067,19.96083493987022,1.7237383746884696,0.2858938916529491,64.27736131312122,16.130124881485777,0.0,1.0,0.0,0.0,1.0,Taxi
10.200000000000001,-0.11703792679830279,-20.85303312067823,20.5627971789281,1.6630797319050923,-0.42133181303798634,64.37590359472944,15.469534608339444,0.0,1.0,0.0,0.0,1.0,Taxi
10.3,-0.07285917013751934,-11.417157236872194,19.223259359550962,1.7968150726416228,0.08250025130737818,64.52000232333842,15.282818936028766,0.0,1.0,0.0,0.0,1.0,Taxi
10.4,0.06703475518387866,12.081460024888221,19.601936820407662,1.6627896763195857,0.08728195380903217,64.43908530998868,15.708421214472551,0.0,1.0,0.0,0.0,1.0,Taxi
10.5,-0.05663062667386162,17.973354942844256,19.97560636018844,1.6632530429796422,-0.2948847872845041,64.38256116914067,15.312860056445261,0.0,1.0,0.0,0.0,1.0,Taxi
10.600000000000001,0.017007604576701998,-13.737186882161842,20.481967750148236,1.4848129933745586,-0.12294179221464466,64.52971878259962,14.781224563268434,0.0,1.0,0.0,0.0,1.0,Taxi
10.700000000000001,-0.0016511792269305083,28.857094251126956,19.791990678116782,1.4753796889458453,-0.5443254516958869,64.24612880661567,14.116908353863407,0.0,1.0,0.0,0.0,1.0,Taxi
10.8,0.08765484458177321,-8.424667351922666,19.21878505898471,1.49633767538835,0.19497076290341397,64.38975830599509,15.921147403748083,0.0,1.0,0.0,0.0,1.0,Taxi
10.9,-0.025115732182911285,8.933161852312724,21.202632652916353,1.7502571938439138,-0.28184881455379,64.28013538667727,14.451560508441432,0.0,1.0,0.0,0.0,1.0,Taxi
11.0,0.043014630034633176,-37.1115148108246,19.524157754853576,1.4964722588285457,-0.18420875662110575,64.3709209664305,15.656178303603097,0.0,1.0,0.0,0.0,1.0,Taxi
11.100000000000001,-0.09790272947234974,-7.601728147454826,20.543522181832916,1.1573458809944173,0.060753800096410925,64.3586853163269,14.390866565759476,0.0,1.0,0.0,0.0,1.0,Taxi
11.200000000000001,-0.06312437292018536,-20.84600789902105,21.472817895559388,1.315774726408478,-0.123694652774983,64.3688972156591,15.47503410482128,0.0,1.0,0.0,0.0,1.0,Taxi
11.3,-0.06121540946047203,-12.108217491550356,20.16891108451261,1.3883606454955393,-0.0004720669215600187,64.51410129395128,14.840882667236984,0.0,1.0,0.0,0.0,1.0,Taxi
11.4,-0.15844381693010146,39.66128477100053,19.74268225560604,1.9036500862509438,0.42297277544154777,64.40498530140292,15.124228480796765,0.0,1.0,0.0,0.0,1.0,Taxi
11.5,0.13518205093481733,8.960837836262343,19.358027893952332,1.82584152031283,0.6654330152328669,64.51907305323499,15.503527481570355,0.0,1.0,0.0,0.0,1.0,Taxi
11.600000000000001,-0.016411220279160275,54.39789191473326,19.758008204478966,1.409449281905053,-0.2903414846408945,64.33287372534176,15.248347624674041,0.0,1.0,0.0,0.0,1.0,Taxi
11.700000000000001,0.11354564264356488,-17.120817809453047,20.60195447392659,1.7270036517125242,0.13178716056530132,64.53058162711199,15.259276789432155,0.0,1.0,0.0,0.0,1.0,Taxi
11.8,0.049577961887552174,11.933016995468416,19.7620629054995,2.025815517921492,-0.8068984788178086,64.61980632202494,14.549633009752528,0.0,1.0,0.0,0.0,1.0,Taxi
11.9,0.043253864698181876,-16.96174188025519,20.11478549955249,1.2842413225376115,-0.4138915250292334,64.43757364840963,15.527325223898057,0.0,1.0,0.0,0.0,1.0,Taxi
12.0,0.028736933242288994,-24.24968669165735,19.151495640237385,1.1023263145484332,0.110222438571545,64.34875279758268,14.802682952894086,0.0,1.0,0.0,0.0,1.0,Taxi
12.100000000000001,-0.07167047157073453,11.424876205586045,20.661560338828153,1.7308225269581765,-0.39540446122454204,64.54027923821661,14.662376242522093,0.0,1.0,0.0,0.0,1.0,Taxi
12.200000000000001,0.10037824572611216,-5.025523326147997,19.81634850876166,1.4591129174464526,0.29992977063318166,64.47725756637033,16.07129807257244,0.0,1.0,0.0,0.0,1.0,Taxi
12.3,0.003609316611549059,32.69380111577933,20.25209930535663,1.336703273143204,0.08057272208976826,64.51376888062964,15.503345338408547,0.0,1.0,0.0,0.0,1.0,Taxi
12.4,0.09179853400816217,-30.30036177603432,20.714402538296756,1.781796428693532,-0.4636794570933463,64.34371380764662,14.597997358226534,0.0,1.0,0.0,0.0,1.0,Taxi
12.5,-0.05112356315405939,8.702779902367297,20.241697371973647,1.593883559282922,0.9936290192734357,64.44502209210134,14.916991680913556,0.0,1.0,0.0,0.0,1.0,Taxi
12.600000000000001,0.04712321612338559,-24.759944271607655,18.922686597261375,1.2499416796530314,-0.3405070584933096,64.43399486700969,15.776523594553053,0.0,1.0,0.0,0.0,1.0,Taxi
12.700000000000001,-0.03200118734987607,-23.935735057052128,21.23550175427023,1.8907746110490937,0.19550153869817818,64.44119549500022,15.398772559072695,0.0,1.0,0.0,0.0,1.0,Taxi
12.8,-0.17080223843931996,-23.417905417242537,18.174784015952643,1.4011341244763442,0.16005989473091686,64.40859462533814,14.731905357712455,0.0,1.0,0.0,0.0,1.0,Taxi
12.9,-0.06996631096282706,-14.563699802921661,19.756540585768505,1.4347688534364569,0.3786842825794531,64.41420795945652,15.0695715585048,0.0,1.0,0.0,0.0,1.0,Taxi
13.0,-0.10481968636448431,42.52203980480541,20.916638802790875,1.9636919471401721,0.4205221091333847,64.43634840885795,15.584449052395431,0.0,1.0,0.0,0.0,1.0,Taxi
13.100000000000001,0.04180796058470714,4.388833854995279,20.064695996964588,1.4788866294245857,-0.5499954457252748,64.4495503633159,16.13585615092249,0.0,1.0,0.0,0.0,1.0,Taxi
13.200000000000001,-0.04802214168785059,26.098382889782027,19.652242706851645,1.618779035126323,0.074827263254747,64.42693637820207,14.802794683113676,0.0,1.0,0.0,0.0,1.0,Taxi
13.3,0.025672228084425874,-14.62257404846457,20.856236528163404,1.6080236517393631,-0.0554155807296021,64.61566467344693,15.505666910240361,0.0,1.0,0.0,0.0,1.0,Taxi
13.4,-0.03130490965761569,4.047148080101501,19.781185686412552,1.528765654043562,-0.6774936524973125,64.50279856039043,15.495472119716096,0.0,1.0,0.0,0.0,1.0,Taxi
13.5,-0.027786401287343068,31.571834777094256,20.349670195457076,1.5598947684383868,-0.42996231280262276,64.1899797078188,15.776562594876808,0.0,1.0,0.0,0.0,1.0,Taxi
13.600000000000001,0.18353140196989717,-11.73997512576282,20.092688399767628,1.1511352110386524,0.6025495204623679,64.65238350325461,14.661569656468147,0.0,1.0,0.0,0.0,1.0,Taxi
13.700000000000001,-0.0900047852864297,-0.10173958864492268,19.888184542969785,1.8679356210005331,0.04161783335667306,64.26988561979493,14.452977268183705,0.0,1.0,0.0,0.0,1.0,Taxi
13.8,-0.02829509923056759,-16.489033003879783,20.198702596371533,1.4787744808987275,-0.6333872998081082,64.496359064903,15.191808307767438,0.0,1.0,0.0,0.0,1.0,Taxi
13.9,0.10108623695049837,7.497708436199616,20.6213175112553,1.4303333766395818,-0.4341794769014032,64.64071474584546,14.915019490154474,0.0,1.0,0.0,0.0,1.0,Taxi
14.0,-0.05251624310543153,-11.835072583735988,19.596348767799284,1.9403085590524294,-0.772784497520881,64.54589002872376,16.224525660994622,0.0,1.0,0.0,0.0,1.0,Taxi
14.100000000000001,-0.08747046214924745,-13.469727052193178,20.11965649328251,1.646906540669039,0.3420474615100221,64.27066925367558,14.783330783486297,0.0,1.0,0.0,0.0,1.0,Taxi
14.200000000000001,0.03373760168953254,24.839639522316403,20.01238699190532,1.439028237281836,0.005386888567818122,64.42106409357797,14.802912550759695,0.0,1.0,0.0,0.0,1.0,Taxi
14.3,0.07168195450615054,30.84215036928394,18.955537624920083,1.6280335177603962,0.5724914089984665,64.48656244283177,15.827718884144087,0.0,1.0,0.0,0.0,1.0,Taxi
14.4,0.0667402896971723,4.9566192763683325,20.92866276799041,1.64756031151036,-0.32683910438148345,64.50466898143492,14.856416771887393,0.0,1.0,0.0,0.0,1.0,Taxi
14.5,0.05852069807137428,-47.50519080959893,21.12131425585064,1.5005749753788986,-0.14603813134852198,64.56991544276923,15.940796994770032,0.0,1.0,0.0,0.0,1.0,Taxi
14.600000000000001,-0.16584399954184403,-2.5806681890772345,20.435637973832094,1.84122656599221,0.017390879994609493,64.53274428402813,15.294113817389274,0.0,1.0,0.0,0.0,1.0,Taxi
14.700000000000001,0.05383694875178621,-8.46121048668027,19.854048919979135,1.7549728766348112,0.3493022488982491,64.39891242412062,15.252024344648545,0.0,1.0,0.0,0.0,1.0,Taxi
14.8,0.016214645637972976,-0.967282901615088,19.779391281794492,1.7431377293915107,0.3187360048285343,64.53261230204839,16.004038920656548,0.0,1.0,0.0,0.0,1.0,Taxi
14.9,-0.1706804140499194,-25.172933964332383,19.51526220374669,1.6491328671219647,-0.34062190356930294,64.56619362279008,15.719664285025354,0.0,1.0,0.0,0.0,1.0,Taxi
15.0,-0.07202772106987564,-37.508844316434654,19.735226782401504,1.5484007410379184,0.4976357522548366,64.37584732823842,14.914729469383271,0.0,1.0,0.0,0.0,1.0,Taxi
15.100000000000001,-0.17132957594420023,27.726112067293936,19.355715962911713,1.5261203897769393,0.23134259862859002,64.52142534420273,16.24314479127356,0.0,1.0,0.0,0.0,1.0,Taxi
15.200000000000001,-0.03204985371344964,-29.40327317481025,19.339857514631056,1.269022368744431,-0.39594264532531404,64.57991153314737,14.903814695492999,0.0,1.0,0.0,0.0,1.0,Taxi
15.3,-0.2190440869439268,3.3285571222594847,20.15246974797041,1.3979866366194753,-0.345693917763894,64.33677906730833,15.622541237163336,0.0,1.0,0.0,0.0,1.0,Taxi
15.4,-0.15468679033290272,-19.150250180075897,18.5339003529854,1.6747824245831482,-0.41199886464761865,64.53869775728265,15.554432184693539,0.0,1.0,0.0,0.0,1.0,Taxi
15.5,-0.12780110461382904,45.18922651292285,19.653503154711057,1.3598505746795326,0.030264689945102733,64.37140597241648,15.655540245116512,0.0,1.0,0.0,0.0,1.0,Taxi
15.600000000000001,0.006902045620687497,27.911983011545292,19.434185738584986,1.5741553870738976,0.6485229665531257,64.32499528589972,15.553887647159929,0.0,1.0,0.0,0.0,1.0,Taxi
15.700000000000001,-0.015126875275176213,64.05844605915082,20.04499463269244,1.8441034381385435,0.13508434879407621,64.54744187202022,15.632531298355305,0.0,1.0,0.0,0.0,1.0,Taxi
15.8,0.19249112568192514,4.837155234876884,19.744054959015905,1.6906766006570313,-0.7110869515286576,64.52321852094337,14.88319844507025,0.0,1.0,0.0,0.0,1.0,Taxi
15.9,0.031087821795071965,-2.580801754385947,19.25917465276892,1.838631835294016,0.09657639268631633,64.57556207985351,14.75859562246048,0.0,1.0,0.0,0.0,1.0,Taxi
16.0,-0.028030884047105895,-19.32146053461293,20.20250234727548,1.3718129242493127,-0.7974415025358806,64.40286730866791,15.010041209090955,0.0,1.0,0.0,0.0,1.0,Taxi
16.1,0.09588382300886054,-44.90201916445016,19.297173519618127,1.7383729476797058,0.052385554667155436,64.45873761616087,15.265111932012134,0.0,1.0,0.0,0.0,1.0,Taxi
16.2,-0.19342227402717876,24.454920357405893,19.946531775464194,1.6838754319707543,0.16714955276909804,64.39359203798938,15.149242461735906,0.0,1.0,0.0,0.0,1.0,Taxi
16.3,0.0942437177399236,-34.89713328012919,20.66265272360439,1.3559880741587838,0.24936096752600598,64.27000353048629,16.13980440158272,0.0,1.0,0.0,0.0,1.0,Taxi
16.400000000000002,-0.07860184339178543,42.835014151642746,20.250119662015646,1.8813053036292429,0.46573264779239065,64.3651569646089,15.46164073034631,0.0,1.0,0.0,0.0,1.0,Taxi
16.5,0.020752796731034917,-6.412246927944817,19.649542029187305,1.8130183692679496,-0.28746322054261225,64.41749482133082,15.502569694140394,0.0,1.0,0.0,0.0,1.0,Taxi
16.6,0.06218248310019954,11.443946598436574,19.872199398938076,1.381364298208867,-0.6206488086347565,64.3463351731346,16.51802098363513,0.0,1.0,0.0,0.0,1.0,Taxi
16.7,-0.02138211039960251,-3.680261531943849,20.634848518734902,1.9487995254980206,-0.08086398175846196,64.38371891484121,15.824921894936478,0.0,1.0,0.0,0.0,1.0,Taxi
16.8,0.0023514890713157307,15.552248872934799,19.35862720437744,1.4370235069250468,-0.8895069670983065,64.58931335514114,15.771348038370467,0.0,1.0,0.0,0.0,1.0,Taxi
16.900000000000002,0.1399437274648736,-0.9011716233859582,19.812008921025456,1.1481574685012412,0.6741376387010295,64.33784953172653,15.218119888188808,0.0,1.0,0.0,0.0,1.0,Taxi
17.0,-0.02588796851653223,-19.517999340696814,19.624686492683477,1.4896864012392073,-0.2897411920639825,64.40834722585737,14.375869736549294,0.0,1.0,0.0,0.0,1.0,Taxi
17.1,-0.09523850763216825,-23.561518621781612,19.338568103767013,1.6168058199176782,0.25877961300435137,64.74249443415113,15.541387973369734,0.0,1.0,0.0,0.0,1.0,Taxi
17.2,0.022136134355965606,-24.76435861416279,19.348119989868092,1.4594448319301179,0.344012012992399,64.42772269283893,15.478757576164448,0.0,1.0,0.0,0.0,1.0,Taxi
17.3,-0.1497097615873461,23.26063308350598,19.654070895912216,1.6724116713411414,0.4331461267493135,64.45153576745315,15.445368131491598,0.0,1.0,0.0,0.0,1.0,Taxi
17.400000000000002,0.021064657785361703,-2.1862073445403873,19.93052395273632,1.5855563416047995,-0.956203246244048,64.40333122632956,16.43820000838658,0.0,1.0,0.0,0.0,1.0,Taxi
17.5,0.011205097633263716,98.02444638210255,19.947168379799518,2.066419618876095,-0.5454172466510608,64.44636130425715,14.981981228760269,0.0,1.0,0.0,0.0,1.0,Taxi
17.6,0.3404124703231667,-14.338027701934275,20.301665685319392,1.4868076199580975,0.3205530801003293,64.4299515099504,14.0802828521453,0.0,1.0,0.0,0.0,1.0,Taxi
17.7,-0.05062548072430964,-8.649119101563997,19.683514297214863,1.4859964828714463,0.35388285242731377,64.41792788465995,15.647593662563951,0.0,1.0,0.0,0.0,1.0,Taxi
17.8,-0.03204049787455626,-59.013073437702054,21.051310615225322,1.4777539889712559,0.0834480268611977,64.37452471627398,15.61888340642654,0.0,1.0,0.0,0.0,1.0,Taxi
17.900000000000002,0.04534710313465641,-18.314564774838047,20.77356636395378,1.8239379335681316,0.25171868172415685,64.44158781603096,14.835883188947218,0.0,1.0,0.0,0.0,1.0,Taxi
18.0,-0.1421983045984998,-3.6958409118935642,20.348555160300084,1.3614176035545313,-0.6282569784114024,64.39958095123365,15.973087503365559,0.0,1.0,0.0,0.0,1.0,Taxi
18.1,-0.05051970243402401,15.175761562275165,19.71606976198858,1.8642874019638878,0.5005265353135876,64.48588251145691,15.056707753295685,0.0,1.0,0.0,0.0,1.0,Taxi
18.2,0.1212259109460323,72.03753691715973,20.71908578913404,1.8504904304198138,0.6758839714897459,64.37914130261646,15.536514446881485,0.0,1.0,0.0,0.0,1.0,Taxi
18.3,0.21798937998729892,-10.778718545258092,20.10571751222345,1.7400608128378503,0.3030303706515011,64.49972322998963,15.251547623975846,0.0,1.0,0.0,0.0,1.0,Taxi
18.400000000000002,-0.10441329516031445,-30.85376067885562,19.55801511232333,1.4972981011111373,-0.4537332508960344,64.48950928837166,16.061596179232673,0.0,1.0,0.0,0.0,1.0,Taxi
18.5,-0.0330428924482457,-71.60486951951818,19.26671809492037,1.6345428684349974,-0.11460876777985773,64.4832607769684,15.150400601620538,0.0,1.0,0.0,0.0,1.0,Taxi
18.6,-0.14003496761029186,29.13924285758644,19.73310612328225,1.4215583024222884,0.3121039381943739,64.48363892598513,16.735669738119462,0.0,1.0,0.0,0.0,1.0,Taxi
18.7,0.04128291912761786,-29.324576160978495,20.19410411078594,1.51554358003086,-0.935226931768141,64.56090379813043,15.090796335470634,0.0,1.0,0.0,0.0,1.0,Taxi
18.8,-0.17966577325313807,48.042737609630144,19.43246296544784,1.7812888686246573,-0.7185833219549292,64.54486010667745,14.14578997790419,0.0,1.0,0.0,0.0,1.0,Taxi
18.900000000000002,0.10017872043785901,-24.70050813001519,19.800762950981827,1.5950270790841312,0.40208794017511634,64.57427351737891,15.138602612126721,0.0,1.0,0.0,0.0,1.0,Taxi
19.0,-0.08221962152245794,61.71222323038787,18.945842471994098,1.5665037065695426,0.45514336502308006,64.46044963859816,15.09713165304838,0.0,1.0,0.0,0.0,1.0,Taxi
19.1,0.12889534289880136,-34.14010691294797,20.023079043806206,1.5763226033790632,-1.0584307594118527,64.2743595997137,15.358712302164482,0.0,1.0,0.0,0.0,1.0,Taxi
19.200000000000003,-0.07052181412688074,14.96310308278533,20.046048325976003,1.4551058529444536,-0.0384177865609531,64.65823894638976,14.78113683971222,0.0,1.0,0.0,0.0,1.0,Taxi
19.3,-0.0074041061085311985,-52.06382748179224,18.478437760913625,1.688929608781098,0.32251714530358866,64.3794953352554,15.177840863328584,0.0,1.0,0.0,0.0,1.0,Taxi
19.400000000000002,-0.13142379451015973,26.478691406918372,20.552124303550254,1.5515141183682553,-0.10541126374365933,64.40264138975868,17.004328124224347,0.0,1.0,0.0,0.0,1.0,Taxi
19.5,0.061871642907711216,6.979058319239563,20.28386749079375,1.9058098072611274,0.16732185792969406,64.60070761575997,15.211887984949925,0.0,1.0,0.0,0.0,1.0,Taxi
19.6,0.02749118548766671,23.858584257439464,19.38455805008442,1.9938780983524784,-0.29657393256158304,64.33484047337737,15.221331610148372,0.0,1.0,0.0,0.0,1.0,Taxi
19.700000000000003,-0.012130873222962317,-43.86234682493161,20.294549547225195,1.4197142803506786,-0.27558368712396486,64.36804446730173,16.027884391885884,0.0,1.0,0.0,0.0,1.0,Taxi
19.8,-0.15744009121694674,17.15465826377581,20.07765013941677,1.6496140207188166,-0.5725251764775667,64.51055062211987,15.092507431498506,0.0,1.0,0.0,0.0,1.0,Taxi
19.900000000000002,0.11326447680654582,3.1737549581727884,20.202857039108963,1.859032727765914,-0.3958079756274776,64.583900871926,15.858285731015828,0.0,1.0,0.0,0.0,1.0,Taxi
20.0,0.0037379015679016555,46.1132323125895,20.19524550602012,2.0525880934521803,0.4550631745022037,64.42089147156526,16.334774063097118,0.0,1.0,0.0,0.0,1.0,Taxi
20.1,0.07312607034600083,-52.375036168563746,20.129318639404392,1.735473240546596,0.8752909309210907,64.6108344127025,15.425582523146522,0.0,1.0,0.0,0.0,1.0,Taxi
20.200000000000003,-0.14861070403627283,3.5656377707928044,20.08645199768783,1.2405656952195918,0.813719682023171,64.41062400212547,14.695133442814376,0.0,1.0,0.0,0.0,1.0,Taxi
20.3,0.02156609042186579,-9.94867796742782,20.463315962261,1.7312196188665796,-0.4882741513223223,64.3444119365713,14.984071652877459,0.0,1.0,0.0,0.0,1.0,Taxi
20.400000000000002,0.023382680508861834,26.255286715432973,20.475560793243826,1.367376973642502,0.1372402726338313,64.52004177879633,14.810888836130093,0.0,1.0,0.0,0.0,1.0,Taxi
20.5,-0.017334270459107876,-7.1530272742033825,20.16545785514169,1.4907050034323637,-0.5025726607591141,64.33531466738464,15.304221305880127,0.0,1.0,0.0,0.0,1.0,Taxi
20.6,-0.014199045949151057,-18.71352548633666,19.465331303025575,1.7948385523736816,-0.27971335485319637,64.56142849504988,15.187098285861333,0.0,1.0,0.0,0.0,1.0,Taxi
20.700000000000003,-0.07018494692282139,49.58209530898586,20.02218811219529,1.6395012108550175,-0.1594233760387112,64.53926379571817,16.410498745424587,0.0,1.0,0.0,0.0,1.0,Taxi
20.8,0.23057620608582155,-9.405599038172832,19.875828357084334,1.6905411937220167,-0.5690971479863547,64.38405320623775,15.08308642312616,0.0,1.0,0.0,0.0,1.0,Taxi
20.900000000000002,-0.06122704114001512,2.2722863458947664,19.657033197222955,1.4831746279296933,-0.11705356097316545,64.54320207538302,14.46479843337647,0.0,1.0,0.0,0.0,1.0,Taxi
21.0,-0.058823515193347456,-29.60893219850614,20.511228908422844,1.5639203383345173,0.5699927672826465,64.56450296382548,15.937326194531607,0.0,1.0,0.0,0.0,1.0,Taxi
21.1,0.08253154509329093,5.838130762784179,20.12565377153186,1.62247120330054,-0.43424098694462054,64.51625338095027,15.375111118082081,0.0,1.0,0.0,0.0,1.0,Taxi
21.200000000000003,-0.032036387326094144,14.145167699354653,19.61372999091201,1.978608919351608,-0.3039084324046369,64.29328108361142,15.265792100150144,0.0,1.0,0.0,0.0,1.0,Taxi
21.3,0.011902323303425888,-15.80029018358531,19.754651451619917,1.21110520420833,-0.16089446385397244,64.40405953213008,16.3080342408667,0.0,1.0,0.0,0.0,1.0,Taxi
21.400000000000002,0.0035300941753644657,21.1779161935013,20.231285426056406,1.3218923213438434,-0.33327963007940303,64.43617620105016,14.697838732334946,0.0,1.0,0.0,0.0,1.0,Taxi
21.5,0.07385319364141242,17.015201896029954,19.600373817324222,1.6639684987496344,0.13083174422585186,64.4184097454372,15.965595171101453,0.0,1.0,0.0,0.0,1.0,Taxi
21.6,0.09697833278357573,-30.57536653525106,20.4240212931999,1.6336132644429302,0.12774857246931026,64.42457883361658,14.940315570458159,0.0,1.0,0.0,0.0,1.0,Taxi
21.700000000000003,-0.14934673850089072,-0.6744507255306758,20.419502996291733,1.683652207004896,0.3274758754139338,64.32930165718187,15.497198963712144,0.0,1.0,0.0,0.0,1.0,Taxi
21.8,0.07048094001375912,4.8835687448731315,19.56568370300581,1.7224881585011673,0.03749409561155307,64.54725686292011,15.043997997444237,0.0,1.0,0.0,0.0,1.0,Taxi
21.900000000000002,0.12139617650794149,39.91157347213653,19.752058136552186,1.6835663386040411,-0.6924055295135246,64.44113230955622,15.634893397795384,0.0,1.0,0.0,0.0,1.0,Taxi
22.0,0.05021112885979199,-19.916984986784104,19.50871023715224,1.8446913289705018,0.3178845006315312,64.3049921778042,14.67040502542894,0.0,1.0,0.0,0.0,1.0,Taxi
22.1,-0.02910398492016132,-24.82243171453621,19.173415549746895,1.81508479663611,-0.8717806611439501,64.50098644547222,14.951417039366873,0.0,1.0,0.0,0.0,1.0,Taxi
22.200000000000003,-0.002715982064739513,25.7928734772417,20.82376426734544,1.456899081291461,-0.39141222952539784,64.3434942087132,14.601032493537955,0.0,1.0,0.0,0.0,1.0,Taxi
22.3,0.17917549624600054,-4.013377812073192,19.53054847009689,1.5466546786445852,0.021197680058690913,64.49419089743265,14.431461703019304,0.0,1.0,0.0,0.0,1.0,Taxi
22.400000000000002,-0.04917087398052722,-17.40664493861146,20.60177784792144,1.3862618965636146,1.3621652109050915,64.48483338891214,14.521922676039342,0.0,1.0,0.0,0.0,1.0,Taxi
22.5,-0.08974920675779677,-38.55775269662468,19.892260042020826,1.5121644544312574,-0.26930301118655425,64.35456549568647,15.275521702254972,0.0,1.0,0.0,0.0,1.0,Taxi
22.6,-0.013613267237122828,24.980293105510754,20.742535615350434,1.5592637906671134,0.6069876656829626,64.49986194850953,14.515407252054827,0.0,1.0,0.0,0.0,1.0,Taxi
22.700000000000003,0.0757305915470266,18.59053789373616,19.019550173516336,1.6882124596883776,0.49165476643169276,64.5660870418979,16.232172608512247,0.0,1.0,0.0,0.0,1.0,Taxi
22.8,0.0032034827108840904,-8.823087768041212,18.969082102405356,1.5464740360935532,0.5586951315424987,64.48357939674241,15.232204100623841,0.0,1.0,0.0,0.0,1.0,Taxi
22.900000000000002,-0.05772870607732882,7.289297495516166,20.3528112062327,1.1937742487016196,0.45917730474304547,64.4336727129031,15.800173812833743,0.0,1.0,0.0,0.0,1.0,Taxi
23.0,0.11217707902460752,12.961676876765514,20.003194846409908,1.4037303129477792,-0.23017254743833465,64.54356344526303,15.812779569905167,0.0,1.0,0.0,0.0,1.0,Taxi
23.1,0.06801186709471174,3.4180700721702473,20.287209243476834,1.608972067585605,0.5756061639080524,64.32649796790076,15.221724958436933,0.0,1.0,0.0,0.0,1.0,Taxi
23.200000000000003,-0.04063835571647753,-23.251134990485564,20.2246085609531,1.4929730080508241,0.8671329237219154,64.49939137944256,14.456349985694565,0.0,1.0,0.0,0.0,1.0,Taxi
23.3,-0.004078595927820256,-17.331902756255484,20.117778688405235,1.4107724138943156,-0.1646144005350214,64.36348166774656,15.228332445150427,0.0,1.0,0.0,0.0,1.0,Taxi
23.400000000000002,-0.018647646686565624,43.23784338692442,20.704971006886197,1.4841549975491064,0.1640434196492854,64.35988698891293,15.514929765905267,0.0,1.0,0.0,0.0,1.0,Taxi
23.5,0.17555086121814462,23.628805974120127,18.140543984197045,1.8411975483507947,0.0055663053005267586,64.22542370891904,14.898790402859285,0.0,1.0,0.0,0.0,1.0,Taxi
23.6,0.11406543394278044,40.167782121386146,19.058498001368612,1.6264012341737788,-0.2359770262584253,64.45328800665698,15.561909751687068,0.0,1.0,0.0,0.0,1.0,Taxi
23.700000000000003,0.18219126392036517,-37.77188852102922,20.850785804586874,1.2368719382922215,-0.6772260975915548,64.41361448305878,15.26520177509061,0.0,1.0,0.0,0.0,1.0,Taxi
23.8,-0.013308581387001438,-11.642221592860423,20.568277377143385,1.640871243476378,-0.3447471056873342,64.45818818519854,15.196546570829188,0.0,1.0,0.0,0.0,1.0,Taxi
23.900000000000002,0.05585432597847837,-50.42132998552693,20.145362040181237,1.7151086293990534,-0.4675186628922725,64.40596814651144,14.646749676120148,0.0,1.0,0.0,0.0,1.0,Taxi
24.0,-0.06991538600726942,-17.879606866884984,19.453013515488216,1.7560726645901448,-0.368494633807456,64.68920862032854,15.68386889355589,0.0,1.0,0.0,0.0,1.0,Taxi
24.1,-0.10270661572142631,-52.313493820601906,20.094839264450282,1.2533531228509323,-0.16767658073790348,64.42709934123263,15.212197915002182,0.0,1.0,0.0,0.0,1.0,Taxi
24.200000000000003,-0.20571314312453112,8.043829068677292,21.047917132196652,1.2616380954417323,-0.21163399334749344,64.47669095633694,14.86397257253543,0.0,1.0,0.0,0.0,1.0,Taxi
24.3,-0.02969624066388292,-4.787986332142784,20.983535619037525,1.4943228973987281,0.7462167458317236,64.52060392380702,15.268511415623463,0.0,1.0,0.0,0.0,1.0,Taxi
24.400000000000002,-0.12664654738214018,24.34372766467463,21.252076600125637,1.2117954682663101,-0.12333528728726952,64.44755776193057,15.689924833770974,0.0,1.0,0.0,0.0,1.0,Taxi
24.5,-0.0839945048011579,37.642259936260835,19.853487749400177,1.538157404616225,0.20126453569557096,64.59030081178634,15.42374878853158,0.0,1.0,0.0,0.0,1.0,Taxi
24.6,0.15851505901742133,40.65605450869207,18.599506390184807,1.5701807605122255,-0.4701294026187782,64.40334703045704,15.17660615503325,0.0,1.0,0.0,0.0,1.0,Taxi
24.700000000000003,0.07663372516132023,53.49980339322803,19.518095887054834,1.6681596253642568,0.676507711185005,64.38936930022703,15.172849689623321,0.0,1.0,0.0,0.0,1.0,Taxi
24.8,0.18350451216498226,7.900552733242367,20.250911427553977,1.5977481259765185,0.492046646084658,64.55561025525856,15.837510207071675,0.0,1.0,0.0,0.0,1.0,Taxi
24.900000000000002,0.1980178226836332,-24.876026502577037,20.3666900792567,1.4009110327443146,-0.854202836874388,64.2864225937816,15.3233296196995,0.0,1.0,0.0,0.0,1.0,Taxi
25.0,-0.047746407351564914,-63.571580381347275,20.13988341001723,1.3378768439513875,0.32261757083383397,64.49705489481835,15.9895402728703,0.0,1.0,0.0,0.0,1.0,Taxi
25.1,-0.13435338974175404,-52.99276103883403,20.897114620614833,1.900933524414801,-0.4697890199053322,64.48400453156881,15.086293467700328,0.0,1.0,0.0,0.0,1.0,Taxi
25.200000000000003,-0.0669459825105369,-9.930264488789888,19.398808014482633,1.6093909146940366,-0.18661499195406156,64.45082694693258,14.374830045292478,0.0,1.0,0.0,0.0,1.0,Taxi
25.3,-0.0973977297955143,45.26336723647586,19.894230900882448,1.3827020867355662,-0.41913100560284855,64.36447448624585,15.191621623933486,0.0,1.0,0.0,0.0,1.0,Taxi
25.400000000000002,0.09196344644062526,6.311292023031328,19.6863857783476,1.9765451186050773,-0.35011956623252594,64.41165305630562,14.776795792675545,0.0,1.0,0.0,0.0,1.0,Taxi
25.5,-0.03538952239538023,21.4265318209896,20.24429241061142,2.055972927667191,0.3092633479139355,64.40498317476755,16.151032458968803,0.0,1.0,0.0,0.0,1.0,Taxi
25.6,0.009734929309433748,4.022559873825689,19.409103552934283,1.732551953741059,-0.14311612351162545,64.43074452198152,14.91303707868587,0.0,1.0,0.0,0.0,1.0,Taxi
25.700000000000003,0.11207624580975376,3.0565795940127742,21.041332110803644,1.4283513046718275,0.37120212897351146,64.30400745340603,15.375254093127811,0.0,1.0,0.0,0.0,1.0,Taxi
25.8,-0.020106624425316324,18.71194927678279,20.362406268141513,1.4579405894944104,-0.04459831695067459,64.44323570093036,14.976683019108027,0.0,1.0,0.0,0.0,1.0,Taxi
25.900000000000002,0.10329467569334772,-27.90185252461016,20.919682275925833,1.5431514489098337,-0.4073767615265962,64.51071131210523,15.517210068298047,0.0,1.0,0.0,0.0,1.0,Taxi
26.0,-0.027433016813296997,-29.64133831079802,20.256879346779552,1.5450505541310642,-0.3571438241778448,64.42414836422233,15.228195204221759,0.0,1.0,0.0,0.0,1.0,Taxi
26.1,-0.16831331597930638,6.664567752236697,19.83146035931433,1.8728542773432335,0.23927389654471046,64.24587008788859,14.617660287430066,0.0,1.0,0.0,0.0,1.0,Taxi
26.200000000000003,0.13661751445453127,23.31973107924117,19.432142831728513,1.4916341023176032,-0.4834141709769166,64.54573908960504,16.030871154897234,0.0,1.0,0.0,0.0,1.0,Taxi
26.3,0.08916563858290892,25.15139708332849,19.650776530181954,1.7248036209521633,0.19254965427101167,64.53072432040841,15.609521231993043,0.0,1.0,0.0,0.0,1.0,Taxi
26.400000000000002,-0.042556330562663905,-12.827283752748565,20.729845466918782,1.194194216328414,-0.08023958820405137,64.47611624491032,15.091398374369097,0.0,1.0,0.0,0.0,1.0,Taxi
26.5,0.07248109569078844,-55.744010530912135,19.193152308124823,1.5346483093340246,-1.2233943531907407,64.45323950560163,14.167862705531878,0.0,1.0,0.0,0.0,1.0,Taxi
26.6,-0.18955441407165174,35.49016696266061,19.320377907575143,1.491338668243723,0.5650979499610049,64.44340730284375,15.782473774202266,0.0,1.0,0.0,0.0,1.0,Taxi
26.700000000000003,0.1348945042506391,-11.08451600408633,19.500367440880446,1.7317327411320953,0.053039057401508084,64.61623452779179,15.811182276692007,0.0,1.0,0.0,0.0,1.0,Taxi
26.8,0.01705851567035674,46.253103212502786,20.182064577979403,1.7971316944156817,0.8309013457604238,64.63121602237231,15.488690296145284,0.0,1.0,0.0,0.0,1.0,Taxi
26.900000000000002,0.041711101990862115,-20.992173846324377,20.2071967979474,1.9847382970375098,0.3420059631067111,64.54240150656267,14.777376467203121,0.0,1.0,0.0,0.0,1.0,Taxi
27.0,0.02993363501901718,-57.7275055105061,20.43269325053941,1.8468573940358828,0.2577777110709874,64.22824548506503,15.409665286214874,0.0,1.0,0.0,0.0,1.0,Taxi
27.1,-0.27157901188217376,-31.297102948530952,20.008465292633115,1.3870583665527183,0.16034837408527958,64.49928885245362,15.468443368640452,0.0,1.0,0.0,0.0,1.0,Taxi
27.200000000000003,-0.11477441275179263,15.811233915723628,20.153010836881364,1.3001313190882193,0.6287772186040818,64.3810265109575,15.40559151715177,0.0,1.0,0.0,0.0,1.0,Taxi
27.3,0.10898980459763535,37.267447081499405,20.09942095560748,1.3393600653882745,0.28357952067549363,64.50928114957378,15.220335364711355,0.0,1.0,0.0,0.0,1.0,Taxi
27.400000000000002,-0.08524177647467673,34.13685552801874,20.399441289873195,1.1680436345339675,0.43862275378882154,64.45484179679829,15.444654203438994,0.0,1.0,0.0,0.0,1.0,Taxi
27.5,0.055909864888301075,-48.84140396906589,19.63829446325629,1.2495504229046999,-0.8710353696873581,64.46076426482409,15.828796573439265,0.0,1.0,0.0,0.0,1.0,Taxi
27.6,-0.13521721524769412,-12.43548786922589,19.8955650211775,1.7189991051436222,-0.1789198597236028,64.40251083908868,15.646519493466158,0.0,1.0,0.0,0.0,1.0,Taxi
27.700000000000003,-0.14741921582080622,-28.854336776951243,21.288689082179427,1.527663569197634,0.5513945368579688,64.33255949925183,15.84239264788352,0.0,1.0,0.0,0.0,1.0,Taxi
27.8,-0.08836181899645515,29.9636053467934,20.3545569512356,1.9023307894258745,-0.31504731043126055,64.46072688440069,14.590261293751423,0.0,1.0,0.0,0.0,1.0,Taxi
27.900000000000002,0.01460081148627286,59.578453346872514,20.208169588547086,1.9999814218866496,-0.11554848774493662,64.49068942121141,15.204773201111507,0.0,1.0,0.0,0.0,1.0,Taxi
28.0,0.1504730509135563,16.020573207017865,21.247832601966188,1.6101702870833074,-0.3240063190693104,64.45418816488137,15.357679555597327,0.0,1.0,0.0,0.0,1.0,Taxi
28.1,-0.008258952961365836,19.031705204533868,20.352585984736745,1.610556222353036,0.027483131384371917,64.44838283118253,14.902625785499097,0.0,1.0,0.0,0.0,1.0,Taxi
28.200000000000003,0.10975933750894218,-60.226112812127944,20.24991533290355,1.844630732805809,0.3560688807836963,64.52762219944759,14.899500545229856,0.0,1.0,0.0,0.0,1.0,Taxi
28.3,-0.15065751314708345,-10.077909445526743,19.423332982441014,1.5949903982325497,0.08186972065353884,64.42613641287699,15.634924144013809,0.0,1.0,0.0,0.0,1.0,Taxi
28.400000000000002,-0.05864850018899958,-27.144143583797327,21.325298869942536,1.6932302195106672,-0.5143093035973932,64.61363908045365,14.865141875476738,0.0,1.0,0.0,0.0,1.0,Taxi
28.5,-0.02596138041004449,11.835694133256851,21.82821000387363,1.5044453746957622,-0.6933213551569312,64.48013657644509,15.418855612222927,0.0,1.0,0.0,0.0,1.0,Taxi
28.6,-0.0914790424807992,11.671072992447543,19.669735565477488,1.493028265795893,-0.38666802914106424,64.40131117739463,15.330505240665493,0.0,1.0,0.0,0.0,1.0,Taxi
28.700000000000003,-0.00029313522676187526,-29.953120336913916,20.615802288539808,1.3076921746362156,-0.976359091028928,64.5228769704388,15.326680076558441,0.0,1.0,0.0,0.0,1.0,Taxi
28.8,-0.1757269820946141,-24.122297661908615,19.693488766383286,1.2177277154106356,0.699824496490703,64.50422302685837,16.58391344443965,0.0,1.0,0.0,0.0,1.0,Taxi
28.900000000000002,-0.2120905307903423,5.675082614144088,19.55296597633685,1.9092355843130187,0.1113645207426855,64.5027623451466,15.00787338373815,0.0,1.0,0.0,0.0,1.0,Taxi
29.0,0.02808227784395852,37.39384824389223,19.301824135019658,1.3339280261166473,0.7626252217335249,64.34529474222222,15.746321280185866,0.0,1.0,0.0,0.0,1.0,Taxi
29.1,0.011242259124846991,44.10938132824779,19.78588757515506,1.5591716290005029,-0.02140430508436722,64.56315573161282,15.516432871532796,0.0,1.0,0.0,0.0,1.0,Taxi
29.200000000000003,0.00845637585089663,21.75320345922681,19.565348069925065,1.5577780910761931,0.10351417988007885,64.29505256948676,15.480339701289997,0.0,1.0,0.0,0.0,1.0,Taxi
29.3,0.13684829514009253,2.612059329677701,20.39388261087614,1.354622847314847,-0.7492591517440816,64.35940286707239,15.05744997123999,0.0,1.0,0.0,0.0,1.0,Taxi
29.400000000000002,0.024302555773235476,-5.33050823333749,20.477205667387388,1.6856560509326484,0.5696602401224671,64.53588228078922,14.7419417272856,0.0,1.0,0.0,0.0,1.0,Taxi
29.5,-0.01819616531579085,-37.22078169166726,19.956659372705417,1.565150624948888,0.7978116809384548,64.523690299061,15.738736697921764,0.0,1.0,0.0,0.0,1.0,Taxi
29.6,-0.04925561331824378,-0.1282479374823519,19.20633091572646,1.5955107004980167,-0.4775519356328274,64.347476560122,15.071831015039201,0.0,1.0,0.0,0.0,1.0,Taxi
29.700000000000003,0.023661316085823687,23.16785631110987,20.017303167731967,1.4849810435781479,-0.4129998254186683,64.41239820659854,15.17308507025275,0.0,1.0,0.0,0.0,1.0,Taxi
29.8,0.09764311623975847,33.829618410689825,20.287367152933715,1.729212418037274,0.38341466617691955,64.42140571891224,15.4246430610242,0.0,1.0,0.0,0.0,1.0,Taxi
29.900000000000002,0.11989247873520531,0.5872978993423033,21.231204784407492,1.4648190937898655,0.26835355389417465,64.52273435914049,14.485182547875636,0.0,1.0,0.0,0.0,1.0,Taxi
30.0,0.026597805582535158,-42.547517976287004,21.179177543323675,1.694368655456255,-0.17396829786348433,64.48709590404565,15.570328853390853,0.0,1.0,0.0,0.0,1.0,Taxi
30.1,-0.1150944736416766,-25.39795251728299,20.015655150784298,1.734016844883982,-0.19031761534894834,64.39903398256956,14.50617846327864,0.0,1.0,0.0,0.0,1.0,Taxi
30.200000000000003,-0.007097283851209692,-43.8948985937318,19.782569730913437,1.9105702169032015,0.4583405547712884,64.34094529553664,15.41091407647886,0.0,1.0,0.0,0.0,1.0,Taxi
30.3,-0.19287668738612387,2.4756752633440655,19.430157618176487,1.3650341096775989,0.9184067348863384,64.68274952795389,16.23602058768846,0.0,1.0,0.0,0.0,1.0,Taxi
30.400000000000002,-0.10271609732495629,-4.877766822883231,19.525519641920756,1.4206107486546724,0.4507081870849873,64.24410544329072,15.06622956091594,0.0,1.0,0.0,0.0,1.0,Taxi
30.5,-0.03148611796562586,26.85085278460461,19.66349914084072,1.3503043326448672,0.5933792428566214,64.44586773253286,15.693003468437448,0.0,1.0,0.0,0.0,1.0,Taxi
30.6,-0.05862242346310084,4.06592225591337,19.329031984453913,1.6103032977196026,0.32016440104191835,64.28899516397973,15.420137515224509,0.0,1.0,0.0,0.0,1.0,Taxi
30.700000000000003,-0.08238648604538945,-25.42445710996265,20.045144569991738,1.2755849045490304,-0.8885446363426559,64.62606482260082,14.76744756468148,0.0,1.0,0.0,0.0,1.0,Taxi
30.8,-0.15860840351543914,12.031279073024708,20.617063927006683,1.5857991046086952,0.857611816629924,64.41181880067546,13.603567438686,0.0,1.0,0.0,0.0,1.0,Taxi
30.900000000000002,0.0015339719020226704,47.870013438149236,19.555112972806114,1.6471963605011328,0.34319766216478764,64.57418092407084,15.431696479309021,0.0,1.0,0.0,0.0,1.0,Taxi
31.0,0.15696358114535672,12.280773041472116,19.60500704311244,1.5910136185762418,-0.1851094769708229,64.38346538624955,14.639178392292557,0.0,1.0,0.0,0.0,1.0,Taxi
31.1,-0.09720453830807861,11.03048161795293,19.933278001264142,1.5759652475516504,-0.45698696111995935,64.4846793659047,15.519972590657412,0.0,1.0,0.0,0.0,1.0,Taxi
31.200000000000003,0.05668637999178727,8.274131246304057,20.751185793387734,1.4754623867700791,-0.25717887797612254,64.34845437339095,15.684629878286747,0.0,1.0,0.0,0.0,1.0,Taxi
31.3,0.19833423737687694,-9.434636545119512,19.943853156031892,1.660545955712901,0.26577715436944194,64.49989734739285,16.825606290652914,0.0,1.0,0.0,0.0,1.0,Taxi
31.400000000000002,-0.14437772103367624,-17.888975897197398,20.270244611227405,1.4834579590396224,-1.0566087718679846,64.68696422066637,15.953336359434969,0.0,1.0,0.0,0.0,1.0,Taxi
31.5,-0.032758499494199754,-29.184658316938926,21.07817398313714,1.865746661189976,0.17442087544927298,64.55274954625094,14.752251098776847,0.0,1.0,0.0,0.0,1.0,Taxi
31.6,0.052410945792182244,30.30213792943395,19.327365737581005,1.5373929171425922,0.3748895322109515,64.36114576367311,15.234266696550034,0.0,1.0,0.0,0.0,1.0,Taxi
31.700000000000003,0.007132968613493464,-4.0668251860251035,19.18361517357244,1.2855252419100016,-0.7461749821609983,64.42228279966491,16.024894126642433,0.0,1.0,0.0,0.0,1.0,Taxi
31.8,-0.0530926254243253,-51.60691788638829,20.506109278509815,1.72410896721117,-0.30342740856770345,64.43792861287926,15.709912779011894,0.0,1.0,0.0,0.0,1.0,Taxi
31.900000000000002,-0.2056236436397592,9.484418197927653,19.644635933029594,1.8337110940539063,-0.560718187765351,64.49707289817422,15.674149708651067,0.0,1.0,0.0,0.0,1.0,Taxi
32.0,0.05455505960313171,40.6481572071735,19.714302885950353,1.533471212687181,0.2841197142025574,64.56398468761154,15.56101867327371,0.0,1.0,0.0,0.0,1.0,Taxi
32.1,0.15014816061154215,48.753891541098746,19.450756204153574,1.8986466717647872,1.0024729568367248,64.4083632271778,14.787511321935234,0.0,1.0,0.0,0.0,1.0,Taxi
32.2,0.038145814065734536,-16.541352183077244,20.538058922618053,1.8343918508621189,-0.2372814327302161,64.42825214464222,14.659139320103257,0.0,1.0,0.0,0.0,1.0,Taxi
32.300000000000004,-0.028151701312254543,15.790421557514728,19.743023242383803,1.3459023976964306,-0.05120997839716467,64.50716739591064,15.791248499249129,0.0,1.0,0.0,0.0,1.0,Taxi
32.4,0.2291002683991158,-19.825436311088207,21.35925477659547,1.5004462428074956,-0.1375356295407271,64.44828955339415,15.883419785661411,0.0,1.0,0.0,0.0,1.0,Taxi
32.5,-0.06098136748970652,29.56779922494937,19.91002052819799,1.4662377300725518,-0.6229075742037345,64.60450676698179,16.2014766397959,0.0,1.0,0.0,0.0,1.0,Taxi
32.6,0.11968729481249228,-13.825537913072852,19.099870962115098,1.7024666967631734,-0.44791948730217596,64.47080233921668,15.399665810272195,0.0,1.0,0.0,0.0,1.0,Taxi
32.7,0.1599725788337515,3.7201762757393055,20.02245353314615,1.6635234928879359,0.27745513341024053,64.53735978336766,14.730200717021662,0.0,1.0,0.0,0.0,1.0,Taxi
32.800000000000004,-0.04238048611101005,-47.95102036866422,19.6818487568135,1.7657644653722646,-0.0701583410811064,64.47637055815301,15.82430036188773,0.0,1.0,0.0,0.0,1.0,Taxi
32.9,-0.1200678070308289,-29.4540404009856,19.29500584727838,1.8504917730039736,0.583984533227977,64.63095845082717,15.293837040930727,0.0,1.0,0.0,0.0,1.0,Taxi
33.0,0.012702376828823409,1.445949889512794,19.114961671376353,1.6434526474419602,0.07764539419739852,64.49852144768579,15.42351596208743,0.0,1.0,0.0,0.0,1.0,Taxi
33.1,-0.035150736663446154,37.19856539726222,20.10765228771448,1.6762918767304662,0.02844238107462194,64.69761807216003,14.665083240288435,0.0,1.0,0.0,0.0,1.0,Taxi
33.2,0.06592501995548215,1.2451562873776467,19.654805019342607,1.6091680670434862,0.13715135522873403,64.50578183937222,15.621161862030648,0.0,1.0,0.0,0.0,1.0,Taxi
33.300000000000004,0.01892815826571156,9.28853568862266,20.859377255022167,1.54741469152914,0.9564309933234031,64.54577163974966,15.56522949446166,0.0,1.0,0.0,0.0,1.0,Taxi
33.4,0.011291941779667067,22.976562397317768,19.773794978328933,1.4962772926130725,-1.0623716732115955,64.58477679789365,16.018434771617912,0.0,1.0,0.0,0.0,1.0,Taxi
33.5,0.18080783194207095,34.88897450155125,19.88053677968321,1.6287317631641254,-0.49554735160896024,64.55576121467993,15.130224057884528,0.0,1.0,0.0,0.0,1.0,Taxi
33.6,0.19337303077346776,26.554888021084395,20.54606987582975,1.663700160584745,0.044428593550872905,64.64389524989696,15.406735244830346,0.0,1.0,0.0,0.0,1.0,Taxi
33.7,0.144066381885089,-82.04095860188143,18.976810928682376,1.5163918000318166,-0.03288391961924898,64.4454806754328,15.778811897896698,0.0,1.0,0.0,0.0,1.0,Taxi
33.800000000000004,-0.22939696106733623,-26.82771618382306,19.718456840540217,1.518748541617801,0.5219969464824671,64.41658160726502,15.818486352931213,0.0,1.0,0.0,0.0,1.0,Taxi
33.9,0.05923444985435236,-47.95577759696183,19.12928375917602,1.6155074074098,0.028479525950034258,64.54011057420263,15.776739622794679,0.0,1.0,0.0,0.0,1.0,Taxi
34.0,-0.09571250609972022,53.36637598118566,19.38200889908406,1.7219300659371422,0.32553134261266314,64.45706263907812,15.305771332768911,0.0,1.0,0.0,0.0,1.0,Taxi
34.1,0.03743491883859201,-9.015983514767614,19.184441088474905,1.8464029901368657,-0.1427186826722218,64.27887277816342,14.635315329385113,0.0,1.0,0.0,0.0,1.0,Taxi
34.2,0.014154532280514238,16.364476484324683,19.833358985311154,1.5914394320830392,0.2047899199532335,64.40200353297683,15.787441550408026,0.0,1.0,0.0,0.0,1.0,Taxi
34.300000000000004,-0.013890123678096881,-29.839858959032217,20.62481539777214,1.8477155836047552,0.46104416668881804,64.53688883146697,14.944834440298443,0.0,1.0,0.0,0.0,1.0,Taxi
34.4,-0.11176437595656914,33.86612087315998,20.803413078787596,1.7621196349776784,-0.5523593276186851,64.51277075214188,14.92308792403922,0.0,1.0,0.0,0.0,1.0,Taxi
34.5,0.18348513664631402,-39.74697079726923,19.795904090416787,1.715540595037331,-0.13855109543037178,64.65285081501622,15.019288483964246,0.0,1.0,0.0,0.0,1.0,Taxi
34.6,-0.2126249776644431,33.72071219434251,19.71527201863303,1.3903827870850944,-0.30762144241530587,64.4474816280055,15.963062969384248,0.0,1.0,0.0,0.0,1.0,Taxi
34.7,0.05683918501514334,-28.036997610153957,19.256364061704577,1.3184371338795309,0.2562801780871827,64.32271352124928,14.816689268213294,0.0,1.0,0.0,0.0,1.0,Taxi
34.800000000000004,0.0433001485955442,10.389087168225387,20.828588791438673,1.4878299871382383,0.29281844203037993,64.52191029151345,15.844919784883725,0.0,1.0,0.0,0.0,1.0,Taxi
34.9,-0.16067954182331623,-26.17885887017191,20.79041976407684,1.452223162840429,0.29887323653300374,64.56449875923096,14.969095197605393,0.0,1.0,0.0,0.0,1.0,Taxi
35.0,-0.07405510933571628,-15.197347267248404,20.10654022510133,1.5172893085579553,0.11562817865105963,64.66772801728928,15.128676828264572,0.0,1.0,0.0,0.0,1.0,Taxi
35.1,-0.03268658774069789,52.07163179410244,20.970088239184275,1.459915537796555,-0.043958118407308386,64.45841518057114,15.003416976075153,0.0,1.0,0.0,0.0,1.0,Taxi
35.2,0.09967861714719588,-5.589893555347463,20.42309354576412,1.6024503138996773,-0.3070742401908082,64.47109569323925,15.79840526768498,0.0,1.0,0.0,0.0,1.0,Taxi
35.300000000000004,-0.10200457711245373,-0.13782408595186743,20.051259442434787,1.9617434613349483,0.3908449459460541,64.47477335228291,15.633572835097965,0.0,1.0,0.0,0.0,1.0,Taxi
35.4,-0.03337570817045735,-40.20033964650511,20.5232772437034,1.9563187680932859,0.05225972998092336,64.8348521336743,15.502009375677936,0.0,1.0,0.0,0.0,1.0,Taxi
