time_s,altitude_ft,vertical_speed_fpm,ias_kt,pitch_deg,roll_deg,heading_deg,throttle_pct,afterburner_on,gear_down,flaps_deg,speedbrake_pct,weight_on_wheels,label
0.0,-2.31560829257668,-662.2132646179405,160.01631946630314,0.5807354833819613,-0.32292575028721315,171.45908292533397,43.585260649394094,0.0,1.0,18.951743264948174,10.28704890597808,0.0,Landing
0.1,-4.522985841303148,-905.7887789227319,162.41414728467913,0.3061874343572205,-0.41720092351567345,171.5854384623584,43.758467726621504,0.0,1.0,18.951743264948174,10.28704890597808,0.0,Landing
0.2,-6.844552187190339,-1356.8377783464819,162.69428137080055,0.5904506416407402,-0.41244937411029986,171.6856561521845,43.33348501704888,0.0,1.0,18.951743264948174,10.28704890597808,0.0,Landing
0.30000000000000004,-9.09979718430909,-1344.6098375360714,163.1370858358438,0.47132270886918975,-0.26824491459279515,171.7013924479378,43.29229376443044,0.0,1.0,18.951743264948174,10.28704890597808,0.0,Landing
0.4,-11.246035028983504,-1316.9820134517574,161.57098893731515,0.6865723098449512,-0.6159309731970315,171.4546423163839,43.631757104692696,0.0,1.0,18.951743264948174,10.28704890597808,0.0,Landing
0.5,-13.429462254449126,-1321.9984247635844,160.31592788814564,0.7787968327350063,-0.5585518951713021,171.63806105830315,43.467414335095796,0.0,1.0,18.951743264948174,10.28704890597808,0.0,Landing
0.6000000000000001,-15.70978930812701,-1330.919133389296,160.95837184894407,0.38348157649261944,-0.3614004432247031,171.76743804875582,42.8900725027736,0.0,1.0,18.951743264948174,10.28704890597808,0.0,Landing
0.7000000000000001,-17.900630695929983,-1347.277443338501,163.05332635896784,0.39842150377764474,-0.4184844195164982,171.2481938916343,43.67930737854521,0.0,1.0,18.951743264948174,10.28704890597808,0.0,Landing
0.8,-20.16584947114163,-1323.5069020118083,161.709259257436,-0.13521381836664076,-0.09171937071612862,171.54441513902407,42.90526617470725,0.0,1.0,18.951743264948174,10.28704890597808,0.0,Landing
0.9,-22.327323818186052,-1319.9265490556784,162.62340152384576,0.5881502083094641,0.01571086824512069,171.5610632205936,44.04630162582841,0.0,1.0,18.951743264948174,10.28704890597808,0.0,Landing
1.0,-24.500263441208375,-1316.0634325370418,164.78320275315255,0.36929093876312724,-0.29444796675445334,171.5746896933698,43.17229485310345,0.0,1.0,18.951743264948174,10.28704890597808,0.0,Landing
1.1,-26.74616663382684,-1325.791827671984,161.69916550010038,0.38599388153771175,-0.5470333732143402,171.5647221960753,43.31943127422489,0.0,1.0,18.951743264948174,10.28704890597808,0.0,Landing
1.2000000000000002,-28.956282956545973,-1323.2079852664313,161.68322776351553,0.42008404246919984,-0.16395576333895176,171.4098658502976,43.30238961238965,0.0,1.0,18.951743264948174,10.28704890597808,0.0,Landing
1.3,-31.11630336754053,-1302.040241667828,160.3586292202313,0.3452727781971653,-0.683620814006914,171.77161550609128,42.99939123924102,0.0,1.0,18.951743264948174,10.28704890597808,0.0,Landing
1.4000000000000001,-33.25636784216598,-1314.0745784051694,162.8596025368411,0.3740389343332638,-0.14687602827574048,171.50912893551003,43.18615000578739,0.0,1.0,18.951743264948174,10.28704890597808,0.0,Landing
1.5,-35.52665584857182,-1340.6899001923691,161.38772010569028,0.314948755337681,0.006732733139674152,171.64441180607866,43.00809086250264,0.0,1.0,18.951743264948174,10.28704890597808,0.0,Landing
1.6,-37.81975286850238,-1370.522472709793,163.1271103578161,0.41810444310900463,-0.13382213550652372,171.53371844889853,43.322930581353226,0.0,1.0,18.951743264948174,10.28704890597808,0.0,Landing
1.7000000000000002,-40.10898020571494,-1363.9862739709642,163.07080230846296,0.544152159861134,-0.1823165450693907,171.65526016504805,42.4605694392543,0.0,1.0,18.951743264948174,10.28704890597808,0.0,Landing
1.8,-42.34658721842664,-1344.6610631527421,161.82663116907008,0.2381960241048705,-0.19287542108895045,171.61144855736916,43.21643779917719,0.0,1.0,18.951743264948174,10.28704890597808,0.0,Landing
1.9000000000000001,-44.54305818426609,-1327.2118452813872,164.22161898614908,0.2761636745949742,-0.3826731279067481,171.7790362765436,43.56112350113435,0.0,1.0,18.951743264948174,10.28704890597808,0.0,Landing
2.0,-46.74503943212188,-1318.9311451814476,161.33237024608775,0.502898137310738,-0.4578796202946517,171.46861226180204,43.567341549523185,0.0,1.0,18.951743264948174,10.28704890597808,0.0,Landing
2.1,-48.94124294433388,-1297.665667835679,161.12171168203844,0.5494202895597653,-0.17728029169847487,171.72432754915621,43.7242439126138,0.0,1.0,18.951743264948174,10.28704890597808,0.0,Landing
2.2,-51.03138652344448,-1298.7986516378655,161.09164661593448,0.20959818851393855,0.017415761981720734,171.51814291588153,43.38367929568749,0.0,1.0,18.951743264948174,10.28704890597808,0.0,Landing
2.3000000000000003,-53.239032690311205,-1303.1813672045275,161.99028705728412,0.30429134126071705,-0.5619369383141548,171.40471743585078,43.490957506329764,0.0,1.0,18.951743264948174,10.28704890597808,0.0,Landing
2.4000000000000004,-55.45714978035652,-1326.101663791863,163.09838651881796,0.4956272276687892,-0.2930606610338306,171.62438809751995,43.109834598887616,0.0,1.0,18.951743264948174,10.28704890597808,0.0,Landing
2.5,-57.6618948424038,-1329.0684997173273,160.4838984892884,0.579451466872543,-0.08363548970892792,171.63600607958483,42.99952099182572,0.0,1.0,18.951743264948174,10.28704890597808,0.0,Landing
2.6,-59.88437518889784,-1328.196655565631,161.06396612993098,0.4727164903514012,-0.40694835998365864,171.4683450747557,43.55848549887212,0.0,1.0,18.951743264948174,10.28704890597808,0.0,Landing
2.7,-62.09813305818467,-1311.6928069333028,161.85405862797037,0.3976978743352535,-0.3390012929488878,171.54665353576456,44.1173456230264,0.0,1.0,18.951743264948174,10.28704890597808,0.0,Landing
2.8000000000000003,-64.22035887707031,-1299.5403979460534,162.37258555377736,0.18386969536253553,-0.5183303569342643,171.4492539149287,43.53855212993273,0.0,1.0,18.951743264948174,10.28704890597808,0.0,Landing
2.9000000000000004,-66.38207717862811,-1288.0196588894962,160.19722835093972,0.3377281946763107,-0.07090437942032968,171.74792339935675,43.15734752399132,0.0,1.0,18.951743264948174,10.28704890597808,0.0,Landing
3.0,-68.53823135263215,-1315.2545779170653,161.59301541343828,0.5369977502844329,-0.3568530285026456,171.45628006880645,43.26619405235797,0.0,1.0,18.951743264948174,10.28704890597808,0.0,Landing
3.1,-70.79663176665564,-1301.2668423950884,161.60287030875577,0.3605114638404155,-0.2663573504686045,171.48761081033763,43.47329267176639,0.0,1.0,18.951743264948174,10.28704890597808,0.0,Landing
3.2,-72.88841139060355,-1301.1475565194105,162.2647966350539,0.9401871847951612,-0.16064602952453297,171.54458950049093,43.53142012069924,0.0,1.0,18.951743264948174,10.28704890597808,0.0,Landing
3.3000000000000003,-75.0439691352292,-1286.207314313566,160.62764878236862,0.37547869190350375,-0.4672879969618774,171.76338455464236,43.48639629052175,0.0,1.0,18.951743264948174,10.28704890597808,0.0,Landing
3.4000000000000004,-77.22766833822347,-1304.0231852650834,161.25024413308574,0.2859591045048867,-0.1127568892168973,171.34815409271437,42.90517193258956,0.0,1.0,18.951743264948174,10.28704890597808,0.0,Landing
3.5,-79.40852731692897,-1311.1451538300798,160.47033412791998,0.26562324151393507,-0.3942376448164982,171.45556935380205,43.43331575047383,0.0,1.0,18.951743264948174,10.28704890597808,0.0,Landing
3.6,-81.5996949043796,-1316.6403741937386,162.2445091663525,0.512900136441136,-0.6299235076844849,171.41068321245098,43.326780415467276,0.0,1.0,18.951743264948174,10.28704890597808,0.0,Landing
3.7,-83.81087020919216,-1302.5984545071196,160.18991751350057,0.06997793836775429,-0.2768599716176159,171.42202899433028,43.42095190474216,0.0,1.0,18.951743264948174,10.28704890597808,0.0,Landing
3.8000000000000003,-85.92151958946457,-1308.298417559385,162.22543989499363,-0.030733815531795328,0.07606649897725387,171.37585701029502,42.879641600690896,0.0,1.0,18.951743264948174,10.28704890597808,0.0,Landing
3.9000000000000004,-88.14118699217653,-1285.6360038353444,161.75185681963836,0.3236821759643292,-0.6242870277210193,171.48100298683676,43.60289666832137,0.0,1.0,18.951743264948174,10.28704890597808,0.0,Landing
4.0,-90.23905022836888,-1312.891758003994,162.39621250354608,0.44866874002411944,-0.2693576155199151,171.67872077405582,43.68928597789376,0.0,1.0,18.951743264948174,10.28704890597808,0.0,Landing
4.1000000000000005,-92.48597837948454,-1297.2307778700554,162.0311249323059,0.13589218964705932,-0.0637705190068163,171.5021011700768,43.15419748929713,0.0,1.0,18.951743264948174,10.28704890597808,0.0,Landing
4.2,-94.6273408815268,-1315.1929463935858,162.92602302373226,0.7235321464047517,0.0054055481015105045,171.54976712298867,42.8330758947056,0.0,1.0,18.951743264948174,10.28704890597808,0.0,Landing
4.3,-96.81501496033681,-1311.573138785664,162.04044003647215,0.2973180487967975,-0.05921620599805574,171.5624242774693,43.545773169508976,0.0,1.0,18.951743264948174,10.28704890597808,0.0,Landing
4.4,-99.04384407341286,-1336.110686723262,161.91789256671606,0.02637078345323096,-0.4432257268919523,171.676013638658,42.8927889333497,0.0,1.0,18.951743264948174,10.28704890597808,0.0,Landing
4.5,-101.30789431514312,-1331.3172716336283,160.6169165731353,0.4013136293532523,-0.5578653665440029,171.57424623317058,43.46583185780457,0.0,1.0,18.951743264948174,10.28704890597808,0.0,Landing
4.6000000000000005,-103.47160131850495,-1313.1358185285874,160.25227603014062,0.553731356832778,-0.2510306343926383,171.46311762416371,42.514135707878665,0.0,1.0,18.951743264948174,10.28704890597808,0.0,Landing
4.7,-105.6095231660558,-1286.5683924341001,163.04656402660942,-0.0836594963506434,-0.2504157926157915,171.66062560963655,43.41646162650608,0.0,1.0,18.951743264948174,10.28704890597808,0.0,Landing
4.800000000000001,-107.74073627731362,-1263.1263099485154,161.2525493641028,0.4814886049248519,-0.42030137021337255,171.80125282062772,43.13087505737273,0.0,1.0,18.951743264948174,10.28704890597808,0.0,Landing
4.9,-109.78723286824753,-1261.624724035903,162.0812146350877,0.2988176311088622,-0.3334506175366474,171.62052206090493,43.620731031866086,0.0,1.0,18.951743264948174,10.28704890597808,0.0,Landing
5.0,-111.91764678623531,-1271.1804764550152,163.52422822018775,0.40936710523739633,-0.4697268519735884,171.4332322267835,42.908049980803185,0.0,1.0,18.951743264948174,10.28704890597808,0.0,Landing
5.1000000000000005,-114.09663865958869,-1293.5054873333968,161.85672286442895,0.44891932435440396,-0.2048622057267549,171.77975150213433,43.45085333186086,0.0,1.0,18.951743264948174,10.28704890597808,0.0,Landing
5.2,-116.25476030491451,-1281.3544748616978,162.77045590621856,-0.05255047930349177,-0.22389166201573146,171.59724755404454,43.523033458218755,0.0,1.0,18.951743264948174,10.28704890597808,0.0,Landing
5.300000000000001,-118.3244191605438,-1269.5619118839375,160.35767039347263,0.4572690094431069,-0.4543333806640537,171.57301166560933,43.087226486678055,0.0,1.0,18.951743264948174,10.28704890597808,0.0,Landing
5.4,-120.44444821900838,-1258.2364750726667,162.3219741809496,0.4051571569446588,0.13525487765307365,171.52341174392768,43.860287842947685,0.0,1.0,18.951743264948174,10.28704890597808,0.0,Landing
5.5,-122.54594268027785,-1272.071100458038,162.1774813657824,0.2763280302953376,-0.3976972659193691,171.75813462445774,43.46268993879671,0.0,1.0,18.951743264948174,10.28704890597808,0.0,Landing
5.6000000000000005,-124.68477466283399,-1270.9059874540314,162.28259956672724,0.4871290980631915,-0.43513028722492264,171.527032454724,43.57875235824721,0.0,1.0,18.951743264948174,10.28704890597808,0.0,Landing
5.7,-126.79897815627854,-1263.0935426015412,162.93505345612303,0.2822514687610876,-0.3411000307971034,171.63583623535487,43.07229493273982,0.0,1.0,18.951743264948174,10.28704890597808,0.0,Landing
5.800000000000001,-128.86141039328555,-1262.2827501404374,162.42975998018383,0.2870036352945336,0.11924570994507527,171.67320757810307,43.79944563851567,0.0,1.0,18.951743264948174,10.28704890597808,0.0,Landing
5.9,-130.99618841353617,-1260.1445973434465,162.0514552986429,0.20104759088161012,-0.3671318034941717,171.56824963717372,43.16556477497744,0.0,1.0,18.951743264948174,10.28704890597808,0.0,Landing
6.0,-133.09970114299577,-1271.6005376297062,159.90883322388362,0.4711368319691318,-0.26073378907115347,171.8622491323997,42.9202562755576,0.0,1.0,18.951743264948174,10.28704890597808,0.0,Landing
6.1000000000000005,-135.21941308143408,-1268.162556571417,163.09196025999233,0.45138766822466897,-0.17219030452319684,171.51230904987176,43.75914616665563,0.0,1.0,18.951743264948174,10.28704890597808,0.0,Landing
6.2,-137.33700119639326,-1269.3500049752004,162.29723335240266,0.213602107804764,-0.21036540980835836,171.4504061360592,43.31139909928096,0.0,1.0,18.951743264948174,10.28704890597808,0.0,Landing
6.300000000000001,-139.44645116787177,-1266.2967962820062,163.28407168638543,0.5840966371708355,-0.46206966665305405,171.56038909892766,43.13701475755014,0.0,1.0,18.951743264948174,10.28704890597808,0.0,Landing
6.4,-141.55089706284411,-1292.5538497817513,162.70201522047094,0.06905616894063626,-0.37646679471330274,171.4974276081116,43.510240846952144,0.0,1.0,18.951743264948174,10.28704890597808,0.0,Landing
6.5,-143.79977044530202,-1296.199527301593,162.92834660086478,-0.17282515317810443,-0.38239127728768624,171.4965977407503,43.100722361031906,0.0,1.0,18.951743264948174,10.28704890597808,0.0,Landing
6.6000000000000005,-145.92744880437974,-1287.3769530598508,162.57166760549833,0.4924153677904511,-0.6109754247461433,171.24462309184048,43.26431702569835,0.0,1.0,18.951743264948174,10.28704890597808,0.0,Landing
6.7,-147.98778182814337,-1266.2191382440596,160.9583316023498,0.5999752779698028,0.037631526625868605,171.59264361828184,43.61817389667035,0.0,1.0,18.951743264948174,10.28704890597808,0.0,Landing
6.800000000000001,-150.13086613652231,-1285.8638385697077,160.96535830167602,0.29731946174952706,-0.28447091114102485,171.49636613352232,43.083637459555405,0.0,1.0,18.951743264948174,10.28704890597808,0.0,Landing
6.9,-152.35676799722827,-1307.6866679951652,163.7157611747768,0.30980336148106286,-0.2702810480914191,171.59072717177924,43.275609042910716,0.0,1.0,18.951743264948174,10.28704890597808,0.0,Landing
7.0,-154.5262151681192,-1299.9467754298337,162.2962971198564,0.2798693853115762,-0.20770062114220222,171.52385936771134,43.93304070101625,0.0,1.0,18.951743264948174,10.28704890597808,0.0,Landing
7.1000000000000005,-156.63060001367148,-1260.8942449091558,160.6874158201882,0.347511621810895,-0.367577558416213,171.7444997656204,43.18501775581175,0.0,1.0,18.951743264948174,10.28704890597808,0.0,Landing
7.2,-158.66123922177405,-1266.3741330771584,159.1788511436964,0.6038519041785644,-0.4051217155406768,171.7299251179104,43.31808914866725,0.0,1.0,18.951743264948174,10.28704890597808,0.0,Landing
7.300000000000001,-160.858085833505,-1262.6153765221147,160.30208248462486,0.1827260230218397,-0.28757186112943095,171.41013555182258,43.08523439358512,0.0,1.0,18.951743264948174,10.28704890597808,0.0,Landing
7.4,-162.94367689628206,-1283.0160853064797,161.06908843480144,0.3225134817770313,-0.07025902428992625,171.50921084570984,43.62096463528014,0.0,1.0,18.951743264948174,10.28704890597808,0.0,Landing
7.5,-165.07631964830645,-1262.1322967842277,160.15900609479192,0.16107928974679614,-0.4332650052448255,171.63801765144262,43.52408803362374,0.0,1.0,18.951743264948174,10.28704890597808,0.0,Landing
7.6000000000000005,-167.16874731742612,-1246.663405989375,160.68784651405826,0.06060096008120808,-0.4204682286784367,171.78475812544252,43.335942595057816,0.0,1.0,18.951743264948174,10.28704890597808,0.0,Landing
7.7,-169.17699392622893,-1241.052546825125,161.9371056967527,-0.14233309794768334,-0.12438129852079757,171.52773777734308,43.1540303162479,0.0,1.0,18.951743264948174,10.28704890597808,0.0,Landing
7.800000000000001,-171.28158238243208,-1242.845685442967,163.25216436282312,0.6703071838455827,-0.2691386905888439,171.5371303117695,43.68057485184428,0.0,1.0,18.951743264948174,10.28704890597808,0.0,Landing
7.9,-173.38297574464096,-1272.5750628518142,161.29414980809545,0.4509794866637517,0.1489831828631794,171.40294056834705,43.72839894131806,0.0,1.0,18.951743264948174,10.28704890597808,0.0,Landing
8.0,-175.539869240488,-1271.841094261623,160.95740641773415,0.8135242906042053,-0.39347027930874745,171.57719335796492,43.03736679488206,0.0,1.0,18.951743264948174,10.28704890597808,0.0,Landing
8.1,-177.6407878537402,-1274.5518294057208,163.14161636055297,0.2655260850222,-0.20971650628956875,171.6332498795498,43.012756042500435,0.0,1.0,18.951743264948174,10.28704890597808,0.0,Landing
8.200000000000001,-179.75573489166956,-1257.9692998968937,162.01620067217075,0.5756995407829815,-0.5680686098517466,171.3929832545192,43.68976948724029,0.0,1.0,18.951743264948174,10.28704890597808,0.0,Landing
8.3,-181.82971573997247,-1254.616486415199,161.21542568768635,0.7772417725619208,-0.25812060677202225,171.61578467335153,43.406730614930694,0.0,1.0,18.951743264948174,10.28704890597808,0.0,Landing
8.4,-183.9138702858162,-1241.3013871296528,161.73039854156386,0.3963442360443109,-0.1445198240563584,171.7090141077365,43.444705948089826,0.0,1.0,18.951743264948174,10.28704890597808,0.0,Landing
8.5,-185.96224182731783,-1241.5234962968668,160.33650844454502,0.2899613696144774,-0.5643662456322642,171.228249231198,43.49889432840042,0.0,1.0,18.951743264948174,10.28704890597808,0.0,Landing
8.6,-188.0373332214568,-1233.851673814462,160.81813632413724,0.4452304228253553,-0.4016875184087567,171.50167231374712,42.85649670512934,0.0,1.0,18.951743264948174,10.28704890597808,0.0,Landing
8.700000000000001,-190.0831286548885,-1229.0698369501285,160.50173763719127,0.257734186383761,-0.4960240188356264,171.41056730711796,43.20446334761597,0.0,1.0,18.951743264948174,10.28704890597808,0.0,Landing
8.8,-192.10759101206847,-1230.6062168646974,163.50459104940273,0.4840418888504839,-0.37756258116475766,171.69301955863,43.53327106965675,0.0,1.0,18.951743264948174,10.28704890597808,0.0,Landing
8.9,-194.1903643057803,-1247.700558270424,162.27699732277244,0.2608403124264183,-0.21179984172224559,171.63677714313656,42.94814796757921,0.0,1.0,18.951743264948174,10.28704890597808,0.0,Landing
9.0,-196.32163144624062,-1255.9501178563323,162.85017934350782,0.2215951592442034,-0.356679000707872,171.5873415041873,43.3660886937542,0.0,1.0,18.951743264948174,10.28704890597808,0.0,Landing
9.1,-198.38734160135013,-1252.9342218624834,161.16323538133412,0.6514423591775962,-0.5573266637148288,171.52067283381848,43.54448440897046,0.0,1.0,18.951743264948174,10.28704890597808,0.0,Landing
9.200000000000001,-200.4550354150927,-1237.0968369135937,162.71431253499333,0.5024011749733719,-0.2681223199266978,171.68111492727928,43.1504324820503,0.0,1.0,18.951743264948174,10.28704890597808,0.0,Landing
9.3,-202.50711563080858,-1242.9819680671756,162.46720480733526,0.2643855729595165,-0.6252874426903932,171.50012668055592,43.227753199447264,0.0,1.0,18.951743264948174,10.28704890597808,0.0,Landing
9.4,-204.602251441686,-1251.376790377725,162.33003297840926,0.5649177319465428,-0.33936285480094314,171.42145068190052,43.200072833952305,0.0,1.0,18.951743264948174,10.28704890597808,0.0,Landing
9.5,-206.71191936698133,-1261.5047038236298,161.19890164513268,0.45309787951190245,-0.3587828999010587,171.82734293981537,43.53554152440972,0.0,1.0,18.951743264948174,10.28704890597808,0.0,Landing
9.600000000000001,-208.81463914992673,-1250.6623818060405,160.94074592204112,0.5478472690490284,-0.27743859849610236,171.42830588135428,43.606443427448276,0.0,1.0,18.951743264948174,10.28704890597808,0.0,Landing
9.700000000000001,-210.8555633507162,-1254.253295416271,164.78553041849597,0.512256936618604,-0.3670359070713823,171.7111170043653,43.17700768557126,0.0,1.0,18.951743264948174,10.28704890597808,0.0,Landing
9.8,-212.9831858440627,-1248.7399457366507,160.90430897594783,0.4777593104153819,-0.4019482077374665,171.44741273311172,43.09145283876589,0.0,1.0,18.951743264948174,10.28704890597808,0.0,Landing
9.9,-215.05833887861,-1263.4236040539918,161.93420001581987,0.3169480934938257,-0.31657115739860875,171.50590500499152,43.40369974599698,0.0,1.0,18.951743264948174,10.28704890597808,0.0,Landing
10.0,-217.17268137098617,-1268.5904035579938,160.08392883651393,0.01982783624434714,-0.25536747805352056,171.583764539944,43.5284115138022,0.0,1.0,18.951743264948174,10.28704890597808,0.0,Landing
10.100000000000001,-219.32613786185266,-1266.0748231256891,161.7665268852899,0.8811848608491488,-0.09611274757277688,171.46791719429302,43.75863726367437,0.0,1.0,18.951743264948174,10.28704890597808,0.0,Landing
10.200000000000001,-221.38871299423843,-1255.5516748952757,163.1286384816893,0.5227403615519428,-0.36374742927710124,171.37107027670606,43.38059999150644,0.0,1.0,18.951743264948174,10.28704890597808,0.0,Landing
10.3,-223.45043974546255,-1233.1708425635156,161.76790780017862,0.4160096946917741,-0.2381591691392285,171.52266400233066,43.74133464754681,0.0,1.0,18.951743264948174,10.28704890597808,0.0,Landing
10.4,-225.49199207467024,-1221.7541352696232,162.89114004077652,0.6505656240002338,-0.5675997967190072,171.66649847905694,43.279924469953066,0.0,1.0,18.951743264948174,10.28704890597808,0.0,Landing
10.5,-227.49748367058655,-1236.6777077130791,164.00238027433446,0.3096619378837732,-0.5088384310886377,171.7464246185915,43.143574379073904,0.0,1.0,18.951743264948174,10.28704890597808,0.0,Landing
10.600000000000001,-229.63382828402794,-1238.2629969213383,160.34453748899665,0.5304771164154786,0.03846191836784929,171.5005637275956,43.11088465697472,0.0,1.0,18.951743264948174,10.28704890597808,0.0,Landing
10.700000000000001,-231.68330705927693,-1261.1354336761224,160.622816206288,0.2722278889580856,-0.4367162707859578,171.43630489115674,43.00681926715032,0.0,1.0,18.951743264948174,10.28704890597808,0.0,Landing
10.8,-233.80316083896716,-1237.7021698144574,162.45646815918477,0.7288797567163294,-0.26776028810976543,171.5231263492874,42.6282407831913,0.0,1.0,18.951743264948174,10.28704890597808,0.0,Landing
10.9,-235.82233913310023,-1224.9764727532809,161.24305366216512,0.38747440191633076,-0.15953733946500295,171.6264703488073,42.958546245905325,0.0,1.0,18.951743264948174,10.28704890597808,0.0,Landing
11.0,-237.80818942304333,-1216.0453114028826,162.92817575070245,0.04218027962505699,-0.4403671838177974,171.64070765782822,42.9445604516567,0.0,1.0,18.951743264948174,10.28704890597808,0.0,Landing
11.100000000000001,-239.88338739598157,-1233.413122601786,161.56443116259453,0.8602992452144556,-0.5587755499830981,171.71323691144994,43.35683667040445,0.0,1.0,18.951743264948174,10.28704890597808,0.0,Landing
11.200000000000001,-241.98940474610916,-1256.8013087875386,162.6980012270963,0.3952970042312707,-0.08541699097693511,171.8447389414365,43.45994993033559,0.0,1.0,18.951743264948174,10.28704890597808,0.0,Landing
11.3,-244.09219596698102,-1254.2840881167308,163.45674921390088,0.6946106149548537,-0.049656779974247056,171.767167877632,42.94924379508807,0.0,1.0,18.951743264948174,10.28704890597808,0.0,Landing
11.4,-246.15480783656523,-1258.4595750047583,160.93981151241908,0.13663933060578132,-0.31923302307446083,171.6001093583527,43.07227078566571,0.0,1.0,18.951743264948174,10.28704890597808,0.0,Landing
11.5,-248.28170262113295,-1256.0789060354352,162.83909670427408,0.4037561681936705,-0.17672669352192721,171.8038083210564,43.13137889677779,0.0,1.0,18.951743264948174,10.28704890597808,0.0,Landing
11.600000000000001,-250.3725904971582,-1245.9183287022995,163.2535484417001,-0.07598855930722614,-0.6862281920365602,171.48839285256986,43.28597536012218,0.0,1.0,18.951743264948174,10.28704890597808,0.0,Landing
11.700000000000001,-252.38439948007672,-1210.4391679876587,160.57098521927915,0.3891668570098252,-0.394649760399172,171.58558479385078,42.51564204127971,0.0,1.0,18.951743264948174,10.28704890597808,0.0,Landing
11.8,-254.33389846107124,-1199.106618234572,162.76529288104564,0.19526669990912915,-0.09788330993698371,171.27532779777937,43.018700977565004,0.0,1.0,18.951743264948174,10.28704890597808,0.0,Landing
11.9,-256.36812358833106,-1197.519741371201,163.51957871315275,0.45879783461430246,-0.4440551552552626,171.5436477513573,43.07206319962932,0.0,1.0,18.951743264948174,10.28704890597808,0.0,Landing
12.0,-258.37199818693273,-1215.1454915004877,160.9282990891308,0.5012843904150578,-0.46143307959346247,171.22727993199123,43.031893780216805,0.0,1.0,18.951743264948174,10.28704890597808,0.0,Landing
12.100000000000001,-260.4096259185737,-1215.2992922885687,160.94176811705424,0.35870796769317304,-0.3713854058144179,171.88104597417077,43.94446949095004,0.0,1.0,18.951743264948174,10.28704890597808,0.0,Landing
12.200000000000001,-262.4446200497739,-1229.4017288014516,163.92940656901786,0.2692855830146864,-0.1274203980951458,171.6762276336998,43.099735548301275,0.0,1.0,18.951743264948174,10.28704890597808,0.0,Landing
12.3,-264.51900683094,-1238.108621440449,161.71401491667646,0.37297322021843216,-0.31724637456402677,171.72021357861615,43.10839728524427,0.0,1.0,18.951743264948174,10.28704890597808,0.0,Landing
12.4,-266.6001690257759,-1276.0990146944437,161.30222242129304,0.31756456354440904,-0.10779920816046165,171.5765932683796,43.753799459969244,0.0,1.0,18.951743264948174,10.28704890597808,0.0,Landing
12.5,-268.8251151232461,-1280.181130975177,160.68096251567252,0.07850491161605644,-0.21045886170314348,171.50613879877244,43.264962391160466,0.0,1.0,18.951743264948174,10.28704890597808,0.0,Landing
12.600000000000001,-270.91991248581587,-1279.2913219610227,160.28665260073774,0.3202873882504915,-0.269269497421597,171.7223163525873,43.69983443805207,0.0,1.0,18.951743264948174,10.28704890597808,0.0,Landing
12.700000000000001,-272.99662563558104,-1237.0378027765582,159.40113637749815,0.2557198124125276,-0.44248807665954304,171.9562019238076,43.75192512446982,0.0,1.0,18.951743264948174,10.28704890597808,0.0,Landing
12.8,-275.0103041371289,-1239.6736160139653,161.57110324231058,0.6336951400440776,-0.3402664579831509,171.7196237781709,43.19283603543591,0.0,1.0,18.951743264948174,10.28704890597808,0.0,Landing
12.9,-277.1182805658857,-1245.8382638735088,163.17966276432918,0.7104086745034613,-0.39174954916511256,171.65451199140182,43.016967366590606,0.0,1.0,18.951743264948174,10.28704890597808,0.0,Landing
13.0,-279.2258169549486,-1267.0927634326745,162.9794215670507,0.5191509397024318,-0.2845963741408556,171.54172028583776,43.260277739004394,0.0,1.0,18.951743264948174,10.28704890597808,0.0,Landing
13.100000000000001,-281.3457679542923,-1262.8924749567886,162.60632195205113,0.5524724819481205,-0.17466156979257227,171.54561470648127,43.78103783238533,0.0,1.0,18.951743264948174,10.28704890597808,0.0,Landing
13.200000000000001,-283.43274294066964,-1253.6172739455083,161.84116470254384,0.4049077777984854,-0.6072439041289588,171.322126358245,43.359291743224546,0.0,1.0,18.951743264948174,10.28704890597808,0.0,Landing
13.3,-285.4939033246761,-1231.098829102018,160.06637150822567,0.4306538251760873,-0.4003092956401464,171.61229986062563,43.44177607754951,0.0,1.0,18.951743264948174,10.28704890597808,0.0,Landing
13.4,-287.5012620998024,-1215.188294481095,163.88068318687903,0.3373958977833977,-0.25890106586475786,171.41361721385658,43.371211716886485,0.0,1.0,18.951743264948174,10.28704890597808,0.0,Landing
13.5,-289.5086844130751,-1222.370222943107,161.84095903094513,-0.08692744507034611,-0.4198161028757296,171.527061422855,42.83128663293439,0.0,1.0,18.951743264948174,10.28704890597808,0.0,Landing
13.600000000000001,-291.60575443939166,-1249.4323769963216,160.18381576350984,0.30631496647321516,-0.2575629792411187,171.32004239797516,42.857355980767096,0.0,1.0,18.951743264948174,10.28704890597808,0.0,Landing
13.700000000000001,-293.748423984784,-1259.2738866921195,161.0425460444891,0.2212899125642392,-0.59575796600287,171.6462919949554,44.10837401046311,0.0,1.0,18.951743264948174,10.28704890597808,0.0,Landing
13.8,-295.8050538465357,-1250.7223978609545,160.4098394672472,0.40732809927662506,0.1726020511190467,171.72099172444712,42.90607089440715,0.0,1.0,18.951743264948174,10.28704890597808,0.0,Landing
13.9,-297.85936642869643,-1219.5693295467322,162.28781373633558,0.36345960671029115,-0.2541138660376933,171.73415775169906,42.76194522973552,0.0,1.0,18.951743264948174,10.28704890597808,0.0,Landing
14.0,-299.84627063251764,-1218.1631492395923,161.35651898499654,0.2704418400716531,-0.39919189331092314,171.62814808968199,43.53086351577469,0.0,1.0,18.951743264948174,10.28704890597808,0.0,Landing
14.100000000000001,-301.8958695927337,-1216.959390863974,161.00946177265823,0.19598120593510374,-0.46863772729546826,171.61770762419496,43.30097891459224,0.0,1.0,18.951743264948174,10.28704890597808,0.0,Landing
14.200000000000001,-303.9441633830163,-1221.810436879457,160.43872126760897,0.7375281640005709,-0.48106419097535974,171.6209854433996,43.12377782168992,0.0,1.0,18.951743264948174,10.28704890597808,0.0,Landing
14.3,-305.95532281691493,-1213.713772912081,161.21554769602335,0.06119448563876878,-0.5034089416718726,171.7512678913696,43.28319619947601,0.0,1.0,18.951743264948174,10.28704890597808,0.0,Landing
14.4,-307.9644384572941,-1200.6521467980633,160.4525391681213,0.7386139451036655,0.0414012935539021,171.57628742755537,43.58812918172227,0.0,1.0,18.951743264948174,10.28704890597808,0.0,Landing
14.5,-309.9474241170066,-1202.549226635324,161.47864050398977,0.4148966091430036,-0.1794580971996503,171.77313971543754,43.31649693896052,0.0,1.0,18.951743264948174,10.28704890597808,0.0,Landing
14.600000000000001,-311.96806895009155,-1195.6333558970641,159.62452872714633,0.6618086538646253,-0.33878039737664006,171.44129688876262,43.33159163079139,0.0,1.0,18.951743264948174,10.28704890597808,0.0,Landing
14.700000000000001,-313.9426052367794,-1220.8519583955308,159.86285649582686,0.07113105282348281,-0.420007740703486,171.6691480017255,43.77461559824213,0.0,1.0,18.951743264948174,10.28704890597808,0.0,Landing
14.8,-316.0516839089843,-1221.4959537245818,162.2726393895883,0.5794653372822931,-0.382424501270162,171.69793018701807,43.350947322819394,0.0,1.0,18.951743264948174,10.28704890597808,0.0,Landing
14.9,-318.07554871871446,-1229.3189648714929,161.0771765671674,0.4611792172917675,-0.33449067599838883,171.5176647890347,43.42848165945303,0.0,1.0,18.951743264948174,10.28704890597808,0.0,Landing
15.0,-320.08920006113686,-1214.0991295024605,161.81193650053424,0.1853610413390735,-0.31743592587061437,171.56752170703749,43.336391596044024,0.0,1.0,18.951743264948174,10.28704890597808,0.0,Landing
15.100000000000001,-322.1221795564966,-1218.0499276102182,159.9796824549342,0.006395156003382418,-0.33717391639089334,171.82355581520505,42.75955789366826,0.0,1.0,18.951743264948174,10.28704890597808,0.0,Landing
15.200000000000001,-324.16579835676555,-1219.7123377318007,159.71992921540985,0.619021802213072,-0.3065427099558191,171.836475361368,43.24875899861941,0.0,1.0,18.951743264948174,10.28704890597808,0.0,Landing
15.3,-326.18776174979587,-1222.9058073515375,161.38747826942833,0.46262141087678776,-0.45123494935967723,171.57529832024773,42.790082920171805,0.0,1.0,18.951743264948174,10.28704890597808,0.0,Landing
15.4,-328.23670859325426,-1211.259228552899,161.0859854004419,0.6649968302565565,-0.3283650702124858,171.2855514884584,42.973732792631715,0.0,1.0,18.951743264948174,10.28704890597808,0.0,Landing
15.5,-330.22209449953004,-1212.6289757475774,162.69361641064992,-0.023899047228808645,-0.1872988489723611,171.39347690046793,43.483430938523064,0.0,1.0,18.951743264948174,10.28704890597808,0.0,Landing
15.600000000000001,-332.25090662853376,-1202.180553273945,160.659839853096,0.30177327981486857,-0.2808434468688973,171.4931820443303,43.425195902561896,0.0,1.0,18.951743264948174,10.28704890597808,0.0,Landing
15.700000000000001,-334.247611359624,-1222.7980629429908,161.12304154006569,0.15016679725313886,-0.24945844481524893,171.54556994475922,43.50844547461483,0.0,1.0,18.951743264948174,10.28704890597808,0.0,Landing
15.8,-336.336084814245,-1221.3883859549696,163.85561371513273,0.3922535662488575,-0.4848412773187801,171.27083986582807,43.358659856292945,0.0,1.0,18.951743264948174,10.28704890597808,0.0,Landing
15.9,-338.3578485583086,-1227.5792253692316,160.70408409015985,0.5384073329112631,-0.2837102294675513,171.279857224353,42.82862436591461,0.0,1.0,18.951743264948174,10.28704890597808,0.0,Landing
16.0,-340.38550748647015,-1209.8616240808155,162.33678669789117,0.19927737604226758,-0.13971924337154412,171.53193316377474,43.50701605317861,0.0,1.0,18.951743264948174,10.28704890597808,0.0,Landing
16.1,-342.3853929346491,-1202.0579274139322,159.67285871105446,0.10492848763775059,-0.2993664817312833,171.61665030505435,43.47050684707252,0.0,1.0,18.951743264948174,10.28704890597808,0.0,Landing
16.2,-344.36813819537826,-1184.6530300447967,162.270679441094,0.34273541664759133,-0.6620938287450271,171.56949395052993,43.589482756711455,0.0,1.0,18.951743264948174,10.28704890597808,0.0,Landing
16.3,-346.30877263669413,-1192.9232618148944,161.85087681075572,0.09973440575878217,-0.29147921859259435,171.50655021882062,43.145266914277045,0.0,1.0,18.951743264948174,10.28704890597808,0.0,Landing
16.400000000000002,-348.35000924372355,-1182.2973076328935,162.02295568327904,0.40922285834811956,-0.3068471259851462,171.30872181179893,43.498110083711275,0.0,1.0,18.951743264948174,10.28704890597808,0.0,Landing
16.5,-350.27962473354273,-1188.3981042328628,160.77428013524687,0.20781061882723742,-0.4382671528138804,171.51871648928784,43.65464846352092,0.0,1.0,18.951743264948174,10.28704890597808,0.0,Landing
16.6,-352.25076315785844,-1160.6954584723894,160.7365946699881,0.3894969460904282,-0.3697179991868338,171.56190213505351,43.14079353702829,0.0,1.0,18.951743264948174,10.28704890597808,0.0,Landing
16.7,-354.1534865360855,-1180.4937776593079,162.21009051111355,0.48055450256681603,-0.2648428416737537,171.4343625343688,42.7258636218637,0.0,1.0,18.951743264948174,10.28704890597808,0.0,Landing
16.8,-356.1820936218393,-1201.3684211165696,161.3201068542722,0.5793587402697123,-0.25595503485745275,171.48225792165135,43.8569415951449,0.0,1.0,18.951743264948174,10.28704890597808,0.0,Landing
16.900000000000002,-358.2576052634413,-1220.1083087180336,163.19120447438394,0.2464793092930465,0.2676615361844402,171.75764699281808,43.614325213373235,0.0,1.0,18.951743264948174,10.28704890597808,0.0,Landing
17.0,-360.25402807967566,-1192.569842978412,163.4419149090289,0.44664838264731255,-0.3933080983542744,171.80170074107411,42.87011975722386,0.0,1.0,18.951743264948174,10.28704890597808,0.0,Landing
17.1,-362.14494283673133,-1168.9833256165912,159.75637450324734,0.39249459303557577,0.19220147445015806,171.5064885661477,42.91577994246516,0.0,1.0,18.951743264948174,10.28704890597808,0.0,Landing
17.2,-364.10252189152425,-1157.8673885614648,161.45228911010392,0.3984980532501012,-0.501823247264493,171.4868743934843,43.37232574740747,0.0,1.0,18.951743264948174,10.28704890597808,0.0,Landing
17.3,-366.043365022483,-1160.7144879215525,163.2312431435314,0.49238579107217606,-0.1995831383131737,171.4621826911764,43.55846609677509,0.0,1.0,18.951743264948174,10.28704890597808,0.0,Landing
17.400000000000002,-367.9485152763391,-1153.642466215365,160.23938125243905,0.2772092150547107,-0.3461433526558434,171.5558413205556,43.85861292396029,0.0,1.0,18.951743264948174,10.28704890597808,0.0,Landing
17.5,-369.8707342226011,-1162.465215602208,160.75444868109017,0.6283648936176232,-0.36592623608995445,171.60354618067208,42.89194439862629,0.0,1.0,18.951743264948174,10.28704890597808,0.0,Landing
17.6,-371.855691100494,-1191.604367276534,161.22642627248527,0.667740724233582,-0.388268936737617,171.5529930181284,43.10103240409348,0.0,1.0,18.951743264948174,10.28704890597808,0.0,Landing
17.7,-373.90653711272176,-1202.7620915362263,163.5335506536441,0.6247457344891802,-0.45228358395281054,171.59615039461585,43.65798263221728,0.0,1.0,18.951743264948174,10.28704890597808,0.0,Landing
17.8,-375.8845446802822,-1206.65990015641,163.4323717397872,0.5423471537350691,-0.5490245048021312,171.45251542326287,43.24899534081516,0.0,1.0,18.951743264948174,10.28704890597808,0.0,Landing
17.900000000000002,-377.8889906012761,-1194.2373587369161,162.24753912515365,0.8268373530182567,-0.285722786412309,171.74541586573707,42.996042734195015,0.0,1.0,18.951743264948174,10.28704890597808,0.0,Landing
18.0,-379.87772390640635,-1183.986824105898,160.35980881558143,0.30100498732400915,-0.49983185752674486,171.71971587775226,43.40763388215726,0.0,1.0,18.951743264948174,10.28704890597808,0.0,Landing
18.1,-381.8044788008117,-1183.8959966215725,160.6127995864002,0.2695934970742994,-0.35198508685869634,171.36722281326888,43.613534603250706,0.0,1.0,18.951743264948174,10.28704890597808,0.0,Landing
18.2,-383.80847058438394,-1180.130462590455,162.21695590640522,0.048227519147675035,-0.2477962858474515,171.5790267991598,44.006371374335664,0.0,1.0,18.951743264948174,10.28704890597808,0.0,Landing
18.3,-385.7783762193586,-1173.1452328429214,161.7981105573157,0.28383128775350025,-0.45427830144348036,171.55843814394075,43.26980389094181,0.0,1.0,18.951743264948174,10.28704890597808,0.0,Landing
18.400000000000002,-387.6702049650263,-1178.7374259229523,162.54682601939658,0.5723459240449507,-0.5925364838772919,171.59157543310062,43.022862815693216,0.0,1.0,18.951743264948174,10.28704890597808,0.0,Landing
18.5,-389.7021577139987,-1177.642199780189,159.79954358445508,0.5015437858647784,-0.23351899263126105,171.77579784142063,43.95187013113026,0.0,1.0,18.951743264948174,10.28704890597808,0.0,Landing
18.6,-391.66658721825956,-1200.1882471199337,161.1972230557519,0.24921101427059894,-0.2120879318730371,171.64773322640076,43.76478699734848,0.0,1.0,18.951743264948174,10.28704890597808,0.0,Landing
18.7,-393.67114620062597,-1185.324540907493,162.3037572750372,0.27541339083468513,-0.4669794644418849,171.4986934363527,43.37438732636041,0.0,1.0,18.951743264948174,10.28704890597808,0.0,Landing
18.8,-395.62878041853617,-1173.0241439934957,163.07581690009764,0.010128152814056879,-0.3858925796035548,171.59172418152923,43.29731339852135,0.0,1.0,18.951743264948174,10.28704890597808,0.0,Landing
18.900000000000002,-397.53170793822704,-1162.1461651416894,161.90046176832027,0.13153518955804033,-0.2813622410600372,171.33941567089914,43.44473910743642,0.0,1.0,18.951743264948174,10.28704890597808,0.0,Landing
19.0,-399.4818770263344,-1188.1625835647242,162.46141559536153,0.6238731917435387,-0.4557691229386669,171.41329058442852,42.93845068433969,0.0,1.0,18.951743264948174,10.28704890597808,0.0,Landing
19.1,-401.5695933363598,-1208.605949649393,161.06490192854045,0.6136836321990473,-0.45409515104263887,171.2602001879892,43.54714986820195,0.0,1.0,18.951743264948174,10.28704890597808,0.0,Landing
19.200000000000003,-403.574737686474,-1213.9700156975891,161.7915874004061,0.29841697640368936,-0.274917381375497,171.39804903171046,43.49962715131899,0.0,1.0,18.951743264948174,10.28704890597808,0.0,Landing
19.3,-405.55172710482236,-1194.9937862721526,162.60819081103529,0.5574761595440609,-0.23359032337826757,171.51665656376395,43.40268101871758,0.0,1.0,18.951743264948174,10.28704890597808,0.0,Landing
19.400000000000002,-407.54456226772055,-1207.0538551025948,161.7493579398906,0.12644574404813083,-0.4164985543077945,171.44998884325742,43.17332575629097,0.0,1.0,18.951743264948174,10.28704890597808,0.0,Landing
19.5,-409.610006961987,-1198.2354608883156,162.50890642347912,0.2642566287435246,-0.4801929929220284,171.48159954914854,43.4213176927234,0.0,1.0,18.951743264948174,10.28704890597808,0.0,Landing
19.6,-411.54290440926394,-1179.7236730284226,161.55247016834176,0.3028392782340502,-0.26120347996541027,171.45075596778304,42.884566922587844,0.0,1.0,18.951743264948174,10.28704890597808,0.0,Landing
19.700000000000003,-413.44318063286266,-1144.2628232299626,161.67045208458504,0.6631958710998132,-0.4973683938561164,171.4819833550788,43.45663072494802,0.0,1.0,18.951743264948174,10.28704890597808,0.0,Landing
19.8,-415.3313210781368,-1127.8861757494951,162.3686900267315,0.4597582334756979,-0.40087125684976044,171.57598075770318,43.591056661927134,0.0,1.0,18.951743264948174,10.28704890597808,0.0,Landing
19.900000000000002,-417.1823352880114,-1135.8093310109666,161.13893087353765,0.29081826926275345,-0.2599861220530233,171.34121859987033,43.49535298780286,0.0,1.0,18.951743264948174,10.28704890597808,0.0,Landing
20.0,-419.1222272879175,-1140.2255234080826,161.6103389940247,0.720107017533627,-0.061733199263686644,171.52546873087158,42.816046221605966,0.0,1.0,18.951743264948174,10.28704890597808,0.0,Landing
20.1,-421.0324486951772,-1160.7962912777452,161.82637523185522,0.09230538499110508,-0.33807137084012523,171.64031868741836,42.91959832995159,0.0,1.0,18.951743264948174,10.28704890597808,0.0,Landing
20.200000000000003,-422.98631674440014,-1158.0738904356167,161.92425131950105,0.4154445395207708,-0.4373117913372022,171.42659324964416,43.740880287455646,0.0,1.0,18.951743264948174,10.28704890597808,0.0,Landing
20.3,-424.9125967400956,-1187.774927267219,161.39667394348965,0.3439640284080247,-0.2120464362731087,171.50913754675685,43.56318446972428,0.0,1.0,18.951743264948174,10.28704890597808,0.0,Landing
20.400000000000002,-426.9713233315133,-1171.102254536163,159.86829870133056,-0.010404755370785279,-0.3541405982560723,171.55176614902223,43.553066186823465,0.0,1.0,18.951743264948174,10.28704890597808,0.0,Landing
20.5,-428.84182801708096,-1183.248756939679,160.1884636382445,0.3425218274764299,-0.17833168553387985,171.65151644822504,42.85565571910756,0.0,1.0,18.951743264948174,10.28704890597808,0.0,Landing
20.6,-430.828840524794,-1170.3780275143572,161.7563673712819,0.4105313548615138,-0.5035387229906632,171.61073598169344,43.04638131696316,0.0,1.0,18.951743264948174,10.28704890597808,0.0,Landing
20.700000000000003,-432.8232134690851,-1184.0188503172612,161.3579085835376,0.07450362665554061,-0.5495118577377882,171.46669026239238,43.63971667359032,0.0,1.0,18.951743264948174,10.28704890597808,0.0,Landing
20.8,-434.76192226866726,-1176.2035644452226,159.8064343596607,0.27040377780985086,-0.3100697496603021,171.43335908926076,43.278744772595566,0.0,1.0,18.951743264948174,10.28704890597808,0.0,Landing
20.900000000000002,-436.7098583470201,-1162.569161205397,160.39243732734997,0.22377550264585358,-0.20476787317707063,171.12690301662667,43.246610067153966,0.0,1.0,18.951743264948174,10.28704890597808,0.0,Landing
21.0,-438.6360592751121,-1156.413501401721,161.64713627390395,0.29003175901345213,-0.4166863956158181,171.7055622300993,43.02803026249442,0.0,1.0,18.951743264948174,10.28704890597808,0.0,Landing
21.1,-440.54398977567587,-1146.6692163371135,161.2045109226897,0.3121945560593261,-0.3374593528686589,171.47204544103863,43.14399791405062,0.0,1.0,18.951743264948174,10.28704890597808,0.0,Landing
21.200000000000003,-442.44320442870566,-1152.2741567320509,164.4994703251112,0.5352452218685035,-0.18695016086346833,171.58730775646052,43.244165855546434,0.0,1.0,18.951743264948174,10.28704890597808,0.0,Landing
21.3,-444.39743005877233,-1138.1393066309897,163.3648791291465,0.3901858789686932,-0.1870380076230947,171.66229949014735,43.19190986662882,0.0,1.0,18.951743264948174,10.28704890597808,0.0,Landing
21.400000000000002,-446.2346863088308,-1147.2069600232658,161.71709398479226,0.2816875183956187,-0.4395200589376955,171.7333549422599,43.73066091232737,0.0,1.0,18.951743264948174,10.28704890597808,0.0,Landing
21.5,-448.179239228822,-1130.1262130771192,162.9017819044208,0.1785446309430213,-0.7871530781502872,171.8616289913125,42.948318815409586,0.0,1.0,18.951743264948174,10.28704890597808,0.0,Landing
21.6,-450.0480611241579,-1150.0300216395885,161.1560188877113,0.5549139967852594,-0.24708372857182834,171.89334142917846,43.080003954500526,0.0,1.0,18.951743264948174,10.28704890597808,0.0,Landing
21.700000000000003,-451.98483641702876,-1141.9527371342951,162.68829694127842,0.5555462341063984,-0.23587312703024907,171.66475344052458,43.44933118842341,0.0,1.0,18.951743264948174,10.28704890597808,0.0,Landing
21.8,-453.88900291449346,-1158.6486674070898,162.22333973233893,0.30851730989999077,-0.2682405424385812,171.8183485971739,43.85992692917209,0.0,1.0,18.951743264948174,10.28704890597808,0.0,Landing
21.900000000000002,-455.8413044611934,-1151.605288391238,162.50748954103665,0.3111281753283911,-0.26898593718330155,171.31929851961172,43.32139449779016,0.0,1.0,18.951743264948174,10.28704890597808,0.0,Landing
22.0,-457.74286285898495,-1176.9485249169293,161.34507503723398,0.14303738401345822,-0.6506421319826247,171.4357884705721,43.55455735563883,0.0,1.0,18.951743264948174,10.28704890597808,0.0,Landing
22.1,-459.7737455390781,-1163.3345315359065,163.1109377632597,0.45353717655692904,-0.3937645011311599,171.61017549790756,43.507684271044646,0.0,1.0,18.951743264948174,10.28704890597808,0.0,Landing
22.200000000000003,-461.6579771188729,-1159.099848000892,161.511455061261,0.5797697391629282,-0.3001258854135301,171.69148278787384,43.00140618345484,0.0,1.0,18.951743264948174,10.28704890597808,0.0,Landing
22.3,-463.5383620989894,-1128.4687515181417,162.18927548376374,0.6477663308553161,-0.0915597892793989,171.42833093703143,43.21245969885279,0.0,1.0,18.951743264948174,10.28704890597808,0.0,Landing
22.400000000000002,-465.4160892966688,-1133.9682708059854,160.7166363140871,0.15473097550528334,-0.23395614700174633,171.6035145488221,43.47958870156177,0.0,1.0,18.951743264948174,10.28704890597808,0.0,Landing
22.5,-467.32781847290283,-1135.6569695107055,160.2832111522316,0.09389831887486977,-0.2773083239106188,171.7184868635244,43.12427307904838,0.0,1.0,18.951743264948174,10.28704890597808,0.0,Landing
22.6,-469.21664694654294,-1128.5313499800282,161.74197381149054,0.39159050495384895,-0.0554737515318445,171.59477091273584,43.51215990962481,0.0,1.0,18.951743264948174,10.28704890597808,0.0,Landing
22.700000000000003,-471.05874604656896,-1148.0061367503367,161.4970363672547,0.3127285826459153,-0.2945154908125004,171.62329357958401,43.211761046366895,0.0,1.0,18.951743264948174,10.28704890597808,0.0,Landing
22.8,-473.0678491566545,-1146.530688528719,160.8831937018997,0.14655799653708276,-0.02360367366781274,171.62318391765484,43.60134147082069,0.0,1.0,18.951743264948174,10.28704890597808,0.0,Landing
22.900000000000002,-474.94930038918653,-1142.7896251043194,160.04883617226469,0.2891669128607664,-0.541350810925334,171.68764625869187,44.20765863906093,0.0,1.0,18.951743264948174,10.28704890597808,0.0,Landing
23.0,-476.77269417209055,-1129.746832346052,161.53655865803708,0.05795963081878103,-0.16903433621978067,171.5284553990241,43.55227139340943,0.0,1.0,18.951743264948174,10.28704890597808,0.0,Landing
23.1,-478.7165833183848,-1128.7208482710298,160.56311076956533,0.3159643666761687,0.0972483485542579,171.32650163039852,43.298724722318624,0.0,1.0,18.951743264948174,10.28704890597808,0.0,Landing
23.200000000000003,-480.5929046305417,-1133.5989161923294,160.1749490281635,0.6079807334132477,-0.14938950271443813,171.45154835218682,43.46009300123169,0.0,1.0,18.951743264948174,10.28704890597808,0.0,Landing
23.3,-482.4406887530522,-1145.6974701332683,161.0971881514596,0.3737173498641371,-0.09763915724209224,171.44756832669714,43.35020291740403,0.0,1.0,18.951743264948174,10.28704890597808,0.0,Landing
23.400000000000002,-484.4450706690511,-1149.3408538603262,159.7292764430039,0.6139955202657794,-0.09490947277755124,171.3492442578106,43.48153447704065,0.0,1.0,18.951743264948174,10.28704890597808,0.0,Landing
23.5,-486.3396088998433,-1158.0068548307167,161.39767491962178,0.3468937442284077,-0.05253793231451953,171.7457639671269,43.3827315713452,0.0,1.0,18.951743264948174,10.28704890597808,0.0,Landing
23.6,-488.2307230272058,-1129.4214251128778,160.73469359350938,0.33739850674516636,-0.14190928236491357,171.69318985293228,43.29112253607828,0.0,1.0,18.951743264948174,10.28704890597808,0.0,Landing
23.700000000000003,-490.0921777946155,-1126.9336763027127,162.00992649266038,0.3757833590029339,-0.41815940570624505,171.80869743636572,42.98570010346559,0.0,1.0,18.951743264948174,10.28704890597808,0.0,Landing
23.8,-491.9742772813569,-1113.9694551921139,161.1018513339233,0.5661264472353198,-0.42782866827454546,171.53851853226604,43.55695883942961,0.0,1.0,18.951743264948174,10.28704890597808,0.0,Landing
23.900000000000002,-493.80057030316635,-1114.8420346674584,159.9521211550863,0.029258438396574382,-0.04201990255218155,171.54231433247764,43.389946868633224,0.0,1.0,18.951743264948174,10.28704890597808,0.0,Landing
24.0,-495.6663879679528,-1105.26318870144,161.56239570691227,0.33646296000100506,-0.6932388039298101,171.58810011300875,43.25243184372778,0.0,1.0,18.951743264948174,10.28704890597808,0.0,Landing
24.1,-497.5005932248641,-1114.3912334351853,160.748975094561,0.48921763727397055,-0.06121350650613633,171.74804641963055,43.216705135982934,0.0,1.0,18.951743264948174,10.28704890597808,0.0,Landing
24.200000000000003,-499.3725264703423,-1137.538923494526,160.8104732208074,0.37414340182293093,-0.0040831672826440735,171.70860931723314,43.72859753659427,0.0,1.0,18.951743264948174,10.28704890597808,0.0,Landing
24.3,-501.35408258542543,-1142.8619313318109,161.89774901663245,0.5384045132449022,0.023569119400541017,171.64633563580787,43.629166545501654,0.0,1.0,18.951743264948174,10.28704890597808,0.0,Landing
24.400000000000002,-503.21490288152313,-1132.0800614952418,162.8555965044317,0.3032342140123381,-0.1547427091276746,171.46892036707618,43.14940929986699,0.0,1.0,18.951743264948174,10.28704890597808,0.0,Landing
24.5,-505.0329267778185,-1104.8509443929447,161.90322688967672,0.3652978247492338,-0.4852762988637783,171.45402348392508,42.82674526695736,0.0,1.0,18.951743264948174,10.28704890597808,0.0,Landing
24.6,-506.87833730739015,-1110.706425762885,163.56533207809315,0.45920845704802715,-0.2439459422267399,171.4346433342098,43.42667810580206,0.0,1.0,18.951743264948174,10.28704890597808,0.0,Landing
24.700000000000003,-508.76843501033756,-1121.6681202342784,160.20129769872096,0.3515201017918465,-0.4416239159465739,171.52091863761757,43.13692229146066,0.0,1.0,18.951743264948174,10.28704890597808,0.0,Landing
24.8,-510.6412673789899,-1122.7682595339388,162.0042783453816,0.2871114447441225,-0.08094995860419102,171.20054277837994,42.93813103411373,0.0,1.0,18.951743264948174,10.28704890597808,0.0,Landing
24.900000000000002,-512.4921786050598,-1124.0937673193798,162.52882476637814,0.2568381094798783,-0.6695290163098582,171.67427200635234,43.45577732811564,0.0,1.0,18.951743264948174,10.28704890597808,0.0,Landing
25.0,-514.3889038469345,-1131.2826766302692,160.5976016533359,0.12101084655688202,-0.5164138527111785,171.5098903221857,42.91996730389445,0.0,1.0,18.951743264948174,10.28704890597808,0.0,Landing
25.1,-516.2976807621412,-1101.6642846214836,160.89837182153923,0.2912203016969564,-0.06865652099150363,171.32011150763265,43.66887934397618,0.0,1.0,18.951743264948174,10.28704890597808,0.0,Landing
25.200000000000003,-518.0005000281673,-1101.3457255452067,162.75542135108134,0.5013735792752407,-0.21108270637231602,171.45984845399414,43.42564047788042,0.0,1.0,18.951743264948174,10.28704890597808,0.0,Landing
25.3,-519.8956324746605,-1081.1084908285238,160.3688983918856,0.13239778438949532,-0.17663573062822335,171.54128869374028,43.15899750754983,0.0,1.0,18.951743264948174,10.28704890597808,0.0,Landing
25.400000000000002,-521.7032232162838,-1130.9210144096369,160.5708776982051,0.3211419450219834,-0.38349535547016844,171.688741578119,43.56287989475868,0.0,1.0,18.951743264948174,10.28704890597808,0.0,Landing
25.5,-523.6551051002155,-1119.58476546381,161.85618222931836,0.22741406707946113,-0.16735829222170015,171.47058229929792,43.41249094726539,0.0,1.0,18.951743264948174,10.28704890597808,0.0,Landing
25.6,-525.4935563019795,-1139.8250931642224,161.807863874816,0.4401111455887968,-0.0037824586540420313,171.39474627462937,43.46892340395107,0.0,1.0,18.951743264948174,10.28704890597808,0.0,Landing
25.700000000000003,-527.402348682105,-1121.962518034843,159.2690116917594,0.3188257429432255,0.06452063604092045,171.29793770424556,42.866085918747814,0.0,1.0,18.951743264948174,10.28704890597808,0.0,Landing
25.8,-529.2649176903897,-1112.1705488266343,161.54103031899407,0.4081109272559591,-0.45180053824614064,171.48542800529992,43.57409781330876,0.0,1.0,18.951743264948174,10.28704890597808,0.0,Landing
25.900000000000002,-531.0544090461127,-1106.4912875948494,161.23309230411382,0.04020518370992143,-0.08735570138365112,171.82163591173332,43.449758988259426,0.0,1.0,18.951743264948174,10.28704890597808,0.0,Landing
26.0,-532.9348051200792,-1105.5864585439394,161.42923340858013,0.2790604529591988,-0.374839285198298,171.5882300812192,42.853858827724125,0.0,1.0,18.951743264948174,10.28704890597808,0.0,Landing
26.1,-534.7928499831094,-1126.2342299921784,161.35492362608252,-0.06159594270488622,-0.744894394855458,171.51625360896287,43.33960261004095,0.0,1.0,18.951743264948174,10.28704890597808,0.0,Landing
26.200000000000003,-536.6855801960736,-1122.9491959938287,161.71656717637947,0.020687025658226554,-0.3307789959239668,171.6507053135257,43.87568833707108,0.0,1.0,18.951743264948174,10.28704890597808,0.0,Landing
26.3,-538.5495511000483,-1138.306359610192,161.76967783361587,0.42108171706380765,-0.060357367242979465,171.5221672549461,43.51063872338364,0.0,1.0,18.951743264948174,10.28704890597808,0.0,Landing
26.400000000000002,-540.4843817811603,-1128.8661618183141,162.17383366012743,0.26600559858863615,-0.16463533477490505,171.40248261770626,43.13937799496935,0.0,1.0,18.951743264948174,10.28704890597808,0.0,Landing
26.5,-542.3299110051652,-1126.9527231160737,161.9893638199155,0.15180407360655826,-0.17542453016933196,171.4183802984503,43.18298255251245,0.0,1.0,18.951743264948174,10.28704890597808,0.0,Landing
26.6,-544.1843147156287,-1109.1393738339093,159.84572178415905,0.6036799853250377,-0.5830196081429357,171.59272336975766,43.114698505937504,0.0,1.0,18.951743264948174,10.28704890597808,0.0,Landing
26.700000000000003,-546.0300786503299,-1112.112205322478,159.8878296651799,0.5729172491942491,-0.1971154730922961,171.73082143489728,43.68524916323787,0.0,1.0,18.951743264948174,10.28704890597808,0.0,Landing
26.8,-547.8904720317776,-1104.132943345462,160.74235391871827,0.13352296119464263,-0.46427890134516664,171.6687719795109,43.55922482406419,0.0,1.0,18.951743264948174,10.28704890597808,0.0,Landing
26.900000000000002,-549.704979432356,-1106.7868270235522,160.78957833736163,0.3716306822131972,-0.37892939338239795,171.6459434847211,43.209994846061115,0.0,1.0,18.951743264948174,10.28704890597808,0.0,Landing
27.0,-551.5640127854476,-1121.4879413032804,162.46722885202274,0.3988873609215843,-0.4665703524056866,171.68394820299227,43.448810915302104,0.0,1.0,18.951743264948174,10.28704890597808,0.0,Landing
27.1,-553.497911738294,-1119.124355984718,160.3162902042481,0.43561587932450196,-0.3196074231558094,171.22331499875554,43.36177506641424,0.0,1.0,18.951743264948174,10.28704890597808,0.0,Landing
27.200000000000003,-555.3006012122796,-1098.2339012575721,161.97316943879497,0.36785097536370504,-0.46732041877712616,171.4895445816495,43.18039692157688,0.0,1.0,18.951743264948174,10.28704890597808,0.0,Landing
27.3,-557.0551822917355,-1080.6716558478456,161.55843890514905,0.41542677519508703,0.029761535050490673,171.66935064748372,43.366002934864646,0.0,1.0,18.951743264948174,10.28704890597808,0.0,Landing
27.400000000000002,-558.9012700175332,-1082.120360439626,160.60587200584436,0.22811340353658338,-0.23936669730922866,171.4520015117323,43.154823079702716,0.0,1.0,18.951743264948174,10.28704890597808,0.0,Landing
27.5,-560.7112030144777,-1107.401467247064,161.0398407667897,0.5711437730777801,-0.7466331814840717,171.65775635919078,43.35180876846114,0.0,1.0,18.951743264948174,10.28704890597808,0.0,Landing
27.6,-562.5921896279708,-1100.1399085270577,160.4791102490697,0.2592119614275357,0.020358411786560837,171.5607259583478,43.03321305552598,0.0,1.0,18.951743264948174,10.28704890597808,0.0,Landing
27.700000000000003,-564.4019695601685,-1093.4621024427315,161.54563349477775,0.7404028535370009,-0.08448616997748107,171.5388330145356,42.99087652255255,0.0,1.0,18.951743264948174,10.28704890597808,0.0,Landing
27.8,-566.1785135266914,-1073.047611422703,162.02467381533347,0.33445005704744335,-0.39122699746020473,171.76055714205995,43.47373335764547,0.0,1.0,18.951743264948174,10.28704890597808,0.0,Landing
27.900000000000002,-567.9574276850843,-1090.886759840805,161.8127777444128,0.20327541410573682,-0.09603714409416692,171.85456964337163,42.687728260994355,0.0,1.0,18.951743264948174,10.28704890597808,0.0,Landing
28.0,-569.8564033593725,-1104.9697782422072,161.2136785340049,0.6850569083298335,0.01953835621468153,171.5837663294783,43.4098608983014,0.0,1.0,18.951743264948174,10.28704890597808,0.0,Landing
28.1,-571.7033624179024,-1117.7782074541483,162.73275934887826,0.29462802546921363,-0.3522580188884391,171.80563836750594,43.586217567071806,0.0,1.0,18.951743264948174,10.28704890597808,0.0,Landing
28.200000000000003,-573.5463187223551,-1113.4972493845225,163.1260784546764,0.37178758633335024,-0.22173422165895668,171.6928372088912,43.12783040705056,0.0,1.0,18.951743264948174,10.28704890597808,0.0,Landing
28.3,-575.4238896062951,-1101.4876793827625,160.8486321186565,0.23991006357263994,-0.23123766038623472,171.87311868817255,43.5222360500067,0.0,1.0,18.951743264948174,10.28704890597808,0.0,Landing
28.400000000000002,-577.2108008148163,-1090.845904215007,162.87893835260172,0.33602557813138006,-0.3598274444523588,171.45035359248197,43.28322879287668,0.0,1.0,18.951743264948174,10.28704890597808,0.0,Landing
28.5,-579.0005482434301,-1079.1067827996812,160.7687781978377,0.4300770958091005,-0.04920647877841272,171.38796845785714,43.562057136975845,0.0,1.0,18.951743264948174,10.28704890597808,0.0,Landing
28.6,-580.8194235202935,-1080.039311093219,160.90812994987775,0.6509537640392278,-0.36947089051896,171.68566585507847,42.83833941667031,0.0,1.0,18.951743264948174,10.28704890597808,0.0,Landing
28.700000000000003,-582.6109973702823,-1080.9288173385312,162.3964144077563,0.3087801223234742,-0.23691181428576039,171.37462306214923,43.56510153646354,0.0,1.0,18.951743264948174,10.28704890597808,0.0,Landing
28.8,-584.4051923301228,-1077.120127971989,160.21246332671734,0.4010484994003696,-0.14675050921781108,171.5012566862007,43.20924156623538,0.0,1.0,18.951743264948174,10.28704890597808,0.0,Landing
28.900000000000002,-586.2050241601535,-1081.0614079856578,160.9778526280027,0.826621207826105,-0.7357141536839933,171.68528475110952,43.61920178508014,0.0,1.0,18.951743264948174,10.28704890597808,0.0,Landing
29.0,-588.0163044102106,-1072.3053861373955,162.03005043202367,0.38849333901268723,-0.4395132810972634,171.62159951930562,43.27111686567165,0.0,1.0,18.951743264948174,10.28704890597808,0.0,Landing
29.1,-589.7667192608097,-1076.6728825156633,163.08188904514918,0.12025365199388677,-0.5380980379648517,171.75565396073,42.967515492275204,0.0,1.0,18.951743264948174,10.28704890597808,0.0,Landing
29.200000000000003,-591.5883885727318,-1068.2033453826534,159.92863811880147,0.22436483578337768,-0.1534341577170069,171.74244574492343,43.33741949380849,0.0,1.0,18.951743264948174,10.28704890597808,0.0,Landing
29.3,-593.3573211371239,-1090.099999931158,160.31656810929212,0.14036692267341214,0.17107873829259002,171.57791546745705,43.229609872199894,0.0,1.0,18.951743264948174,10.28704890597808,0.0,Landing
29.400000000000002,-595.2172192604655,-1105.5886082438747,160.8245227622402,0.7964250472335526,-0.4456756563918344,171.28662042430756,43.176949559174275,0.0,1.0,18.951743264948174,10.28704890597808,0.0,Landing
29.5,-597.1163316139512,-1108.670812884725,161.08741732324813,0.48358497219930424,-0.5603665312164925,171.65617548258194,43.27846899059618,0.0,1.0,18.951743264948174,10.28704890597808,0.0,Landing
29.6,-598.9006752015475,-1079.052323768883,162.09248234574295,-0.07828676965700404,-0.37184311818646065,171.45080502628707,43.94811795323945,0.0,1.0,18.951743264948174,10.28704890597808,0.0,Landing
