time_s,altitude_ft,vertical_speed_fpm,ias_kt,pitch_deg,roll_deg,heading_deg,throttle_pct,afterburner_on,gear_down,flaps_deg,speedbrake_pct,weight_on_wheels,label
0.0,0.006655832530136803,-33.55720090664221,16.77199525401661,0.05516497665904781,-0.21316730999346648,29.614463891064133,14.316058502513746,0.0,1.0,0.0,0.0,1.0,Taxi
0.1,-0.10520150382533724,-22.235432956418332,17.113497943260846,0.14958819503193344,0.1545937722325663,29.48461181015682,14.342775685686332,0.0,1.0,0.0,0.0,1.0,Taxi
0.2,-0.10452133225195488,-36.96791819382503,15.702467367722342,0.06128898873626189,0.44051806663890164,29.58225082616525,14.336573436725118,0.0,1.0,0.0,0.0,1.0,Taxi
0.30000000000000004,-0.17818375843898834,34.25337220766803,16.43579354175762,-0.1131834797061812,-0.416950730662359,29.578663744150333,14.133488391943667,0.0,1.0,0.0,0.0,1.0,Taxi
0.4,0.06606535721300293,21.778319783977633,17.590187417355207,0.22590831162528385,0.7702429356555959,29.71935100785123,14.639684162126562,0.0,1.0,0.0,0.0,1.0,Taxi
0.5,0.004370266667933311,20.29192627355537,16.57737916234633,0.12895745662523342,-0.1613737756514491,29.640251239627503,15.473421624433495,0.0,1.0,0.0,0.0,1.0,Taxi
0.6000000000000001,-0.07672412707121147,-48.35618803447047,16.19505075165971,0.41513220637919285,0.5066259144221985,29.67234020676557,14.579602314182141,0.0,1.0,0.0,0.0,1.0,Taxi
0.7000000000000001,-0.17571558295934941,-22.58860409932224,16.05042608994612,0.014178651041721141,1.0089235849063494,29.53429848835225,14.038373886356748,0.0,1.0,0.0,0.0,1.0,Taxi
0.8,-0.10857275382867787,9.19765588371594,16.023630425153126,0.11398662637039109,0.2625008839820952,29.456330650715813,14.594074020229026,0.0,1.0,0.0,0.0,1.0,Taxi
0.9,-0.030735847652631765,22.71167609577968,16.030500343343327,0.024453956512647715,-1.506358317088315,29.585254193865865,14.90632503059948,0.0,1.0,0.0,0.0,1.0,Taxi
1.0,-0.062157202480451035,48.147116887359054,16.262926941519893,-0.17673772636151175,-0.1838603171068728,29.663896457085286,14.984080788501997,0.0,1.0,0.0,0.0,1.0,Taxi
1.1,0.13216283060811737,-3.9180425038221216,15.137176826359122,0.6404552155714227,0.31221746613442175,29.71242471670979,14.226185686169048,0.0,1.0,0.0,0.0,1.0,Taxi
1.2000000000000002,-0.0503260601717424,27.579121153453467,16.86557810175143,0.42505410460006937,1.0490151702242754,29.653509399807774,13.905489143636997,0.0,1.0,0.0,0.0,1.0,Taxi
1.3,0.07573840328681627,-16.058311748415104,16.300129378606922,-0.036946426750904315,0.5796078377220822,29.638079718043343,15.042009419073803,0.0,1.0,0.0,0.0,1.0,Taxi
1.4000000000000001,0.051871271866041825,-0.8413868303511928,16.09638248095864,0.32034521222030854,-0.7771703611929048,29.647108333675362,14.428190954082483,0.0,1.0,0.0,0.0,1.0,Taxi
1.5,-0.054532994323498396,10.237410952733645,16.00990544115161,0.15248114510810207,-0.4506670169789247,29.852284383620827,14.666939167062841,0.0,1.0,0.0,0.0,1.0,Taxi
1.6,0.12692545805048447,-28.366216190556695,17.05248001443163,0.0045960893084132926,0.26707839223109026,29.876434100227698,13.727878856522933,0.0,1.0,0.0,0.0,1.0,Taxi
1.7000000000000002,-0.08995980908674167,10.756701148660547,16.521516650356432,-0.05280797144540983,0.3984258556510746,29.483707199064554,14.882087315896136,0.0,1.0,0.0,0.0,1.0,Taxi
1.8,-0.0007494885801956693,6.45259891019506,17.494133950310175,0.2261568050399686,0.3034501251834029,29.78999005270316,14.359268641108548,0.0,1.0,0.0,0.0,1.0,Taxi
1.9000000000000001,0.15918845260145975,16.856228699970135,17.34214720230372,0.18220151622061476,-0.011495142283646013,29.663120444062542,15.85305430954252,0.0,1.0,0.0,0.0,1.0,Taxi
2.0,-0.005678665586891046,-12.665619905089715,16.103845548052806,0.05849407408229382,-0.17443639069693392,29.777333659429416,14.149800146439324,0.0,1.0,0.0,0.0,1.0,Taxi
2.1,-0.06407758810564426,-44.59007664358038,15.383584995787466,0.4493201422178042,0.08878912106551315,29.77112196038803,14.567839222228173,0.0,1.0,0.0,0.0,1.0,Taxi
2.2,-0.0637619306164422,2.6864429731156343,16.110686511028376,0.08626418995970059,0.09284273065866476,29.654129874529303,14.197824572900984,0.0,1.0,0.0,0.0,1.0,Taxi
2.3000000000000003,0.0077535492786871205,-14.037257175898382,16.437174074863858,0.21094385098387541,0.6435770669705076,29.647494703779614,14.827880076785386,0.0,1.0,0.0,0.0,1.0,Taxi
2.4000000000000004,-0.13426387398513617,8.837383182378824,16.303844790022456,-0.014664065444757846,-0.8633678392794111,29.581284511307103,14.42944920274383,0.0,1.0,0.0,0.0,1.0,Taxi
2.5,-0.01957501470454808,8.18622902211539,16.474977973628345,0.3155815612233279,-0.6068617688905518,29.64393290678254,14.185135779950445,0.0,1.0,0.0,0.0,1.0,Taxi
2.6,0.04868469438926406,40.976045746421924,16.955560321702638,0.07505194752609273,-0.024331685697952358,29.71009583902162,14.187630834500059,0.0,1.0,0.0,0.0,1.0,Taxi
2.7,0.0706163547469734,41.90467917988886,14.877394555982118,0.35898898773463384,-0.9153005195841848,29.747080446067855,13.976273602813365,0.0,1.0,0.0,0.0,1.0,Taxi
2.8000000000000003,0.18994838119489618,-10.58792268888989,16.176690689988,-0.09133836417551366,0.3968272145403831,29.48114428562849,13.959734993735474,0.0,1.0,0.0,0.0,1.0,Taxi
2.9000000000000004,-0.004254919055185446,-33.791430982050706,16.434559445579545,0.34690072537580297,-0.42311346523675203,29.53607824621838,14.437754861954287,0.0,1.0,0.0,0.0,1.0,Taxi
3.0,-0.09834080016328017,-49.90305329719761,16.124957521294778,-0.15311667218131886,-0.8060565084917091,29.54862000332588,13.973203978902232,0.0,1.0,0.0,0.0,1.0,Taxi
3.1,-0.05956688529109192,17.492465786347868,17.437065120829647,0.1888997676921866,-0.22970150343592644,29.552597010412683,14.818866736729888,0.0,1.0,0.0,0.0,1.0,Taxi
3.2,0.0832074098765539,28.329746437190412,15.96004169311896,-0.07215469035116662,0.07709463195050988,29.60455118256209,14.848675654984964,0.0,1.0,0.0,0.0,1.0,Taxi
3.3000000000000003,0.04330793202267189,10.934977173395618,16.678445607074643,0.3235598801241053,-0.41346643942965483,29.56812531652804,14.683608114473763,0.0,1.0,0.0,0.0,1.0,Taxi
3.4000000000000004,-0.0048919994241138345,-7.383560308413641,16.14681945795552,0.2870994300548746,0.473969389714931,29.675984176198597,14.50212033334229,0.0,1.0,0.0,0.0,1.0,Taxi
3.5,0.04628960833448569,-20.714364309957592,16.1245609826588,0.25709789787165227,-0.5659611062841499,29.57550180913705,14.385608494556,0.0,1.0,0.0,0.0,1.0,Taxi
3.6,-0.06026388952711606,9.164172373376777,15.804338299003671,0.35579123396026047,0.36434492150619324,29.53398970797531,14.75593693901981,0.0,1.0,0.0,0.0,1.0,Taxi
3.7,0.04092886244277005,-34.21104912342965,15.758719176930454,0.4272086754890975,-0.24765498215546347,29.896674844014115,15.092237008024673,0.0,1.0,0.0,0.0,1.0,Taxi
3.8000000000000003,-0.12476563728266257,27.060364623544157,17.2493952201945,-0.0810015061533953,-0.656112409854003,29.502400682240022,15.108866268729983,0.0,1.0,0.0,0.0,1.0,Taxi
3.9000000000000004,0.07503793359060473,-23.93839505226418,17.089316730927642,-0.08080304540633515,-0.5010413675124024,29.73390552415458,15.121592104465101,0.0,1.0,0.0,0.0,1.0,Taxi
4.0,-0.07876311281855083,6.462199555243433,15.64326937971451,0.19959646000611453,0.16699633811747827,29.623022075037852,15.164999433422086,0.0,1.0,0.0,0.0,1.0,Taxi
4.1000000000000005,-0.0924546395064454,2.408395381356845,15.822146572598939,0.1915183868718831,0.3164992544731273,29.52871008551159,14.94805298806936,0.0,1.0,0.0,0.0,1.0,Taxi
4.2,0.08707991049738899,-2.8239578145248223,15.912537779951968,0.2629378270485831,0.15762003208656444,29.773213911872574,13.844986181821156,0.0,1.0,0.0,0.0,1.0,Taxi
4.3,-0.09288290189117496,10.878853010874698,15.984869246860004,0.17710976386970434,0.131755376645295,29.68574162257522,14.059893550594929,0.0,1.0,0.0,0.0,1.0,Taxi
4.4,-0.038060374452071936,-0.5729626293042571,15.62045120244515,0.15526331943261798,0.2795561015280973,29.89726739140434,14.350309588649461,0.0,1.0,0.0,0.0,1.0,Taxi
4.5,0.08421509735086766,20.01129318309233,17.34837281968046,0.28556911165851584,-0.21613273195548519,29.643897687001356,14.380903585204903,0.0,1.0,0.0,0.0,1.0,Taxi
4.6000000000000005,0.007173564024286663,20.221918414029066,15.57363605630944,0.2305894058315823,0.4314769416473546,29.589660536149893,14.464983244090407,0.0,1.0,0.0,0.0,1.0,Taxi
4.7,0.06304921761807337,-29.290252154182568,16.763825070492093,0.17609993400783355,0.8724022904069113,29.460775926539952,14.240027530776098,0.0,1.0,0.0,0.0,1.0,Taxi
4.800000000000001,-0.06223616342004519,-34.81061591075766,17.018586739928352,-0.17282817288089497,-0.5343285724995939,29.57957784201136,14.371170748123577,0.0,1.0,0.0,0.0,1.0,Taxi
4.9,-0.16687951552950164,-15.097191466162181,15.97023485176424,0.16866336654028832,-0.2300587340437557,29.680243014947735,14.154323251939989,0.0,1.0,0.0,0.0,1.0,Taxi
5.0,-0.012436739712737496,-9.234596845046887,16.092450001714717,-0.19072581822663515,0.5333815948646086,29.539363569637544,14.239350208533713,0.0,1.0,0.0,0.0,1.0,Taxi
5.1000000000000005,-0.1084091476452796,51.413638331088485,16.124342096878568,0.5804216415957467,0.03179690562233002,29.81241611900964,14.270513559388604,0.0,1.0,0.0,0.0,1.0,Taxi
5.2,0.09018867612594078,4.690120191234897,16.62294689868368,0.010435895347299717,0.5958511788993528,29.712904802111268,14.996676770465887,0.0,1.0,0.0,0.0,1.0,Taxi
5.300000000000001,0.011013861243436993,28.02130542940006,16.251793759614266,0.18664236753227867,0.33367596573238184,29.466315638009405,16.074648660260394,0.0,1.0,0.0,0.0,1.0,Taxi
5.4,0.031697379501720684,-28.500082563279992,16.589595159114896,0.22094891597895155,0.9872969490712398,29.596970585751023,14.168711151470305,0.0,1.0,0.0,0.0,1.0,Taxi
5.5,-0.05231173669045918,-10.11444033879087,16.46008484950284,0.04436336485272219,0.6511795685317278,29.63858351974892,14.610074214446117,0.0,1.0,0.0,0.0,1.0,Taxi
5.6000000000000005,-0.03955834045051734,-7.987544459987266,15.919891928593161,0.2517427465151788,-0.24089013477108542,29.58731953504889,13.403864133025632,0.0,1.0,0.0,0.0,1.0,Taxi
5.7,-0.008240342798215635,-10.020101182236443,15.284767643134762,0.04298402387646999,-0.15905878212502775,29.729479161803283,14.170243091441236,0.0,1.0,0.0,0.0,1.0,Taxi
5.800000000000001,-0.10241224260164139,24.486294962001548,16.73416357031477,-0.07274624725103507,-0.4895353946855048,29.685515048276272,15.037219462767093,0.0,1.0,0.0,0.0,1.0,Taxi
5.9,0.0828731343594904,-16.691921925030538,16.661795796014893,0.2579566434645855,0.04189545854635072,29.83062372450695,14.318568910277968,0.0,1.0,0.0,0.0,1.0,Taxi
6.0,-0.09169995242336833,31.356199865893274,16.044404172174726,0.24803934052413568,-0.41283720223197967,29.46056860832215,15.245707686894177,0.0,1.0,0.0,0.0,1.0,Taxi
6.1000000000000005,0.054368756727824985,-3.7517050020620175,17.14376809904323,0.2601714783035624,0.3661747728845587,29.60043068622275,14.112096232468755,0.0,1.0,0.0,0.0,1.0,Taxi
6.2,0.06411460934918031,-25.648150276867682,16.4485342323781,0.23560855642153178,0.03849423445561615,29.522874832983916,14.164047744525913,0.0,1.0,0.0,0.0,1.0,Taxi
6.300000000000001,-0.21994070380770672,-26.021383667959736,15.383666348609877,0.05179347285594474,0.05732063112369913,29.79520518151469,14.442211666192211,0.0,1.0,0.0,0.0,1.0,Taxi
6.4,-0.07573816161197362,-40.62761739880466,16.691582461224787,0.04115970105476956,0.20283291452155977,29.611022425221165,13.688600507944868,0.0,1.0,0.0,0.0,1.0,Taxi
6.5,-0.13902347764484296,47.86463973414007,16.92670267035934,-0.30914556685941313,0.8107582620198894,29.770659465111294,14.278534467680922,0.0,1.0,0.0,0.0,1.0,Taxi
6.6000000000000005,0.01938249486299364,1.8163306091988975,16.839948748575612,-0.1791955185269753,-0.8072338125126706,29.635464792957464,14.618824102789333,0.0,1.0,0.0,0.0,1.0,Taxi
6.7,-0.06665650856597914,13.967626413346425,16.027868431293403,0.5774742670450419,0.59706223949831,29.70416924891248,14.573227844764784,0.0,1.0,0.0,0.0,1.0,Taxi
6.800000000000001,-0.06918534557811085,-57.09327212135984,15.772432675529435,0.2529013547922031,0.2855912325408748,29.64857962988657,14.975395728797427,0.0,1.0,0.0,0.0,1.0,Taxi
6.9,-0.26608386574380555,29.04674175632572,14.848451475416732,0.3179141692306785,0.30066492386526195,29.5825285652096,14.494400483288839,0.0,1.0,0.0,0.0,1.0,Taxi
7.0,0.07857720021564943,9.06077446080831,16.05404340055023,0.09609292892656407,0.349602851842167,29.487912508846307,14.52430952057921,0.0,1.0,0.0,0.0,1.0,Taxi
7.1000000000000005,-0.023881473274069337,31.73122320998542,16.913653869782806,0.020979826745472163,1.0065895186964673,29.85977502680055,14.860229223121575,0.0,1.0,0.0,0.0,1.0,Taxi
7.2,-0.10742774969387847,1.5776999694308198,16.235214471005406,-0.0489290229652157,0.1009132324552539,29.650711812952807,14.621345068134822,0.0,1.0,0.0,0.0,1.0,Taxi
7.300000000000001,0.08646570006280359,-8.426157960757442,16.264511715050684,-0.06154280882410654,0.15325913859692042,29.592910065133935,15.145070018943978,0.0,1.0,0.0,0.0,1.0,Taxi
7.4,-0.0660122630778565,10.111014273639983,15.584386744919456,0.2438929559500172,0.2710373298146122,29.62236673743803,14.915877867863031,0.0,1.0,0.0,0.0,1.0,Taxi
7.5,-0.05687267832567852,-6.447892105792562,16.465843162656157,0.15341984670526762,0.1432827663222851,29.602203354891117,14.177138207248897,0.0,1.0,0.0,0.0,1.0,Taxi
7.6000000000000005,0.05422623953384079,20.911242203703004,16.770843851464114,0.14474608441040457,-0.09709057275218878,29.527699454542358,15.186015250410529,0.0,1.0,0.0,0.0,1.0,Taxi
7.7,0.03854394794065854,26.811306680904057,16.181533518181975,0.09138216199374077,0.28746261665551104,29.90899610370377,14.414866413987442,0.0,1.0,0.0,0.0,1.0,Taxi
7.800000000000001,0.07718385507884178,-8.249152715891396,16.034532853922446,0.11367577629492262,0.00479496316378936,29.857341290652585,15.269518343283458,0.0,1.0,0.0,0.0,1.0,Taxi
7.9,0.01298047595438382,-4.678405531088557,15.8708125934753,0.38039073821953706,0.28829867442365587,29.636033167840992,14.33400915706197,0.0,1.0,0.0,0.0,1.0,Taxi
8.0,0.015151920285215767,-11.813107032334498,16.98889147457446,0.3756384002599014,0.7230690256986233,29.57530917712984,14.508393187953555,0.0,1.0,0.0,0.0,1.0,Taxi
8.1,0.018118319917169303,9.959143051239367,17.151441533244352,-0.1129695614734742,0.30957413469379996,29.543393431116897,14.376935171335305,0.0,1.0,0.0,0.0,1.0,Taxi
8.200000000000001,0.06277619121058069,-0.1177807386527121,17.2612580636902,0.14869618042807428,0.17073091632893286,29.51178889611441,13.617495401761461,0.0,1.0,0.0,0.0,1.0,Taxi
8.3,0.014563016591952235,11.926205357799967,16.120713784475143,-0.02691622120791959,-0.07712556102687498,29.511501763826743,14.682457777556575,0.0,1.0,0.0,0.0,1.0,Taxi
8.4,0.07774934670616918,-8.61125147574964,16.478719545067893,-0.05186151555640098,-0.7326768766183002,29.61827463363403,15.204557632910355,0.0,1.0,0.0,0.0,1.0,Taxi
8.5,0.01971993383183251,-38.2536633243566,16.276462111808605,-0.07819129555175686,1.0053230387574787,29.76194138451342,13.775406115417567,0.0,1.0,0.0,0.0,1.0,Taxi
8.6,-0.17670530002983073,4.6658137562038275,16.40082779616399,-0.023582944147868434,0.0934246462440419,29.59070832489971,14.547007493212853,0.0,1.0,0.0,0.0,1.0,Taxi
8.700000000000001,0.10107841548718832,5.02948796823267,16.272580258847942,-0.07248965010163225,0.10514861550645845,29.63837871019956,15.050290229512136,0.0,1.0,0.0,0.0,1.0,Taxi
8.8,0.04486737367299584,60.752122767586314,16.500936006555484,0.10934614481967986,0.43769580547097686,29.600005968337882,14.427500276695719,0.0,1.0,0.0,0.0,1.0,Taxi
8.9,0.1270553138081008,-11.904413341688903,15.281717052457662,0.21693050307579367,0.606192460488409,29.73398006901266,14.910585353255092,0.0,1.0,0.0,0.0,1.0,Taxi
9.0,0.04155634877874379,11.985764231488885,16.95280468719359,0.07812958306475283,0.22924213158228843,29.709299652356606,13.82026180736556,0.0,1.0,0.0,0.0,1.0,Taxi
9.1,0.10479619483044025,-37.108177507008705,16.079195040293225,-0.24443046176138317,0.28088241925475094,29.6608526091033,14.190505796030937,0.0,1.0,0.0,0.0,1.0,Taxi
9.200000000000001,-0.05848557372694271,-46.363965034310176,16.17317003886674,-0.15218811757833356,-0.3236549573572443,29.73808191282285,15.350181378530046,0.0,1.0,0.0,0.0,1.0,Taxi
9.3,-0.1902634763928071,-1.398592621218332,16.695798996665687,0.42409567249465363,0.8108599842710161,29.5601261376097,14.457792332941583,0.0,1.0,0.0,0.0,1.0,Taxi
9.4,0.09780323172434863,3.550287333496641,16.59200768350236,0.3592457087951816,0.8363057208292901,29.583752593079737,15.556662334493938,0.0,1.0,0.0,0.0,1.0,Taxi
9.5,-0.040734137059459496,4.32211019040867,17.24432656678362,0.19122092049090805,-0.7422480664442426,29.732776877039214,13.276129045895775,0.0,1.0,0.0,0.0,1.0,Taxi
9.600000000000001,-0.16865292544076374,-48.73550389631342,16.21813019260098,-0.15296055180687324,0.150551117050342,29.64222043759986,15.17534121179884,0.0,1.0,0.0,0.0,1.0,Taxi
9.700000000000001,-0.14587428775721845,-3.140382537657409,16.282178064865207,-0.2627339710546175,0.13915345113472907,29.673395923233784,14.493187760216273,0.0,1.0,0.0,0.0,1.0,Taxi
9.8,-0.056436049747746554,34.162413035861476,15.327657826074566,-0.06332569684503195,-0.06906285313672247,29.734907235844503,14.236918279535415,0.0,1.0,0.0,0.0,1.0,Taxi
9.9,0.0021591397385435952,-0.9089734026232321,15.910705224881205,0.30782706239672075,-0.3208654526400649,29.64037450630883,14.163267922581136,0.0,1.0,0.0,0.0,1.0,Taxi
10.0,-0.15041915477033463,42.49909666424343,16.77494079002968,0.1547558307487436,-0.2936312940607118,29.68717257017937,14.75940520251078,0.0,1.0,0.0,0.0,1.0,Taxi
10.100000000000001,0.15605943357347066,16.107018420299116,15.99713338539116,-0.0858809251981455,-0.05024012298416754,29.73389083177193,14.271183308631901,0.0,1.0,0.0,0.0,1.0,Taxi
10.200000000000001,0.08269423184003927,25.613874867464975,15.373139070936379,0.11892132613846138,0.33794703662009495,29.74345258440087,14.684314833099759,0.0,1.0,0.0,0.0,1.0,Taxi
10.3,-0.022349780433009673,-12.117379422347804,17.16418746861382,0.09343080939195703,-0.8755656680432117,29.734406690787978,14.565844034034049,0.0,1.0,0.0,0.0,1.0,Taxi
10.4,0.09547253646173165,-46.989543869075966,17.12901310742258,-0.2733819302904464,0.0547690206460881,29.768283731673762,14.219842164224442,0.0,1.0,0.0,0.0,1.0,Taxi
10.5,-0.15225348750534054,11.52242357911418,16.013931984349423,0.16187898683208668,-0.30904057941021623,29.519179188025817,14.817986295773268,0.0,1.0,0.0,0.0,1.0,Taxi
10.600000000000001,0.03526233746256122,-19.71465056594427,17.137862023564622,0.05636512389212871,-0.06996182300916177,29.709458341044638,13.975033271903657,0.0,1.0,0.0,0.0,1.0,Taxi
10.700000000000001,-0.0031007163679897046,51.542708771201035,16.236225358100796,0.3865448510185072,-0.9332541642887643,29.61617256336575,14.011920299747818,0.0,1.0,0.0,0.0,1.0,Taxi
10.8,0.10546005635066467,-29.286007507865307,14.982437177538351,0.18354421928480225,-0.3759226763975618,29.70974583818304,14.533232011625415,0.0,1.0,0.0,0.0,1.0,Taxi
10.9,-0.11116770007676535,-5.859643682300242,16.951601885033412,0.2029955285626836,0.27284357656955044,29.642627293793907,14.11218174218246,0.0,1.0,0.0,0.0,1.0,Taxi
11.0,-0.032398934779490955,-3.497718012840489,16.843795614142696,0.12192800885942764,-0.09431693724305085,29.747694132758113,14.212900948671406,0.0,1.0,0.0,0.0,1.0,Taxi
11.100000000000001,0.08797146628646219,7.123853343596276,16.590497097426358,0.26509668939114195,0.0702363190757005,29.6335330173776,14.777983036900636,0.0,1.0,0.0,0.0,1.0,Taxi
11.200000000000001,-0.07554843335878404,2.9049874271428444,15.927326444374923,0.04406902518652639,-0.026043499935187776,29.75807619138726,15.23366574221345,0.0,1.0,0.0,0.0,1.0,Taxi
11.3,-0.017873997643776805,-16.757219978487903,15.709954336302337,0.2717510283531316,-0.4579173409284734,29.525058623303096,14.664797340986388,0.0,1.0,0.0,0.0,1.0,Taxi
11.4,0.00418536639402261,46.13224681527408,15.87559832823651,0.10811893681185687,-1.4327706785980305,29.62368980995558,14.382621365710262,0.0,1.0,0.0,0.0,1.0,Taxi
11.5,0.15511280071758635,-28.199613935867635,16.659486378719638,-0.02507565397229128,-0.6894805251624303,29.796558920357654,14.741134260696505,0.0,1.0,0.0,0.0,1.0,Taxi
11.600000000000001,-0.15887206732311498,29.870537561131453,16.848412704262685,0.25462066334294425,1.1714757747567708,29.65898934684799,14.991289274680563,0.0,1.0,0.0,0.0,1.0,Taxi
11.700000000000001,0.1535380541996799,-10.110409634025991,16.10061118828719,0.17194310514804076,0.347670640333855,29.420735317634637,14.291026073290173,0.0,1.0,0.0,0.0,1.0,Taxi
11.8,0.10456075254745639,22.254360319324093,16.621562299471417,0.041709162412799816,-0.3226446593047389,29.7093350001702,13.68775175479409,0.0,1.0,0.0,0.0,1.0,Taxi
11.9,-0.047600265726494534,-44.87286559463917,15.81106013237501,0.2789929494160186,-0.1792194058625316,29.585536141711657,14.83007846689746,0.0,1.0,0.0,0.0,1.0,Taxi
12.0,-0.070826273773516,-61.6705451002213,16.673623669434768,0.40967412465102393,0.25005042875903855,29.705394841017608,14.296125673830112,0.0,1.0,0.0,0.0,1.0,Taxi
12.100000000000001,-0.20379197295365015,46.588105060672596,15.968036326371042,0.2869679438126138,0.42457234657549064,29.694325600864033,15.006416374624964,0.0,1.0,0.0,0.0,1.0,Taxi
12.200000000000001,0.18534025957686837,18.2023299141652,16.29859626347238,0.16585956044388833,-0.31451311965457807,29.877160770569958,13.960732308308843,0.0,1.0,0.0,0.0,1.0,Taxi
12.3,0.020185375797309918,36.213546001435155,17.70735355881013,0.0030548988065847438,-0.2359931753434453,29.699818481925774,15.30583460139119,0.0,1.0,0.0,0.0,1.0,Taxi
12.4,-0.0227242429464744,-20.542755234251572,16.444678735431257,-0.04655494584010034,0.7829751479833398,29.69932998878903,14.854382995353044,0.0,1.0,0.0,0.0,1.0,Taxi
12.5,0.08262648340561049,-2.0685581373354864,16.80233451904834,0.24389848900964128,0.6169285786844882,29.709437615852096,15.009051663220541,0.0,1.0,0.0,0.0,1.0,Taxi
12.600000000000001,0.00984258511063247,-23.31077354978821,16.08891733365677,0.05986045694290505,0.5842807009104133,29.606882347416047,14.90594867618954,0.0,1.0,0.0,0.0,1.0,Taxi
12.700000000000001,-0.13927811069541549,-33.12641591081244,17.06649526191587,0.09704345001656484,0.4804304138976208,29.54412647523708,14.695893611110833,0.0,1.0,0.0,0.0,1.0,Taxi
12.8,-0.08300559614845178,-20.04027445532613,15.932707410162923,-0.34527282139862747,0.16014441458272916,29.540179947483807,14.543986971257175,0.0,1.0,0.0,0.0,1.0,Taxi
12.9,-0.09035878716599823,59.41019509337224,16.124895559366475,-0.10382282106065782,-0.016912130197716712,29.57787024449391,15.273109879935836,0.0,1.0,0.0,0.0,1.0,Taxi
13.0,0.1577728647714457,16.292150836412787,15.831395724965192,0.2395541674772596,-0.13393307787790848,29.590844177820827,14.336084919677857,0.0,1.0,0.0,0.0,1.0,Taxi
13.100000000000001,-0.0015448419663878247,40.128668224966965,17.009620737231565,0.1854597590958373,0.0026070050662504655,29.485069533670014,14.838332850372243,0.0,1.0,0.0,0.0,1.0,Taxi
13.200000000000001,0.11028455395883663,-63.49539661152577,15.98267995275111,0.22869383420141715,-0.6554598585033773,29.598604510325004,14.650517308495521,0.0,1.0,0.0,0.0,1.0,Taxi
13.3,-0.15970411828618314,29.88595638987253,16.22328629139493,0.10445050369570397,-0.5847156116478504,29.748853450321633,15.886634625815436,0.0,1.0,0.0,0.0,1.0,Taxi
13.4,0.14788493998297478,-2.063196402278139,16.073390082631857,0.2549266434053659,0.5462029546675871,29.745339017200536,14.13055537022066,0.0,1.0,0.0,0.0,1.0,Taxi
13.5,0.09996857194744589,30.2858225876639,16.69002561287971,-0.10195276655846458,1.1884516640220821,29.569035576471833,15.324215849314339,0.0,1.0,0.0,0.0,1.0,Taxi
13.600000000000001,-0.00827500534786369,-33.94818145201031,16.959580581335313,0.2850688414524829,0.9449609434094276,29.67882709934969,14.620542568676969,0.0,1.0,0.0,0.0,1.0,Taxi
13.700000000000001,-0.021855967277076754,-32.78907381151166,15.942141182976073,0.09258493477701493,1.0112737291700837,29.5322863622074,13.86980026931013,0.0,1.0,0.0,0.0,1.0,Taxi
13.8,-0.06397679711011242,7.517007410456604,15.836635237782824,0.0033331752492573308,-0.20902598394713198,29.628952982936426,15.102640333167702,0.0,1.0,0.0,0.0,1.0,Taxi
13.9,0.02931003170441936,21.386334918447194,17.38350154333884,0.045561474919352404,0.3448262624644298,29.490316279060835,13.427811034498621,0.0,1.0,0.0,0.0,1.0,Taxi
14.0,0.08507570731515923,51.55465809574156,15.313883559841488,0.33235020720097674,-0.7061540431177971,29.74218940499236,14.337882294213225,0.0,1.0,0.0,0.0,1.0,Taxi
14.100000000000001,0.1937964933685954,-16.86362268761584,16.07457263336687,-0.2927992880208353,0.06625128059853745,29.399757785332497,14.535459401823323,0.0,1.0,0.0,0.0,1.0,Taxi
14.200000000000001,-0.055008081733659814,-31.396318288160746,16.99015652671428,0.27037174361695393,-0.15519545331073079,29.73334856364471,14.822061512218367,0.0,1.0,0.0,0.0,1.0,Taxi
14.3,-0.07190588412564446,-50.71598843966451,16.597250334295925,0.15916314390048675,0.5016269688991911,29.576743764380467,13.311967245320895,0.0,1.0,0.0,0.0,1.0,Taxi
14.4,-0.05978344882972715,40.71553125784313,16.675990037942288,-0.1599500540191942,-0.3590164529995755,29.631040663254907,14.648111664719291,0.0,1.0,0.0,0.0,1.0,Taxi
14.5,0.14856957455555586,-2.5868133840060445,15.622086788662816,0.03614707268746603,-0.11375795353964843,29.569179201558427,15.542139105940795,0.0,1.0,0.0,0.0,1.0,Taxi
14.600000000000001,-0.08483995104567464,0.27120083118854826,16.909483460244306,0.024037769421461574,0.3835725535258759,29.48100880816878,15.12849934641813,0.0,1.0,0.0,0.0,1.0,Taxi
14.700000000000001,-0.058427444673784384,-73.11707815498362,17.10437627203084,0.25767212898712055,0.30241225208854494,29.741920474601386,15.680560746637022,0.0,1.0,0.0,0.0,1.0,Taxi
14.8,-0.21701581621936217,23.750015898135445,15.91514285737032,0.3342093577252012,-0.3156257162629481,29.596592798128995,14.681789530152336,0.0,1.0,0.0,0.0,1.0,Taxi
14.9,0.03391012844500257,0.7487286531131829,15.110297688265579,0.3274823287070854,-0.12219776538924816,29.64450185642545,14.025967363879566,0.0,1.0,0.0,0.0,1.0,Taxi
15.0,-0.054683801408218484,44.26561506993159,16.36955870382758,0.0827455043668114,0.033123368447917856,29.64915472309025,15.214183525056283,0.0,1.0,0.0,0.0,1.0,Taxi
15.100000000000001,0.004312259130295814,-1.464133706029454,17.149723963271477,0.24342019563023018,0.18361821273665585,29.634552202942473,14.286583499633654,0.0,1.0,0.0,0.0,1.0,Taxi
15.200000000000001,0.026589459914855274,13.864268350404513,17.220467168589494,0.31070933655289124,-0.10116027760094526,29.54647772551266,15.571414746536442,0.0,1.0,0.0,0.0,1.0,Taxi
15.3,0.014637540343804052,3.76817606585605,16.7969772971436,-0.10791530195296833,-0.0632667359239582,29.734159904672595,15.050720517527063,0.0,1.0,0.0,0.0,1.0,Taxi
15.4,0.023153139459576033,26.742124751685527,17.136668971697773,0.2697481479831449,0.30732367684835343,29.645759410669143,13.818110949417402,0.0,1.0,0.0,0.0,1.0,Taxi
15.5,0.16030008367328288,-19.290062050362394,17.304747704775227,-0.05031746330356765,0.74151203808372,29.664393609752153,14.28654442124466,0.0,1.0,0.0,0.0,1.0,Taxi
15.600000000000001,-0.08181276990800798,-20.196116058113944,16.24431004083028,0.20588130989178346,0.010680860877623537,29.65568017793845,14.475743215449418,0.0,1.0,0.0,0.0,1.0,Taxi
15.700000000000001,-0.07782744083099374,-49.192958565123895,16.61551532255786,0.10580203491229026,-0.12748329197037128,29.41563466034853,14.348296745439821,0.0,1.0,0.0,0.0,1.0,Taxi
15.8,-0.08566470915233666,36.88404435942067,16.36630645852399,0.0645461916673194,1.1443069305058473,29.595187014659814,14.288980089461946,0.0,1.0,0.0,0.0,1.0,Taxi
15.9,0.10260745188909533,14.43186779891746,16.492820303999498,0.18987299921577305,-0.44689323526641617,29.746887721657004,14.595992600482775,0.0,1.0,0.0,0.0,1.0,Taxi
16.0,-0.00566810183640648,-22.66781777636429,16.639204757690745,0.5745956139212733,-0.7268266728234595,29.69142645425302,14.070119602556552,0.0,1.0,0.0,0.0,1.0,Taxi
16.1,-0.19900379803415813,-9.834084290922107,16.28503035816261,0.2695687180503369,-0.8066835145223222,29.413782380193027,14.517328981776444,0.0,1.0,0.0,0.0,1.0,Taxi
16.2,0.05343703043448475,-1.3597155013337503,16.212999773209006,0.3392895650267246,-0.4647392624651315,29.885943293852506,14.80754171184086,0.0,1.0,0.0,0.0,1.0,Taxi
16.3,-0.01246667934307529,5.614914543535046,16.458547530217384,-0.07641957922010498,0.321299266691145,29.587278369845478,14.458792673128837,0.0,1.0,0.0,0.0,1.0,Taxi
16.400000000000002,-0.170929225316483,-16.528147525956612,16.44484100429731,0.1408186976514326,0.5051213112286755,29.76626720187238,13.65272981929468,0.0,1.0,0.0,0.0,1.0,Taxi
16.5,-0.029203707195298363,-16.24511957080058,17.117098579176343,0.2737986426440608,0.08546555801786428,29.671937406530276,13.674612593282026,0.0,1.0,0.0,0.0,1.0,Taxi
16.6,-0.09369227719707823,41.24122926135272,16.32125358798277,-0.13807717816415377,-0.5111933835846771,29.63218918618537,14.616586242068264,0.0,1.0,0.0,0.0,1.0,Taxi
16.7,0.03527692099028059,-9.049079791290774,15.851933695357168,0.23672912878676328,-0.3937445727648978,29.652767248233147,14.729166430221142,0.0,1.0,0.0,0.0,1.0,Taxi
16.8,-0.0744491061517523,46.31179060694441,16.167991808597705,-0.05934077871493115,-0.11417926293166067,29.72895090766866,14.58686926939247,0.0,1.0,0.0,0.0,1.0,Taxi
16.900000000000002,0.13786667583764375,24.480162139060152,15.50262858513544,0.31707805969661396,1.193247200669661,29.70720863754127,15.093369849094612,0.0,1.0,0.0,0.0,1.0,Taxi
17.0,0.15767773168558127,1.88258525072528,16.255975362890883,0.4350868517539955,-0.5273938742195213,29.59447180128774,13.867826192616775,0.0,1.0,0.0,0.0,1.0,Taxi
17.1,-0.06503617989812593,-10.330634641589862,15.882854243391538,0.034021523401671985,-0.3134267457144466,29.656464136660645,14.146002991058987,0.0,1.0,0.0,0.0,1.0,Taxi
17.2,0.08621350262969443,-34.133391408043245,17.16713223615382,0.002579989355353196,-0.0644843625491377,29.64539041108719,14.69752488481943,0.0,1.0,0.0,0.0,1.0,Taxi
17.3,-0.012989225354634962,36.763312298025234,15.6639871204596,0.14620727954831914,0.2392613617245232,29.63902023445422,14.333115240690374,0.0,1.0,0.0,0.0,1.0,Taxi
17.400000000000002,0.11878038159200022,-42.79390965433521,16.605215914933193,0.13288350324367118,0.1073572445697613,29.748496841557483,14.323479498527977,0.0,1.0,0.0,0.0,1.0,Taxi
17.5,-0.12775604564198165,-8.916887161165013,15.575144658072617,0.24808164055960863,-0.7134556686912668,29.745800217444696,14.86250100247519,0.0,1.0,0.0,0.0,1.0,Taxi
17.6,-0.05757366116046006,-26.82288252127189,16.380412064170454,0.3524359145366963,-0.47036000731877486,29.613971960985282,13.461439917829047,0.0,1.0,0.0,0.0,1.0,Taxi
17.7,-0.015334031014359246,69.93048200399059,15.612306563882525,0.11686224724640745,-0.6187948878965007,29.38626733659129,14.56516472155787,0.0,1.0,0.0,0.0,1.0,Taxi
17.8,0.22189636437797128,7.897987096972344,15.909608533454904,0.29485387281573466,-0.0713154256081266,29.699936303412358,14.814837731645989,0.0,1.0,0.0,0.0,1.0,Taxi
17.900000000000002,-0.018083725675598336,-1.7456518329355204,17.07142532594523,0.34696902682892306,-0.15123543127476652,29.56665573181874,15.542356653227403,0.0,1.0,0.0,0.0,1.0,Taxi
18.0,-0.024062290179036865,-42.79154041920523,16.41503729719377,-0.20228541263122685,-0.08557176940924441,29.767325593352382,14.616891216604278,0.0,1.0,0.0,0.0,1.0,Taxi
18.1,0.00793866228194509,10.497307306050295,16.183801782277975,0.1294478417191041,-0.2984641918326193,29.696705846831605,14.905362472953751,0.0,1.0,0.0,0.0,1.0,Taxi
18.2,0.03440281085465312,25.99521892027343,16.40563273369478,0.3417383437796653,-0.5523673534109919,29.68602943379676,15.849652838738,0.0,1.0,0.0,0.0,1.0,Taxi
18.3,0.10591380442233028,-8.8255881479207,16.071434603634273,-0.0038854899481186866,-0.18774222856632158,29.636840311107278,14.866719064395475,0.0,1.0,0.0,0.0,1.0,Taxi
18.400000000000002,-0.036189278457658396,-9.032488320644504,16.401253083816865,0.4287081338476545,0.8297415563952757,29.525430189471024,15.495091634800199,0.0,1.0,0.0,0.0,1.0,Taxi
18.5,-0.010759630748569395,-5.219509815365164,16.542146148783882,-0.10033817953732149,-0.11296597852581612,29.72111391304452,14.400706230823571,0.0,1.0,0.0,0.0,1.0,Taxi
18.6,0.07981625534550446,9.911478684518935,16.213984533167306,0.11574410871244503,0.05117815220092579,29.614653754464655,15.584037191146502,0.0,1.0,0.0,0.0,1.0,Taxi
18.7,0.013368114964936246,-10.238439443116688,17.059189357135033,0.34382352300042074,0.0007557248171064436,29.748276532094735,14.3957072476284,0.0,1.0,0.0,0.0,1.0,Taxi
18.8,-0.06195182796415286,-31.504247051147615,16.239705709798468,-0.024002942408755307,-0.4031458671816143,29.641627856462037,14.510284352240092,0.0,1.0,0.0,0.0,1.0,Taxi
18.900000000000002,-0.07770497991023365,-6.147956824114918,16.122487805068303,0.15900684805373233,-0.35343553347035134,29.637570407645626,14.314228407223892,0.0,1.0,0.0,0.0,1.0,Taxi
19.0,-0.017371669155638376,45.77601422868177,15.589552600449116,0.23457657879492383,-0.45682302288221766,29.47101022326177,14.729549008138987,0.0,1.0,0.0,0.0,1.0,Taxi
19.1,0.16692824317925595,42.365663602098856,16.886873128021325,0.3745831130153001,0.6687900155107507,29.50675417191576,13.865461876104265,0.0,1.0,0.0,0.0,1.0,Taxi
19.200000000000003,0.13412333810026056,-1.7056778179071916,16.888072835160486,0.46333200030593,-0.15459645839338304,29.604001274464906,14.537599309165957,0.0,1.0,0.0,0.0,1.0,Taxi
19.3,-0.025900058245174398,-76.99252695950285,16.588267428099954,-0.6016544713384501,-1.0327521265906072,29.8089212961915,16.088389132891972,0.0,1.0,0.0,0.0,1.0,Taxi
19.400000000000002,-0.21803439161825833,-37.13747582060818,16.424391930599565,0.48462311092978394,0.11499049802667652,29.752334264854312,14.066017454517976,0.0,1.0,0.0,0.0,1.0,Taxi
19.5,-0.051564041002780385,-16.353139557077167,16.82015177158738,-0.14535039834957514,-0.034675638771195984,29.62981719717766,13.427183068236234,0.0,1.0,0.0,0.0,1.0,Taxi
19.6,-0.10766575603056024,63.03742766617183,16.28723774452082,0.29673429937117624,0.1702359315630861,29.519319978158933,14.741903723915472,0.0,1.0,0.0,0.0,1.0,Taxi
19.700000000000003,0.09715274671260081,13.28435874330613,16.999616730329834,0.1242877049158951,-0.42441976200675197,29.602650320639555,13.737996136680264,0.0,1.0,0.0,0.0,1.0,Taxi
19.8,0.014857752713750222,5.949918325010451,16.06239626667534,0.03606855016243393,0.42615369614493526,29.730614383665454,14.112373535534642,0.0,1.0,0.0,0.0,1.0,Taxi
19.900000000000002,-0.07791616440550801,18.19507185081282,16.19367005190826,0.24063102732553798,0.06056096455008091,29.60421990230799,14.631519017795817,0.0,1.0,0.0,0.0,1.0,Taxi
20.0,0.18812810596666485,-30.813447368648962,16.520736818831253,0.09559743777749485,0.2811695672094061,29.632121827261244,15.051932406750614,0.0,1.0,0.0,0.0,1.0,Taxi
20.1,-0.13920948412949466,16.57901810064889,15.932567698641419,0.36906532881724763,1.684628126411158,29.659595910802295,14.665973303418152,0.0,1.0,0.0,0.0,1.0,Taxi
20.200000000000003,0.004978926097736337,-64.90815578301903,15.621587064161773,0.47914863596070045,-0.6096361840786714,29.647256808728116,14.036172145805665,0.0,1.0,0.0,0.0,1.0,Taxi
20.3,-0.13641267294843037,-5.049342334612217,15.701490966793067,0.1346306183341311,0.7366327250375964,29.660633298874302,14.062588236843562,0.0,1.0,0.0,0.0,1.0,Taxi
20.400000000000002,-0.1644561958025558,-11.304465017873781,16.335290046532634,0.17693817286853208,0.6367652103427034,29.617047041107696,13.803161017327021,0.0,1.0,0.0,0.0,1.0,Taxi
20.5,-0.0515433989916326,55.79505525486346,16.547630756450577,0.08473075197027825,-0.4010532957092084,29.648640929469025,14.449239854020794,0.0,1.0,0.0,0.0,1.0,Taxi
20.6,0.14256260332588688,41.83504371766331,15.849748892506156,0.5068347832794384,0.06091932053838657,29.83452433469205,15.191929084025073,0.0,1.0,0.0,0.0,1.0,Taxi
20.700000000000003,0.0447190227857607,32.2525018064348,16.48179647404116,0.5563899061795514,-1.2824670544622874,29.505244582539717,15.180221918333192,0.0,1.0,0.0,0.0,1.0,Taxi
20.8,0.10971911004054136,-40.313586126828305,15.938167187108027,0.18451264155136457,1.0269182093924327,29.586506165450317,14.261358483881006,0.0,1.0,0.0,0.0,1.0,Taxi
20.900000000000002,-0.05900532730825467,5.0933568369582405,16.8182196576637,0.03040589838685359,0.7088445804528145,29.748690307747154,15.11309754336867,0.0,1.0,0.0,0.0,1.0,Taxi
21.0,0.07018580697055186,-6.433986619537958,16.668341720330346,0.34450691346885276,-0.43919158374016765,29.70873124140587,14.450794363380398,0.0,1.0,0.0,0.0,1.0,Taxi
21.1,0.07754917694285153,25.51271078319861,16.965120379181744,0.23424550573130548,-0.30891483271977194,29.49321250557523,13.769478388347013,0.0,1.0,0.0,0.0,1.0,Taxi
21.200000000000003,0.06855822660773832,15.588970237218133,15.721865633671603,0.32550507385022787,0.4545808890184844,29.689151077072495,14.200561314140215,0.0,1.0,0.0,0.0,1.0,Taxi
21.3,0.14813065815664248,-6.097140687382638,15.634627161332904,0.023979085075088058,-0.3739306491881204,29.617225587250573,14.634912938893576,0.0,1.0,0.0,0.0,1.0,Taxi
21.400000000000002,0.047063473505938286,-16.63179841107961,16.647372150677757,0.08634998114213471,-0.6238483353979977,29.629408846663523,15.403173660461725,0.0,1.0,0.0,0.0,1.0,Taxi
21.5,-0.014600765447659795,-39.47290142386861,16.9441915361854,0.16695656950925794,0.2934328926176852,29.596738633923053,15.762073971297845,0.0,1.0,0.0,0.0,1.0,Taxi
21.6,-0.04923384896270062,-6.1899999900283165,16.930424632401188,0.14467404677038184,0.15685030949767065,29.549533435267165,14.627133320784122,0.0,1.0,0.0,0.0,1.0,Taxi
21.700000000000003,0.01611347355579666,16.31413932418771,16.1545745974027,0.33813037893161674,0.2822485334957019,29.57475475791898,15.36728847992958,0.0,1.0,0.0,0.0,1.0,Taxi
21.8,0.06696993117327872,0.8377467568050747,15.305833222385692,-0.10830069140270193,0.1155883078020762,29.482585077596525,14.614621058575816,0.0,1.0,0.0,0.0,1.0,Taxi
21.900000000000002,-0.04504511517867528,-9.118043220002388,16.826276747809416,0.015476159840682097,-0.2632557738819325,29.670943567907443,14.198907616222483,0.0,1.0,0.0,0.0,1.0,Taxi
22.0,-0.02947674254421532,-2.8057558543681367,16.99060892273325,0.12390362271584708,0.2422890431394054,29.489160456296133,15.243250350036847,0.0,1.0,0.0,0.0,1.0,Taxi
22.1,0.052941151901438,14.491696091095756,16.933790475378316,0.38649808571157146,-0.9185913524487491,29.618257734734755,14.350862072964661,0.0,1.0,0.0,0.0,1.0,Taxi
22.200000000000003,0.027413365276803464,11.466287075693707,16.161565151014358,0.0006655980868937317,-0.7763015387977773,29.559488209403355,14.542263258286368,0.0,1.0,0.0,0.0,1.0,Taxi
22.3,0.02785469283425317,-8.43098435009142,16.328401329205494,-0.2737611963533076,-0.13370232274013852,29.76570580523969,14.845721815985934,0.0,1.0,0.0,0.0,1.0,Taxi
22.400000000000002,0.010786230150980848,4.183642474223837,15.892942890431254,0.1685012752656347,0.10775390723769823,29.441753459382426,14.73780714659638,0.0,1.0,0.0,0.0,1.0,Taxi
22.5,0.04833157764792259,-4.788865680804803,15.62837571665791,0.11121419766793697,0.6608026998638026,29.63884159653503,15.067009736743058,0.0,1.0,0.0,0.0,1.0,Taxi
22.6,0.003910364430229098,20.85031740747789,16.042291770383137,0.02600926926294911,-0.024838406886588702,29.477849660492097,14.287260863961357,0.0,1.0,0.0,0.0,1.0,Taxi
22.700000000000003,0.11503781718837024,-18.23315121979102,16.633732521928128,-0.05208372534077374,-0.18752944026327623,29.68307441231343,14.370250940089461,0.0,1.0,0.0,0.0,1.0,Taxi
22.8,-0.04283417845103255,-11.150493730782372,16.528701312257763,0.40076986896861727,0.7343844114468313,29.65031095921728,14.219970300706885,0.0,1.0,0.0,0.0,1.0,Taxi
22.900000000000002,-0.05184210422368281,-38.959325470457784,16.189933625168283,0.4063416404843214,0.29038240659031933,29.601790570379535,14.934689934218175,0.0,1.0,0.0,0.0,1.0,Taxi
23.0,-0.07975881016391874,9.179527225914086,16.438492456185394,-0.10690171382060543,0.4014850214449158,29.63723314702787,15.15532759729822,0.0,1.0,0.0,0.0,1.0,Taxi
23.1,0.00306345767853781,5.530073558491426,16.517305412006476,0.37619473352224,0.5674777726886617,29.54275863755288,15.1463067876105,0.0,1.0,0.0,0.0,1.0,Taxi
23.200000000000003,-0.024191736431225744,-7.917727042056176,15.309695837663387,0.0010705201933198238,-0.5363695521996108,29.80312430370975,14.72501658786526,0.0,1.0,0.0,0.0,1.0,Taxi
23.3,-0.11934744537419967,-7.803740052540651,16.512250085209125,0.10860621102152737,0.3168751321277676,29.625979075667317,14.858378600424388,0.0,1.0,0.0,0.0,1.0,Taxi
23.400000000000002,-0.03595524258416548,-8.321119686150146,16.986947000015345,0.09393875560052722,-0.2783278283501223,29.573263719131205,15.719276119113143,0.0,1.0,0.0,0.0,1.0,Taxi
23.5,-0.0657973348619765,8.015616463089744,17.476369946129186,0.12233196186447631,-0.6114310612660326,29.622702189731683,14.296498871483488,0.0,1.0,0.0,0.0,1.0,Taxi
23.6,-0.07926936305875099,-2.182222976321506,16.30085890115937,0.5611848103178148,-0.0714106917872875,29.645290261510354,14.864686919729593,0.0,1.0,0.0,0.0,1.0,Taxi
23.700000000000003,-0.04686635746577305,21.967576553503957,15.91111423993319,-0.16227448220316265,-0.5031714414735455,29.607535334414536,15.113922894388278,0.0,1.0,0.0,0.0,1.0,Taxi
23.8,0.04404054790554322,-28.50042392678118,17.052263084144393,0.13097764451540456,0.7087929449686913,29.63006784002107,14.238800596191762,0.0,1.0,0.0,0.0,1.0,Taxi
23.900000000000002,-0.22177148269265695,32.6881071596222,17.730223321841237,0.0778058489086291,0.22680659529602532,29.75463809116195,14.61947373589153,0.0,1.0,0.0,0.0,1.0,Taxi
24.0,0.11657417833233792,-30.940919410890245,16.18151343368169,0.008861405009490453,-0.4237487297306788,29.73911245040506,14.357839893688709,0.0,1.0,0.0,0.0,1.0,Taxi
24.1,-0.110664049148908,21.248384444132828,16.341696561770462,0.1500393955571259,-0.29689676642321683,29.558238267631793,13.423538203264956,0.0,1.0,0.0,0.0,1.0,Taxi
24.200000000000003,-0.11552956047199281,-41.53309111448317,16.09998733786572,0.296205056255212,0.12796674518345597,29.633126646190647,14.000419860660838,0.0,1.0,0.0,0.0,1.0,Taxi
24.3,-0.09109127724007794,7.37307045603927,16.520087066823375,0.0384669352397384,-0.0565209016216566,29.542573181657076,15.089253751614311,0.0,1.0,0.0,0.0,1.0,Taxi
24.400000000000002,-0.07379869686871168,26.086079825889062,16.211180704810108,-0.19941897529324448,-0.3767688473117767,29.635535683745218,14.403737057508671,0.0,1.0,0.0,0.0,1.0,Taxi
24.5,0.01490083865745247,7.722259896738248,15.775576901542111,0.038526243701207205,-0.5594713057693655,29.66073352340436,15.304215011736677,0.0,1.0,0.0,0.0,1.0,Taxi
24.6,-0.05247997775638674,17.95343261002098,16.627952381821462,0.16135896035541678,0.6384906615818936,29.68948240868474,14.225147692138515,0.0,1.0,0.0,0.0,1.0,Taxi
24.700000000000003,0.01596846618139316,-37.352275746955,15.63253251031137,0.3577110762286978,1.1411458580931133,29.618326764410995,14.339426297462362,0.0,1.0,0.0,0.0,1.0,Taxi
24.8,-0.1718605400773226,15.856864261779771,16.92129026076659,0.3943828115013316,-0.3075801289646119,29.42868616747336,15.018779301275746,0.0,1.0,0.0,0.0,1.0,Taxi
24.900000000000002,0.02680434355251206,-2.6635263438169017,16.800530832095745,0.10612003337618586,-1.1599044215345888,29.44224915121157,14.322077507094399,0.0,1.0,0.0,0.0,1.0,Taxi
25.0,0.0026508344623085937,36.48159434622806,16.76052508125395,0.0281012858294062,1.3661312558536587,29.703188273764397,14.598070932286213,0.0,1.0,0.0,0.0,1.0,Taxi
25.1,0.010547431653817644,-24.49386089558274,17.069639674729967,0.08275721125277784,0.4809859311605707,29.757279733414634,14.591329496569465,0.0,1.0,0.0,0.0,1.0,Taxi
25.200000000000003,-0.09566496092540167,-1.6111964297674106,16.387942896584118,0.0022804244732562984,-0.5268343000202088,29.58392933516427,14.755789374337272,0.0,1.0,0.0,0.0,1.0,Taxi
25.3,-0.005405147686528505,-19.207412293911805,16.52484386299522,0.022920003814851403,0.7114194981118791,29.59205429322094,14.555195037066593,0.0,1.0,0.0,0.0,1.0,Taxi
25.400000000000002,-0.08548962981574143,-7.649816904610867,16.08414613105232,0.17270193489458224,0.15945462774383,29.657811405641155,13.6912532494354,0.0,1.0,0.0,0.0,1.0,Taxi
25.5,-0.13391404544845603,-13.62033215151668,16.693553835177465,-0.07397566797898111,0.35897892870303727,29.50834069584755,15.02838700009247,0.0,1.0,0.0,0.0,1.0,Taxi
25.6,-0.07350680844411193,3.4299566903578094,16.07605948799225,0.28465793819976803,-0.5091092195696033,29.568571367254265,14.118498258569776,0.0,1.0,0.0,0.0,1.0,Taxi
25.700000000000003,-0.0683398463639524,29.762517040340892,16.231555672730124,0.17558949456998982,0.5209249087899098,29.729829578620183,14.728084356201917,0.0,1.0,0.0,0.0,1.0,Taxi
25.8,0.014898539753248414,-30.09149991245313,15.953034781110224,0.22831500547194106,0.5576174858398163,29.79681236145285,14.635184326025229,0.0,1.0,0.0,0.0,1.0,Taxi
25.900000000000002,-0.22396430800637757,-9.41103669962179,15.721904304028339,0.16797468313837224,-1.1476620195672425,29.528911388613494,14.781582895708139,0.0,1.0,0.0,0.0,1.0,Taxi
26.0,-0.11539502986206132,-16.73407372345031,14.817554897060612,-0.09848825567654315,0.49689020947901125,29.705345076503363,14.731041761536968,0.0,1.0,0.0,0.0,1.0,Taxi
26.1,-0.06877182886400314,75.48743022438515,16.79331868176939,0.12853090093255434,0.39327658003504673,29.632009219091003,16.081394170152844,0.0,1.0,0.0,0.0,1.0,Taxi
26.200000000000003,0.15347284311554812,46.936521024848425,16.16044969055233,0.05818856617355875,-1.314503976707696,29.506136535134885,13.57212956725091,0.0,1.0,0.0,0.0,1.0,Taxi
26.3,0.11928757526218073,29.088492697962337,16.042734565864116,-0.09242089590529787,0.21199682809899148,29.73938440115677,14.416418419384984,0.0,1.0,0.0,0.0,1.0,Taxi
26.400000000000002,0.07667063462580848,-44.82091657230566,15.949238836796152,0.0055756802081785295,0.37511155546910674,29.72511028535689,14.44533782368238,0.0,1.0,0.0,0.0,1.0,Taxi
26.5,-0.07063173974598028,-12.666281348649056,17.329448214635903,0.23441987018136956,-0.2859495711661162,29.549904559922595,15.460996754239835,0.0,1.0,0.0,0.0,1.0,Taxi
26.6,0.05595616851893537,-14.246542195549209,16.32936007295942,0.25948324512308957,-1.0269780287761152,29.69658852907088,14.011015096056392,0.0,1.0,0.0,0.0,1.0,Taxi
26.700000000000003,0.005437923648062358,10.50264871382136,17.18797753455808,0.43529655318681526,0.7098698465450336,29.824237702882215,14.7280121082394,0.0,1.0,0.0,0.0,1.0,Taxi
26.8,-0.018118496176873534,32.17528712418473,17.165365939042115,0.29869843721719425,0.2822025541223122,29.65015937641249,14.694102716087757,0.0,1.0,0.0,0.0,1.0,Taxi
26.900000000000002,0.21683260413985891,8.028857747506834,16.682301587206716,0.12641975371604106,0.3718759766509924,29.435055145716376,14.219076469002164,0.0,1.0,0.0,0.0,1.0,Taxi
27.0,0.04558221238559641,-22.952250713168706,16.01221634314975,0.6122486909865179,0.19473157109622152,29.64216916576646,14.375027430015159,0.0,1.0,0.0,0.0,1.0,Taxi
27.1,-0.13287974974271716,-25.6017636887584,16.181100727624024,0.16761066568275457,-0.41195987304411563,29.70983625218429,14.233903200600656,0.0,1.0,0.0,0.0,1.0,Taxi
27.200000000000003,0.08882378569606682,-14.269267376837576,16.50534575909176,0.20505547877736915,-1.3998832614087282,29.616566614365865,14.019545369806103,0.0,1.0,0.0,0.0,1.0,Taxi
27.3,-0.025764124498591525,54.802854926658405,16.861384787032986,0.08433464981636653,0.061002769756722336,29.627035021431084,14.602947234410392,0.0,1.0,0.0,0.0,1.0,Taxi
27.400000000000002,0.14113452489057482,-27.088245914220636,17.565363874575493,0.3228097491614072,-0.3075820176860293,29.701479711569732,13.643029376541337,0.0,1.0,0.0,0.0,1.0,Taxi
27.5,-0.04661744387503641,-15.704070251362607,16.603522433705596,-0.2216936584521378,-0.5160985825409103,29.793021265787047,14.683024102175294,0.0,1.0,0.0,0.0,1.0,Taxi
27.6,-0.10428447575540462,6.654151912519562,16.40781004944765,-0.025760216006348813,-1.379227055801986,29.61773864202985,15.035142451741217,0.0,1.0,0.0,0.0,1.0,Taxi
27.700000000000003,0.1744052844531726,-22.43452300131837,16.70038965113612,0.09548454756481212,0.6860347073547242,29.643916497800944,15.636748128792673,0.0,1.0,0.0,0.0,1.0,Taxi
27.8,-0.1587900588816283,28.49950165129898,16.961248024188357,0.029530031756603847,0.6861222816497595,29.7059558549185,14.180400213594197,0.0,1.0,0.0,0.0,1.0,Taxi
27.900000000000002,0.038213032501090205,-47.43739501732025,16.610884361185082,-0.07476664241215453,0.13327762796247086,29.89113305882472,14.605839570584505,0.0,1.0,0.0,0.0,1.0,Taxi
28.0,-0.06278169063342874,38.85727000044167,16.941435517777403,0.34120249437211864,0.10791027236175653,29.50164571068217,15.397267030030163,0.0,1.0,0.0,0.0,1.0,Taxi
28.1,0.03549629112057994,-27.36626760528453,16.362462266645448,0.04599507111828273,-0.5157981071714373,29.735151435587227,14.907888345861306,0.0,1.0,0.0,0.0,1.0,Taxi
28.200000000000003,-0.09861830552533253,-17.22334196177943,16.54844694359649,0.055793753627065,-0.6839731339261305,29.73995262138874,14.83113554678364,0.0,1.0,0.0,0.0,1.0,Taxi
28.3,-0.14889840044232597,-18.97239999213652,15.841925366588193,0.522707204081611,0.32496589041117485,29.629092341230887,14.021421478611854,0.0,1.0,0.0,0.0,1.0,Taxi
28.400000000000002,-0.05936570884010276,7.803755881797798,16.513979291026356,0.40459393744414346,-0.31504854306054936,29.622231630944214,15.982930821354618,0.0,1.0,0.0,0.0,1.0,Taxi
28.5,-0.05959952611634365,35.613000685387185,15.625176977218606,0.37010297323021546,-0.633860030843282,29.490880381475506,14.598189730467126,0.0,1.0,0.0,0.0,1.0,Taxi
28.6,0.029166602984609838,57.637348976215435,15.709070240611966,0.29825329157296876,0.2577117938366986,29.64846567444681,15.233263047252207,0.0,1.0,0.0,0.0,1.0,Taxi
28.700000000000003,0.22882103604097426,9.105679652931371,16.3910820837537,0.4694843401363877,0.0882825555926469,29.627733612180634,15.474185788357593,0.0,1.0,0.0,0.0,1.0,Taxi
28.8,-0.01407112785168689,-8.672769364776629,16.588572371545503,0.36930716346321557,0.2463812422625147,29.533996456251202,14.672132999650513,0.0,1.0,0.0,0.0,1.0,Taxi
28.900000000000002,-0.014197243839273389,-70.44086525978308,15.383706731375698,0.45385651209375166,-0.22384498519772408,29.455109063655925,15.2179966862505,0.0,1.0,0.0,0.0,1.0,Taxi
29.0,-0.12338329025794122,-25.438413917047075,16.0117347007518,-0.22192140280673178,0.6998530912246202,29.62562415139007,14.76964918575087,0.0,1.0,0.0,0.0,1.0,Taxi
29.1,-0.14126319743692237,-23.611680267928083,16.38141097160505,0.15697609927506528,0.02133633437944245,29.749340935378143,14.790807527838904,0.0,1.0,0.0,0.0,1.0,Taxi
29.200000000000003,-0.13225564517891392,20.457254797069023,18.059109591603914,-0.1878794174311983,0.05201571650063089,29.69784450933946,15.333655816531765,0.0,1.0,0.0,0.0,1.0,Taxi
29.3,-0.02109701627259622,29.450868204641694,15.545605423963174,0.13928856531087386,0.9480257981757156,29.68064112453277,13.488309097762642,0.0,1.0,0.0,0.0,1.0,Taxi
29.400000000000002,0.00599114358628601,19.308263144387357,16.579668249202417,0.5678732837121894,0.17330757333069477,29.766474634125984,14.66997613400346,0.0,1.0,0.0,0.0,1.0,Taxi
29.5,-0.03571432945697725,-11.509003039993194,16.77295016905975,0.13684532346676753,-0.2961987238237296,29.566866068148443,14.90611169183169,0.0,1.0,0.0,0.0,1.0,Taxi
29.6,-0.07864203147256231,-9.339718249155633,16.57366909989878,0.35984987267688706,-0.48334291246124855,29.779905207629838,14.055339844252183,0.0,1.0,0.0,0.0,1.0,Taxi
29.700000000000003,-0.04070744765949227,21.616009630363937,15.477605334929544,-0.16053031443037602,-0.3317519184604269,29.696471665465765,14.7553143839231,0.0,1.0,0.0,0.0,1.0,Taxi
29.8,0.07236571869484233,-27.09346066492708,16.42054935185799,0.2870653397578204,-0.6397225157946993,29.59443408513306,14.390432523281886,0.0,1.0,0.0,0.0,1.0,Taxi
29.900000000000002,-0.21410933479719782,21.845311211343823,17.46568969271457,0.24870357023620362,0.14826615309596525,29.640853113158357,15.474851216240198,0.0,1.0,0.0,0.0,1.0,Taxi
30.0,0.06851910839722673,-10.668814770762856,17.27219344714129,0.02608787136611261,-0.7037669449034126,29.712218245198358,14.540679282703545,0.0,1.0,0.0,0.0,1.0,Taxi
30.1,0.01902164484102793,57.47174972969608,16.7312305709322,0.09925873533855606,-0.23778053927166073,29.645729604426776,14.50158831450795,0.0,1.0,0.0,0.0,1.0,Taxi
30.200000000000003,0.07324941385128243,-16.095295192978917,16.561119880316383,0.212473543484954,0.5813674826605374,29.58949787305278,14.942410358740062,0.0,1.0,0.0,0.0,1.0,Taxi
30.3,-0.011957367567667944,33.908687664005164,15.690492061864884,0.4190955132422425,0.03969502092424692,29.54100453656747,14.229614688688242,0.0,1.0,0.0,0.0,1.0,Taxi
30.400000000000002,0.18856508316105364,-16.391931563703448,15.84675288604728,-0.008467993655600414,-0.13051528261242315,29.435369441636738,14.538346213066434,0.0,1.0,0.0,0.0,1.0,Taxi
30.5,-0.008710243967234915,10.42744397962733,15.820427940273289,0.01743407983836992,0.18917389224782355,29.554143971740757,14.78524556805894,0.0,1.0,0.0,0.0,1.0,Taxi
30.6,0.040179852330468585,4.610386331316836,16.17254213081649,0.1643131109956427,-0.6832866044694073,29.55512793312846,13.929103988134912,0.0,1.0,0.0,0.0,1.0,Taxi
30.700000000000003,0.2116170148176377,-26.028327563644126,16.460707880085682,0.12903125804642857,0.1978925642249592,29.58414294417969,15.00198191130812,0.0,1.0,0.0,0.0,1.0,Taxi
30.8,-0.1388518817854556,-0.5933970385821965,15.522038730693797,-0.002089013879593954,-0.08080846738197926,29.625256273144714,15.653374669213795,0.0,1.0,0.0,0.0,1.0,Taxi
30.900000000000002,0.03721286713755749,-47.44751608097814,17.42032563604291,0.44726914039412086,0.24079542773150173,29.659501471762496,14.943054933908085,0.0,1.0,0.0,0.0,1.0,Taxi
31.0,-0.025620565587253088,6.813750157390271,16.397799585943726,-0.04261298006029618,0.41536817051894664,29.878070039516956,14.594958464662454,0.0,1.0,0.0,0.0,1.0,Taxi
31.1,-0.10478313099850439,2.139458653294279,16.84549326457233,0.13504064748189673,-0.6489124871468661,29.732793240773447,14.618648663705741,0.0,1.0,0.0,0.0,1.0,Taxi
31.200000000000003,0.04791016040402872,-10.422655836356114,16.802732754470473,0.08576376871519449,-0.9033245759540365,29.63348883948572,14.748524595986092,0.0,1.0,0.0,0.0,1.0,Taxi
31.3,-0.07773384476903382,13.044665223666618,17.208834167219635,0.15565161409993705,-0.2629700715671427,29.49816419733736,15.392916760694888,0.0,1.0,0.0,0.0,1.0,Taxi
31.400000000000002,-0.039559804880171474,3.9324454419715713,16.84216712588938,0.18735704148692056,0.7078571226234306,29.47719383659671,15.198014948995633,0.0,1.0,0.0,0.0,1.0,Taxi
31.5,0.06757238761388644,33.840668158266475,16.890189584334436,0.09818004625510937,0.6251369345710963,29.523915368166854,14.901212802780487,0.0,1.0,0.0,0.0,1.0,Taxi
31.6,0.09146949602229842,-3.119231476171265,15.86418043098467,0.10811172518302847,0.36148078615022106,29.510890105844112,14.598708267943174,0.0,1.0,0.0,0.0,1.0,Taxi
31.700000000000003,-0.05515596226102796,-4.081207594122614,15.783629075142482,0.2699804082460686,-0.3558559619411783,29.786096760899795,15.063479311985434,0.0,1.0,0.0,0.0,1.0,Taxi
31.8,0.0471663496432732,-24.774868384448823,15.374608940888685,-0.003306388303137814,-0.12642112941922415,29.69764646804481,14.463668758615642,0.0,1.0,0.0,0.0,1.0,Taxi
31.900000000000002,-0.03240484589994587,21.89208118223723,16.67474058954331,-0.03602684708808104,0.1932582845245057,29.440952014818265,14.078105777000637,0.0,1.0,0.0,0.0,1.0,Taxi
32.0,0.05430444365015802,-0.6016027731221344,16.319770929090897,-0.02866970948109923,-0.27789370171594385,29.723132007445713,14.422280027986412,0.0,1.0,0.0,0.0,1.0,Taxi
32.1,0.044158335777662365,7.022679693467652,16.72391270017842,0.22943206566324176,0.22043735099013614,29.636845033887255,14.567310429839937,0.0,1.0,0.0,0.0,1.0,Taxi
32.2,0.0027085525673922303,-32.49969291365864,16.58962416811322,-0.06135720217493221,0.6677403438297318,29.463990100273804,15.078022124644304,0.0,1.0,0.0,0.0,1.0,Taxi
32.300000000000004,-0.10819402091813535,-4.867030945898051,15.37436572701803,0.19726547564166177,0.09117386268457611,29.6396354797115,14.403440614194722,0.0,1.0,0.0,0.0,1.0,Taxi
32.4,0.01982318104817197,37.97103340249341,16.460656840326898,-0.0051358785848875654,0.15671965383290126,29.753005943130802,15.054280919892777,0.0,1.0,0.0,0.0,1.0,Taxi
32.5,0.19256371957985915,52.573653557324526,16.610059333731087,-0.016606151994357943,-0.7613264086562368,29.56497413859273,14.28008694707816,0.0,1.0,0.0,0.0,1.0,Taxi
32.6,0.15467424686848716,-65.35665131374101,16.132183887442338,0.19644158991879118,-0.7700296566406394,29.611773914085404,14.406629641953364,0.0,1.0,0.0,0.0,1.0,Taxi
32.7,-0.3069600755205332,-51.21458432577225,16.92094130956393,0.05809297463404384,-0.7455856529917747,29.45882560743331,14.967927547114831,0.0,1.0,0.0,0.0,1.0,Taxi
32.800000000000004,-0.0635092020490022,-59.660345711644744,15.77770457514139,0.4595323189270242,-0.32680858380840494,29.686054619663764,14.63024459223473,0.0,1.0,0.0,0.0,1.0,Taxi
32.9,-0.14362748168973669,18.230096406515045,16.25641601698301,0.23941625760946014,-0.02688517905389675,29.573337085517494,13.71770007532692,0.0,1.0,0.0,0.0,1.0,Taxi
33.0,-0.21580959348795814,15.874188133968332,15.758915946427575,0.10221127276279426,-0.3247235258264513,29.72894455866708,15.041500847704151,0.0,1.0,0.0,0.0,1.0,Taxi
33.1,0.015861738620839318,31.268030951621085,16.374534242667053,0.08190565494252096,-0.6112835148738823,29.69588494856646,15.02636065295251,0.0,1.0,0.0,0.0,1.0,Taxi
33.2,0.01271267306836858,32.37966239989313,15.603052886094835,0.20649448785305158,-0.00024260262412242935,29.596503972885614,14.447712889085826,0.0,1.0,0.0,0.0,1.0,Taxi
33.300000000000004,-0.05391128148849264,10.828246931684442,16.458939646915297,0.41577984038105215,-0.8347756448660972,29.672956183763688,15.198105094115549,0.0,1.0,0.0,0.0,1.0,Taxi
33.4,0.07000297327926139,-27.171390530137945,16.536946834586566,0.3177047898590373,0.4134989021605307,29.641974149310727,14.29563136059021,0.0,1.0,0.0,0.0,1.0,Taxi
33.5,-0.12314427958232131,-7.139978084029717,15.592213128482292,0.09495217286980467,0.48913734672968623,29.52233799585514,14.474244693456459,0.0,1.0,0.0,0.0,1.0,Taxi
33.6,-0.08961117190864139,-30.916478644806393,16.114436993192122,0.06839339850796822,-0.889877300962528,29.50642033900101,14.728481772147527,0.0,1.0,0.0,0.0,1.0,Taxi
33.7,-0.08457941994477075,15.257283001504463,16.767763980418568,0.11645179783862554,-0.6959395372868343,29.662869094210578,15.353624596114763,0.0,1.0,0.0,0.0,1.0,Taxi
33.800000000000004,-0.046857864574799145,1.971218809301586,15.803487798983005,0.22159946376776385,-0.38335360300463617,29.633766068727084,14.666399939438298,0.0,1.0,0.0,0.0,1.0,Taxi
33.9,-0.07975507786213361,1.7787520157210714,16.28592889410704,0.0462106248364398,-0.5115426490599315,29.85105097992823,14.13671453038454,0.0,1.0,0.0,0.0,1.0,Taxi
34.0,-0.07568565986616554,5.067854336604142,16.46147401772657,-0.06079089842497276,0.4064157433278586,29.489536301680346,15.118702383548053,0.0,1.0,0.0,0.0,1.0,Taxi
34.1,-0.021518592891778585,17.456302850146447,15.51657804185738,0.19667211247843333,-0.2559721443010485,29.56894311701251,14.039447531696338,0.0,1.0,0.0,0.0,1.0,Taxi
34.2,0.007526436388598477,11.994682056122345,16.259635922206265,0.10519339270163394,-0.7531896785861042,29.77367812788873,14.720666383767773,0.0,1.0,0.0,0.0,1.0,Taxi
34.300000000000004,-0.015712249585553974,-0.7499419767253039,16.893547670163347,0.36390419637520155,0.45120854055635734,29.759938277855213,14.783344321453393,0.0,1.0,0.0,0.0,1.0,Taxi
34.4,-0.02526830277540526,-2.5996308093680827,16.90731610955872,0.20920575247760453,-0.21776586486571953,29.62015429948849,13.406634481686652,0.0,1.0,0.0,0.0,1.0,Taxi
34.5,-0.005471717658242091,-1.5280871451056175,17.38367568370282,0.36778776865136253,0.059791912642161577,29.704158956677134,14.009998082988838,0.0,1.0,0.0,0.0,1.0,Taxi
34.6,-0.023352685311082214,20.44747878173467,15.766918410193428,-0.18716413927730352,0.4269565482199239,29.651427029997535,14.401008913428676,0.0,1.0,0.0,0.0,1.0,Taxi
34.7,0.07696909113326794,-8.086247267038962,15.74548387892632,0.01433009534861307,-0.15400452150462227,29.520486658444327,14.148503723151125,0.0,1.0,0.0,0.0,1.0,Taxi
34.800000000000004,-0.045902953993437044,19.024867343468603,16.887373863413593,-0.027870688477579564,-0.14103782663535003,29.895067725164267,14.709842350047218,0.0,1.0,0.0,0.0,1.0,Taxi
34.9,0.07177165140626066,-25.844186715394162,15.442465560940834,-0.006590881945193222,0.11488813137574229,29.739600888208088,14.467676120149427,0.0,1.0,0.0,0.0,1.0,Taxi
35.0,-0.05225184244370301,16.506344512973566,16.276801602765776,-0.05555180135811377,-0.21071010694007544,29.528895635042545,13.828986757761363,0.0,1.0,0.0,0.0,1.0,Taxi
