time_s,altitude_ft,vertical_speed_fpm,ias_kt,pitch_deg,roll_deg,heading_deg,throttle_pct,afterburner_on,gear_down,flaps_deg,speedbrake_pct,weight_on_wheels,label
0.0,-0.03232438974481904,39.14293369921676,11.16370940268843,1.917696176246541,-0.7685905841450829,238.4626455510105,14.024859342415793,0.0,1.0,0.0,0.0,1.0,Taxi
0.1,0.09815205591923683,-8.516489006129342,9.201481155628978,1.958831854459917,0.15155696284456247,238.5372137759332,14.504008460389867,0.0,1.0,0.0,0.0,1.0,Taxi
0.2,-0.07490683477546577,-5.147753726187181,10.270787852678987,1.8145683360624576,-0.06292236847491246,238.49554592812183,13.131035803613946,0.0,1.0,0.0,0.0,1.0,Taxi
0.30000000000000004,-0.05806315837575496,-37.622501355008815,10.346371110706427,2.035565272732553,-0.5466551529718215,238.64456290854525,12.738087815825995,0.0,1.0,0.0,0.0,1.0,Taxi
0.4,-0.08996045085580724,28.347871722563923,10.427717087510844,2.03625252440182,-0.17658939745311508,238.54424878813984,13.37248256161356,0.0,1.0,0.0,0.0,1.0,Taxi
0.5,0.06683252383735384,2.1011994321563776,9.851368661331138,1.5625747632350029,-0.01265109576857564,238.33540313592573,12.770170478891009,0.0,1.0,0.0,0.0,1.0,Taxi
0.6000000000000001,-0.04755716121497308,1.3368242991780466,10.26764336398282,2.080306458540762,0.23378706115739917,238.55420263715223,13.166523074325973,0.0,1.0,0.0,0.0,1.0,Taxi
0.7000000000000001,-0.08327632935991702,-18.848950040939926,9.121711052139,1.9807922628110173,0.06608328257614701,238.41766478568547,12.65507671070358,0.0,1.0,0.0,0.0,1.0,Taxi
0.8,-0.0274122263673458,1.6693642190066875,10.319086589617118,1.4901673952531986,0.026145348119714792,238.51641667286185,13.67100671789706,0.0,1.0,0.0,0.0,1.0,Taxi
0.9,-0.03921034011993965,-3.4497256979698983,9.745709399448888,2.11810562619661,0.6047312322987609,238.43004240727896,13.265748442365688,0.0,1.0,0.0,0.0,1.0,Taxi
1.0,-0.10052495784976652,0.0007043620538145964,8.8375699444081,1.7632055468100865,-0.47699636666491885,238.53231643352933,12.636860547423652,0.0,1.0,0.0,0.0,1.0,Taxi
1.1,-0.02740870455707672,-3.712145313961478,10.994213401402346,1.944036707385959,0.1969718156041299,238.45432691423548,13.885693964229274,0.0,1.0,0.0,0.0,1.0,Taxi
1.2000000000000002,-0.05777106668974703,30.653736866565282,9.218090550135438,2.124876267109024,0.05634436817622236,238.44366430266666,12.473129710186539,0.0,1.0,0.0,0.0,1.0,Taxi
1.3,0.05274372648305991,29.19467059572374,10.382642220637333,1.8628731285115963,0.719340952688013,238.36042979425326,13.027966718630827,0.0,1.0,0.0,0.0,1.0,Taxi
1.4000000000000001,0.11856464842154198,-10.402117618088559,9.810001402218846,2.0714821491006097,-0.15989560117759027,238.56268393846574,13.08412214381829,0.0,1.0,0.0,0.0,1.0,Taxi
1.5,-0.10978165478018982,-15.59748928052045,10.242181064668419,2.0119146825241496,-0.1180099271890756,238.54742126018095,13.853917700460027,0.0,1.0,0.0,0.0,1.0,Taxi
1.6,-0.025243719919542343,-4.132859761870198,10.3706260303049,1.5128267422037,-0.30594289208704206,238.52329973234612,13.058864673914233,0.0,1.0,0.0,0.0,1.0,Taxi
1.7000000000000002,0.09790034961219099,-11.4450765660429,9.442142778153901,1.9942806338830135,-0.2171606548191059,238.6579718019209,12.8894799602931,0.0,1.0,0.0,0.0,1.0,Taxi
1.8,-0.1670070376104043,-22.280647164303847,9.756343397535431,1.7225294749171063,-0.048052587889046185,238.4466262594126,12.917871857498543,0.0,1.0,0.0,0.0,1.0,Taxi
1.9000000000000001,-0.13664695574106156,-7.302493990479647,9.988107759920851,1.9412157241875083,0.11824801007948745,238.4951448876675,12.442395578411062,0.0,1.0,0.0,0.0,1.0,Taxi
2.0,0.0613878796597928,15.02700526093281,10.17404051705371,1.8641442084159539,0.17694422586996575,238.4759221901586,12.746186419519997,0.0,1.0,0.0,0.0,1.0,Taxi
2.1,-0.09187201130574026,5.300800119141169,10.33455323313598,1.9091334372361417,-0.3573179697704017,238.62287877354174,12.789671166291766,0.0,1.0,0.0,0.0,1.0,Taxi
2.2,-0.11014295514535571,-11.579426124658795,10.324909979707732,1.554186546003091,-0.9091238148849935,238.31829814202138,12.81117121701057,0.0,1.0,0.0,0.0,1.0,Taxi
2.3000000000000003,0.003490749036498827,10.935107869174198,9.509330629537091,2.00798420654358,0.5722494256081271,238.57097947103819,13.732591056712794,0.0,1.0,0.0,0.0,1.0,Taxi
2.4000000000000004,-0.03719647195986926,46.1421311159429,9.387822638214555,1.5674148251071518,0.6224824678176646,238.6455918127299,12.79528271474988,0.0,1.0,0.0,0.0,1.0,Taxi
2.5,0.12056770043435881,-11.851201432624359,9.203682579944285,1.9090177813879083,-0.6127620146280449,238.6945850821254,13.207037168078417,0.0,1.0,0.0,0.0,1.0,Taxi
2.6,-0.05576525812662297,64.9638417682654,10.462713712321932,2.200011057922587,0.3462064769503784,238.56584463645777,13.578876385784916,0.0,1.0,0.0,0.0,1.0,Taxi
2.7,0.2876227368814577,-27.670685925086023,10.592529814274782,1.959773727088503,-0.005126610031298988,238.3538479001204,13.359132639231039,0.0,1.0,0.0,0.0,1.0,Taxi
2.8000000000000003,-0.017785729191071378,22.16940175620081,10.136440168317728,2.2057934602435982,0.03773517040544448,238.2787812139395,13.982174492897954,0.0,1.0,0.0,0.0,1.0,Taxi
2.9000000000000004,0.05508175065438101,-94.50833676550654,9.866777548780728,1.988995294695005,0.1459913086706571,238.5183117446236,12.904985730707459,0.0,1.0,0.0,0.0,1.0,Taxi
3.0,-0.18491894694607508,9.816475920962432,10.118799974095474,2.0937711059873845,-0.4181055408765426,238.50679605729022,12.692370628119049,0.0,1.0,0.0,0.0,1.0,Taxi
3.1,0.031296650413740815,4.489867107063534,9.282061304181266,1.6223988588061635,-0.7178527707737402,238.58275498650755,14.456850887017193,0.0,1.0,0.0,0.0,1.0,Taxi
3.2,0.07753108618969871,50.646380208757385,9.937641002265261,1.3567276051695998,0.05281124696695073,238.44528765409177,13.369878761274999,0.0,1.0,0.0,0.0,1.0,Taxi
3.3000000000000003,0.06831295409771188,1.8516529746034571,9.634094609379412,1.9741808830194334,0.0913597527494304,238.6936705842436,13.309628878061076,0.0,1.0,0.0,0.0,1.0,Taxi
3.4000000000000004,0.040554915286758114,-34.79852093956294,10.5161492816929,1.8739246424692162,-0.2987455284570173,238.4521280956684,13.035111867040083,0.0,1.0,0.0,0.0,1.0,Taxi
3.5,-0.09646151850811596,-17.94598267941726,9.845544627744259,2.197685874816477,0.7992368876489606,238.47674352643594,13.49892196787586,0.0,1.0,0.0,0.0,1.0,Taxi
3.6,-0.02141695929937441,-14.208924570489545,10.63912336691529,2.04984678550509,0.5135985309450167,238.62694977939282,13.66369026834121,0.0,1.0,0.0,0.0,1.0,Taxi
3.7,-0.03048970756568959,11.2011018486424,9.931823758863894,1.7916560858923813,0.43538492794512357,238.37082144322835,13.184673260413566,0.0,1.0,0.0,0.0,1.0,Taxi
3.8000000000000003,-0.04045600926490393,-12.753455714137393,9.967546098264025,2.205746245622751,0.02691598540518741,238.42167901607922,12.992847331621144,0.0,1.0,0.0,0.0,1.0,Taxi
3.9000000000000004,-0.08518423787006135,10.421049732162645,9.501793313631522,2.0907248820576974,-0.7053047628892531,238.3639901181566,13.733948714455973,0.0,1.0,0.0,0.0,1.0,Taxi
4.0,0.021615541095123675,2.251253949131263,9.561622580213044,2.3084747537999526,1.2016858116929856,238.57820506339635,13.602343840944227,0.0,1.0,0.0,0.0,1.0,Taxi
4.1000000000000005,-0.02919973951924759,28.07054986756152,9.88141664012633,1.8224776692812534,-0.33747680612790415,238.63842550077106,13.537177616885403,0.0,1.0,0.0,0.0,1.0,Taxi
4.2,0.055168511467746276,-0.8109386335947057,9.337140218588583,1.876160545345175,0.3430060986802437,238.48305903941423,12.727756776276811,0.0,1.0,0.0,0.0,1.0,Taxi
4.3,0.017560847927150174,26.172096124824733,10.763369463695218,2.0213192135664673,0.6535969125461982,238.61848596066693,13.149436216657955,0.0,1.0,0.0,0.0,1.0,Taxi
4.4,0.1016607411048761,-18.946631387717336,9.288394137564419,1.794852617777749,0.21119283320731247,238.57430416609702,12.309352834818934,0.0,1.0,0.0,0.0,1.0,Taxi
4.5,-0.03956464547084035,-40.314587653760235,9.522898484462376,1.431333468543815,0.4707736691734633,238.4998424150741,13.31864204775023,0.0,1.0,0.0,0.0,1.0,Taxi
4.6000000000000005,-0.18401209034165097,-49.503645449972225,10.476440423487047,1.9300453380193354,0.24583258206539393,238.50969334825209,13.038758856851617,0.0,1.0,0.0,0.0,1.0,Taxi
4.7,-0.145857486144985,-19.36251491288105,9.879176994983563,2.2136892115394926,-0.19805996271943355,238.51341636601717,13.20576538047283,0.0,1.0,0.0,0.0,1.0,Taxi
4.800000000000001,-0.13637722003524555,27.928165002929546,10.342392280850957,1.7512884930095183,0.5992141473993177,238.5099129965787,12.768023536598221,0.0,1.0,0.0,0.0,1.0,Taxi
4.9,-0.0443712653270032,39.2623150197265,9.990129669773102,2.1475572252593165,0.42992817518643933,238.32819358826418,13.08764759170626,0.0,1.0,0.0,0.0,1.0,Taxi
5.0,0.05045408895364754,14.808428717213838,10.646836535590522,2.0759586560390635,0.2326306298432143,238.57242279148772,13.496311303935062,0.0,1.0,0.0,0.0,1.0,Taxi
5.1000000000000005,-0.06233507644917631,12.894685658206106,10.697047613121578,1.8322193651240049,-0.14199627254627353,238.67935838035658,13.042014319633058,0.0,1.0,0.0,0.0,1.0,Taxi
5.2,0.020102162964027386,-6.917655696038675,9.963632075892027,2.0745800721927474,-0.8304052604280953,238.5833264097878,12.472434655508566,0.0,1.0,0.0,0.0,1.0,Taxi
5.300000000000001,0.015865810473454235,11.269221065826372,10.485478190098172,2.2118595432556347,0.4903832181177576,238.58956932579463,13.326017389446722,0.0,1.0,0.0,0.0,1.0,Taxi
5.4,-0.005988971120044385,16.083419745727042,10.393064072421494,1.8693274838622234,0.3142581205172166,238.54909995535309,13.369088747871379,0.0,1.0,0.0,0.0,1.0,Taxi
5.5,0.10051926169266263,-15.29084738003138,8.914581277577732,1.9630784599512872,0.06395560515201901,238.28455894554395,13.14597246957424,0.0,1.0,0.0,0.0,1.0,Taxi
5.6000000000000005,-0.06058842642670264,-0.34742077826203754,10.524552183680271,1.8838947353091529,-0.022543897112967066,238.5623942795405,12.7725496954114,0.0,1.0,0.0,0.0,1.0,Taxi
5.7,-0.007726075011354557,-22.092353406985833,9.701396999816865,2.005870032752151,-0.03247940479878377,238.475183449145,13.481959402798305,0.0,1.0,0.0,0.0,1.0,Taxi
5.800000000000001,-0.009942505342266476,7.2474494028407905,9.694150681746423,1.691045152861526,0.30482789471436395,238.4856938060674,12.716763545970283,0.0,1.0,0.0,0.0,1.0,Taxi
5.9,-0.024351179412498633,6.482843500303783,10.391930229316355,1.8029791213821824,-0.3164184667787119,238.44567339180026,12.582057503324432,0.0,1.0,0.0,0.0,1.0,Taxi
6.0,0.024688142490164412,16.091512895459783,10.49669168188007,1.8475421077946408,-0.3295072115309825,238.49550739028393,12.808078952013364,0.0,1.0,0.0,0.0,1.0,Taxi
6.1000000000000005,0.07051505913503248,-0.13649674542721849,10.486917869842397,2.2592369854688052,-0.8394552370397347,238.65794433503538,13.696054298396653,0.0,1.0,0.0,0.0,1.0,Taxi
6.2,-0.025033663139634694,-9.636515235552755,10.370756095166794,1.7838183469536135,-0.014590597715782668,238.3441440901829,13.611794659613185,0.0,1.0,0.0,0.0,1.0,Taxi
6.300000000000001,-0.023494433687599337,-25.389432821230077,9.864357279332548,1.9904579814771144,-0.17226240987774719,238.35996551515518,13.648806268284446,0.0,1.0,0.0,0.0,1.0,Taxi
6.4,-0.05643210497111789,10.535516168027186,10.224117223327267,2.070972465215809,0.23777831621280027,238.48864562493418,12.854501728513094,0.0,1.0,0.0,0.0,1.0,Taxi
6.5,0.027643917700501286,-10.786739098265684,11.089458261962605,1.688637108681705,0.7662069747934627,238.4323335807744,13.384710370036084,0.0,1.0,0.0,0.0,1.0,Taxi
6.6000000000000005,-0.0774281291789277,-6.675831229149934,10.294772410208061,1.7760538393510057,-0.14586885824978757,238.45628921033745,12.87422409790418,0.0,1.0,0.0,0.0,1.0,Taxi
6.7,-0.08981126111686752,-33.40231867333647,11.288850219797324,1.9334708927044046,-0.16510977644472702,238.49649572391456,12.998924212383155,0.0,1.0,0.0,0.0,1.0,Taxi
6.800000000000001,-0.139367675666181,53.16749754527234,9.264417973117922,1.9604979928595412,0.6695996797526708,238.60611003335248,12.571203206081664,0.0,1.0,0.0,0.0,1.0,Taxi
6.9,0.188409358547434,41.98707172233532,10.383877628845365,2.2704268961185763,-0.478394219537556,238.4492481111713,13.255404393922419,0.0,1.0,0.0,0.0,1.0,Taxi
7.0,0.12012409749480911,15.809443266078935,10.149471216111099,1.7371767568858674,0.051238790090109766,238.64506401002348,13.03074022948947,0.0,1.0,0.0,0.0,1.0,Taxi
7.1000000000000005,-0.06032045933578633,-14.57794680021945,9.176371166736503,1.9286569649918657,-0.16250630731369195,238.5227691876571,13.109904865862422,0.0,1.0,0.0,0.0,1.0,Taxi
7.2,0.11551962454633678,-44.28016151843178,9.706015054934667,1.7017183269036313,-0.37073056696252643,238.4179208981452,13.632643933485685,0.0,1.0,0.0,0.0,1.0,Taxi
7.300000000000001,-0.10127671009734973,16.967753968498883,10.245980833319035,2.213019497983541,-0.04916366227866798,238.4356591902067,13.85817883095851,0.0,1.0,0.0,0.0,1.0,Taxi
7.4,0.024518310506708177,-20.779850281730674,10.080616932247478,1.8733990067333723,-0.05337708634611164,238.53203911855223,11.748458508354181,0.0,1.0,0.0,0.0,1.0,Taxi
7.5,0.0116203731376835,10.280904879195205,9.284474621359177,2.1141136770618147,0.35188229662853654,238.62840864981501,13.008326664370715,0.0,1.0,0.0,0.0,1.0,Taxi
7.6000000000000005,-0.04987218570137364,-2.5233362018295913,9.582406412590357,1.8831871245226026,-0.3036560741192775,238.5177949161275,13.285718873971947,0.0,1.0,0.0,0.0,1.0,Taxi
7.7,0.011901629497560275,-26.893904881700454,8.70682987777175,1.9004891316060368,0.28112850957008195,238.55484987174123,12.822792900017275,0.0,1.0,0.0,0.0,1.0,Taxi
7.800000000000001,-0.12284915127081873,29.96305849834562,9.594544722841041,1.80008644567937,0.025887380653500755,238.44294951857887,12.826320396338172,0.0,1.0,0.0,0.0,1.0,Taxi
7.9,0.09994310679035452,-19.86534989955373,9.9988935739089,2.0536211055405134,0.44831078879061714,238.3421563724546,13.602719242475262,0.0,1.0,0.0,0.0,1.0,Taxi
8.0,-0.08742512000020836,34.69594992435489,9.663085339028076,1.9415354973039298,-0.17574252220346637,238.46449676719658,12.701237992757722,0.0,1.0,0.0,0.0,1.0,Taxi
8.1,0.05063059835095573,11.176992579388498,11.256277136400014,1.8314881702456698,-0.24500480841057531,238.53987084398295,13.324147336500051,0.0,1.0,0.0,0.0,1.0,Taxi
8.200000000000001,0.155828069687297,32.119974018216375,10.465793494162538,1.659828295350141,-0.1262024517107251,238.6115556695646,12.97440439415207,0.0,1.0,0.0,0.0,1.0,Taxi
8.3,0.07317475009087353,-19.44689325082774,9.746933355852029,1.7322671077234073,-0.2971095042694547,238.53341298285602,13.208119974848017,0.0,1.0,0.0,0.0,1.0,Taxi
8.4,-0.04660386790318292,-24.09666957964401,9.480731163416031,2.1761853735750893,-0.42303274296070104,238.45346033529268,13.525081258539565,0.0,1.0,0.0,0.0,1.0,Taxi
8.5,0.035344721789077,-14.318728739406126,9.48853107243332,1.6772996059544132,0.014159970270109467,238.29227180312682,13.684403898584904,0.0,1.0,0.0,0.0,1.0,Taxi
8.6,0.0015811063938429267,26.46188502137483,10.172014479086338,1.837654607731769,0.15681523827106184,238.47484040279585,13.667758425352044,0.0,1.0,0.0,0.0,1.0,Taxi
8.700000000000001,0.08570555720369127,-15.145222755106781,9.739306999302467,1.8400638626023957,0.07051789759312926,238.45023745496871,12.555046289013184,0.0,1.0,0.0,0.0,1.0,Taxi
8.8,-0.04038139198645686,-28.877597461819985,10.065791392472029,1.9296052643359445,-0.34755866568497323,238.41293601170776,13.456067348080644,0.0,1.0,0.0,0.0,1.0,Taxi
8.9,-0.14280688091525695,-39.01218244113196,9.999048418413455,1.7419111267111071,-0.5251404601885172,238.4703822393526,13.156118559687481,0.0,1.0,0.0,0.0,1.0,Taxi
9.0,-0.1093553550019685,-1.7558653223874405,11.891956527799593,2.173900733035758,0.060151947776813784,238.4113594997981,13.77672840108962,0.0,1.0,0.0,0.0,1.0,Taxi
9.1,-0.04916071859839405,23.373882757339842,10.228655393298135,2.1015009515021603,-0.07117418218924491,238.2383559215899,13.157616975324206,0.0,1.0,0.0,0.0,1.0,Taxi
9.200000000000001,-0.02593746712855771,29.74011468486302,10.470592922253662,1.7920228616807232,-0.5601895285418808,238.49489399740082,11.839952502846147,0.0,1.0,0.0,0.0,1.0,Taxi
9.3,0.039345218422346645,-20.94030939747677,9.79937790849286,1.841240092735487,0.4614133361582756,238.61561851813372,12.777120053013615,0.0,1.0,0.0,0.0,1.0,Taxi
9.4,-0.15386226558577787,-20.915362552743126,9.45725903931999,1.7301166631694773,-0.24490087049949963,238.42874135125885,13.998378163627926,0.0,1.0,0.0,0.0,1.0,Taxi
9.5,-0.1305142798922733,-36.767472832611155,9.740574909985922,2.1208698019401737,0.9244449261676541,238.6224545677219,13.146688515217036,0.0,1.0,0.0,0.0,1.0,Taxi
9.600000000000001,-0.1444921457407091,38.70435548463764,10.028919770096175,1.6193686640552472,-0.40573161364579874,238.44550350778445,13.216003183806235,0.0,1.0,0.0,0.0,1.0,Taxi
9.700000000000001,0.03965951183741037,21.698744893886996,10.557123539391243,1.4230262353789866,-0.551017088473942,238.4434947340335,13.120663757661015,0.0,1.0,0.0,0.0,1.0,Taxi
9.8,-0.02202055542283827,47.79978212957614,9.848645393462363,1.9361766887479863,0.5374373546365995,238.51002486032849,13.549738936612808,0.0,1.0,0.0,0.0,1.0,Taxi
9.9,0.09450676490717166,-2.856483161585731,10.626464883965665,2.0270811887660645,0.38548317098524737,238.47406211503585,13.572364335163169,0.0,1.0,0.0,0.0,1.0,Taxi
10.0,0.025377096029481738,28.052457901038924,9.248848476216931,1.8837559052743644,0.16073120564561022,238.3743983933963,12.353222689839402,0.0,1.0,0.0,0.0,1.0,Taxi
10.100000000000001,0.11824173408235637,-8.542079353664976,10.016417178993645,2.0486895393744518,0.09315359537855339,238.6371949912375,13.232534205881986,0.0,1.0,0.0,0.0,1.0,Taxi
10.200000000000001,0.0517963681388468,22.68582751440488,9.654612007872213,1.8335854663461009,0.7957426604232941,238.55532903729613,13.717597842641592,0.0,1.0,0.0,0.0,1.0,Taxi
10.3,0.13880623360150618,1.2777731379884638,9.181590954606502,1.6450499333723083,0.22817802434974951,238.53676755304593,13.080139203370182,0.0,1.0,0.0,0.0,1.0,Taxi
10.4,0.12463059977229872,-30.357867362031936,10.489227201488914,1.826378850813977,0.6965986458937201,238.607118968466,14.2658055202964,0.0,1.0,0.0,0.0,1.0,Taxi
10.5,-0.09999296867131285,-31.242695531076595,10.1332490094123,1.8343683777902868,0.32065937649367626,238.57088934473336,12.80698090964838,0.0,1.0,0.0,0.0,1.0,Taxi
10.600000000000001,-0.017407244053876808,-16.277598273682955,9.837164239692251,2.208007597488553,0.19124179582153428,238.49038673356915,12.925640031480047,0.0,1.0,0.0,0.0,1.0,Taxi
10.700000000000001,0.04324260840388395,45.22766322308018,9.461338414410301,2.0121581920677096,0.07082024236582203,238.36161469862964,12.093522635876845,0.0,1.0,0.0,0.0,1.0,Taxi
10.8,0.126145347444088,-12.711272051478582,11.01970567847155,1.6756687027914015,-0.2912363283449652,238.4841810327539,12.801761450398354,0.0,1.0,0.0,0.0,1.0,Taxi
10.9,-0.08096360431126969,-17.17324934378305,10.35335247348136,2.0158756929547077,-0.010539203343090841,238.61666532073923,12.894933288736649,0.0,1.0,0.0,0.0,1.0,Taxi
11.0,-0.04262363831503127,-24.40720108530969,9.901454169490071,1.8849544954083748,-0.10165585704240482,238.3682727870695,13.314097497061068,0.0,1.0,0.0,0.0,1.0,Taxi
11.100000000000001,0.004109342017539575,15.954816724620526,9.939243800705865,1.619669761154504,-0.2385060223823086,238.44415471895263,13.02294667708923,0.0,1.0,0.0,0.0,1.0,Taxi
11.200000000000001,-0.0011895206881670458,24.499798235749807,8.635824959275741,1.903357589837191,0.09167785511418534,238.5540746501888,14.133348890995078,0.0,1.0,0.0,0.0,1.0,Taxi
11.3,0.07987535286371776,21.197595030634233,9.972743644847222,1.6640978840187415,0.03580865141386409,238.50944326104877,13.388083298191148,0.0,1.0,0.0,0.0,1.0,Taxi
11.4,0.11009731717071075,-26.522079495213756,10.54692972801672,1.4594366510421153,-0.1822159886225836,238.45684015542304,12.744443018150074,0.0,1.0,0.0,0.0,1.0,Taxi
11.5,-0.13379991816423578,3.4665764378704864,10.164245516491889,2.036682571061154,0.16198012315572033,238.4603051909221,12.378197190111958,0.0,1.0,0.0,0.0,1.0,Taxi
11.600000000000001,0.09720823505307022,-4.959302975017337,10.509441502473193,1.692035211175933,0.5586605673606041,238.59037521240316,12.58043960124881,0.0,1.0,0.0,0.0,1.0,Taxi
11.700000000000001,0.08530080229562408,-6.65822039546858,10.738758925873901,1.6973862005997868,-0.7218850000901709,238.50000235654056,13.107126932850575,0.0,1.0,0.0,0.0,1.0,Taxi
11.8,-0.1670910201415787,-14.184575333854179,9.481006261741603,1.846791560377759,-0.3780899310030124,238.48816359036277,12.722040886904434,0.0,1.0,0.0,0.0,1.0,Taxi
11.9,0.02628535838379934,-3.383699192321641,9.829151709897872,1.9043918693530912,-0.46493091513389406,238.3978053093224,12.87138232544589,0.0,1.0,0.0,0.0,1.0,Taxi
12.0,0.06838230633401589,22.818946811090214,10.328563738325073,2.005602135171676,-0.6114262211747341,238.6129273027069,13.657864692180452,0.0,1.0,0.0,0.0,1.0,Taxi
12.100000000000001,-0.05299628608612761,2.865959652602347,10.659412335189002,1.7800396264504834,0.4016453122336694,238.56042778773462,12.336479040561438,0.0,1.0,0.0,0.0,1.0,Taxi
12.200000000000001,0.04061515664681109,4.498626441358776,9.625524768805471,1.950652641654901,0.32071102482691605,238.52796427948317,12.767379630989101,0.0,1.0,0.0,0.0,1.0,Taxi
12.3,0.09087543854080979,12.49231191032107,9.362626262801834,1.7891284670966054,0.4046848964607928,238.46355746237032,12.44977159627229,0.0,1.0,0.0,0.0,1.0,Taxi
12.4,0.00946527346547775,28.55988542743224,10.288781261206616,1.8134438824015062,0.4402299358513588,238.47708029298303,13.536737544869085,0.0,1.0,0.0,0.0,1.0,Taxi
12.5,0.1834145837839723,-44.00425297459558,10.45932353293479,2.0023761060719996,-0.02112235612242893,238.59295588972168,13.417637589990635,0.0,1.0,0.0,0.0,1.0,Taxi
12.600000000000001,-0.1291458263321681,0.5525037727610093,9.659354505583952,1.882431601482477,-1.2284678412443788,238.59612108093904,12.636558576283301,0.0,1.0,0.0,0.0,1.0,Taxi
12.700000000000001,0.012227792329282844,-37.02251245418085,11.241752204305298,2.012238886759884,-0.011725517022764977,238.56255821215154,13.242767349358282,0.0,1.0,0.0,0.0,1.0,Taxi
12.8,-0.0016979784869318758,55.30976813255256,9.742719087243938,1.8294659042340862,1.1913029387036485,238.6248622801512,13.611565687525912,0.0,1.0,0.0,0.0,1.0,Taxi
12.9,0.1474030143305948,15.74883224417445,10.525009351817458,1.9546313773975885,0.6807723056318429,238.56659974127,13.186475559927874,0.0,1.0,0.0,0.0,1.0,Taxi
13.0,0.09097195355015514,37.23836506406345,9.599935725072669,1.809260825526777,0.03497863717669917,238.48625985749788,13.127428527111213,0.0,1.0,0.0,0.0,1.0,Taxi
13.100000000000001,0.18449384683338543,-62.690680165580204,9.978685654765465,2.380399811785988,-0.2912167306499871,238.7012880820522,13.50540652263119,0.0,1.0,0.0,0.0,1.0,Taxi
13.200000000000001,-0.16605038649730613,-19.118989594633288,10.013492916914336,1.9782890012342127,-0.7829918947551316,238.48722161035573,12.442797461566455,0.0,1.0,0.0,0.0,1.0,Taxi
13.3,-0.004622994423011195,-37.74221904261386,8.580327648517196,1.6682293312599263,-0.319402769363786,238.55711872757809,13.836081177563823,0.0,1.0,0.0,0.0,1.0,Taxi
13.4,-0.004217248379683781,31.99309363014993,9.347952943055013,1.839138685576083,0.30269759520928957,238.53699018550572,13.507366739029315,0.0,1.0,0.0,0.0,1.0,Taxi
13.5,-0.006084918346556404,15.283777474730739,9.39463459344429,2.1037471477852385,-0.19215901650378497,238.705787354069,12.652973504870248,0.0,1.0,0.0,0.0,1.0,Taxi
13.600000000000001,0.07179589295064258,-18.53890530671578,10.69895581564116,2.2652507377651463,-1.170798579526792,238.71379999583064,13.393298539568903,0.0,1.0,0.0,0.0,1.0,Taxi
13.700000000000001,-0.09691177491326258,0.6824614644583183,9.651497467841228,1.9949900650489283,-0.43673341037666785,238.42890551257892,13.69404765544885,0.0,1.0,0.0,0.0,1.0,Taxi
13.8,-0.002672611024264727,17.805799317161362,10.067886304622203,1.8719176800615753,0.26549554354687166,238.55005176861346,13.25446404031681,0.0,1.0,0.0,0.0,1.0,Taxi
13.9,0.16082488953644947,-6.390449863660024,9.763802523173348,1.8713288041118725,-0.7774766756428606,238.5229963090071,13.590624119988288,0.0,1.0,0.0,0.0,1.0,Taxi
14.0,-0.12886402423156265,-20.668281345386152,9.780810398479993,1.9485507953788832,-0.6920303778650478,238.43602335144442,12.731731986065864,0.0,1.0,0.0,0.0,1.0,Taxi
14.100000000000001,-0.1060140177511954,-43.28136411179451,10.124275194497255,2.2371895470700225,-0.6424130429924536,238.67334401593803,13.707064128848613,0.0,1.0,0.0,0.0,1.0,Taxi
14.200000000000001,-0.05558193102252299,30.835644634150626,9.76227712946341,1.8136460304671522,-0.6508777328960038,238.59332966524937,12.998247638760873,0.0,1.0,0.0,0.0,1.0,Taxi
14.3,0.025314198939190593,1.306553138224449,10.409053218080201,1.666075539989452,-0.19594073731522382,238.4060695095909,13.758472894753238,0.0,1.0,0.0,0.0,1.0,Taxi
14.4,-0.09948125206007302,-24.551897752348378,10.69847224158783,2.0422768520563093,1.0514485124987232,238.4322565447162,13.47577171735762,0.0,1.0,0.0,0.0,1.0,Taxi
14.5,-0.17834141978426477,6.086239893372635,10.386492462532424,1.7901343585126903,-0.6933241144225588,238.37230044462376,13.40377517035452,0.0,1.0,0.0,0.0,1.0,Taxi
14.600000000000001,0.05574539840605389,49.89479881232717,10.690642802430949,1.8897141803784514,1.0014432222264482,238.52739971114795,12.46757917588883,0.0,1.0,0.0,0.0,1.0,Taxi
14.700000000000001,0.14999274200156287,33.057988188553516,10.547289580564144,1.48452246697695,0.2554174073501726,238.5670213365097,13.266434506166226,0.0,1.0,0.0,0.0,1.0,Taxi
14.8,-0.013051478841497089,-23.103564039681647,10.622830908326476,2.302992312173843,-0.5037252969598481,238.3610721771637,12.836137679086375,0.0,1.0,0.0,0.0,1.0,Taxi
14.9,-0.05977242179235425,-35.46952920942788,9.916376888252437,1.7412344481696247,-0.696553163182262,238.5252556701837,12.808135492579439,0.0,1.0,0.0,0.0,1.0,Taxi
15.0,-0.027354904045576414,-7.769506162233409,9.306367141138066,1.9152352147787715,0.2602184984730881,238.3379511984515,13.571360030531737,0.0,1.0,0.0,0.0,1.0,Taxi
15.100000000000001,-0.051899009652664044,17.82425896489735,10.384914529162138,1.6632553103520162,0.33521547920169587,238.62692293694738,13.31779722862665,0.0,1.0,0.0,0.0,1.0,Taxi
15.200000000000001,0.02934887303213258,30.52412778613048,11.081527751477376,2.152814636757251,-0.08021988231620097,238.6150769589267,14.111359319047223,0.0,1.0,0.0,0.0,1.0,Taxi
15.3,0.12526573488507609,43.37226539042236,10.388217586334406,2.003070619067629,0.046388945866342846,238.54330250800035,12.519276499149429,0.0,1.0,0.0,0.0,1.0,Taxi
15.4,0.16496231729944785,9.314772627609946,10.319630351012604,1.828165610412912,0.547830115943411,238.45769032043847,12.894632064614722,0.0,1.0,0.0,0.0,1.0,Taxi
15.5,0.0759227361701824,5.79879724386322,9.422424361465373,1.7386517738372282,-0.04363156723798437,238.40482994825243,12.467600308224549,0.0,1.0,0.0,0.0,1.0,Taxi
15.600000000000001,0.1542597211043923,-53.157659988136054,9.952007051423898,1.963970488778095,-0.26605271154707955,238.56020961593515,13.420120589488807,0.0,1.0,0.0,0.0,1.0,Taxi
15.700000000000001,-0.10082598264123227,14.880967256982956,10.2250885489891,1.9113675028351795,0.010508795261547826,238.5788190896119,13.238609971199853,0.0,1.0,0.0,0.0,1.0,Taxi
15.8,0.1503275724550973,0.047996643729882806,10.548139023640436,1.6272151559151258,-0.3086809916770487,238.5533465026407,13.333325166751388,0.0,1.0,0.0,0.0,1.0,Taxi
15.9,0.15449970432304183,30.179622644144143,9.412407296294662,1.6681808561684226,1.1154553733697352,238.2207541186981,12.83996776573909,0.0,1.0,0.0,0.0,1.0,Taxi
16.0,0.05007213057948856,-0.6555189316061742,10.789788437681162,1.6897900312249088,-0.6184628242859519,238.56092741698535,13.743967895826358,0.0,1.0,0.0,0.0,1.0,Taxi
16.1,0.14704997779706655,-21.760553165280886,9.981466351382998,2.2950447802010547,0.36831365136612887,238.6462690503488,12.810862003054023,0.0,1.0,0.0,0.0,1.0,Taxi
16.2,0.0456969384966375,-19.697767050855997,9.998971265076461,1.8194278209187413,-0.825883734065958,238.3591084058928,13.758992034928408,0.0,1.0,0.0,0.0,1.0,Taxi
16.3,-0.04841670467479131,-33.59320625449899,9.763476812443074,2.2229599801505215,0.5506209648122526,238.47258271189617,12.319930616643553,0.0,1.0,0.0,0.0,1.0,Taxi
16.400000000000002,-0.020916053475428253,-10.620118735776368,10.276210805265032,2.040302516428891,-0.7405555310268991,238.54952052526926,11.708384791405734,0.0,1.0,0.0,0.0,1.0,Taxi
16.5,-0.00740365518224423,13.678261106701868,9.577276445196318,2.041462139329076,-0.0015752141519221345,238.49451440306575,13.065714534967297,0.0,1.0,0.0,0.0,1.0,Taxi
16.6,0.019974600858718133,10.874753205626371,8.690760343164092,1.681431337951293,-0.8051838716200407,238.66172906223449,11.911954220326933,0.0,1.0,0.0,0.0,1.0,Taxi
16.7,0.03345771255270371,-26.095762143301812,9.960164526292878,1.4724076912350785,0.05462946978667109,238.54600364709222,13.533992779796835,0.0,1.0,0.0,0.0,1.0,Taxi
16.8,-0.1378824658987532,-10.054420616619273,10.029826467969553,2.48673901641931,0.21039074247485873,238.61356826826795,13.703765394641472,0.0,1.0,0.0,0.0,1.0,Taxi
16.900000000000002,-0.030297502224378128,15.78882185458081,9.5630166877411,1.812304255731857,0.5145954501289717,238.3880590187248,12.260150304785569,0.0,1.0,0.0,0.0,1.0,Taxi
17.0,0.11240182182560787,-10.975313734292362,9.512729996894208,1.721426384844702,-0.328792047992075,238.56777904064995,12.999045407587959,0.0,1.0,0.0,0.0,1.0,Taxi
17.1,-0.19275903457021487,8.583798890707007,9.74258964114486,1.9713682405609552,-0.4280926765496003,238.43779612540447,12.37320989744116,0.0,1.0,0.0,0.0,1.0,Taxi
17.2,0.012621492229157061,-17.900027185181326,9.99299440622881,1.5207637376216123,0.40376248970682094,238.5240574918754,13.120977711724539,0.0,1.0,0.0,0.0,1.0,Taxi
17.3,0.0229016858997014,23.729815968186898,9.203507357862312,1.5608412109967973,-0.1512513589038095,238.5255208163386,12.890812574187777,0.0,1.0,0.0,0.0,1.0,Taxi
17.400000000000002,-0.07410995472928024,-6.0005666242427225,10.245805264499944,1.6476644283184791,-0.5745426579360614,238.50626329607803,13.569960184043584,0.0,1.0,0.0,0.0,1.0,Taxi
17.5,-0.01738134089205642,-18.63073823167957,9.981938155253378,2.072239866456661,-0.5761508039552071,238.53054790324302,12.658629514954358,0.0,1.0,0.0,0.0,1.0,Taxi
17.6,-0.0702520052586963,34.52388886414689,9.995010309718795,1.7400167792771064,-0.17321513515375672,238.32809688562725,12.648566970165811,0.0,1.0,0.0,0.0,1.0,Taxi
17.7,0.09850948959145432,-25.077970592584165,10.716104559372852,2.1474206255940604,0.5189976516974009,238.4347028745134,13.377075174944872,0.0,1.0,0.0,0.0,1.0,Taxi
17.8,-0.14277119385497714,-5.07294947004322,10.692426236533118,1.5796018635819786,-0.0029922543210597298,238.49155709969887,14.331086544616964,0.0,1.0,0.0,0.0,1.0,Taxi
17.900000000000002,-0.0956167526089123,-19.420405577859228,10.53162135151585,1.758460336707111,0.4911700499120088,238.51314660730918,13.319295420209027,0.0,1.0,0.0,0.0,1.0,Taxi
18.0,0.001407461702158283,28.703601578147346,11.284334772176997,1.797838023744506,0.22880754316856447,238.5580360963669,13.922765183354151,0.0,1.0,0.0,0.0,1.0,Taxi
18.1,0.0007468140357597178,33.36120978007066,9.444928244982137,2.0120185714820478,-0.4425709086676361,238.36857797285404,12.64973375697795,0.0,1.0,0.0,0.0,1.0,Taxi
18.2,0.07118929629144113,-25.335866430214534,9.699380537509647,1.6996309240784169,0.02095296084451549,238.52261948840157,14.341049141375143,0.0,1.0,0.0,0.0,1.0,Taxi
18.3,-0.12527187044891427,20.38930072891381,10.476931912709041,1.5510124244845012,0.7991192342003655,238.3525591983646,13.06141532575503,0.0,1.0,0.0,0.0,1.0,Taxi
18.400000000000002,0.10269331768032885,17.003164563608014,11.360288038635753,2.1538697166530807,-0.12152093785085946,238.46951446982212,13.43156770237413,0.0,1.0,0.0,0.0,1.0,Taxi
18.5,0.1562051191094813,4.587704793444298,9.342517907843613,1.8604194095369595,0.26574604393813733,238.51179161695075,12.900724466966361,0.0,1.0,0.0,0.0,1.0,Taxi
18.6,-0.10233334648169273,7.550237940695619,8.981040102667633,2.070455947307076,0.3968961516429548,238.70137030510227,12.804186801037622,0.0,1.0,0.0,0.0,1.0,Taxi
18.7,0.14044450738380704,-29.834583496654734,10.085230809645175,2.229511499198046,-0.499038157956358,238.30190268297702,12.94214235573964,0.0,1.0,0.0,0.0,1.0,Taxi
18.8,0.0070322016262077255,-11.172584241551462,9.673896627247391,1.6876716634142785,-0.2287108689979503,238.55366782279634,13.468674174311683,0.0,1.0,0.0,0.0,1.0,Taxi
18.900000000000002,-0.15819626768944994,-29.714723530522672,10.1563006487314,1.9868153974529925,0.5491729132927679,238.43048489243074,13.49416403618282,0.0,1.0,0.0,0.0,1.0,Taxi
19.0,-0.008129110268806201,8.459879996369617,9.59880407059276,2.180184819743688,0.8484671670316674,238.49499127373292,12.686831163374556,0.0,1.0,0.0,0.0,1.0,Taxi
19.1,0.049331601608055865,51.91681722534448,10.229737142363366,1.557177409078541,-0.6510086229049494,238.44502131671425,12.593016503798731,0.0,1.0,0.0,0.0,1.0,Taxi
19.200000000000003,0.1013878184372725,10.883140195471213,9.974147840016085,2.0578281876969826,0.7899820844326904,238.51215169440115,12.81541813232841,0.0,1.0,0.0,0.0,1.0,Taxi
19.3,0.04628659070854997,-14.36194256959636,9.942259746940376,2.087052406640266,-0.05260832227073364,238.47200106886748,12.83730997950326,0.0,1.0,0.0,0.0,1.0,Taxi
19.400000000000002,-0.022478111239925828,-21.7974585403837,10.579673932539801,2.101881111370154,0.1833749201059429,238.61621200519778,12.82259558527822,0.0,1.0,0.0,0.0,1.0,Taxi
19.5,-0.007599474264645885,-9.360795057988028,10.027852119485905,1.961094729917151,-0.7413007212073977,238.55162218609962,13.627769510645054,0.0,1.0,0.0,0.0,1.0,Taxi
19.6,-0.0005173845813900543,4.548157261870979,10.048106734717514,2.097717173827553,0.3344535346716844,238.55993153522581,13.39208662229921,0.0,1.0,0.0,0.0,1.0,Taxi
19.700000000000003,0.0002626750694291811,-1.2370001965922046,8.604530388617068,2.053068565680261,0.727036752457403,238.37286455798824,12.324568854815128,0.0,1.0,0.0,0.0,1.0,Taxi
19.8,-0.01378447524760679,12.38478602269204,10.65529456618753,2.0487387946993874,0.14145028974761098,238.58966846041108,13.045530675234144,0.0,1.0,0.0,0.0,1.0,Taxi
19.900000000000002,0.06140654553207027,-4.509977746355543,10.47423400790846,1.5672934847773006,-0.49000682690091213,238.57315156279913,13.129698723732162,0.0,1.0,0.0,0.0,1.0,Taxi
20.0,-0.022287213662348405,31.617162941270816,9.573658008407971,1.7122106628968785,0.5007331324880244,238.57506197676548,12.945571780679835,0.0,1.0,0.0,0.0,1.0,Taxi
20.1,0.14430133945874743,-60.95820803630597,10.560233579445544,1.8348690157062015,-0.6573017126132784,238.4694200853844,13.512833130681488,0.0,1.0,0.0,0.0,1.0,Taxi
20.200000000000003,-0.24338449464945944,0.464756194246642,10.314888010507355,1.6458582282705378,-0.09371329269151425,238.3534783257321,13.823185543640562,0.0,1.0,0.0,0.0,1.0,Taxi
20.3,-0.019963432691115085,-15.531814595945564,10.696995254322864,2.024571782326251,-0.6268566436689657,238.42290213802335,13.837515496635822,0.0,1.0,0.0,0.0,1.0,Taxi
20.400000000000002,0.06664226647901973,56.934548991075594,9.264128015201353,1.5785423890488244,0.11708411710462495,238.57604942665648,12.903949004750794,0.0,1.0,0.0,0.0,1.0,Taxi
20.5,0.04128825030591868,-15.187549617277341,9.789152089977662,2.210785089695041,-0.3509726991389983,238.49915557574104,13.798410705123812,0.0,1.0,0.0,0.0,1.0,Taxi
20.6,-0.09590118077750165,-32.794070558426185,8.636365567680379,1.7636257681264533,-0.0720747228883716,238.55211737798243,13.539414979139897,0.0,1.0,0.0,0.0,1.0,Taxi
20.700000000000003,-0.09732808631311107,12.439689171312542,10.817350079168213,1.712933259492,-1.015228012333197,238.48211143577487,12.368884686661493,0.0,1.0,0.0,0.0,1.0,Taxi
20.8,0.10348669616248152,10.145859852803644,9.845702532190375,2.213834567820399,1.1860767883577605,238.64439378097848,13.51325372481326,0.0,1.0,0.0,0.0,1.0,Taxi
20.900000000000002,-0.04517188151348329,-5.651598029899767,9.706778607048381,2.1480149873850487,-0.5165166941991063,238.49076953552435,13.263267582474487,0.0,1.0,0.0,0.0,1.0,Taxi
21.0,-0.12558607646260975,-32.9681588588145,9.44504399196283,1.550919324061677,-0.30515756000796507,238.52408635228142,12.426381490299304,0.0,1.0,0.0,0.0,1.0,Taxi
21.1,-0.06135409813159083,32.58857969728759,11.22876906345163,1.934692628733827,0.8380854492414784,238.55771106931104,12.935938983794173,0.0,1.0,0.0,0.0,1.0,Taxi
21.200000000000003,0.11777101697295485,19.182536269344936,10.037545405739094,1.7785544517560605,-0.32173520070808886,238.2979267867654,13.782933148405958,0.0,1.0,0.0,0.0,1.0,Taxi
21.3,-0.02967339511588491,1.5415894692227425,9.58512681154641,1.8916626632813762,0.8088600450657967,238.39470988973892,12.459967512678242,0.0,1.0,0.0,0.0,1.0,Taxi
21.400000000000002,-0.053646150785476965,-15.022411832915632,10.881382360262752,2.165135970602968,0.8348681158130679,238.54243436025547,13.425470679130504,0.0,1.0,0.0,0.0,1.0,Taxi
21.5,0.04265895780837683,-17.445223310351682,9.44197939704782,1.7815165729189115,0.3524510384929904,238.55041245456096,13.384999292810525,0.0,1.0,0.0,0.0,1.0,Taxi
21.6,-0.11689951166764317,9.651241456472142,9.946572998377391,1.9487508422998918,0.15899951797181422,238.53236481067222,12.57307324591908,0.0,1.0,0.0,0.0,1.0,Taxi
21.700000000000003,-0.005389943503116091,-11.421173694874556,9.149111736246311,1.797075745312185,-0.7382874245630756,238.37225659448745,14.483881638407693,0.0,1.0,0.0,0.0,1.0,Taxi
21.8,-0.014446910665995792,14.632293565673047,9.726656682406066,1.7315869103702148,0.013491756468694698,238.56448444494504,12.739210177732954,0.0,1.0,0.0,0.0,1.0,Taxi
21.900000000000002,-0.0437380438392778,-5.684026955819195,10.593385942874665,1.6693686719784662,0.24892812197543066,238.60143892179826,13.188849314341745,0.0,1.0,0.0,0.0,1.0,Taxi
22.0,-0.033810078282211935,6.030805939561003,9.88217201723017,1.890391086909809,-0.7517618359603676,238.473032609523,13.358114035312477,0.0,1.0,0.0,0.0,1.0,Taxi
22.1,0.015707119031809352,5.544609065109017,10.02594447415405,2.156419145795862,0.030131903420506492,238.39397581283322,12.856429696812345,0.0,1.0,0.0,0.0,1.0,Taxi
22.200000000000003,-0.016014998513732583,10.44001084645553,10.058077894911778,1.6908266562813983,0.40758665168710484,238.54954047801766,12.925890077133165,0.0,1.0,0.0,0.0,1.0,Taxi
22.3,0.018389975950065852,-34.37136347706916,10.149952934828146,2.201136816961038,0.34761948080792576,238.61718137846367,12.674245515714379,0.0,1.0,0.0,0.0,1.0,Taxi
22.400000000000002,-0.15614969835353631,23.613662148463778,10.70879843054499,2.259092240242703,0.07805911335005633,238.53497236935164,13.357349552353764,0.0,1.0,0.0,0.0,1.0,Taxi
22.5,0.10205331222858643,-0.8801116983212864,9.87698632852884,1.7106370928801318,0.3428116033779926,238.42999906689454,12.301773719851319,0.0,1.0,0.0,0.0,1.0,Taxi
22.6,0.013989417458459538,40.97036439910861,9.37226035188463,1.7063498875927783,-0.4111517511869478,238.55820746737868,12.497071660816202,0.0,1.0,0.0,0.0,1.0,Taxi
22.700000000000003,0.04870212364200683,-9.185140034499057,10.392477714439854,1.9446792904397634,0.8929226298976081,238.47785690124294,13.168366211792824,0.0,1.0,0.0,0.0,1.0,Taxi
22.8,0.056127612056091264,-39.49205873495605,9.92416461892365,1.8667024301431527,0.2881077684663644,238.60744740589405,12.754428067175425,0.0,1.0,0.0,0.0,1.0,Taxi
22.900000000000002,-0.18347087621632063,-1.5924942324494868,9.273652817796794,1.7138789815062294,-0.4276981531162533,238.46739837067264,13.560811758977618,0.0,1.0,0.0,0.0,1.0,Taxi
23.0,0.040739652479759504,-39.05744399978905,10.31445706790529,2.0417954509145044,-0.6667029618562735,238.51466228096695,13.386246876683039,0.0,1.0,0.0,0.0,1.0,Taxi
23.1,-0.13915960794285387,58.45831397052989,11.064546522515585,1.5377863612088243,-0.4754553364182568,238.3999294950495,12.698682205222532,0.0,1.0,0.0,0.0,1.0,Taxi
23.200000000000003,0.10882069363632896,3.2452622559046334,9.940306928921537,1.868499679595517,-0.2672360075267687,238.529272322863,12.74734691509895,0.0,1.0,0.0,0.0,1.0,Taxi
23.3,0.05696596375928281,24.907914617213688,9.273846692529817,2.0437803619296906,-0.4082303717447877,238.32340352104484,12.948779624194454,0.0,1.0,0.0,0.0,1.0,Taxi
23.400000000000002,-0.014620034856785312,-10.616143869276558,11.009882099879434,2.074885472295025,0.20834073571005576,238.6066003073306,12.23145043218754,0.0,1.0,0.0,0.0,1.0,Taxi
23.5,0.05573997428994627,-63.77369226010342,9.940296432580086,2.153960740262028,0.849226323430976,238.37613711035203,12.970348890440736,0.0,1.0,0.0,0.0,1.0,Taxi
23.6,-0.2619024975412342,-8.990089775318234,10.050599812299385,1.4462587183047564,0.36660204380898737,238.5417815426655,13.543257125370365,0.0,1.0,0.0,0.0,1.0,Taxi
23.700000000000003,-0.05957048373337636,45.415204097910824,10.382380968696534,2.0409316186572046,0.17345717425573037,238.61812433071896,13.514400462848428,0.0,1.0,0.0,0.0,1.0,Taxi
23.8,0.28281599477950053,48.24443602029512,8.826336673841293,1.9113801181450825,1.1594700741670363,238.46891195482783,13.265285621186612,0.0,1.0,0.0,0.0,1.0,Taxi
23.900000000000002,-0.02068031743975844,-4.095794269838263,9.77736906521279,1.7047757376361161,-0.13052808261927532,238.45395769527238,13.18448364709182,0.0,1.0,0.0,0.0,1.0,Taxi
24.0,-0.0800494550825676,-56.99745780332545,8.92999234634528,2.1642462527865436,-0.17190126369923858,238.708425895476,13.150136121736109,0.0,1.0,0.0,0.0,1.0,Taxi
24.1,-0.002171294237126644,-4.679701809003827,10.460232492095981,1.8524820208873096,-0.618417321579256,238.36075727970592,12.804811183281632,0.0,1.0,0.0,0.0,1.0,Taxi
24.200000000000003,-0.04407882648477748,10.132712363863602,9.378443053887446,1.4490282479222099,-0.11373037438983173,238.6041559896887,13.087337656383177,0.0,1.0,0.0,0.0,1.0,Taxi
24.3,-0.029385893263249488,11.680734333269337,10.706849312870943,1.6525872603534904,-0.010285741882438288,238.43632444147613,13.852737086955376,0.0,1.0,0.0,0.0,1.0,Taxi
24.400000000000002,0.05623237742922016,36.15837432997722,10.575233329343998,2.0903508147462957,0.11879198389903357,238.61108238173483,13.553692444382337,0.0,1.0,0.0,0.0,1.0,Taxi
24.5,0.13671304516510874,-16.761472335238,10.024972413931787,1.9208713228411893,0.42530155730924474,238.52801993236824,13.26367036927352,0.0,1.0,0.0,0.0,1.0,Taxi
24.6,-0.11319325493943938,-7.627857961119498,9.187892723682445,1.5042309431055487,-0.20119480223936023,238.5922008653272,12.330226820022997,0.0,1.0,0.0,0.0,1.0,Taxi
24.700000000000003,0.018093087623622776,-13.643412115020633,10.729286571917267,1.8326237224857298,0.5480951344554396,238.30386821679474,12.46544838512066,0.0,1.0,0.0,0.0,1.0,Taxi
24.8,0.06849598459000569,10.977897154874322,10.099484784874676,1.9505388209111303,-0.45429091191368376,238.55546992102825,12.327068899097629,0.0,1.0,0.0,0.0,1.0,Taxi
24.900000000000002,-0.05830376916506766,4.324330255098791,11.512494920335135,2.0212764173148594,-0.5449324681027268,238.4548626525808,13.26043019323129,0.0,1.0,0.0,0.0,1.0,Taxi
25.0,0.03971473889911685,-42.677188485299695,9.814445034524729,1.666082868853258,0.4848609233583335,238.4283779684173,13.43643198370145,0.0,1.0,0.0,0.0,1.0,Taxi
25.1,-0.14488995783649267,50.88634247523524,8.664249965313985,1.9867408400477715,-0.5674245863980455,238.50984260466885,13.56369436722195,0.0,1.0,0.0,0.0,1.0,Taxi
25.200000000000003,0.1961279432111087,-9.567178035750857,8.406477523336331,1.9541306281292086,0.3113256681846428,238.51239260197406,13.962146490548594,0.0,1.0,0.0,0.0,1.0,Taxi
25.3,-0.00812115127963728,-1.1670060989382638,10.671795528493247,2.327852463510977,0.0574888420675862,238.66281591297604,12.692549748791805,0.0,1.0,0.0,0.0,1.0,Taxi
25.400000000000002,-0.15072498833118383,13.377808549134537,8.26691576392733,1.8382694383288158,0.4203796674002114,238.655690337157,13.548491437904765,0.0,1.0,0.0,0.0,1.0,Taxi
25.5,0.26301698595678163,-11.140288451651012,10.82446205607162,1.991619188371733,-0.3119619145930958,238.43667955199248,12.614467523180071,0.0,1.0,0.0,0.0,1.0,Taxi
25.6,-0.06382259353789212,26.30377246142938,11.139915584974744,1.692984925583751,0.3566397558879363,238.64599707001287,13.728440561877179,0.0,1.0,0.0,0.0,1.0,Taxi
25.700000000000003,-0.01920612602403675,-29.569559185039918,9.743377462757573,1.8695524673377928,0.8931820349756843,238.64687713229296,12.795457299726412,0.0,1.0,0.0,0.0,1.0,Taxi
25.8,0.11516919003158216,3.5801399720284244,10.1845614546334,2.1267543741314516,-0.23136600000357488,238.47081513112278,13.53003635704832,0.0,1.0,0.0,0.0,1.0,Taxi
25.900000000000002,-0.04592189367774991,-19.402222239956703,9.603100746801404,1.8710593519351402,-0.8001409045692941,238.5741501363044,13.591610164125683,0.0,1.0,0.0,0.0,1.0,Taxi
26.0,-0.11621723722382019,-11.69712687004693,9.778326262375977,2.2997777074971473,-0.7295932322813299,238.48648150688496,13.185429919768719,0.0,1.0,0.0,0.0,1.0,Taxi
26.1,0.05668355568134756,40.153727829375995,9.910513422181708,1.9766618398017517,-0.12427804791128894,238.6922879505496,11.978733257776451,0.0,1.0,0.0,0.0,1.0,Taxi
26.200000000000003,0.15484674546913016,29.171387362405053,9.808776354118676,1.938922141454074,1.1771844816566337,238.5101427914824,12.769464994626881,0.0,1.0,0.0,0.0,1.0,Taxi
26.3,0.02963969958820514,-17.957049068877396,9.931417523858682,2.000286943577654,1.0756813704412553,238.41762335547162,13.33363182935631,0.0,1.0,0.0,0.0,1.0,Taxi
26.400000000000002,-0.03310168966303931,-47.78220651402348,10.41057360224708,1.8662114922124167,0.15303673907734075,238.7652531366051,12.65953479686512,0.0,1.0,0.0,0.0,1.0,Taxi
26.5,-0.08406428710098714,-29.26553667594649,10.124777677576722,2.1640626407943593,-0.04228930031634311,238.52348978968894,13.610903551783755,0.0,1.0,0.0,0.0,1.0,Taxi
26.6,-0.11668798379152717,25.70624657754779,9.635976250173075,1.6480519738072306,0.23301797610545763,238.57921559476608,12.92641418304528,0.0,1.0,0.0,0.0,1.0,Taxi
26.700000000000003,0.09542954322469976,4.146441987605058,10.400238241815384,1.9612476461239732,-0.6751939891369121,238.53700408259635,12.852450900295006,0.0,1.0,0.0,0.0,1.0,Taxi
26.8,-0.06333207716296173,57.23102741434722,9.385401752906903,2.0197967171100495,-1.279119811722397,238.49580623223858,13.366189483070189,0.0,1.0,0.0,0.0,1.0,Taxi
26.900000000000002,0.1694671532802091,-67.51434238957204,9.79959904934157,1.8407655531075162,0.27823375271348727,238.38331850978147,12.448983198796732,0.0,1.0,0.0,0.0,1.0,Taxi
27.0,-0.24214216872316016,2.7010060317447775,10.448952646014474,2.0730257199502016,1.2292581607992854,238.38486421930088,14.024047050312303,0.0,1.0,0.0,0.0,1.0,Taxi
27.1,-0.049827047004237617,-68.92333190588103,9.287282204721196,1.8789040583052086,0.2141921430489743,238.52596433826602,13.107873893197233,0.0,1.0,0.0,0.0,1.0,Taxi
27.200000000000003,-0.17514950624919592,56.48270649416631,10.072210291205836,1.6067790850023833,0.32406968995933333,238.45034735390982,12.619176531073473,0.0,1.0,0.0,0.0,1.0,Taxi
27.3,0.040271363747671526,10.669579638990959,9.389905509504688,2.0326084273105933,1.2360766678480553,238.4705805104444,13.271516205457079,0.0,1.0,0.0,0.0,1.0,Taxi
27.400000000000002,0.0035208511907173037,30.013025597577364,9.77538272772132,2.2171565999461307,-0.4359533918711008,238.55691858465252,13.232154546659494,0.0,1.0,0.0,0.0,1.0,Taxi
27.5,-0.025084378261308965,0.4241662044551404,9.502226639723725,1.6888936826940535,0.0014637313990012591,238.57176685193303,12.80826213293703,0.0,1.0,0.0,0.0,1.0,Taxi
27.6,0.04239219476994733,6.296442776488468,9.801827855325566,1.6996038271402518,-0.34512026749224733,238.4872750989772,13.496007896894191,0.0,1.0,0.0,0.0,1.0,Taxi
27.700000000000003,0.03500306507315974,-16.67959890265757,10.702633698750448,1.6423053157547485,-0.24858013048912772,238.72806124606723,13.11803836169513,0.0,1.0,0.0,0.0,1.0,Taxi
27.8,-0.1084823727745967,-26.224023642057432,10.337340981035318,1.8011489634930973,0.5153761665051949,238.3459886249267,12.762700883032252,0.0,1.0,0.0,0.0,1.0,Taxi
27.900000000000002,-0.08872792344033972,-4.2833918703537845,9.1663651949441,2.2508854783235406,0.32722372085569074,238.4935073878521,12.864126769380526,0.0,1.0,0.0,0.0,1.0,Taxi
28.0,0.013586105721390919,43.528797427389314,10.010720913665377,2.1869799985990976,0.05768817416722883,238.64250996708313,13.773862034426589,0.0,1.0,0.0,0.0,1.0,Taxi
28.1,0.10916161436234995,25.797261450226625,11.045532810777356,1.5402919350187012,-0.18953932232427304,238.31332879025047,12.883049334664742,0.0,1.0,0.0,0.0,1.0,Taxi
28.200000000000003,0.0402583838107935,4.149683939503974,9.400858044558005,1.4594735191104093,-0.4401862157089647,238.51203600986128,13.309723529592784,0.0,1.0,0.0,0.0,1.0,Taxi
28.3,0.0343345254189109,-1.1180040727490475,8.969519239975455,2.0213248816884244,-0.43779635526993016,238.45636940728264,13.555058185194666,0.0,1.0,0.0,0.0,1.0,Taxi
28.400000000000002,0.10357159399860483,-4.552674755200667,9.132963209546508,1.6121053796754776,0.6750224310633421,238.56832550840977,13.848006917044458,0.0,1.0,0.0,0.0,1.0,Taxi
28.5,0.017495010034790294,-21.978808824255974,10.991357300848238,1.9144041585151585,-0.17158682269827302,238.61135484013596,13.629865153302333,0.0,1.0,0.0,0.0,1.0,Taxi
28.6,-0.07555951870236884,-31.40761230881573,11.027135301552113,1.7202645630964737,-0.58883163912727,238.63494012674323,12.466492739805577,0.0,1.0,0.0,0.0,1.0,Taxi
28.700000000000003,-0.0534664675454737,43.98737392178623,9.362935855041721,1.7550943700758173,0.3099070193916073,238.3649416102404,13.29660136973247,0.0,1.0,0.0,0.0,1.0,Taxi
28.8,0.2374318796437215,-9.595462996311161,9.152214102036098,1.7135962728009113,0.0037451861511947617,238.3850640971026,13.22033840609655,0.0,1.0,0.0,0.0,1.0,Taxi
28.900000000000002,-0.12353683368392457,3.586270271919991,10.794012639379071,1.7898204251207328,-0.11793975261841018,238.54000923658896,13.078488002070182,0.0,1.0,0.0,0.0,1.0,Taxi
29.0,-0.03553511618587368,-41.58971851240437,9.996822205015118,2.121953114305569,-0.30403647602999684,238.5188579106142,13.591807816551375,0.0,1.0,0.0,0.0,1.0,Taxi
29.1,0.0294832870816998,61.10671248059733,10.589421938010357,1.7960130685957243,0.12208317063848453,238.33084545521558,13.265018430055347,0.0,1.0,0.0,0.0,1.0,Taxi
29.200000000000003,0.1819967287190622,-6.927040925714219,10.311312126838919,1.7805089734486912,1.0087006273533707,238.33110038643883,12.924027027927126,0.0,1.0,0.0,0.0,1.0,Taxi
29.3,-0.07017032081444464,-4.556566106205392,9.239458525640673,1.9028262410115964,1.0216036704157863,238.53352375719214,12.632881955253035,0.0,1.0,0.0,0.0,1.0,Taxi
29.400000000000002,0.006700456550672958,-32.986232655231966,10.384579133399473,1.4574675111228936,0.07693392992682783,238.46566881617332,13.385625290266367,0.0,1.0,0.0,0.0,1.0,Taxi
29.5,0.017065565442902435,-18.427564638392568,11.619242699490503,1.6372033059746975,0.4156181733032025,238.54579150249424,13.34044158368535,0.0,1.0,0.0,0.0,1.0,Taxi
29.6,-0.16230814400640736,42.54164224383883,9.982282021818,1.8715385511434912,-0.029837711186192464,238.56534447558124,13.991666213984411,0.0,1.0,0.0,0.0,1.0,Taxi
29.700000000000003,0.21940866776986723,-9.965789530624397,10.060640618984696,2.210959943248744,-0.7255745999880309,238.5427256216244,13.343316718966728,0.0,1.0,0.0,0.0,1.0,Taxi
29.8,-0.03276338221021942,39.753978455542075,9.733812923342837,2.0922881560408717,0.507762633244233,238.3843953693863,12.529450055989399,0.0,1.0,0.0,0.0,1.0,Taxi
29.900000000000002,0.03646174827130315,-54.46350580693223,9.498401729340113,1.8409719027767626,0.2850531937429583,238.58449252710375,12.643733154521586,0.0,1.0,0.0,0.0,1.0,Taxi
30.0,-0.05290886126479384,9.263392412859686,9.334864632195949,1.7951387062315314,-0.05959170708980149,238.40749632603013,13.0278675222851,0.0,1.0,0.0,0.0,1.0,Taxi
30.1,0.013553579854079118,5.505942449594143,10.57324855967739,1.8520969996400558,-0.3237676893238368,238.5602873998812,13.765443098065811,0.0,1.0,0.0,0.0,1.0,Taxi
30.200000000000003,0.06399146051927397,42.960778296597674,8.141169341708082,1.9859582468441066,0.608627481110977,238.4728631145183,13.437565792870462,0.0,1.0,0.0,0.0,1.0,Taxi
30.3,0.16189503021819462,10.955558531074145,9.991344681807329,1.8055862867969947,0.6280974478235873,238.63203658243197,13.263180519041589,0.0,1.0,0.0,0.0,1.0,Taxi
30.400000000000002,0.06833137250944994,12.968293116965668,8.27170183634111,1.6400106831799264,0.4199193748896003,238.54618832524181,13.551373275736402,0.0,1.0,0.0,0.0,1.0,Taxi
30.5,0.12883292610410244,-23.84167941239441,10.101584244829297,2.0134744958262005,-0.04419218247569441,238.62010615551162,12.787324812785451,0.0,1.0,0.0,0.0,1.0,Taxi
30.6,0.04268663315622269,-25.108259835129065,10.104807741955087,1.6071309128722229,0.05142873520724266,238.51049158583055,13.810152412835594,0.0,1.0,0.0,0.0,1.0,Taxi
30.700000000000003,-0.05720992666619528,-2.6549218260513783,9.816478838052527,2.0162477790344804,0.16669256169810318,238.40434530162963,14.221344027887701,0.0,1.0,0.0,0.0,1.0,Taxi
30.8,0.11555831697384567,-20.843026908304132,9.387683937573216,2.216239359054297,-0.6696876683686579,238.6454056377397,13.414091464293445,0.0,1.0,0.0,0.0,1.0,Taxi
30.900000000000002,-0.061528501385297855,-0.37567430499738225,9.716794815812104,1.5953870821504714,0.4665031030973838,238.6165817575477,13.303199222570099,0.0,1.0,0.0,0.0,1.0,Taxi
31.0,-0.05908829819118207,-27.045403862505182,10.688756066402345,1.8167494584003439,0.9031475283688555,238.62546823131697,13.063566544262413,0.0,1.0,0.0,0.0,1.0,Taxi
31.1,-0.01966870233868011,19.02655990215399,10.43592950663543,1.8563229028294241,0.2293959827970091,238.3778817309211,12.993478624895797,0.0,1.0,0.0,0.0,1.0,Taxi
31.200000000000003,0.03360429812547222,-30.61028119322783,9.42026629459221,1.9222329191293428,-0.6885303938524739,238.51254072577603,12.920964974792222,0.0,1.0,0.0,0.0,1.0,Taxi
31.3,-0.21213970415732109,18.461621561566588,10.318548323763554,1.8840365662966685,-0.23368921462022638,238.53201645107652,13.078451694074715,0.0,1.0,0.0,0.0,1.0,Taxi
31.400000000000002,0.07263940546915297,-14.533504685815217,10.204084730461105,1.8145355007095032,-0.30503148831865706,238.4475144385881,12.786319581197175,0.0,1.0,0.0,0.0,1.0,Taxi
31.5,-0.039063225303603705,45.26483912341062,10.719405473034902,1.7378835540354591,-0.14415507746596637,238.55347759096958,14.138399408931107,0.0,1.0,0.0,0.0,1.0,Taxi
31.6,0.01418449145973218,-17.82237990970884,9.675419038206941,1.8896462051377911,-0.40212969621452116,238.47499774824348,13.314986297669277,0.0,1.0,0.0,0.0,1.0,Taxi
31.700000000000003,-0.016472494079391088,6.7719883294915535,9.063174724975744,2.0201111925937716,0.07547100658044688,238.52579229225864,13.943653366705691,0.0,1.0,0.0,0.0,1.0,Taxi
31.8,-0.005203283656145795,-26.756052354367444,8.500973335061369,1.982920210511306,0.051044038118308106,238.51871902898233,13.473298324525372,0.0,1.0,0.0,0.0,1.0,Taxi
31.900000000000002,-0.11959577031210492,7.902693333967259,9.583318724889043,1.8779548617689228,-0.008738314839704456,238.55992381937938,12.567691674524951,0.0,1.0,0.0,0.0,1.0,Taxi
32.0,0.023040972590445356,8.223312737267959,9.461187354148656,1.8776699148514593,-0.4471141128022894,238.69811266410215,12.39723634341267,0.0,1.0,0.0,0.0,1.0,Taxi
32.1,0.03591328003019416,11.125012656138265,9.988426515445612,1.9731863000704197,-0.5449122361022796,238.41107879225137,12.789163679801137,0.0,1.0,0.0,0.0,1.0,Taxi
32.2,-0.06397070703141343,-1.1685736893240868,10.430740593780106,2.173725763590341,0.7139469932612913,238.7234190317572,12.825145566073132,0.0,1.0,0.0,0.0,1.0,Taxi
32.300000000000004,0.017198104143825062,18.2921053818205,11.085034952976295,1.7735847222002752,-0.03631846772266549,238.4920048694405,13.212339257027638,0.0,1.0,0.0,0.0,1.0,Taxi
32.4,0.1273738069392968,-30.296601387347778,11.64343929010321,1.8967262572529746,-0.47329281119126404,238.57843947236017,13.777376752993597,0.0,1.0,0.0,0.0,1.0,Taxi
32.5,-0.2154537139681522,37.181139340192544,10.139601939971914,2.05116834203014,0.15526258624769232,238.38860446707145,13.415551961262647,0.0,1.0,0.0,0.0,1.0,Taxi
32.6,0.2031038008447879,-14.877462220430695,9.569013303384459,2.0986451356012816,-0.30807741364905544,238.53691058746688,12.827799951287718,0.0,1.0,0.0,0.0,1.0,Taxi
32.7,0.05298649583714343,81.4492394237363,10.019353515265353,1.9897950513049327,-0.41971896503162087,238.57539863072793,14.33226897518951,0.0,1.0,0.0,0.0,1.0,Taxi
32.800000000000004,0.19179248315052946,-96.32693676570308,9.374804521436756,1.9325423719963797,-0.8589545842315166,238.45826060046863,13.836164724995166,0.0,1.0,0.0,0.0,1.0,Taxi
32.9,-0.27853088298372736,-19.195039851954316,9.975513048781902,1.944418615748097,0.22736188742239005,238.73577612796794,13.308999781495565,0.0,1.0,0.0,0.0,1.0,Taxi
33.0,-0.042988703422628005,-35.99054069868194,10.041391857732359,1.7755871472866263,-0.16069059831428525,238.48991027570742,13.61811528819875,0.0,1.0,0.0,0.0,1.0,Taxi
33.1,0.011839779657119923,50.0933708979791,9.881046868588523,2.122625221016996,0.44685785756461555,238.39676450725347,12.630628552891707,0.0,1.0,0.0,0.0,1.0,Taxi
33.2,-0.028064028493831723,-11.684700278325751,9.894108658592172,1.7376604421720876,0.3033875306579568,238.5531068424773,13.149047758648694,0.0,1.0,0.0,0.0,1.0,Taxi
33.300000000000004,-0.10141220481425661,-0.3637704990787019,10.679581109408996,1.9607949576289971,0.40769479678047826,238.63546163229853,12.107221606931038,0.0,1.0,0.0,0.0,1.0,Taxi
33.4,0.010020927161726548,4.502161855288042,10.66775132199846,1.7020805962303247,-0.1227248670233594,238.45993794790877,13.634878041702235,0.0,1.0,0.0,0.0,1.0,Taxi
33.5,-0.005553219217391379,0.8096046021151722,9.976865840898226,1.4402202321515594,-1.0462778925825702,238.6658659165504,13.33601260429723,0.0,1.0,0.0,0.0,1.0,Taxi
33.6,-0.09736418180368062,-17.764432532538653,8.791195286616444,1.5455492529372434,0.6074068862279495,238.4809746682879,12.950386710819025,0.0,1.0,0.0,0.0,1.0,Taxi
33.7,-0.07880123550096656,-8.261772859228453,9.819927893008007,1.7152122546333994,0.243035629671472,238.41502765806683,12.799375463904774,0.0,1.0,0.0,0.0,1.0,Taxi
33.800000000000004,-0.0468620835135335,10.390296276914913,9.499508879372957,1.9213239462114662,0.04276886136032041,238.49694673413273,13.37072664973044,0.0,1.0,0.0,0.0,1.0,Taxi
33.9,-0.04541270041910591,7.556933405816715,10.549872203911443,1.7227553850663846,0.15935092565048248,238.64956881393493,13.103408067750367,0.0,1.0,0.0,0.0,1.0,Taxi
34.0,-0.041016568471882835,25.463650576780726,9.35162022025819,1.96176269701469,0.3798188533172198,238.54017094201254,12.162743783131477,0.0,1.0,0.0,0.0,1.0,Taxi
34.1,0.08045616937037026,12.41910747710083,10.320554955876336,1.8429096639901485,0.5244422741951753,238.37261856079135,13.423254754214339,0.0,1.0,0.0,0.0,1.0,Taxi
34.2,0.016682836966398374,-18.72570935560114,10.045311696607188,1.7412684275286496,-0.8143714822360022,238.61151996776084,14.2406504518928,0.0,1.0,0.0,0.0,1.0,Taxi
34.300000000000004,-0.1346451152498884,5.641846942521492,11.164849433046477,1.843658503879713,0.2809683908418399,238.51654071572284,14.446589844575954,0.0,1.0,0.0,0.0,1.0,Taxi
34.4,0.1086654040829779,12.193963130530994,10.599433116465745,2.0245326174850673,0.5318760205299954,238.43672694402926,12.963483833463963,0.0,1.0,0.0,0.0,1.0,Taxi
34.5,0.07765265261905352,35.56779114883431,9.710218661924117,2.3000507160911834,0.17797526009428807,238.68138559230204,14.262920776842387,0.0,1.0,0.0,0.0,1.0,Taxi
34.6,0.043193840494283334,-59.055067588762256,9.927998806135173,1.6232485202137223,0.35405177134745713,238.41499273372256,13.235653700369795,0.0,1.0,0.0,0.0,1.0,Taxi
34.7,-0.18660993386083324,-16.232585429825505,9.596539140141733,1.987614870314687,0.21158264531865015,238.6046349029076,12.14696109993109,0.0,1.0,0.0,0.0,1.0,Taxi
34.800000000000004,-0.0035102745300738705,-28.920509778864375,9.06865476074043,2.0079112817837217,0.16142652756001413,238.5294264361155,12.811623248012484,0.0,1.0,0.0,0.0,1.0,Taxi
34.9,-0.1014087084000384,43.06461096954062,10.734667309438894,1.9854796386694324,0.6322438870535007,238.5483723084867,12.4416408024263,0.0,1.0,0.0,0.0,1.0,Taxi
35.0,0.02871312098687004,14.412701974395851,11.215576533141007,1.6469940123401194,-0.3307092516373244,238.486263978966,14.220705710866545,0.0,1.0,0.0,0.0,1.0,Taxi
35.1,0.06855323534190556,14.496998063843757,9.60552916534883,2.15086558299201,0.5219671396409132,238.48561294928913,13.745017776734795,0.0,1.0,0.0,0.0,1.0,Taxi
35.2,-0.02892371808081944,-50.15690674149484,9.720737519342983,1.9559093265240857,-0.1613734122512585,238.52380982512273,14.219862429879042,0.0,1.0,0.0,0.0,1.0,Taxi
35.300000000000004,-0.22207141272060402,-25.45919507088726,10.184841777489229,1.8060788201603908,0.36224125112164857,238.4736064184507,11.990830586765505,0.0,1.0,0.0,0.0,1.0,Taxi
