time_s,altitude_ft,vertical_speed_fpm,ias_kt,pitch_deg,roll_deg,heading_deg,throttle_pct,afterburner_on,gear_down,flaps_deg,speedbrake_pct,weight_on_wheels,label
0.0,0.019429924980814292,-0.07954700834283332,23.68123990777829,1.6181065036171185,0.47000628308135856,51.60469095190882,13.947403389314415,0.0,1.0,0.0,0.0,1.0,Taxi
0.1,0.01916476828633818,10.451651384287974,23.8241268038632,1.203403996065195,-0.8790468827021962,51.70235113276942,13.956589417875405,0.0,1.0,0.0,0.0,1.0,Taxi
0.2,0.07168818190225416,-38.483425299193435,23.987860298265552,1.1839813855679353,1.220777826255645,51.547878706338224,14.032664386568632,0.0,1.0,0.0,0.0,1.0,Taxi
0.30000000000000004,-0.17298720151515284,-41.76212509887639,23.335450345403757,1.5192059853138145,-0.2733818255349566,51.774480547508745,13.586186575897692,0.0,1.0,0.0,0.0,1.0,Taxi
0.4,-0.18964585720804372,0.8968919173959099,24.53916493051972,1.5763710905950101,-0.7819103673880948,51.79111681074505,12.810120061951725,0.0,1.0,0.0,0.0,1.0,Taxi
0.5,0.07617264148923376,85.49982796634424,22.812865862963793,1.3941346130054726,0.05198285108890756,51.812824908852804,14.027901923640458,0.0,1.0,0.0,0.0,1.0,Taxi
0.6000000000000001,0.2545119383165683,44.14305595817913,23.575227657476812,1.0590560565089755,0.4091612804504346,51.74846700270018,13.45830017745637,0.0,1.0,0.0,0.0,1.0,Taxi
0.7000000000000001,0.031069422582851915,9.042479057157065,23.669844492346055,1.0431960537827476,0.23143040824834077,51.74364145170523,14.695368317675896,0.0,1.0,0.0,0.0,1.0,Taxi
0.8,0.1213850367750191,-68.11701005987389,23.870799293177555,1.0325391355752027,0.7021564934897374,51.61362720522152,13.821060588727594,0.0,1.0,0.0,0.0,1.0,Taxi
0.9,-0.08607311198280108,-15.52126324066026,25.541317626391063,1.4310303812534702,0.05166993209625975,51.75293136783051,13.674381251723034,0.0,1.0,0.0,0.0,1.0,Taxi
1.0,-0.04653689362044936,-30.277800904404838,23.68071534845756,1.174731380089829,0.22525457093311324,51.61524230325506,13.373386397528282,0.0,1.0,0.0,0.0,1.0,Taxi
1.1,-0.030003967747005058,42.63025965907021,24.010627903934278,1.186181354222836,-0.12665549533696183,51.539991392968886,14.414687132747234,0.0,1.0,0.0,0.0,1.0,Taxi
1.2000000000000002,0.12707818631254994,2.353339420467563,24.07685703207791,1.5792195411170724,0.05091921162052024,51.75692182659236,13.486623605477433,0.0,1.0,0.0,0.0,1.0,Taxi
1.3,-0.034770196518111585,6.078790840930249,24.23822147699605,1.190625382115086,0.09198769584174812,51.736002505074055,14.321018379767876,0.0,1.0,0.0,0.0,1.0,Taxi
1.4000000000000001,0.00038998645764614623,-18.54655703595786,24.16663973082037,1.380389204862365,-0.104896661080348,51.86193140172878,14.652858496650449,0.0,1.0,0.0,0.0,1.0,Taxi
1.5,0.03434540113276062,47.27393407135637,24.244432123665945,1.3336666026400166,0.40184148497949373,51.554774387370855,14.424639190453409,0.0,1.0,0.0,0.0,1.0,Taxi
1.6,0.20159947383867027,17.356800687092164,22.587690028351144,1.715880131103868,-0.07648461373473288,51.81233854991575,13.418215399404696,0.0,1.0,0.0,0.0,1.0,Taxi
1.7000000000000002,0.08717398989310698,38.26913423629957,24.29421116475914,1.2875485843555856,-0.6978045588927311,51.63088049347118,14.19277412685088,0.0,1.0,0.0,0.0,1.0,Taxi
1.8,0.2256910723142585,-42.93496026601116,23.26438841431197,1.3176572033999936,-0.47820838782063574,51.737374636985464,14.383233516607925,0.0,1.0,0.0,0.0,1.0,Taxi
1.9000000000000001,-0.013075327491385484,-4.245168009116931,22.851934664582895,1.1672392602018573,-1.1378452749302954,51.65433304884721,14.34530229821302,0.0,1.0,0.0,0.0,1.0,Taxi
2.0,0.06594814984752238,-80.17993679096855,24.06090791763302,0.8732724768269662,-0.5496446096959163,51.834328336838496,13.41546689088435,0.0,1.0,0.0,0.0,1.0,Taxi
2.1,-0.1752086116405842,29.680707855893285,24.503069759011222,1.374917952299021,0.7208152022513243,51.8127596956748,13.736941250877322,0.0,1.0,0.0,0.0,1.0,Taxi
2.2,0.135328211788081,-23.356451369118265,24.090761857640157,1.288006414826783,0.20387050515670568,51.80082241435798,13.827713731628485,0.0,1.0,0.0,0.0,1.0,Taxi
2.3000000000000003,-0.050834106998068895,-18.084979891898,23.217614445064267,1.64901476765545,-0.35921142982209114,51.73539875323928,14.702113239999651,0.0,1.0,0.0,0.0,1.0,Taxi
2.4000000000000004,-0.26563351110007416,-28.112826291493633,24.229836665950344,1.0329573363380797,0.5996607704267491,51.80944063207676,15.011522695457245,0.0,1.0,0.0,0.0,1.0,Taxi
2.5,-0.0052359196693871355,7.6796165450866,24.214540911899018,0.9187757511052889,-0.04480733032469712,51.875769801900844,14.558766133663454,0.0,1.0,0.0,0.0,1.0,Taxi
2.6,-0.012436024272635845,52.13045811456385,24.359000111565987,1.2252523762905152,-0.19702042059343747,51.886907780403305,12.936588158929286,0.0,1.0,0.0,0.0,1.0,Taxi
2.7,-0.0049812205272548316,-6.562402989629213,24.161310699439397,1.1586374682393885,0.47558159197031125,51.756663971452326,13.62349801949646,0.0,1.0,0.0,0.0,1.0,Taxi
2.8000000000000003,-0.03804793461753314,19.688046397998434,23.578076364710146,1.567905417944379,-0.4579602465518494,51.61266101939839,13.440592934119255,0.0,1.0,0.0,0.0,1.0,Taxi
2.9000000000000004,0.0860042077173564,-3.814983389946832,24.02151519345742,1.2731335350590987,-0.374603403101592,51.74254526821551,13.949878728029919,0.0,1.0,0.0,0.0,1.0,Taxi
3.0,-0.024056137476988915,1.246804199709974,24.34142920267278,1.3868602762329871,-0.1749199792910721,51.761454090191194,13.44118994419933,0.0,1.0,0.0,0.0,1.0,Taxi
3.1,-0.031813913618983204,41.6935685996385,23.505743311215546,1.3999599735870905,-0.037074077722463517,51.69670213103598,14.441982549651156,0.0,1.0,0.0,0.0,1.0,Taxi
3.2,0.29447205071554894,-3.4307059791589247,23.4400975929986,1.1077648557938164,-0.04262763440897277,51.657828324949605,14.146018921351624,0.0,1.0,0.0,0.0,1.0,Taxi
3.3000000000000003,-0.04120966737278347,-6.068498143047904,23.915208509966877,1.3492933046301132,-0.06540870089038542,51.66405752211881,13.963926358575259,0.0,1.0,0.0,0.0,1.0,Taxi
3.4000000000000004,-0.062156404334222676,-53.948026623907026,23.80842367324107,1.43414312484713,0.3697741110329133,51.724420262368426,12.835867370019432,0.0,1.0,0.0,0.0,1.0,Taxi
3.5,0.024731917596013852,21.491041961540972,22.77684890796416,1.7487778703805954,-0.2924282811803065,51.50119271399103,14.359637210027476,0.0,1.0,0.0,0.0,1.0,Taxi
3.6,0.06624554243492142,12.405417014974935,24.353982333376447,1.8766174414484076,0.5016723487954886,51.916931872735745,13.831509379251504,0.0,1.0,0.0,0.0,1.0,Taxi
3.7,-0.00012931925934799043,-18.251009085119957,24.158453489381994,1.3302628183546763,0.16260060333653847,51.93541940167171,13.991685027163879,0.0,1.0,0.0,0.0,1.0,Taxi
3.8000000000000003,-0.0665231278295859,7.4881046597623895,22.880667316504667,1.1071516586746006,0.7611288110502342,51.58674319072264,13.654685199512258,0.0,1.0,0.0,0.0,1.0,Taxi
3.9000000000000004,0.10368606573373339,29.006139451664822,23.77123876649575,1.4845338415071743,0.33654020510087357,51.61509624354255,13.54059798674514,0.0,1.0,0.0,0.0,1.0,Taxi
4.0,0.14490137799897615,20.55417448830092,23.252122931340967,1.164998081699129,0.32761554571422186,51.74941815936518,13.162103761298875,0.0,1.0,0.0,0.0,1.0,Taxi
4.1000000000000005,0.036247744611918715,6.138864738829841,24.485653560784,1.526006753108173,0.8031191228599731,51.79876105095423,13.818323793812024,0.0,1.0,0.0,0.0,1.0,Taxi
4.2,0.1343803894278826,-23.453716548212586,23.316370416194747,1.1126409005641942,-0.7883578513542446,51.69698067010307,13.994438432338033,0.0,1.0,0.0,0.0,1.0,Taxi
4.3,0.02763279525791324,-15.544692186448522,23.622062288787536,1.67318988924018,-0.2738915962082712,51.886710992522694,12.93078122067577,0.0,1.0,0.0,0.0,1.0,Taxi
4.4,-0.04147571632032387,-19.696744643670186,23.65768118127806,0.9383341160681895,-0.06935001644985218,51.9235390970112,13.61289959208807,0.0,1.0,0.0,0.0,1.0,Taxi
4.5,0.03589666620953171,3.239749727649866,22.871124390559746,1.1674351860947185,0.18672598731011325,51.79215129375632,14.025654445248446,0.0,1.0,0.0,0.0,1.0,Taxi
4.6000000000000005,0.0438315438961626,29.48815803351418,24.056745056679205,1.4991520199156136,-0.7206981007757508,51.521064293082816,14.199524486815113,0.0,1.0,0.0,0.0,1.0,Taxi
4.7,0.10596507384724706,-5.638942643357086,22.811286406750146,1.5760371238564963,0.7393800860582134,51.86579625810481,13.691817359926596,0.0,1.0,0.0,0.0,1.0,Taxi
4.800000000000001,0.007701952992746331,16.7787826826529,24.646747467676374,1.1935888217667479,-0.8762224029502185,51.68317956672354,13.510947051148538,0.0,1.0,0.0,0.0,1.0,Taxi
4.9,0.12772545730942717,-31.303037915093565,24.74584499107821,1.6731911371545913,-0.16725989167829472,51.80421272402697,14.207281450082295,0.0,1.0,0.0,0.0,1.0,Taxi
5.0,-0.05055011572822071,1.6305284870925973,23.351297696926625,1.3583367967865199,0.30522829649845246,51.82181309081494,14.508312659810484,0.0,1.0,0.0,0.0,1.0,Taxi
5.1000000000000005,0.015854595428209352,-24.150655449844155,24.856052306800965,1.4975510135150878,-0.12554921874932545,51.8266653095194,13.953646582620994,0.0,1.0,0.0,0.0,1.0,Taxi
5.2,0.006972180060206397,-16.97147359068657,24.19983832170757,1.1117183480394712,0.751262374860893,51.629112596968696,13.80954211988898,0.0,1.0,0.0,0.0,1.0,Taxi
5.300000000000001,-0.13540748368165356,2.4003855631958544,23.838412809906043,1.1952588749029485,-0.45573343201786337,51.593691396114764,13.517926022798376,0.0,1.0,0.0,0.0,1.0,Taxi
5.4,0.02785652324418865,-6.019896089546109,23.458111269301682,1.6376673156063504,-0.2840881613420056,51.7397913217074,13.93116161508528,0.0,1.0,0.0,0.0,1.0,Taxi
5.5,-0.02312730038752413,58.2342784549862,23.49443283923748,1.2783285195763312,0.1230214684902627,51.8143636154598,13.55466547322409,0.0,1.0,0.0,0.0,1.0,Taxi
5.6000000000000005,0.1557639085932775,-9.269130654731342,24.398822732321495,1.131779113815298,1.097787243797323,51.515933786812866,13.33661564066273,0.0,1.0,0.0,0.0,1.0,Taxi
5.7,-0.018489130029468084,42.26996953694108,24.118803305606317,1.4015671964753553,0.33522875747369607,51.78967771061542,13.969891560837203,0.0,1.0,0.0,0.0,1.0,Taxi
5.800000000000001,0.18822254729718127,-33.75079324433975,22.552117423976547,1.1375145091818062,0.621771152061098,51.648765852757606,13.175908591188598,0.0,1.0,0.0,0.0,1.0,Taxi
5.9,-0.012990057628421245,-1.3156340397644561,24.505562763355602,1.0869251483225804,-0.15047363720906712,51.689151473557956,14.222757727958557,0.0,1.0,0.0,0.0,1.0,Taxi
6.0,-0.025067300228290353,-37.218635566720344,23.085863841991177,1.5879152822616787,1.1878120144987157,51.889012612590705,13.97693451988767,0.0,1.0,0.0,0.0,1.0,Taxi
6.1000000000000005,0.002129369463579523,27.225491309201235,23.748804569906035,1.0290229025139555,0.23129783965896353,51.699768558471305,13.81007950025301,0.0,1.0,0.0,0.0,1.0,Taxi
6.2,0.12313739891758498,-20.320647989980785,24.032376916097192,1.2224227262904759,0.6157509178642434,51.69692229725183,13.471582619171173,0.0,1.0,0.0,0.0,1.0,Taxi
6.300000000000001,-0.1266705401781942,5.460270240961407,23.40391162285993,1.020316891960525,-0.1348319937711686,51.547525337042714,14.53990860902996,0.0,1.0,0.0,0.0,1.0,Taxi
6.4,0.029430720668386645,-29.928287393034157,23.608117065345795,1.359032580691383,0.7664117105519954,51.75703654723105,14.194776163858407,0.0,1.0,0.0,0.0,1.0,Taxi
6.5,-0.026504038047585755,30.64644031739655,22.994070474722513,1.4700671073479326,-0.392967711337417,51.893614759729076,13.381990097194587,0.0,1.0,0.0,0.0,1.0,Taxi
6.6000000000000005,0.02656166140878856,8.233689082892964,24.107811590293366,1.6280208846442223,-0.06782019758367014,51.79225542741841,12.864247037793996,0.0,1.0,0.0,0.0,1.0,Taxi
6.7,0.07059916608285148,10.489343085973049,22.524444252133634,1.2788245603974016,0.8104671642245648,51.830154652868714,13.872356049194165,0.0,1.0,0.0,0.0,1.0,Taxi
6.800000000000001,0.02594267738227951,-33.66392536191822,24.69811350172876,0.9990076136917053,-0.024710132767396035,51.871866924063056,14.191785310654893,0.0,1.0,0.0,0.0,1.0,Taxi
6.9,-0.1417579654008025,15.882719854517754,24.21869919625535,1.323157529548453,-0.4180566376448596,51.85739170447715,13.940195114738827,0.0,1.0,0.0,0.0,1.0,Taxi
7.0,0.15001276535544036,-50.46612748716501,23.471307302839936,1.2340631069067998,0.06189179289910633,51.72767924644165,13.837087651884842,0.0,1.0,0.0,0.0,1.0,Taxi
7.1000000000000005,-0.2263879600535455,16.54684753911334,24.47772059571328,1.171606803157845,-0.538240480762021,51.764000721834805,13.729236442483003,0.0,1.0,0.0,0.0,1.0,Taxi
7.2,-0.05902372770523578,-62.91044860375777,23.74767580806285,1.4533803484662287,-0.44568980062557845,51.731235062063604,14.345990362396877,0.0,1.0,0.0,0.0,1.0,Taxi
7.300000000000001,-0.16453947766334856,49.85256771130008,22.507028678873493,1.3848591440385323,-0.8467903865774663,51.737443081558695,13.737509226060524,0.0,1.0,0.0,0.0,1.0,Taxi
7.4,0.022874878502954887,23.680283947557573,24.277019871778137,1.0545912859756472,0.44876545075138735,51.7291686356254,13.71457051351704,0.0,1.0,0.0,0.0,1.0,Taxi
7.5,0.05937769203255208,51.436176757039355,23.425634790180915,0.9580607158207533,0.20703424429217593,51.78561911339182,12.712242431746855,0.0,1.0,0.0,0.0,1.0,Taxi
7.6000000000000005,0.09264140612184818,-9.402484087974315,24.12382721688784,1.1876644717652325,-0.5388615740683053,51.73181807522752,13.415968025573752,0.0,1.0,0.0,0.0,1.0,Taxi
7.7,-0.024137541936916668,-25.134831020473115,23.197487251133097,1.722562459576317,-0.336185745630181,51.99331094518084,14.674696960059475,0.0,1.0,0.0,0.0,1.0,Taxi
7.800000000000001,-0.06629646306981349,-19.817737763430937,23.544538321196725,1.103959781922468,-0.22231147338089285,51.898422991441805,13.903670748253376,0.0,1.0,0.0,0.0,1.0,Taxi
7.9,-0.006447282695306482,14.250689278477944,23.186806428618993,1.398076419473708,-0.03939947930576158,51.8572670293637,12.941390555567395,0.0,1.0,0.0,0.0,1.0,Taxi
8.0,0.047115904455473055,44.35669885071889,23.36181583493317,1.585969308100191,-0.5863390960000864,51.59005902175147,13.871961032930791,0.0,1.0,0.0,0.0,1.0,Taxi
8.1,0.155487031183781,-14.825909756372619,23.947427920267767,1.0765815514494412,0.5748677995090811,51.71735263609935,14.08604915454943,0.0,1.0,0.0,0.0,1.0,Taxi
8.200000000000001,-0.0805768314771696,-13.218271322111276,24.644507168702834,1.2382260673618952,-0.36450311562840637,51.627531279950915,13.47285954145824,0.0,1.0,0.0,0.0,1.0,Taxi
8.3,-0.01897545215508334,-25.996317100690906,23.28161761650724,1.0573387449147194,0.18844550470677277,51.75650287077758,14.946596574347197,0.0,1.0,0.0,0.0,1.0,Taxi
8.4,0.02550544568032642,35.12527660352877,23.24430178958987,1.1110026651544789,-0.1445746742666317,51.80457043156156,13.566031284033992,0.0,1.0,0.0,0.0,1.0,Taxi
8.5,0.09504955154047423,2.4621633921512682,23.88180511575864,1.3522855355600891,0.5888229413932533,51.90974940378459,13.407901998211338,0.0,1.0,0.0,0.0,1.0,Taxi
8.6,-0.006664635194327007,12.379360888665053,23.308284441229837,1.2848143088793869,0.2749812758387937,51.71282798454598,14.376223058740404,0.0,1.0,0.0,0.0,1.0,Taxi
8.700000000000001,0.08740225012365166,-2.5832921588578674,23.00061699571078,1.3694540623857685,-0.9645473734183454,51.74336550380758,14.150482205302216,0.0,1.0,0.0,0.0,1.0,Taxi
8.8,0.08213309074618487,16.524019523857238,22.41382971992472,1.018440247766923,0.23929584347297392,51.8052195574719,14.206504755350808,0.0,1.0,0.0,0.0,1.0,Taxi
8.9,0.07595546242495915,-15.840805798038595,23.504630442910134,1.3198658274345896,-0.37840225458954196,51.639127615521716,14.628258562503985,0.0,1.0,0.0,0.0,1.0,Taxi
9.0,0.008198221133458672,-4.786088670010069,23.858965053260928,1.2054865797095307,-0.12067122120682444,51.77840642855597,13.784044636756109,0.0,1.0,0.0,0.0,1.0,Taxi
9.1,0.05820264739613451,-21.590527030562185,22.8894910052092,1.6968540003677193,-0.04366617312271921,51.70949183508685,14.344557448489123,0.0,1.0,0.0,0.0,1.0,Taxi
9.200000000000001,-0.03199717272785176,2.732667533001932,23.46528064909029,1.5174341491291854,-0.6736207528162212,51.69912285600037,13.764861311393275,0.0,1.0,0.0,0.0,1.0,Taxi
9.3,0.021861558798468312,-54.57340751360868,23.629667310232993,1.549602046957671,0.43465713160278313,51.74822111830002,13.348223476349492,0.0,1.0,0.0,0.0,1.0,Taxi
9.4,-0.2146643901719089,6.49390689517971,23.018048626645086,1.4334146688020486,-0.3675059223594332,51.679146620588426,14.410814667137823,0.0,1.0,0.0,0.0,1.0,Taxi
9.5,0.0004723617480467538,11.968113717452253,22.83661259221906,1.5036398634053836,0.524487188300696,51.63216688016462,13.652745196688976,0.0,1.0,0.0,0.0,1.0,Taxi
9.600000000000001,0.08170212738572954,52.36156710537633,23.958566633625423,1.4087353432917376,0.8632376254638282,51.7826522742871,14.251060385665426,0.0,1.0,0.0,0.0,1.0,Taxi
9.700000000000001,0.047143445354972724,26.523265539737057,24.313867941114935,0.9951199693076161,-0.658067757033329,51.82950842511747,14.390142660216393,0.0,1.0,0.0,0.0,1.0,Taxi
9.8,0.13308868944673202,-22.24345872380465,24.434158847182257,1.2240842939303682,0.8650690846730984,51.713581742099905,14.370616461142337,0.0,1.0,0.0,0.0,1.0,Taxi
9.9,-0.02951516623329369,-4.096366619223659,23.770522085216893,1.2417836012295085,-0.40823899536834196,51.64937256701694,14.417236592566777,0.0,1.0,0.0,0.0,1.0,Taxi
10.0,0.02666161225885443,-23.83276533904943,22.52884710458757,1.0304631454188573,0.44293446365845085,51.62213395768737,13.602684656958978,0.0,1.0,0.0,0.0,1.0,Taxi
10.100000000000001,0.01392486275148487,-31.153908509030828,24.152217186055196,1.3023555446789978,-0.6446092423973915,51.647580229068865,14.90896441244727,0.0,1.0,0.0,0.0,1.0,Taxi
10.200000000000001,-0.18528470877844785,3.8545500736656635,23.108510691357065,1.2754396754019421,-0.32793813585106274,51.605923252313346,12.911180794253017,0.0,1.0,0.0,0.0,1.0,Taxi
10.3,0.045934362627182736,-28.494630347668032,23.194607597558726,1.5835950639960428,0.2558528092988225,51.652288228093425,13.211110352483551,0.0,1.0,0.0,0.0,1.0,Taxi
10.4,-0.1285482889868553,66.34206063454468,24.241577516332843,1.112454430673255,-0.5109320926012041,51.75583628329059,13.572454503946346,0.0,1.0,0.0,0.0,1.0,Taxi
10.5,0.14642559439427555,-30.262714823440376,23.409563014803634,1.231885340670474,0.4370114500041571,51.831960742160106,13.562349633686916,0.0,1.0,0.0,0.0,1.0,Taxi
10.600000000000001,-0.10537921149001915,18.287257112455773,24.52376458921517,1.1555877759353734,-0.28118961223302974,51.741440280164795,13.72853314480171,0.0,1.0,0.0,0.0,1.0,Taxi
10.700000000000001,-0.037112003424576434,-42.60427126608893,23.823894669814507,1.4104626652145942,0.5370924637292918,51.74953393996492,14.549774738852847,0.0,1.0,0.0,0.0,1.0,Taxi
10.8,-0.0665957619361691,40.85469086495947,23.982462258929687,1.3612057085242295,-0.3101159946994007,51.56011178964184,13.592542877312969,0.0,1.0,0.0,0.0,1.0,Taxi
10.9,0.09889424283477824,-4.600714475244042,23.86553288062766,1.3115055573959886,0.14368851766303511,51.64588867407724,13.867021335768928,0.0,1.0,0.0,0.0,1.0,Taxi
11.0,-0.060115575800796656,25.11309362917719,24.648209010694835,1.257827900088208,-0.5638903119045902,51.62536882532805,14.71689585341696,0.0,1.0,0.0,0.0,1.0,Taxi
11.100000000000001,0.05896970620971686,-19.89638323790393,23.67290467943427,1.5154863045911624,-0.7207939696231269,51.72603207689485,13.403150984922746,0.0,1.0,0.0,0.0,1.0,Taxi
11.200000000000001,-0.000587673354741449,12.66467102428595,24.308859238548518,1.3782939343033562,0.4620156681857032,51.71236799408098,13.538658277886308,0.0,1.0,0.0,0.0,1.0,Taxi
11.3,0.0032077793206330587,-33.013122294294455,23.755929921024073,1.2979067046554666,-0.8310564397227115,51.81126866383971,14.096878578150427,0.0,1.0,0.0,0.0,1.0,Taxi
11.4,-0.10609590526175544,3.6729947536765195,23.04771841100165,1.3639662421848397,0.916978510181417,51.832420769075725,14.010402155780898,0.0,1.0,0.0,0.0,1.0,Taxi
11.5,0.01777730041364114,-1.895659525019494,24.50918526914056,1.165037716965626,0.9384398896849251,51.829714597025486,13.732547755575347,0.0,1.0,0.0,0.0,1.0,Taxi
11.600000000000001,-0.0062705183044644165,-23.51370136701887,22.972777452297002,1.7718386243078443,-0.6284240895340508,51.78401351203718,14.66415494510992,0.0,1.0,0.0,0.0,1.0,Taxi
11.700000000000001,-0.2236644120968498,-10.549925997594528,23.790204369134187,1.3390077259447049,-0.13478274017687925,51.824160385009975,14.212025482161755,0.0,1.0,0.0,0.0,1.0,Taxi
11.8,-0.03497232957433153,-26.145092501467712,24.01223999666525,1.1990043464873543,0.4787583434784545,51.59438809201043,14.826232176128118,0.0,1.0,0.0,0.0,1.0,Taxi
11.9,-0.13699598081180295,14.132825606203697,23.903204551225006,1.2194528539871503,-0.30145741489867484,51.74070301549085,15.175666730070215,0.0,1.0,0.0,0.0,1.0,Taxi
12.0,-0.15300028406583133,8.850471712456661,22.299739299929453,1.429701594776811,-0.6172508013318433,51.68176662014645,14.11051646306622,0.0,1.0,0.0,0.0,1.0,Taxi
12.100000000000001,0.009280028987951775,29.71454040507271,23.078934057544068,0.7413238569185766,0.38922217746552223,51.81739291627946,14.615364340789554,0.0,1.0,0.0,0.0,1.0,Taxi
12.200000000000001,0.011576721213560584,54.65501104857484,23.430355567242085,1.563150503108308,0.4468177043312006,51.73186418167626,13.034564003427953,0.0,1.0,0.0,0.0,1.0,Taxi
12.3,0.12027477117704288,1.1582319239109797,24.58334830161377,1.3363604752423528,0.1086344813210033,51.847483223447,13.898581620101309,0.0,1.0,0.0,0.0,1.0,Taxi
12.4,0.015071188607506626,-34.99568343732248,23.48673972016817,1.1457275463663703,0.20821909249734957,51.658367493421224,13.957958402357425,0.0,1.0,0.0,0.0,1.0,Taxi
12.5,-0.16340169597305185,-13.477231342419628,24.817501584371467,1.3815772994877777,-0.20230603995490115,51.728506847904214,13.80920667181735,0.0,1.0,0.0,0.0,1.0,Taxi
12.600000000000001,0.05288861446494467,-9.625138082306721,23.310746859948992,1.4316761503247375,-0.025528986997174007,51.77520893590702,14.011375767701642,0.0,1.0,0.0,0.0,1.0,Taxi
12.700000000000001,-0.03305450180402706,46.094805563463844,23.999647085108336,1.529860263916997,-0.28635084810289113,51.79396973587575,13.898688303305963,0.0,1.0,0.0,0.0,1.0,Taxi
12.8,0.0670723318442673,-15.71345012793843,23.337224387991366,1.0763552073094078,-0.695646109176206,51.65657677106083,13.211247842127369,0.0,1.0,0.0,0.0,1.0,Taxi
12.9,-0.025678636174747534,1.4092914860841763,24.083456938472843,0.9187981761123564,-0.35555139885747306,51.88973094131296,13.887632666113904,0.0,1.0,0.0,0.0,1.0,Taxi
13.0,-0.026008044373606227,5.019664770447936,23.89727677836866,1.0230514557332844,-0.0671891838251551,51.82539930992618,13.194823705907497,0.0,1.0,0.0,0.0,1.0,Taxi
13.100000000000001,0.09217065569650693,-8.945646937028465,24.288021751556343,1.1870937415269238,0.5211698720582464,51.560363384345294,12.87988201357321,0.0,1.0,0.0,0.0,1.0,Taxi
13.200000000000001,-0.0704068708598899,13.525852802967655,24.10537700700462,1.187151283998198,0.7373111743570215,51.862501756744905,13.666945380028654,0.0,1.0,0.0,0.0,1.0,Taxi
13.3,0.04162121964123201,-50.72045855667011,23.418389633728776,1.3882536582492848,0.6711435137907237,51.72876572841551,14.353477148611905,0.0,1.0,0.0,0.0,1.0,Taxi
13.4,-0.16143163708684372,5.023433556239216,23.38205139962387,1.2054662648793617,0.7226569562232864,51.781928021589124,13.179193333361301,0.0,1.0,0.0,0.0,1.0,Taxi
13.5,-0.045289703078693906,6.198907526984958,24.667401949718347,1.2958326923910026,-0.5255549260717147,51.84315841496061,13.538388316856006,0.0,1.0,0.0,0.0,1.0,Taxi
13.600000000000001,0.07261575727615673,23.363376411530954,22.808791358751503,1.4227163099140034,0.948504182047656,51.66519529862802,13.562037027995983,0.0,1.0,0.0,0.0,1.0,Taxi
13.700000000000001,-0.04461475502918899,-10.508462499208157,23.923533291847804,1.4470660747775506,-0.18022638064021748,51.739224477934386,13.475295638749751,0.0,1.0,0.0,0.0,1.0,Taxi
13.8,-0.09783201557473474,-18.259989005033578,23.342426870219203,0.8155919962593801,0.40471614906900977,51.77588022096489,14.05990638581926,0.0,1.0,0.0,0.0,1.0,Taxi
13.9,-0.01868418774901122,35.948306571778666,23.52217453154956,1.4173442085719126,-0.2588894667419617,51.65400575200863,14.432012375201404,0.0,1.0,0.0,0.0,1.0,Taxi
14.0,0.13512677782970434,-5.777536538234159,24.215648938373825,1.1821812982169888,-0.03306941342182014,51.778348843354536,13.712993176072997,0.0,1.0,0.0,0.0,1.0,Taxi
14.100000000000001,-0.12671969826590557,-45.74886477245949,24.66953571183314,0.9171650563594282,-0.14179736770240514,51.60546015809797,14.335089522637766,0.0,1.0,0.0,0.0,1.0,Taxi
14.200000000000001,-0.24742851161130874,-36.76809563334245,23.61990799778874,0.9889899756330591,0.0749872041631599,51.738576497497434,14.557356240509606,0.0,1.0,0.0,0.0,1.0,Taxi
14.3,-0.04871370033700797,23.981274599511405,23.021042754092356,1.2664086652545041,0.41470919913294024,51.77150885586411,14.148933846142706,0.0,1.0,0.0,0.0,1.0,Taxi
14.4,-0.0068133252683486,43.10531264961673,24.21306057950648,1.4907131337358162,-0.5981155107366057,51.60627098245607,13.131141808896203,0.0,1.0,0.0,0.0,1.0,Taxi
14.5,-0.031901948363225185,-4.0174729320741465,23.185307770702444,1.361916560863136,-0.44317868208364164,51.802221210477796,13.820565075592125,0.0,1.0,0.0,0.0,1.0,Taxi
14.600000000000001,-0.06880106499737874,19.985548025112152,24.77961236346592,1.536991060172907,-0.47120678774940017,51.63982983841754,13.778782393235666,0.0,1.0,0.0,0.0,1.0,Taxi
14.700000000000001,0.09311441485721214,20.542029636739127,23.635019039170807,1.5572004123539638,0.6272272431759427,51.775082068045606,14.500158970316637,0.0,1.0,0.0,0.0,1.0,Taxi
14.8,0.07080819982047042,24.144463706147757,22.425412816805434,1.2122539395902359,-0.47845708692383654,51.62549593324525,13.233565946519585,0.0,1.0,0.0,0.0,1.0,Taxi
14.9,0.05192125353336,-21.465373139040153,24.64118195302064,1.3688079835482365,-0.05106481811260926,51.868841514460996,13.409832667096602,0.0,1.0,0.0,0.0,1.0,Taxi
15.0,-0.01421245083798867,-28.232714962002092,23.353660373870536,1.0696917273133055,0.1578096815111732,51.609171332929236,14.325879400398975,0.0,1.0,0.0,0.0,1.0,Taxi
15.100000000000001,-0.07035537498954006,-19.59751940496219,23.651168401628553,1.3375814804303836,1.0253192711114416,51.66030240918997,13.776757939866824,0.0,1.0,0.0,0.0,1.0,Taxi
15.200000000000001,-0.046066343491450966,-10.038277158019767,24.512596857890095,1.3513538076815101,-1.111301671917551,51.76448289455516,14.47061698649041,0.0,1.0,0.0,0.0,1.0,Taxi
15.3,-0.06440383662808755,0.5170660842878333,23.079816752999335,1.2709403384955675,0.059247095859984764,51.75430018756623,13.987876923306334,0.0,1.0,0.0,0.0,1.0,Taxi
15.4,-0.06777004456810094,18.79996752390367,23.528055587711574,1.449980899671225,-0.43548768230065765,51.58669234651717,14.343839295077075,0.0,1.0,0.0,0.0,1.0,Taxi
15.5,0.04793349412806734,8.835243689190357,23.18156909741608,1.275316227652702,0.17492329639745982,51.89646532814788,14.339924575276715,0.0,1.0,0.0,0.0,1.0,Taxi
15.600000000000001,-0.020227618182135823,18.292598218278723,24.191841897695603,1.2820501613679185,0.16832244041101763,51.805737910454866,13.514611814346637,0.0,1.0,0.0,0.0,1.0,Taxi
15.700000000000001,0.023692946523292603,-20.39074268594827,24.12004412428953,1.3914604404076802,-0.2076231536510433,51.7927172180506,13.43511387883508,0.0,1.0,0.0,0.0,1.0,Taxi
15.8,-0.05402021930167405,17.993787788497126,25.75079070482283,1.22799851536129,-0.8490610022030695,51.58251208801704,13.707477925312055,0.0,1.0,0.0,0.0,1.0,Taxi
15.9,0.06974132076034978,13.287735231900436,23.508103584072956,1.2433795611740162,-0.570112464842611,51.897566429625954,13.817488345624442,0.0,1.0,0.0,0.0,1.0,Taxi
16.0,0.09013162268279475,-9.065553128647196,24.18294453760469,1.532404803067474,-0.5538788274977213,51.69188341790107,13.207546145150854,0.0,1.0,0.0,0.0,1.0,Taxi
16.1,-0.0993479849449101,5.304193572209002,23.35313548064601,1.4051108313086809,-0.3175776821737256,51.857662767401735,14.317542629201581,0.0,1.0,0.0,0.0,1.0,Taxi
16.2,0.09626228862139474,-37.525447927449164,23.310333382934125,1.3904097268944338,0.7106706218668962,51.796350664415456,13.924136407346827,0.0,1.0,0.0,0.0,1.0,Taxi
16.3,-0.09749561695445114,-6.9741470452877286,24.672293145329263,0.8530715331121548,0.6086104942619528,51.69997032667675,13.700394237274667,0.0,1.0,0.0,0.0,1.0,Taxi
16.400000000000002,-0.13421872017134878,-13.30232264893695,23.86455325749759,1.3734935332722804,0.5784972925738167,51.63787136737602,12.96511154757004,0.0,1.0,0.0,0.0,1.0,Taxi
16.5,0.029750675376709935,20.318483151009882,23.282836282365203,0.8797597182368657,0.30810950638466067,51.61225968622318,14.49790070504284,0.0,1.0,0.0,0.0,1.0,Taxi
16.6,0.004096798800598207,94.48143781079223,23.864395720348618,1.2902632282140833,-0.28462777098223696,51.78179453383461,13.329739367981809,0.0,1.0,0.0,0.0,1.0,Taxi
16.7,0.3381884688826123,-1.7436865326200934,23.832616560798805,1.083498174776095,-0.4181222997183581,51.75853896875981,13.579296737753866,0.0,1.0,0.0,0.0,1.0,Taxi
16.8,0.021032242713609452,-19.635501882460712,22.57329406723584,1.2017127259781655,-0.11973151290067098,51.84687824158817,13.974022867282589,0.0,1.0,0.0,0.0,1.0,Taxi
16.900000000000002,-0.09408071061170535,-81.99004061806801,23.99996536075562,1.1732061414077664,0.3784862731084405,51.794618624602094,13.962335188891807,0.0,1.0,0.0,0.0,1.0,Taxi
17.0,-0.07176173420772773,-9.852522967024088,23.446371626827297,1.3041175071135584,-0.40339321819264534,51.84511304227641,13.373507055187133,0.0,1.0,0.0,0.0,1.0,Taxi
17.1,-0.028230372121511044,-3.501091139977627,23.509526641609778,1.2364668150521272,0.2175536738234016,51.735367490854514,13.8387174705857,0.0,1.0,0.0,0.0,1.0,Taxi
17.2,-0.11158616631159356,29.80622554546309,24.02647451090427,1.2324884099531979,-0.19150785933694575,51.74386751012844,13.560766608355646,0.0,1.0,0.0,0.0,1.0,Taxi
17.3,0.07726939351958764,46.19720647082832,24.402465483860865,1.2587501483206578,-0.13779159327124726,51.823997815214966,14.266190894781067,0.0,1.0,0.0,0.0,1.0,Taxi
17.400000000000002,0.2027556602326305,24.1018652844383,23.689101127411654,1.2076043822015372,0.9482586135363865,51.980089208985305,13.36656965364445,0.0,1.0,0.0,0.0,1.0,Taxi
17.5,0.008923160110597855,-26.14140760572924,23.254658731768156,1.3126306305907278,-0.632007170900565,51.59928540302462,13.64215059035402,0.0,1.0,0.0,0.0,1.0,Taxi
17.6,-0.053437644509058614,-5.640834203191456,23.59773621074768,1.4181372314478076,0.6147476225933548,51.81067273778888,14.10495404945522,0.0,1.0,0.0,0.0,1.0,Taxi
17.7,0.17455148921667316,-11.125419243896559,23.31104545433729,1.525668079491552,-0.18344345374921625,51.77025666780878,14.314755649987164,0.0,1.0,0.0,0.0,1.0,Taxi
17.8,-0.046703936108885014,-7.715775432561304,22.407188006759856,1.4464948973911822,0.24895222430259326,51.94352949036488,13.460564295976983,0.0,1.0,0.0,0.0,1.0,Taxi
17.900000000000002,-0.0920165216718652,-60.073385013723346,23.864307998881852,1.3597590547514355,0.7401878392378094,51.721082984294185,14.35706292847578,0.0,1.0,0.0,0.0,1.0,Taxi
18.0,-0.12581543585194363,-4.028544060810366,24.04693194174605,0.8687408109429959,-0.34708930161283036,51.74364499897007,13.401440114220355,0.0,1.0,0.0,0.0,1.0,Taxi
18.1,-0.06684665641293691,10.605946477987798,24.052829972846805,1.3232238243010124,-1.0955220218136168,51.79389944024746,13.861750399945436,0.0,1.0,0.0,0.0,1.0,Taxi
18.2,-0.03898678928192628,-29.01227717974754,23.87029809216685,1.1310174989190231,0.7958817769794037,51.7945414997547,14.846351619806454,0.0,1.0,0.0,0.0,1.0,Taxi
18.3,-0.27087682175068134,0.7577509034980258,24.394711606315514,1.019160694614275,0.26639022649452876,51.794551425095335,13.862958556845467,0.0,1.0,0.0,0.0,1.0,Taxi
18.400000000000002,-0.06305790189544681,-10.50056463377458,23.61530752623744,1.216978607798152,-0.2891281471806134,51.69150522030759,14.15411567536417,0.0,1.0,0.0,0.0,1.0,Taxi
18.5,-0.09148961245079922,56.40955866439614,24.959579609644898,1.0683790534316577,0.430669148725735,51.774701865031375,13.778864293651722,0.0,1.0,0.0,0.0,1.0,Taxi
18.6,0.011170971571299246,12.562440010241573,24.467492594915953,0.8078561966550244,-0.0927549601814496,51.77593638266575,14.175397031945629,0.0,1.0,0.0,0.0,1.0,Taxi
18.7,-0.0002457018442390287,34.20931164579127,24.12266648353936,1.4105782319884972,-0.615195126182239,51.80804337230546,13.727311879144006,0.0,1.0,0.0,0.0,1.0,Taxi
18.8,0.07955694577815703,-42.818416642576324,24.165997426585736,1.189219047448891,0.34365854651556266,51.77162230378502,14.16816240434505,0.0,1.0,0.0,0.0,1.0,Taxi
18.900000000000002,-0.20292111164158247,0.8612162613328991,23.85795517655033,1.36597043455292,0.9913177690128415,52.025865907349385,13.820020153372313,0.0,1.0,0.0,0.0,1.0,Taxi
19.0,0.004060379462425381,-28.430099286727245,23.71539803476104,1.519253744083889,-0.14832319557967685,51.80836924237735,13.56266689737997,0.0,1.0,0.0,0.0,1.0,Taxi
19.1,-0.06259355065547928,24.33444569106108,23.216151185405796,1.3352481544333508,-0.7254953469924416,51.66398545656625,13.701593851027523,0.0,1.0,0.0,0.0,1.0,Taxi
19.200000000000003,-0.08124888318627711,-10.832065383454387,23.193997396540958,1.0375308854617549,-0.9288858032410683,51.788794698624145,14.222567764134565,0.0,1.0,0.0,0.0,1.0,Taxi
19.3,-0.05009994745484663,4.32252187822889,24.722061589055844,1.5856201487521617,0.36917566621627856,51.758602582089395,13.932047563455468,0.0,1.0,0.0,0.0,1.0,Taxi
19.400000000000002,-0.0409809412643349,28.971045180535302,22.134524553624818,0.8636988518661249,0.0346217425527797,51.780351595327545,14.507924113566178,0.0,1.0,0.0,0.0,1.0,Taxi
19.5,0.06360634271639934,-32.47741877769016,24.1187587460768,1.3170832777550452,-0.06017659360759887,51.7356625898143,13.487443827170035,0.0,1.0,0.0,0.0,1.0,Taxi
19.6,-0.21248704134329754,25.518080682328307,23.73197462905412,1.2729374438198113,-0.4038386100422382,51.700813714884305,14.645143901277041,0.0,1.0,0.0,0.0,1.0,Taxi
19.700000000000003,0.08660946214730653,-3.602612024882023,23.146305325236405,1.1378369364378884,-0.7305865232893546,51.79934890111281,13.884592121211229,0.0,1.0,0.0,0.0,1.0,Taxi
19.8,0.045593282591989116,20.126473105712382,23.532168612522334,1.205167848126218,-0.10279728916444315,51.76363160144547,14.327793022703402,0.0,1.0,0.0,0.0,1.0,Taxi
19.900000000000002,-0.1118546758147357,-34.68789760216558,23.852280459709323,1.3663092296922472,0.05356586391707795,51.873460818314186,13.670460959762279,0.0,1.0,0.0,0.0,1.0,Taxi
20.0,-0.08683002586352143,-6.988664603050471,24.162462440257507,1.2196371908435977,-0.6864688689350483,51.78899296246715,14.514104766059225,0.0,1.0,0.0,0.0,1.0,Taxi
20.1,0.010649959576736706,22.346508052677805,24.118323456375933,1.3955906739781327,1.1013101676264914,51.68330772474525,14.886471086827667,0.0,1.0,0.0,0.0,1.0,Taxi
20.200000000000003,-0.00012213555134671527,26.412807210792565,23.721601328788072,1.2010591104452455,1.0343670102306224,51.79720260408078,14.138685326117853,0.0,1.0,0.0,0.0,1.0,Taxi
20.3,0.045234010190441355,-25.45892379515443,23.298724553720778,1.4603138790181245,0.17666366125777494,51.68205839458062,14.053281946614815,0.0,1.0,0.0,0.0,1.0,Taxi
20.400000000000002,-0.11664465939903551,-21.9063364634209,24.50211335550789,1.4472519449047627,0.3294830419445934,51.756668600053956,13.581896441343105,0.0,1.0,0.0,0.0,1.0,Taxi
20.5,-0.10965381786845128,-23.81785250637454,23.813937204013822,1.1616543476502057,-0.010272146613287665,51.814630746088255,13.875778706220858,0.0,1.0,0.0,0.0,1.0,Taxi
20.6,-0.07385525234143141,-16.589881079099268,22.94451421815928,1.4801706465029243,0.510190906360244,51.72644733857783,14.173487589734599,0.0,1.0,0.0,0.0,1.0,Taxi
20.700000000000003,-0.19959406479453187,1.719259802970716,22.933088754802696,1.23718475933311,-0.4160556092694639,51.63934200017371,13.17133651765069,0.0,1.0,0.0,0.0,1.0,Taxi
20.8,-0.10105751885359773,10.724345097368518,23.0213542838579,1.3171900143415494,-0.046461327321333776,51.76341966256791,13.550699902573188,0.0,1.0,0.0,0.0,1.0,Taxi
20.900000000000002,-0.02023352685458886,10.538075569083793,23.069067037942077,1.0319856155515335,0.4088313360895924,51.919456235401185,14.414954169305732,0.0,1.0,0.0,0.0,1.0,Taxi
21.0,-0.14690368694911296,30.95296353670497,23.34954162559085,1.3075764223710364,-0.06545369835070786,51.65240402213021,14.793740700658544,0.0,1.0,0.0,0.0,1.0,Taxi
21.1,0.053707298829927086,8.182459784754785,23.84971408008423,1.5126346647213609,0.7724403757220794,51.60544267272667,14.160540183175938,0.0,1.0,0.0,0.0,1.0,Taxi
21.200000000000003,0.020678772069185038,23.669591940243166,24.05794413846755,1.080827432017514,0.42365941152196473,51.60478672985073,13.091582044820969,0.0,1.0,0.0,0.0,1.0,Taxi
21.3,-0.028555727247897178,6.884357416159209,23.375393738452388,1.2105417100933564,-0.18958654898481733,51.77714889336198,13.510559874852497,0.0,1.0,0.0,0.0,1.0,Taxi
21.400000000000002,0.0881290859107231,40.206037181743184,23.507534413421237,1.0558723941775137,-0.2946788358314702,51.69614586614216,14.624241390355845,0.0,1.0,0.0,0.0,1.0,Taxi
21.5,0.22170895797790094,-12.754337990106924,23.295685109130247,1.0504053369395763,-0.9252481975018614,51.8184917450115,14.082726686842827,0.0,1.0,0.0,0.0,1.0,Taxi
21.6,-0.0923274171984318,8.366742613539634,23.049141317009553,1.304541610527813,0.18223618298924488,51.65432254682827,13.576050148602596,0.0,1.0,0.0,0.0,1.0,Taxi
21.700000000000003,0.12996279897842125,-63.894490012768244,23.29262946266491,1.4435032562181211,0.22840558883779472,51.797587449446326,13.522346947673183,0.0,1.0,0.0,0.0,1.0,Taxi
21.8,-0.09776349208594032,41.75939071921413,24.694586031920558,1.2282987902311882,0.24653718687100848,51.70622429006562,13.580900309268833,0.0,1.0,0.0,0.0,1.0,Taxi
21.900000000000002,0.11646953639763878,-32.281893838283274,23.906738544737365,1.252387107910721,0.5569261972968471,51.58328911982045,13.592156216055521,0.0,1.0,0.0,0.0,1.0,Taxi
22.0,-0.03144667021299518,-5.060009510057465,23.43419238457561,1.2146233083729416,0.4291899791187159,51.86059089382013,13.652500183267867,0.0,1.0,0.0,0.0,1.0,Taxi
22.1,-0.1230635396362277,-32.84693234774005,24.574986585242325,0.8725228662593904,0.43827839607570024,51.87507616057508,12.584384657920571,0.0,1.0,0.0,0.0,1.0,Taxi
22.200000000000003,-0.047765125341061504,5.9930131031521015,23.913422462049283,1.2927030941200055,0.7895046828425186,51.858829139008435,13.661983861538245,0.0,1.0,0.0,0.0,1.0,Taxi
22.3,-0.0014816046972347151,30.668552531368977,23.19724571857861,1.313709790408199,-0.18775959580418408,51.79529188226263,14.039571641742702,0.0,1.0,0.0,0.0,1.0,Taxi
22.400000000000002,0.03027922302061713,13.732707913178254,22.82461634368398,1.1917871237538413,0.21745973951673528,51.80345972626179,13.703842921729358,0.0,1.0,0.0,0.0,1.0,Taxi
22.5,0.02089841422482972,-20.964512465533392,23.682501970742116,1.7685744785147992,-0.5253902247183516,51.717854456870555,14.156077303078163,0.0,1.0,0.0,0.0,1.0,Taxi
22.6,-0.10630416702490171,-9.099775433452555,23.450408606999087,1.5193105281977337,0.2889586049380823,51.610962598274284,14.139941953686632,0.0,1.0,0.0,0.0,1.0,Taxi
22.700000000000003,-0.01521965414664567,1.8832002762538274,23.098133174567785,1.2748706740614573,0.2331452542535673,51.86240737355831,14.461093679050483,0.0,1.0,0.0,0.0,1.0,Taxi
22.8,0.030314415606098835,21.02339744355743,23.681888858070995,1.3121354298642078,-0.406045896168749,51.71270895245658,13.156252506385638,0.0,1.0,0.0,0.0,1.0,Taxi
22.900000000000002,-0.0011871798071145967,10.883096046036101,22.906645476935463,1.2617161299997472,-0.886768814118815,51.756420916411685,13.53663442357866,0.0,1.0,0.0,0.0,1.0,Taxi
23.0,0.039195826083534814,12.786528518171009,23.78662204105968,1.2621658277000145,-0.4427709648355639,51.812072364682194,13.846460714293057,0.0,1.0,0.0,0.0,1.0,Taxi
23.1,0.09424705819695385,-44.342768247551966,23.479906529536397,1.5065755568765982,1.2469175150109406,51.7407003525517,13.549280502197268,0.0,1.0,0.0,0.0,1.0,Taxi
23.200000000000003,-0.22290102104487444,-7.1526719118536635,23.935554583639938,1.218317834064065,0.2573205598820755,51.65274381559425,14.256381769726245,0.0,1.0,0.0,0.0,1.0,Taxi
23.3,0.003432466524266472,-44.79292315499223,23.010742768758696,1.0205073568926024,0.30081020186864765,51.54322192883836,14.041432003623,0.0,1.0,0.0,0.0,1.0,Taxi
23.400000000000002,-0.12971755757800732,39.49617726914094,24.485784897991874,1.2333464174250848,0.10694002366370343,51.769326749499726,13.387792593646937,0.0,1.0,0.0,0.0,1.0,Taxi
23.5,-0.025420134699169823,-44.43601719861734,23.324134825376273,1.2068705291649706,0.38109921394110946,51.812747431528464,14.52222750016905,0.0,1.0,0.0,0.0,1.0,Taxi
23.6,-0.21874761946882024,35.70303495712682,23.769151155951942,1.1074728754165784,-0.21634911535993287,51.81360878911772,14.10546368467479,0.0,1.0,0.0,0.0,1.0,Taxi
23.700000000000003,0.0487976172076267,-36.894740650733304,24.106436907865422,1.4220016145965144,-0.7088405259559771,51.86021985606391,13.596217229298697,0.0,1.0,0.0,0.0,1.0,Taxi
23.8,-0.2098938379528364,31.260766110229763,23.823280015557522,1.1004451840893745,-0.20165869078742982,51.8932924641457,13.109238131576396,0.0,1.0,0.0,0.0,1.0,Taxi
23.900000000000002,-0.062443788917671474,-38.438653145810854,23.09758019027498,1.421497152760348,0.096035197076525,51.82671405617572,13.370678189553393,0.0,1.0,0.0,0.0,1.0,Taxi
24.0,-0.14339564852142758,55.05584613869747,23.98907728198941,1.1597207562016705,-0.17197630388435328,51.757047373562614,13.824653011671677,0.0,1.0,0.0,0.0,1.0,Taxi
24.1,0.06538539274065087,35.376096022552645,22.971607383804017,1.0466985705953196,-0.209997624420251,51.820158061098766,14.46118148377488,0.0,1.0,0.0,0.0,1.0,Taxi
24.200000000000003,0.11443669119509169,22.331643448784764,24.637845958266386,1.509578744071127,0.0896663187893152,51.65406882305831,13.220134241577508,0.0,1.0,0.0,0.0,1.0,Taxi
24.3,-0.03173743127750384,-6.478454507282177,24.6111363924404,1.3571320393374922,-0.24733183482634646,51.62013646570591,13.723337109040262,0.0,1.0,0.0,0.0,1.0,Taxi
24.400000000000002,0.03299312020423994,19.96523805012774,22.51138496639619,1.2900294658455638,-0.7751572960036888,51.69285101385998,13.703127002117476,0.0,1.0,0.0,0.0,1.0,Taxi
24.5,0.21426288144573036,25.39476541244409,24.564285810738465,1.17083875951316,0.4679726337499386,51.90993462838395,13.5557118876785,0.0,1.0,0.0,0.0,1.0,Taxi
24.6,0.09523639578471657,-11.998703741563766,24.046050748124255,1.4339833923217662,0.022583947731038057,51.66000265322339,14.25006879856828,0.0,1.0,0.0,0.0,1.0,Taxi
24.700000000000003,-0.027000398503578923,-55.960562700469175,24.459061193674863,1.2479439504869867,-0.007578724643559245,51.674528943173755,13.251782238701443,0.0,1.0,0.0,0.0,1.0,Taxi
24.8,-0.06553993205661557,-27.40159373947013,24.53770240374083,1.0737236184843928,0.34360438252235725,51.848805058826315,14.706982539189639,0.0,1.0,0.0,0.0,1.0,Taxi
24.900000000000002,-0.04177157291263411,-4.143928229181414,23.951457268763143,1.3063015833314715,0.7873588677034371,51.860842771584714,14.795918924936517,0.0,1.0,0.0,0.0,1.0,Taxi
25.0,-0.04772003964948604,55.95916363762271,24.28240343876784,1.270840101917436,0.9866807392763479,51.61064238088119,12.919932960370572,0.0,1.0,0.0,0.0,1.0,Taxi
25.1,0.21425588613149796,20.840876807066874,24.604921330306226,1.5920244058409923,0.41439530727574003,51.842421088678975,13.933104161970501,0.0,1.0,0.0,0.0,1.0,Taxi
25.200000000000003,0.062432811122700244,5.807462634999332,24.521789855149702,1.1790955593186345,0.12540824221640104,51.708066243089775,14.529113868207082,0.0,1.0,0.0,0.0,1.0,Taxi
25.3,-0.0186827264744894,-25.68711707486212,24.156067445068725,1.565439947886119,0.37484299102098495,51.575200701367805,14.15439555939069,0.0,1.0,0.0,0.0,1.0,Taxi
25.400000000000002,0.08582030075718733,-2.4962278813553063,24.13844165489275,1.601238469987019,-0.21129814473595276,51.70216099659444,14.531365789526745,0.0,1.0,0.0,0.0,1.0,Taxi
25.5,0.04995167171592368,39.886415807601736,22.938645192437832,1.5314494715169564,0.4136600545905784,51.8616783139189,13.557346169681068,0.0,1.0,0.0,0.0,1.0,Taxi
25.6,0.18074935256351926,-55.79341265558204,24.07154079319542,1.5466409694249927,-0.5312757962086218,51.76613582046275,13.84082495096003,0.0,1.0,0.0,0.0,1.0,Taxi
25.700000000000003,-0.19314676252072285,10.78681074259122,22.7480292965315,1.213242736135614,-0.7053716706007117,51.78036190379618,13.86051436113606,0.0,1.0,0.0,0.0,1.0,Taxi
25.8,0.10388572542887978,-66.29912997542881,23.495274445444224,0.9815928912419827,1.446152351107503,51.728201262569996,14.245349646521124,0.0,1.0,0.0,0.0,1.0,Taxi
25.900000000000002,-0.15074629731362482,18.899863279169153,23.402506666375885,0.92919625281076,0.4509134679906981,51.83543654771006,13.632017560823446,0.0,1.0,0.0,0.0,1.0,Taxi
26.0,-0.09864744612487711,-15.868910571602205,23.3375973331132,1.146631826157588,-0.6102477073998808,51.704199193162594,12.908868011929227,0.0,1.0,0.0,0.0,1.0,Taxi
26.1,0.024541172570868727,35.52980067889142,23.72987754111553,1.3258227233406348,-0.34069060697255793,51.68280980924692,14.069217194933099,0.0,1.0,0.0,0.0,1.0,Taxi
26.200000000000003,0.026902706080832207,30.338968930145885,22.60785979953525,1.236553256455647,0.11886494339229114,51.70278068211377,14.471037428751522,0.0,1.0,0.0,0.0,1.0,Taxi
26.3,0.05304739852585225,-9.839648784082462,23.996880152106762,1.3518699765233486,-0.041510626857060105,51.643201655408916,13.693538900598815,0.0,1.0,0.0,0.0,1.0,Taxi
26.400000000000002,-0.024657071349543622,15.46399569555958,24.084283379683065,1.3122085211206596,-0.19022032895193056,51.68391548722019,13.846431351012518,0.0,1.0,0.0,0.0,1.0,Taxi
26.5,0.10422268455863007,-2.4996144766708994,24.743218014267793,1.283557469816824,0.47896958496219333,51.76537118606382,14.256025674974843,0.0,1.0,0.0,0.0,1.0,Taxi
26.6,0.04054932614249772,-18.478149292997646,24.05744071059083,1.2319403266194144,0.7994330576105327,51.84910042582953,13.243875663516105,0.0,1.0,0.0,0.0,1.0,Taxi
26.700000000000003,-0.11704781781453191,-8.904854911672393,23.883237241773735,1.1391053230621138,0.047054792519026896,51.70306471822687,13.410303495446824,0.0,1.0,0.0,0.0,1.0,Taxi
26.8,0.059698410000268036,-27.290386345483316,23.905720668695604,1.2262597025704638,-0.1828155621916679,51.77338383242841,14.518396657410236,0.0,1.0,0.0,0.0,1.0,Taxi
26.900000000000002,-0.09590260558491892,13.090581367367278,24.42104813348526,0.9860699252572531,0.21146417235944354,51.69817467795366,14.029091622709887,0.0,1.0,0.0,0.0,1.0,Taxi
27.0,-0.051594910977695564,4.538838744759204,22.582951781718236,1.4670561803730149,0.2712513898473471,51.81854067148629,14.574779982927438,0.0,1.0,0.0,0.0,1.0,Taxi
27.1,0.08239260372406404,25.72299265953464,24.183255959810324,0.9925529376283975,0.7335191961584412,51.71996969067669,14.381358902736784,0.0,1.0,0.0,0.0,1.0,Taxi
27.200000000000003,0.03271235771275423,34.56233248274748,23.01315285495562,1.4312829566518535,-0.2143673416761091,51.64665214844581,13.572174642525487,0.0,1.0,0.0,0.0,1.0,Taxi
27.3,0.12121675143604178,-19.169719068462992,23.948102421929885,1.3917495524646297,-0.08393979371471688,51.75744006606158,13.14613838473221,0.0,1.0,0.0,0.0,1.0,Taxi
27.400000000000002,-0.013455991618250977,-20.30804230497079,24.67590360916816,1.5286482901367644,0.5450485253401264,51.74753282703546,13.393722073922207,0.0,1.0,0.0,0.0,1.0,Taxi
27.5,-0.06882785381209978,-18.028660861515657,24.162240398362414,1.3054619305058457,0.7708543792104091,51.76692048832922,14.065781598484733,0.0,1.0,0.0,0.0,1.0,Taxi
27.6,0.03107344712846341,17.921991537827235,24.349325069479413,1.2746489226834887,-0.5356714648763587,51.97410907939826,13.88543149134359,0.0,1.0,0.0,0.0,1.0,Taxi
27.700000000000003,0.07615396607088513,-11.388754942900647,23.179984498133315,1.0923641455328787,-0.045601055595089285,51.60315716456489,14.572941430197675,0.0,1.0,0.0,0.0,1.0,Taxi
27.8,-0.12577162852660306,-24.104580139441108,23.788340166934585,1.4836934486173825,0.7934593176859956,51.651135483091934,14.010147211040934,0.0,1.0,0.0,0.0,1.0,Taxi
27.900000000000002,-0.08944945356874218,-7.947603894154104,22.881055004365287,1.2634312560975398,-0.4784797537512916,51.815970776417885,13.685887681268543,0.0,1.0,0.0,0.0,1.0,Taxi
28.0,0.03641594660011457,-5.846401600943537,23.140025324984673,1.1920881203338256,-0.3102779919078038,51.711909362415554,13.751148394096596,0.0,1.0,0.0,0.0,1.0,Taxi
28.1,-0.15500363653132082,25.584244985323476,24.17640749981036,1.017762408320802,0.3191450303050657,51.8621922558072,14.646886335613877,0.0,1.0,0.0,0.0,1.0,Taxi
28.200000000000003,0.038471771357875134,-0.9982543542225027,22.694263099052158,1.1583424620297773,-0.24894789272306272,51.69896567673936,14.131068748968957,0.0,1.0,0.0,0.0,1.0,Taxi
28.3,0.03142467482900198,34.96814767013544,23.613399492714272,1.432962361254105,0.1668967010226013,51.72214254303452,13.315918758419397,0.0,1.0,0.0,0.0,1.0,Taxi
28.400000000000002,0.01983710181935629,-14.389067705472039,24.269212393477446,1.2718958243002658,-0.12227632252493283,51.81404678267063,14.192678174404703,0.0,1.0,0.0,0.0,1.0,Taxi
28.5,-0.03347356716948514,-45.97999941931493,24.459838873343642,0.9795812146115322,-0.2844010222723998,51.70684936653868,13.542950751861698,0.0,1.0,0.0,0.0,1.0,Taxi
28.6,-0.19847532226757272,-7.79479222220029,23.676096682806175,1.3043788142520547,0.7997391646708809,51.79385034056111,14.237283967077044,0.0,1.0,0.0,0.0,1.0,Taxi
28.700000000000003,-0.019136859291645242,4.892254889167371,23.891913261786847,1.2289083189170393,-0.059726857728785346,51.62249662009583,14.787137145466271,0.0,1.0,0.0,0.0,1.0,Taxi
28.8,-0.00901229272364838,51.293585291631224,23.647589226989478,1.2824182442274972,-0.17888303193751096,51.678138629114414,13.995818739193378,0.0,1.0,0.0,0.0,1.0,Taxi
28.900000000000002,0.05799260419058332,27.084576939739026,23.077545900603475,1.3522912654125567,-0.40237080635606937,51.65419606383932,15.27850244401732,0.0,1.0,0.0,0.0,1.0,Taxi
29.0,0.1162860254070498,-0.8492756719840694,24.490022490853754,0.7515536637907685,0.005338954913882451,51.63720310401118,14.159502679133178,0.0,1.0,0.0,0.0,1.0,Taxi
29.1,-0.013258671083568853,-50.61784085829698,23.074143244218416,1.5770008026799283,0.3321194174314534,51.73752728924376,14.097960783218857,0.0,1.0,0.0,0.0,1.0,Taxi
29.200000000000003,-0.19509660010090168,-53.80975366530074,24.05170206277993,1.4857710112152782,-0.38901216325101284,51.611265815446245,13.901956841423997,0.0,1.0,0.0,0.0,1.0,Taxi
29.3,-0.152762742919454,-22.61226183046971,23.74075910237965,1.3563392849856735,0.22482544044160807,51.78569671084699,13.505529909173426,0.0,1.0,0.0,0.0,1.0,Taxi
29.400000000000002,-0.12631998023591748,36.40875467934665,24.06300112902782,1.5321593299508485,0.8823820747938554,51.858337641344406,13.245927438741486,0.0,1.0,0.0,0.0,1.0,Taxi
29.5,-0.013052826704168527,13.58167603522498,24.269031238190234,1.4960839336124911,-0.7696000830570972,51.79864520728222,13.379379592711729,0.0,1.0,0.0,0.0,1.0,Taxi
29.6,-0.08485436274332918,46.561800466404634,24.64014333091584,1.5636131445129011,0.22927111238568207,51.82579263733277,13.434886975679222,0.0,1.0,0.0,0.0,1.0,Taxi
29.700000000000003,0.10648902209610561,28.544665885823246,23.39825254993004,0.7668830846292223,0.15007476164532385,51.6174737176226,13.9977256934153,0.0,1.0,0.0,0.0,1.0,Taxi
29.8,0.1296705027249476,30.063282167409437,23.77634248708992,0.9227884469756245,-0.8713260514584013,51.68016066134942,13.80983725162441,0.0,1.0,0.0,0.0,1.0,Taxi
29.900000000000002,0.0654620480937179,-14.346912435874975,23.526523325957022,1.35294992422081,-0.8685418370437843,51.73120304429108,14.322231688936393,0.0,1.0,0.0,0.0,1.0,Taxi
30.0,0.03475445991673067,-7.145758328848854,24.250482814515724,1.4525357543893944,-0.3682814833332251,51.66706268916403,14.148234646855208,0.0,1.0,0.0,0.0,1.0,Taxi
30.1,0.09394171108070326,-19.74471986096034,23.354049545587294,1.3023383080480138,-1.0399793139319125,51.76541614642207,13.766922936213428,0.0,1.0,0.0,0.0,1.0,Taxi
30.200000000000003,-0.03326155121108385,-21.764598686959477,24.491178386895626,1.2050978011068487,-0.47640780227361024,51.80471859798217,14.716757599958278,0.0,1.0,0.0,0.0,1.0,Taxi
30.3,-0.07406853351806679,-16.39108694618445,23.117440172744956,1.1357762680945123,-0.361537863641501,51.66284893676743,14.140501013049604,0.0,1.0,0.0,0.0,1.0,Taxi
30.400000000000002,0.011986276349780951,9.985758087886948,22.96638946345826,1.1022449950538071,-0.12082668140027694,51.83412471147176,13.421543747088341,0.0,1.0,0.0,0.0,1.0,Taxi
30.5,0.016667239228350797,23.011551014676243,24.064707239612,1.2402467301378581,0.14831494399354456,51.84194463734593,13.21937739185929,0.0,1.0,0.0,0.0,1.0,Taxi
30.6,0.04098922155531435,-49.74219253645109,23.95415485175992,1.507521130208556,-0.04402733852141341,51.79990948375064,13.710104852170108,0.0,1.0,0.0,0.0,1.0,Taxi
30.700000000000003,-0.23672468633247457,38.5833211908403,24.157062168448675,1.3654459044321294,-0.460991128319037,51.80761734485043,13.687075423441167,0.0,1.0,0.0,0.0,1.0,Taxi
30.8,0.20958384518255213,-4.683819651935664,24.114383176437652,1.1124090945586942,0.2822804869643338,51.75501521283218,14.507148755591725,0.0,1.0,0.0,0.0,1.0,Taxi
30.900000000000002,0.017570123295635866,47.292742230317764,24.002401930118843,1.0613809427242815,-0.32150052000313933,51.77292279149236,14.404834563198845,0.0,1.0,0.0,0.0,1.0,Taxi
31.0,-0.00026097518088595003,-49.515230150100116,24.250083721868545,0.9357594360399071,-0.533215339373706,51.626519520795284,13.78096410717571,0.0,1.0,0.0,0.0,1.0,Taxi
31.1,-0.03799230556794862,-24.681967115686387,22.998110488099183,1.477526685987534,-0.4112561544174391,51.841900917747296,13.845556084554,0.0,1.0,0.0,0.0,1.0,Taxi
31.200000000000003,-0.10583971228279619,24.491518052482515,24.5360977608903,1.5931058927057242,-0.21158313646486407,51.771738794516466,14.160079908650475,0.0,1.0,0.0,0.0,1.0,Taxi
31.3,0.12219661508152649,-7.480865541850069,23.457870602795957,1.201240190160555,0.11520767574908065,51.64313244251434,14.148399435065421,0.0,1.0,0.0,0.0,1.0,Taxi
31.400000000000002,-0.07539663327719913,44.4418472692544,22.823561164474956,0.9872333355855193,-0.4640877411620682,51.71908392400485,14.336318756686598,0.0,1.0,0.0,0.0,1.0,Taxi
31.5,0.11636952406347563,-33.25706573275799,23.12989239723794,1.3886906553634621,0.3477207482402249,51.79182316612514,13.422837895742775,0.0,1.0,0.0,0.0,1.0,Taxi
31.6,-0.04408871358226363,4.488166095110311,23.08775532452134,1.1640701104410756,-0.035793847952040686,51.71389248876932,13.37375001877152,0.0,1.0,0.0,0.0,1.0,Taxi
31.700000000000003,-0.052955802801647744,-23.343072632692138,24.685517816499676,1.5241259219889414,-0.13172787746691583,51.712862362674684,13.690388465760584,0.0,1.0,0.0,0.0,1.0,Taxi
31.8,-0.00034583909998521793,27.430960131185643,22.529076300925304,1.2325078566930276,-0.40917937068549237,51.697847052053646,14.319257593894154,0.0,1.0,0.0,0.0,1.0,Taxi
31.900000000000002,0.09306608707366444,-1.8563990358626228,23.22649168269836,1.4178382047362088,0.4653786703590533,51.764437599079315,12.796619762948705,0.0,1.0,0.0,0.0,1.0,Taxi
32.0,-0.062237797980961,-33.33866638420432,23.049159679507866,1.577242258343479,0.7241858087122428,51.82910003924644,14.139629065178992,0.0,1.0,0.0,0.0,1.0,Taxi
32.1,-0.16703917102100696,-53.42751599764943,25.264058896854813,1.243524534932399,1.3030862464824862,51.78137966766798,13.652779235793872,0.0,1.0,0.0,0.0,1.0,Taxi
32.2,-0.1740714929145828,26.329436084834494,24.566299184311145,0.8536792667576203,0.1816255242896303,51.753374055650056,14.213298932626003,0.0,1.0,0.0,0.0,1.0,Taxi
32.300000000000004,0.0694093824432113,79.10878517581526,23.94523820548242,1.2034546008205345,-0.09114277951741807,51.787247325056455,13.291129391779855,0.0,1.0,0.0,0.0,1.0,Taxi
32.4,0.22850475485806912,64.34376312429994,23.63766790827329,1.2647954526347454,-0.6831305809483226,51.91778278550919,13.991551038446913,0.0,1.0,0.0,0.0,1.0,Taxi
32.5,0.14764732270691672,8.839109774403683,24.165012783329605,1.305981576309081,0.029958897706120004,51.85104686076727,14.362071660151335,0.0,1.0,0.0,0.0,1.0,Taxi
32.6,0.11360493131522956,-69.1813208519019,23.250999891031167,1.464551107659298,0.4476893012365921,51.58639598533529,13.883380895650538,0.0,1.0,0.0,0.0,1.0,Taxi
32.7,-0.11740184940144055,-42.1945370665593,22.601388315897243,1.7028562762769202,0.23330770169977325,51.87895912968469,13.960056169417452,0.0,1.0,0.0,0.0,1.0,Taxi
32.800000000000004,-0.06332536262587993,-15.98335069202628,23.79467210430672,1.2768260261394668,0.805742806699233,51.696173702802014,14.056550837563545,0.0,1.0,0.0,0.0,1.0,Taxi
32.9,0.03368817785509799,23.547842846294703,23.975753923173112,1.2712060613111231,-0.7693261632901786,51.76282801362436,14.267184131649671,0.0,1.0,0.0,0.0,1.0,Taxi
33.0,0.00033736483003281065,-5.37941276577322,23.04303158826565,1.6693336870881461,0.6105655107738003,51.67826761390336,14.146905107181514,0.0,1.0,0.0,0.0,1.0,Taxi
33.1,-0.0902224264547462,-9.956940105202412,23.849655611859102,1.4730694861738889,0.9010919651930224,51.77046731836225,14.040041462268777,0.0,1.0,0.0,0.0,1.0,Taxi
33.2,-0.016096522670914243,-2.3390059213749423,24.90589144901173,1.4447473209988901,0.06969355764935431,51.771685975774744,14.382833357442449,0.0,1.0,0.0,0.0,1.0,Taxi
33.300000000000004,-0.011357664776842065,55.43811346195511,24.687512856558133,1.2318642467212597,-0.1599477514223648,51.73835432725207,13.687408814303266,0.0,1.0,0.0,0.0,1.0,Taxi
33.4,0.18696814085502922,2.092240437458898,23.428124556612133,1.0905317009562903,0.24119392534442385,51.7594628370922,13.83264593345242,0.0,1.0,0.0,0.0,1.0,Taxi
33.5,-0.005635320483619898,12.472185919414436,23.44915860117585,1.244588123140467,-0.10626560649479277,51.53236562367465,14.022352270030227,0.0,1.0,0.0,0.0,1.0,Taxi
33.6,0.05100326482022997,-52.628871421184535,23.184573493936863,1.0165302338313693,0.6902971365654214,51.78185202455353,14.14638460989045,0.0,1.0,0.0,0.0,1.0,Taxi
33.7,-0.07617621625089363,3.0963146251390845,24.837930398958008,1.4581009846843656,0.9909587300849306,51.728903746947026,14.143907498997468,0.0,1.0,0.0,0.0,1.0,Taxi
33.800000000000004,0.009846252642075367,-5.253076328364901,24.258442081811243,1.484767331398446,0.1432346438666761,51.8528624705375,13.03870024624788,0.0,1.0,0.0,0.0,1.0,Taxi
33.9,0.024737883178405307,-2.4117663367000097,23.991545640890113,1.355471976888167,0.037425495498505074,51.637983898420885,13.62777425699174,0.0,1.0,0.0,0.0,1.0,Taxi
34.0,-0.08823504793439382,-13.848124436887034,24.375911093776846,1.4033704256423092,-0.3814977060712713,51.71544781965008,14.051653476631307,0.0,1.0,0.0,0.0,1.0,Taxi
34.1,-0.05939436954235995,-18.63475939884742,25.46627648744149,1.0212174903541835,0.7034046226694384,51.772323841608,13.87856972803171,0.0,1.0,0.0,0.0,1.0,Taxi
34.2,-0.06843591381583196,42.43267500316521,22.91503057584031,1.1231453764785804,0.16752208216962428,51.71621148137524,14.171794519770648,0.0,1.0,0.0,0.0,1.0,Taxi
34.300000000000004,0.12392832708143203,-7.766025511147845,24.457874887212707,1.5015974492607582,0.7006139759930666,51.66887461785075,14.329971544481651,0.0,1.0,0.0,0.0,1.0,Taxi
34.4,-0.09822449709809936,8.899231504735967,24.119362648670442,1.4695873306220948,-0.013716614146413349,51.75030694120545,14.242446784600464,0.0,1.0,0.0,0.0,1.0,Taxi
34.5,-0.023939756292152316,-32.00501105378074,23.93129969200141,1.038758682499709,0.010915142362043455,51.72499878297242,13.877820830098036,0.0,1.0,0.0,0.0,1.0,Taxi
34.6,-0.03609672818747183,-19.118320647021502,23.680997692234307,1.2720376726370888,-0.2667467414972035,51.771018096720866,14.700916746928087,0.0,1.0,0.0,0.0,1.0,Taxi
34.7,-0.19381610033320704,-22.342212273131953,24.53996026575421,1.200250709188024,0.7207844472072952,51.61527611782947,12.985640508855713,0.0,1.0,0.0,0.0,1.0,Taxi
34.800000000000004,-0.13565081765781226,-9.77846015840806,24.496436433801293,1.535141102235928,-0.4087503571626328,51.560238084526475,13.945236261226812,0.0,1.0,0.0,0.0,1.0,Taxi
34.9,-0.08498902897951231,32.610562314846625,24.050426175077124,1.2777521617338965,-0.48160094419742167,51.71057772075386,14.473022596238337,0.0,1.0,0.0,0.0,1.0,Taxi
35.0,-0.030763288758974057,12.681225840140632,24.29047439032778,1.039238959239261,-0.10187415948769585,51.735899208923286,13.807523640437097,0.0,1.0,0.0,0.0,1.0,Taxi
35.1,-0.07224468845710925,1.8990174054738571,22.670608418921592,1.4955403461971206,-0.36061587113770927,51.81612728384408,13.828649894165899,0.0,1.0,0.0,0.0,1.0,Taxi
35.2,-0.07549394195214318,-11.99532590542684,23.851091548024076,1.3858300505931598,-0.7642853781512092,51.74845997442276,13.648329160993148,0.0,1.0,0.0,0.0,1.0,Taxi
35.300000000000004,-0.09073991828610842,4.848827736989776,24.332440141685453,1.1452685489479522,0.654627717024868,51.76875718108954,14.16060481864098,0.0,1.0,0.0,0.0,1.0,Taxi
