time_s,altitude_ft,vertical_speed_fpm,ias_kt,pitch_deg,roll_deg,heading_deg,throttle_pct,afterburner_on,gear_down,flaps_deg,speedbrake_pct,weight_on_wheels,label
0.0,-0.10961150091941496,13.27264305209905,16.797706541795712,-0.40729899809718817,-1.0927842678295416,280.0802934934794,16.037273420025816,0.0,1.0,0.0,0.0,1.0,Taxi
0.1,-0.06536935741241813,9.929683503153917,16.394893867649923,-0.3670204487521661,0.5069654623689666,280.13836139328896,15.994675409590569,0.0,1.0,0.0,0.0,1.0,Taxi
0.2,-0.05996308340364538,57.395047841025786,15.259205702690146,-0.42946523852975965,-0.23980223578837168,280.0832529674103,16.330953298092435,0.0,1.0,0.0,0.0,1.0,Taxi
0.30000000000000004,0.17736373828571395,36.11408044099664,16.36821491647733,-0.5842114338173034,-0.6485694133688203,280.1508728234671,16.813039994588472,0.0,1.0,0.0,0.0,1.0,Taxi
0.4,0.11520104479256504,60.639069645770036,15.338672158060932,-0.34931929319325783,-0.33803703200120666,280.2687010053804,15.615483740230768,0.0,1.0,0.0,0.0,1.0,Taxi
0.5,0.24323226482520477,-44.814055307136414,15.613504177960984,-0.320325573337191,-0.0016035635990813125,280.0991118661873,16.581865004376265,0.0,1.0,0.0,0.0,1.0,Taxi
0.6000000000000001,-0.046706538249968205,-25.293565819742284,16.632535582296107,-0.4017688637065659,0.5590174115044964,280.16718004252675,15.987635961108385,0.0,1.0,0.0,0.0,1.0,Taxi
0.7000000000000001,-0.011266784306146459,-22.557467681724628,16.066000861535866,-0.41859017850906494,-0.03156302042335247,280.22673618103886,17.374583311326532,0.0,1.0,0.0,0.0,1.0,Taxi
0.8,0.13044492641658154,8.232553241247553,16.09635615446759,-0.8831778761228912,0.19465277655532778,280.3031243760005,16.095166033687434,0.0,1.0,0.0,0.0,1.0,Taxi
0.9,-0.00554377204373046,21.198274473699865,15.413825791602127,-0.6983521715391185,0.33863334966821795,280.28892390304395,15.373037074090089,0.0,1.0,0.0,0.0,1.0,Taxi
1.0,0.09472458806235284,11.359652473253687,15.153904413954423,-0.4572797008059551,-0.24997732978075032,280.25293209082974,15.860574020506238,0.0,1.0,0.0,0.0,1.0,Taxi
1.1,0.18724318878284996,-13.149875421132597,15.145951039666635,-0.1566174753582889,-0.6608981338067135,280.31158774517996,15.148043278189299,0.0,1.0,0.0,0.0,1.0,Taxi
1.2000000000000002,-0.07129314914939344,-80.3990027273283,15.587928592453034,-0.48814530917348353,-0.603614476510926,280.11700148292516,15.671780956788925,0.0,1.0,0.0,0.0,1.0,Taxi
1.3,-0.30727042557428863,-34.5343943132064,15.839683843897456,-0.3153541608647138,-0.3815503652959894,280.1677455292063,16.225710925647796,0.0,1.0,0.0,0.0,1.0,Taxi
1.4000000000000001,0.014571217216817922,25.242481326877932,15.835080097486397,-0.8431784147061969,-0.5903840128296032,280.09791399109963,15.768025121971137,0.0,1.0,0.0,0.0,1.0,Taxi
1.5,0.05491925748499619,87.05471052937706,16.440247345256317,-0.3584455447066578,0.059191603130804384,280.2458588901811,16.425994683190247,0.0,1.0,0.0,0.0,1.0,Taxi
1.6,0.1280031270725966,11.62691143755776,15.553227902814333,-0.24571514971656075,0.3828079739150135,280.010945284095,16.101992068067617,0.0,1.0,0.0,0.0,1.0,Taxi
1.7000000000000002,0.07270577440460677,-3.4053763656643405,17.098537966402517,-0.031946877287301445,0.1577551570864549,280.1130624047896,16.48747964512353,0.0,1.0,0.0,0.0,1.0,Taxi
1.8,0.03789237565667452,-22.974871461219,16.42083585296551,-0.43635362565565833,-0.011285930011873587,280.20151413756196,15.884630613202942,0.0,1.0,0.0,0.0,1.0,Taxi
1.9000000000000001,0.013128769766501614,2.0662523888560833,15.713986917669299,-0.24633082915678448,0.034670483155167256,280.34078475119384,16.534828669864805,0.0,1.0,0.0,0.0,1.0,Taxi
2.0,0.0830370363488872,-6.806597134325926,16.72764039916961,-0.6374061434024269,0.29847139282195817,280.07278649204306,15.763373767258548,0.0,1.0,0.0,0.0,1.0,Taxi
2.1,0.003859389985044917,32.92908922710493,16.406509098133874,-0.6403195878603538,-0.36010214287754966,280.11849044508244,15.635564826441534,0.0,1.0,0.0,0.0,1.0,Taxi
2.2,0.17777421590202633,-6.479203376217458,16.493751255150507,0.007275199550434874,-0.7143961348069396,280.1268329406721,15.281620449822357,0.0,1.0,0.0,0.0,1.0,Taxi
2.3000000000000003,0.05064101946779997,10.25446135281881,15.099516330775694,-0.5025254272044763,-0.08424046942707329,280.3127432726361,16.418910542440447,0.0,1.0,0.0,0.0,1.0,Taxi
2.4000000000000004,0.05513169674913901,-13.361382252099455,15.946476416315992,-0.34182736014788184,0.21133653497255048,280.0722284447885,16.37654039861952,0.0,1.0,0.0,0.0,1.0,Taxi
2.5,0.1109673046415291,25.90562052770943,16.857456088018807,-0.28934017471082474,0.7426829750523746,280.2241233793528,17.22317751009629,0.0,1.0,0.0,0.0,1.0,Taxi
2.6,0.18016912210634717,-17.569695545081412,16.042140100301136,-0.45409893054071715,0.40487292954221493,280.2887060303997,16.239247282609284,0.0,1.0,0.0,0.0,1.0,Taxi
2.7,-0.03271678097626798,-35.73056496526032,15.425198400048526,-0.20305614410532402,0.03480609651228378,280.2740780224119,16.070205842042125,0.0,1.0,0.0,0.0,1.0,Taxi
2.8000000000000003,-0.06768552018477242,-68.09031303777411,16.048897378358873,-0.41899267724433537,0.22437946722617422,280.1323449216668,16.431270502243635,0.0,1.0,0.0,0.0,1.0,Taxi
2.9000000000000004,-0.16028244308252332,12.610427433331708,15.866877774626202,-0.4913484255059427,0.8227396166585162,280.3132843430408,16.759008845251504,0.0,1.0,0.0,0.0,1.0,Taxi
3.0,0.03033535619039059,5.682297915114387,16.196438379396422,-0.49319256178747317,-0.665038089981846,280.31423578593126,16.291642811662758,0.0,1.0,0.0,0.0,1.0,Taxi
3.1,-0.039274030609200455,18.815371414142586,16.930826916530705,-0.48197910028895385,0.056703457586734,280.11276456374924,15.833331894247731,0.0,1.0,0.0,0.0,1.0,Taxi
3.2,-0.06620558601181036,-23.817554345903986,14.969031665684847,-0.2541957924754688,-0.42226213595184653,280.0747086013346,15.951521580290127,0.0,1.0,0.0,0.0,1.0,Taxi
3.3000000000000003,-0.0887524155391293,13.059381411568177,16.40669463059646,-0.68464055137748,-0.5037386801095599,280.1815491024606,16.514603843668443,0.0,1.0,0.0,0.0,1.0,Taxi
3.4000000000000004,0.026022876448640472,-2.6811054014361986,16.559328439406467,-0.5086781722554474,0.4310357162536994,280.30797509938964,16.800579146152263,0.0,1.0,0.0,0.0,1.0,Taxi
3.5,-0.07961111301899132,7.0852585764293865,15.540424257347325,-0.3756014701284829,-0.5308575161395324,280.1412119805584,15.743263933549455,0.0,1.0,0.0,0.0,1.0,Taxi
3.6,-0.05332612265698233,23.6116740029549,15.630146866597482,-0.5332516118543705,0.4600237861016902,280.286976607033,15.306825644595849,0.0,1.0,0.0,0.0,1.0,Taxi
3.7,0.144081246463415,53.56693618477059,16.309879019760274,-0.6509484913867907,-0.1215646224314029,280.2932619348728,16.800727721907336,0.0,1.0,0.0,0.0,1.0,Taxi
3.8000000000000003,0.1882235679048617,18.283820600479718,15.468989074029404,-0.6374966314180716,0.42244124871363026,280.2063711797539,16.46172688910523,0.0,1.0,0.0,0.0,1.0,Taxi
3.9000000000000004,0.038092980345416284,-4.680483232715081,15.825865068121372,-0.3653279531614233,-0.2249764832631931,280.11487225295514,15.999498157321884,0.0,1.0,0.0,0.0,1.0,Taxi
4.0,0.12067883029983964,-58.803088252257965,15.434536466086895,-0.6314544892775071,-0.23004807988328344,280.4291062975125,16.064227197237802,0.0,1.0,0.0,0.0,1.0,Taxi
4.1000000000000005,-0.10579187335642809,28.23423585968349,14.65981214327735,-0.4345481222545358,-0.8754747366509962,280.42002717777495,16.525513605777196,0.0,1.0,0.0,0.0,1.0,Taxi
4.2,0.1792641596438338,-37.584282174707376,15.228569021593634,-0.2970618167646154,0.2045115817943842,280.1268611090584,15.572350317376323,0.0,1.0,0.0,0.0,1.0,Taxi
4.3,-0.06724258057369714,37.32710113028241,15.361765452057634,-0.7224357760677385,0.4182452453855827,280.2120875398763,15.870061848721852,0.0,1.0,0.0,0.0,1.0,Taxi
4.4,0.08084363229498405,-61.214003052774274,17.16019980796824,-0.20383403175018472,-0.0017062021569079378,280.23075283363755,15.979776440724704,0.0,1.0,0.0,0.0,1.0,Taxi
4.5,-0.12680585562003752,-2.59725472290938,16.025012058985293,-0.34193995215769935,-0.037819764507465756,280.0521802291688,16.564991176373773,0.0,1.0,0.0,0.0,1.0,Taxi
4.6000000000000005,-0.08022885418824398,-20.202826308860416,16.2275668426368,-0.4244672534519422,-0.932243290675378,280.2218317888727,15.653149776365963,0.0,1.0,0.0,0.0,1.0,Taxi
4.7,-0.02017049924931799,31.53869547201799,16.284971871913758,-0.7338440653632858,-0.0038426829477984366,280.35570330190194,16.20343212338581,0.0,1.0,0.0,0.0,1.0,Taxi
4.800000000000001,0.030887621740052454,60.159196855915695,16.326799093341144,-0.40793111578077934,0.0734369969559362,280.09579284627193,16.637871843680816,0.0,1.0,0.0,0.0,1.0,Taxi
4.9,0.22056713009133452,2.5649105848494287,16.600066262974295,-0.5188238565540237,-0.4980576357781835,280.24928190958155,15.553269282862852,0.0,1.0,0.0,0.0,1.0,Taxi
5.0,-0.007345946325070825,-35.40333651434883,16.64373674046586,-0.4745362711459598,-0.2651260571417989,280.1587619281879,16.2815125200478,0.0,1.0,0.0,0.0,1.0,Taxi
5.1000000000000005,-0.1461290608316917,-37.70507486137044,15.671575596257506,-0.525271835657619,0.31813205972622377,280.3025104707933,16.88819792400584,0.0,1.0,0.0,0.0,1.0,Taxi
5.2,0.03204175578448233,26.21714438012505,16.464271394308394,-0.5128731987465882,-0.14580557885006698,280.31416856984356,16.940136624300315,0.0,1.0,0.0,0.0,1.0,Taxi
5.300000000000001,0.12373977557555443,39.45701225414626,16.632819628961126,-0.33329234371186905,-0.0471673308687124,280.254706472326,16.555937805172384,0.0,1.0,0.0,0.0,1.0,Taxi
5.4,0.051156000439039596,-13.210137579363254,16.667177734081907,-0.4882992328209448,0.7529846196112356,280.1598740285116,15.734050273469707,0.0,1.0,0.0,0.0,1.0,Taxi
5.5,-0.03400893211233393,-12.23756515043496,15.911521360565171,-0.3845787596125736,-0.19867315377144001,280.2941650524749,16.311186946621866,0.0,1.0,0.0,0.0,1.0,Taxi
5.6000000000000005,0.06255194982337964,-20.69550662024581,15.516772415382292,-0.5557065465922559,-0.2240823488991695,280.2415736820569,16.005405143540926,0.0,1.0,0.0,0.0,1.0,Taxi
5.7,-0.052321532662189446,-11.487792669586819,15.589391141229191,-0.4009378006293036,-0.41090123136605644,280.22507852011904,15.73309575659137,0.0,1.0,0.0,0.0,1.0,Taxi
5.800000000000001,-0.09144789546026803,-25.543397632263208,16.298274434640113,-0.543281448550174,-0.021168117037677806,280.2218786805681,16.104021788982738,0.0,1.0,0.0,0.0,1.0,Taxi
5.9,-0.06516503833793641,-19.441158931771962,14.9303617854427,-0.5163694059190895,0.012595389013491718,280.2801442259206,16.04267709945899,0.0,1.0,0.0,0.0,1.0,Taxi
6.0,-0.14952732732104926,25.981837358415287,16.022253564007983,-0.6830228228704058,0.026853291553381467,280.0862788898712,16.25113093239756,0.0,1.0,0.0,0.0,1.0,Taxi
6.1000000000000005,0.03846129133180841,11.634425749667296,16.198993748227092,-0.5459695700285309,-0.15373398139035835,280.1737711655487,16.958385700388995,0.0,1.0,0.0,0.0,1.0,Taxi
6.2,-0.00699290958959992,25.30838498852668,15.862198741207196,-0.05769414840222953,0.41780534681803305,280.3179380225388,15.745333431205148,0.0,1.0,0.0,0.0,1.0,Taxi
6.300000000000001,-0.022985402378415846,9.456454020999018,15.625632374546957,-0.4363552022623964,0.12889849962408637,280.11085196051874,15.444181518520265,0.0,1.0,0.0,0.0,1.0,Taxi
6.4,0.0857435614368035,-8.265945834457915,15.622324160092843,-0.10194823415739507,0.7939202831530552,279.98872071453695,16.396540108898567,0.0,1.0,0.0,0.0,1.0,Taxi
6.5,-0.04832263876188946,9.267547245854216,16.560331826892252,-0.322102697039351,0.2276264208195007,280.1370883830756,16.348678389891408,0.0,1.0,0.0,0.0,1.0,Taxi
6.6000000000000005,0.023352333850855264,17.056472329228736,14.680416925585043,-0.4926326263926521,-0.3907209394813742,280.0053500041938,17.114458255731332,0.0,1.0,0.0,0.0,1.0,Taxi
6.7,0.1710259230829472,-3.7867445949719163,16.559780003047557,-0.08614699668616665,-0.018562851516572436,280.32131410580246,15.461270556733934,0.0,1.0,0.0,0.0,1.0,Taxi
6.800000000000001,-0.06725636173674898,17.863878660316132,17.76531146895163,-0.6855064212403998,0.27708826878291376,280.1750805104749,15.511000762335858,0.0,1.0,0.0,0.0,1.0,Taxi
6.9,0.11267172715243595,-52.31901004125931,16.38168049306236,-0.558799535568149,-0.08297748832709767,280.2229200114904,16.379843125156942,0.0,1.0,0.0,0.0,1.0,Taxi
7.0,-0.09056912712334937,23.070420140965016,16.40144142987279,-0.6128538157110456,0.1390536267160276,280.15341181414374,16.432313773167664,0.0,1.0,0.0,0.0,1.0,Taxi
7.1000000000000005,0.048095738968076084,-28.348941901336868,16.857945736259815,-0.33823619200988553,0.07281628366282743,280.15101509934686,16.714235006325087,0.0,1.0,0.0,0.0,1.0,Taxi
7.2,-0.029072982354248395,22.27435942032569,15.623905535608626,-0.5970103524850697,-0.5214710511850676,280.06553497517393,16.982060901234,0.0,1.0,0.0,0.0,1.0,Taxi
7.300000000000001,0.02080266997827908,-2.307943201228045,16.70509188109323,-0.6159857702058826,-0.8868696771964538,280.2581940630886,15.659321976823636,0.0,1.0,0.0,0.0,1.0,Taxi
7.4,0.036556022961935865,15.63121495977533,16.743410758685922,-0.6765513852844937,0.4513395757474191,280.2024335749793,15.316598147619423,0.0,1.0,0.0,0.0,1.0,Taxi
7.5,0.04908309244462826,-1.4827116201413244,15.123900080780489,-0.6461197422282366,-0.41909319887361157,280.29522769116693,16.001011379153166,0.0,1.0,0.0,0.0,1.0,Taxi
7.6000000000000005,0.013389111877572447,-3.7430869088696284,15.577194934485364,-0.5724818405199773,-0.47597912592758723,280.3760572109659,16.17137080077626,0.0,1.0,0.0,0.0,1.0,Taxi
7.7,0.017840588417587715,-31.455119070579247,16.327819397438486,-0.6735444948904493,0.28732283555531063,280.3314436101077,16.55087156480415,0.0,1.0,0.0,0.0,1.0,Taxi
7.800000000000001,-0.10819250290826801,31.381019168266988,16.225434108035792,-0.46482819200153974,-0.4217344985178536,280.14054952301103,15.366890414172454,0.0,1.0,0.0,0.0,1.0,Taxi
7.9,0.17029420771890738,12.276502522593098,17.324511591074234,-0.6098273617693919,0.8141291405813335,280.3401531068545,15.990169154767795,0.0,1.0,0.0,0.0,1.0,Taxi
8.0,0.07922310103055319,19.006818833899196,15.472271974615365,-0.21614772677300892,-0.17467155567629297,280.0528537223697,15.913629691188673,0.0,1.0,0.0,0.0,1.0,Taxi
8.1,-0.013158408738772033,-24.067470613768066,15.98239964926893,-0.47979743682679893,0.5616900714862116,280.14550915780546,16.94457477612211,0.0,1.0,0.0,0.0,1.0,Taxi
8.200000000000001,0.04995685465006703,-1.3721522893923879,16.309239904754655,-0.5584386164652654,0.041871787476491465,280.3182296762268,15.943954082974809,0.0,1.0,0.0,0.0,1.0,Taxi
8.3,0.07236233958359123,-4.82212453322083,15.739988538912472,-0.5625292190149871,1.363832538695776,280.08878925480053,15.42567541572841,0.0,1.0,0.0,0.0,1.0,Taxi
8.4,-0.03726903140487622,-10.53087312154844,16.148705923222725,-0.6132180327054645,-0.16953846081166726,280.23209566984224,15.969342737935722,0.0,1.0,0.0,0.0,1.0,Taxi
8.5,-0.0026975109576752023,-29.963949156198282,15.961654488695842,-0.6864256161810726,0.10476429729058062,280.4403045251813,16.81338388146633,0.0,1.0,0.0,0.0,1.0,Taxi
8.6,-0.07745740619740023,54.35498503135656,16.401288505342393,-0.9611995665893269,-0.19554108631056283,280.1184676405261,15.713516800572586,0.0,1.0,0.0,0.0,1.0,Taxi
8.700000000000001,0.23450589375190659,13.289696433764513,15.936403156352721,-0.2396495660312571,-0.599281397540093,280.2827748265511,15.190848803823867,0.0,1.0,0.0,0.0,1.0,Taxi
8.8,0.06375097121114737,19.771805686737913,16.564610356044856,-0.34267379142009025,-0.5088591625329139,280.30348027047353,16.29799955130912,0.0,1.0,0.0,0.0,1.0,Taxi
8.9,0.021401622236289306,-14.241827405551035,15.94361526696924,-0.2821574428354684,-0.5349813788974347,280.41036187694067,15.995076434701298,0.0,1.0,0.0,0.0,1.0,Taxi
9.0,0.16329675672415134,-17.210320875798974,16.869292292637724,-0.5209863783179162,0.20582357122426523,280.1403890628519,16.48576357091604,0.0,1.0,0.0,0.0,1.0,Taxi
9.1,-0.02230063316784755,1.8472363948704331,15.443900880930954,-0.6190112897550089,0.7831797978444822,280.16525247468735,16.607679990365526,0.0,1.0,0.0,0.0,1.0,Taxi
9.200000000000001,0.030637804210641426,-57.33248846117497,15.667599760266981,-0.6536940625048537,1.0102554901994878,280.2401135410439,16.570708217485933,0.0,1.0,0.0,0.0,1.0,Taxi
9.3,-0.12336568558172359,14.016620991913925,15.221918466562231,-0.4317775402642055,-0.3560934800683303,280.07409272372547,17.152394925795104,0.0,1.0,0.0,0.0,1.0,Taxi
9.4,0.04778247179172198,19.523558518304316,16.366496276610278,-0.32613192494813126,0.0301373674427674,280.2108552360594,15.244988617527946,0.0,1.0,0.0,0.0,1.0,Taxi
9.5,0.12825559680216292,30.699979722645924,15.109411597286014,-0.7949550024526854,-1.3341218819363363,280.2061982817761,16.38351012922012,0.0,1.0,0.0,0.0,1.0,Taxi
9.600000000000001,0.030134213031505975,-11.966150189698338,15.787460805413465,-0.5804291596306494,-0.5488383094035321,280.30876697018266,16.85978666814598,0.0,1.0,0.0,0.0,1.0,Taxi
9.700000000000001,-0.012048279156769783,5.713523106980124,16.30941241671175,-0.2833031581365696,-0.9276403196905317,280.1203379989313,16.132527929876307,0.0,1.0,0.0,0.0,1.0,Taxi
9.8,0.15682321233706345,22.973654522576737,15.707259435967941,-0.2924738515103603,-0.3415401899148539,280.4832041020711,15.733809331750953,0.0,1.0,0.0,0.0,1.0,Taxi
9.9,0.14500248564438956,17.70653953932748,15.464218967128161,-0.30705037221731224,-0.5800264241228992,280.1743709471923,16.205890690293653,0.0,1.0,0.0,0.0,1.0,Taxi
10.0,0.07648441853986751,-14.019229734663815,16.116987902550427,-0.31523666099952474,-0.833296655038584,280.35384578808134,15.808313126107496,0.0,1.0,0.0,0.0,1.0,Taxi
10.100000000000001,0.08672706366374427,-53.87109037976213,15.639490676986375,-0.6458369565230571,-0.005954398442752047,280.2865399509933,16.548823440467544,0.0,1.0,0.0,0.0,1.0,Taxi
10.200000000000001,-0.12435296625442115,10.141640455778466,15.675788307997577,-0.4817003227106558,-0.16007201751227149,280.43884795984445,15.74429915765717,0.0,1.0,0.0,0.0,1.0,Taxi
10.3,0.12719262081875973,-2.9660491783890777,16.31474379556889,-0.6630768782769146,-0.14995419308500452,280.1856435371635,15.838216693255038,0.0,1.0,0.0,0.0,1.0,Taxi
10.4,0.07189681777179878,9.898509705007655,15.75666155417623,-0.8828359169699526,0.661633612530156,280.13520682268927,16.115193409806043,0.0,1.0,0.0,0.0,1.0,Taxi
10.5,-0.074860417729383,-81.81127351826929,17.066829931031567,-0.4548462061910592,0.17179719197557136,280.30072312760285,16.215456378779674,0.0,1.0,0.0,0.0,1.0,Taxi
10.600000000000001,-0.2818637467725868,-21.585229563035455,15.413910691759876,-0.7300408752245047,0.7536604222437284,280.29853953805605,15.726970158911731,0.0,1.0,0.0,0.0,1.0,Taxi
10.700000000000001,-0.03602933004337861,-7.695139733440122,16.669652617606904,-0.10136470276397369,0.4255791693888592,280.3419869335182,15.784255499808644,0.0,1.0,0.0,0.0,1.0,Taxi
10.8,-0.11333611639658372,28.73806148743252,15.898641546779405,-0.5247181363585726,-0.09069828474256997,280.1949541977657,15.855708392317633,0.0,1.0,0.0,0.0,1.0,Taxi
10.9,-0.13817343933542434,-30.153894306341062,16.199824230960097,-0.8853152944329747,0.45950605564777286,280.0541921408087,15.81157069294339,0.0,1.0,0.0,0.0,1.0,Taxi
11.0,-0.18679880157508408,22.31888818256283,15.26786311499252,-0.5546983978481191,-0.25265674693618706,280.25969152380094,15.733533628439467,0.0,1.0,0.0,0.0,1.0,Taxi
11.100000000000001,-0.0017416754837697415,10.890411031901879,15.67585343497999,-0.10629578818430352,-0.2665206029046175,280.172335504639,16.625631880027953,0.0,1.0,0.0,0.0,1.0,Taxi
11.200000000000001,-0.08372138417591507,32.21173796205829,16.069342609288434,-0.549208473030535,0.0006102222190081702,280.2658495156029,15.374655462173404,0.0,1.0,0.0,0.0,1.0,Taxi
11.3,-0.02574011176479281,14.724823814998345,15.942624570900618,-0.596230246995602,-0.7056066084829125,280.05481219458693,16.338303478580926,0.0,1.0,0.0,0.0,1.0,Taxi
11.4,0.07188244359122184,30.522090395591587,16.721149644554036,-0.4701999834881597,0.2067809241120711,280.1342326781976,15.37396412863432,0.0,1.0,0.0,0.0,1.0,Taxi
11.5,0.06888906780204272,-16.506724722560275,15.845441970275198,-0.4489075889034742,-0.016894862022687467,280.25562886816135,15.580337249808307,0.0,1.0,0.0,0.0,1.0,Taxi
11.600000000000001,-0.10827373537759435,-30.055968243937713,16.437303462584556,-0.37876867460334845,-0.10455956509544491,280.17346532679755,16.84361296323101,0.0,1.0,0.0,0.0,1.0,Taxi
11.700000000000001,-0.07839739762846688,-32.40569411336117,15.803993535482824,-0.5354061395202285,-0.41699650953489503,280.12658740987524,15.902167719798316,0.0,1.0,0.0,0.0,1.0,Taxi
11.8,-0.09313940276476329,2.137935546879016,16.581160498460406,-0.5279982708304478,-0.1320608638521308,280.19059525040734,16.156298459918304,0.0,1.0,0.0,0.0,1.0,Taxi
11.9,-0.09758405764319941,17.047642023339233,15.167904671221812,-0.6610893629080452,0.34921974123995453,280.2320118185894,15.896532872120234,0.0,1.0,0.0,0.0,1.0,Taxi
12.0,0.006840812488229139,22.396274176267855,17.15193832062612,-0.7094627495433187,0.5497217976257285,280.1742886861232,16.605496694969638,0.0,1.0,0.0,0.0,1.0,Taxi
12.100000000000001,0.018841968116575843,29.422137211683467,16.24611909198304,-0.42190443650246323,-0.1967402827360493,280.26176336621063,16.267150955155497,0.0,1.0,0.0,0.0,1.0,Taxi
12.200000000000001,0.04952662841521779,-43.548675965890226,15.334228450711109,-0.34563071671722434,0.320494646554685,280.2521963802096,16.128120630358605,0.0,1.0,0.0,0.0,1.0,Taxi
12.3,-0.21090256734122215,-18.965911113609405,15.849716870264754,-0.5277951727763829,-0.2926275602685057,280.1888612923924,15.869056273506278,0.0,1.0,0.0,0.0,1.0,Taxi
12.4,-0.07598758745147133,-18.504701378282657,15.153860559912923,-0.621237469226397,0.5256765833677659,280.24941971082535,16.58293468644227,0.0,1.0,0.0,0.0,1.0,Taxi
12.5,-0.04299687847619566,65.47812964979296,15.97420890757511,-0.42595116766599206,0.369805854321356,280.1150349443053,16.368659241921982,0.0,1.0,0.0,0.0,1.0,Taxi
12.600000000000001,0.1164880809077425,25.047029127016373,16.899808549270034,-0.48857480330324576,0.2697164920202806,280.2786266758425,15.783577233451801,0.0,1.0,0.0,0.0,1.0,Taxi
12.700000000000001,0.04924755818361038,-0.7132566002028161,16.9261819868585,-0.6289920367381282,-0.7159885871723538,280.1137085346942,16.230428431133713,0.0,1.0,0.0,0.0,1.0,Taxi
12.8,-0.0465631614772099,-37.73671351406352,14.70327039306949,-0.3230924198258105,-0.26013031828007444,280.13712851255013,15.544044280518033,0.0,1.0,0.0,0.0,1.0,Taxi
12.9,-0.07219548666257525,-2.2207204729263643,16.34580673243704,-0.19677805143014276,0.3913855053610341,280.23855842811554,15.98735198577712,0.0,1.0,0.0,0.0,1.0,Taxi
13.0,0.03814395581897842,-32.81760412090415,15.754423642018516,-0.1975563458968943,0.6754901048784344,280.25624397897514,16.230721530513936,0.0,1.0,0.0,0.0,1.0,Taxi
13.100000000000001,-0.21065118208173078,7.956278253818009,15.440259619782914,-0.5815078436858826,-0.17374051064596943,280.18231605324877,16.457289823975355,0.0,1.0,0.0,0.0,1.0,Taxi
13.200000000000001,-0.032414095393485345,-9.653975149656192,16.112459677081183,-0.526530261768589,-1.2773963160554078,280.304180296209,16.286861394214213,0.0,1.0,0.0,0.0,1.0,Taxi
13.3,-0.010125919929302679,61.29050473065265,16.15576336748624,-0.5385448883569973,1.1433677973187573,280.13228390364975,15.88238892462231,0.0,1.0,0.0,0.0,1.0,Taxi
13.4,0.09580134157153233,-8.436874716452698,16.90081555067187,-0.5044487107013897,-0.5422811370747628,280.18993139636905,16.40574412453107,0.0,1.0,0.0,0.0,1.0,Taxi
13.5,-0.074598468975749,-18.731790549041534,15.45064622090398,-0.8881133176469438,0.20169637997899886,280.1143832246639,16.867080837211596,0.0,1.0,0.0,0.0,1.0,Taxi
13.600000000000001,-0.10378487267451052,-57.89032632167235,17.299637164646136,-0.5704930410052277,0.716241939004101,280.27062219554637,16.5396972309888,0.0,1.0,0.0,0.0,1.0,Taxi
13.700000000000001,-0.19365029003682957,-13.11369675314743,15.835947205874332,-0.8301676205356279,0.14856322648055362,280.210947737914,15.925773483386802,0.0,1.0,0.0,0.0,1.0,Taxi
13.8,-0.1401669527414863,10.176604366842712,16.4066172419831,-0.4344811418720911,0.3717832319789775,280.1138043580273,17.254505872935724,0.0,1.0,0.0,0.0,1.0,Taxi
13.9,-0.05290185084029711,-7.795368396609855,16.38551474908837,-0.35414345261434976,-0.2067171726507715,280.19234878744487,15.451375528909107,0.0,1.0,0.0,0.0,1.0,Taxi
14.0,-0.232627132019879,13.185925006818593,16.768742552824083,-0.38587630825862945,0.4606988749980118,280.26472010671023,16.662498986566774,0.0,1.0,0.0,0.0,1.0,Taxi
14.100000000000001,-0.07423732770739348,-13.37980729336968,15.580650650417027,-0.37718473965292515,0.1537091571367084,280.13710679742417,16.54132155644242,0.0,1.0,0.0,0.0,1.0,Taxi
14.200000000000001,-0.11980088730714565,56.555576733161466,16.401621099897913,-0.22652331916831098,-0.5930763102531474,280.3371653004424,15.681253636975352,0.0,1.0,0.0,0.0,1.0,Taxi
14.3,0.05015075164592817,-4.297468798081212,16.408591554132194,-0.7182456206281049,-0.043763309209762145,280.09070523031244,16.710679903391217,0.0,1.0,0.0,0.0,1.0,Taxi
14.4,-0.0957246716977997,-4.847218031468696,16.371141820585212,-0.2262859024861555,0.3503661315923205,280.1561267483738,17.472037914331594,0.0,1.0,0.0,0.0,1.0,Taxi
14.5,-0.1440369774644893,-24.281704502178826,15.783671925878714,-0.9397743391059725,0.8789779614913817,280.150907109492,16.493641222327994,0.0,1.0,0.0,0.0,1.0,Taxi
14.600000000000001,-0.07125777086496612,31.33402618560838,16.576696989967047,-0.4156899966309208,-0.3542986348874857,280.1024878840983,15.847428651007235,0.0,1.0,0.0,0.0,1.0,Taxi
14.700000000000001,0.06094545923024203,43.405514847938285,16.798608234247883,-0.7024739382802555,-0.30875814630122406,280.1704366673714,16.58062160043519,0.0,1.0,0.0,0.0,1.0,Taxi
14.8,0.07299059677520194,14.136831933206613,16.2250072176234,-0.32092122154391883,-0.04104441119135188,280.1639448832316,15.990739230647657,0.0,1.0,0.0,0.0,1.0,Taxi
14.9,-0.0005736111989332027,-27.729820554130715,15.798396751691202,-0.5014117556595997,0.12738235413403623,280.1801095956498,16.327418852849313,0.0,1.0,0.0,0.0,1.0,Taxi
15.0,-0.07770364354041169,-43.553838141782535,16.958243266287624,-0.2970574195009546,-0.23664142722491235,280.1458374686895,15.367437463843492,0.0,1.0,0.0,0.0,1.0,Taxi
15.100000000000001,-0.1447785939337109,0.435618335295383,15.683984508284729,-0.35375407832364386,0.38370366627735847,280.17883125885055,16.468887015347665,0.0,1.0,0.0,0.0,1.0,Taxi
15.200000000000001,0.0016044804775435665,6.9945330062382745,16.0854917576712,-0.4961444201392569,0.412692924848977,280.19947580370456,16.55834385359848,0.0,1.0,0.0,0.0,1.0,Taxi
15.3,-0.04273097850922046,24.741458479375126,14.60178397717186,-0.40811412691794163,-0.024982943003586316,280.1205874782909,16.717578090379,0.0,1.0,0.0,0.0,1.0,Taxi
15.4,-0.021071301536835414,-9.077143902748928,16.617035086972063,-0.9047490584205509,-0.3536144668288141,280.1920798070382,16.77256015325526,0.0,1.0,0.0,0.0,1.0,Taxi
15.5,-0.04378123903620122,1.6885868721247095,15.142926858412688,-0.3719161075192732,0.27624954620463676,280.10112546267374,16.661478419779282,0.0,1.0,0.0,0.0,1.0,Taxi
15.600000000000001,-0.03428804414859706,9.570338710505252,15.781934329502405,-0.25637232085222106,-0.3190790751578396,280.209300633947,16.205332920295664,0.0,1.0,0.0,0.0,1.0,Taxi
15.700000000000001,0.02678039201569071,26.42569110025389,15.960012544586512,-0.19140048722599673,-0.7048218125117063,280.31415919217284,16.382851583800395,0.0,1.0,0.0,0.0,1.0,Taxi
15.8,0.0883472164650681,1.9072823759071678,15.988537407789561,-0.4263779634975861,0.35465644660876194,280.17037576705127,15.344911208278486,0.0,1.0,0.0,0.0,1.0,Taxi
15.9,-0.024751632269061352,5.75366684094777,15.81151843189105,-0.6970728356569407,0.5358780609141863,280.2430272675142,16.685909235270906,0.0,1.0,0.0,0.0,1.0,Taxi
16.0,0.055548726220429424,6.250731928873634,16.311565680532205,-0.4171320160088172,0.7574691414367042,280.27900881466644,16.92004023231666,0.0,1.0,0.0,0.0,1.0,Taxi
16.1,0.11960087610943614,-25.301178008274437,15.326595208627227,-0.8185800279862354,-0.4717588650907693,280.31258913812553,16.339845623310936,0.0,1.0,0.0,0.0,1.0,Taxi
16.2,-0.15125752231043366,-34.908100851297725,15.601940210665253,-0.20641993474893733,-0.9531357717368099,280.0102406105774,15.904486835312193,0.0,1.0,0.0,0.0,1.0,Taxi
16.3,-0.11899177803605934,-69.56919943660745,15.813790117806032,-0.48674288038324504,-0.4062825397654305,280.1193865227127,16.92762175030186,0.0,1.0,0.0,0.0,1.0,Taxi
16.400000000000002,-0.22824512107360123,51.13418306113547,14.948134810210941,-0.6849729744427606,0.13383094421495198,280.1632371507494,15.53828952970843,0.0,1.0,0.0,0.0,1.0,Taxi
16.5,0.10441339299524355,36.358598539092505,15.51678551007911,-0.440197319639503,0.39906101088549367,280.0872896754497,16.01254993354553,0.0,1.0,0.0,0.0,1.0,Taxi
16.6,0.06280121465940308,24.075983187181848,15.72980933311692,-0.51155339426044,-0.495221101306385,280.2082323040711,15.020899297376607,0.0,1.0,0.0,0.0,1.0,Taxi
16.7,-0.1078652051376921,-15.604352288521659,15.924558943110602,-0.41522371227179244,0.5503953323920595,280.13772648546797,15.216219211374465,0.0,1.0,0.0,0.0,1.0,Taxi
16.8,0.026391631552635127,15.344975425768155,16.883120288012883,-0.5343335505676836,0.4030707581172713,280.2218463555365,15.839662663781077,0.0,1.0,0.0,0.0,1.0,Taxi
16.900000000000002,0.13952609178824374,50.69021653630111,16.821720362520242,-0.5518446443251798,-0.40400957585717673,280.19518814291087,16.27961164130016,0.0,1.0,0.0,0.0,1.0,Taxi
17.0,0.14558587754381333,3.8216643196385056,16.059171649280657,-0.4443530194883551,-0.2526386324418185,280.319556558376,16.02900645238683,0.0,1.0,0.0,0.0,1.0,Taxi
17.1,0.045499953150827534,-50.327783952634,16.69987286495097,-0.3247196289850336,-0.16325725679139466,280.21630357027607,16.38422968571134,0.0,1.0,0.0,0.0,1.0,Taxi
17.2,-0.11211282797492637,-42.052886438725075,16.684046706652712,-0.5990105078056759,-0.06639418142016164,280.27178883547435,16.989352922795437,0.0,1.0,0.0,0.0,1.0,Taxi
17.3,-0.06467855464981215,-2.4646256838679412,17.055006371175764,-0.3029706965319061,0.5982943687957831,280.33126049602834,15.654739945727677,0.0,1.0,0.0,0.0,1.0,Taxi
17.400000000000002,0.03317682473148769,23.641021981093576,15.56217736367476,-0.19303709455044504,0.12239827809935358,280.1311660516544,16.669651392414266,0.0,1.0,0.0,0.0,1.0,Taxi
17.5,0.006092281930541361,18.44452184513852,15.654476121583873,-0.7412521343209879,-0.7745390957396739,280.30815470471066,15.96715466679429,0.0,1.0,0.0,0.0,1.0,Taxi
17.6,0.027544054575880324,-59.10764194696276,15.447302519357008,-0.49235339902457925,-0.28219318347100564,280.18002591340564,15.957909174355889,0.0,1.0,0.0,0.0,1.0,Taxi
17.7,-0.26236138500332623,-0.47310684371264716,16.17111137086859,-0.6592101086598556,-0.14711655643271557,280.03013852416143,15.716804486759841,0.0,1.0,0.0,0.0,1.0,Taxi
17.8,0.0037267477119780263,19.62987290521217,15.478506337199859,-0.23456100787401046,0.2886272157933273,280.2658554811595,16.149764832882806,0.0,1.0,0.0,0.0,1.0,Taxi
17.900000000000002,0.12569341910194107,55.98331468518501,16.45722815350492,-0.2972896357805017,0.21493542236783109,280.13143543210776,16.0767667012112,0.0,1.0,0.0,0.0,1.0,Taxi
18.0,0.017555188422598702,11.445204072595466,16.08499927101666,-0.6419460962588988,-0.6999116111069669,280.2557289393401,17.27140127808252,0.0,1.0,0.0,0.0,1.0,Taxi
18.1,0.06095276807495523,-42.83733665841464,16.14130237284494,-0.34839709369802374,0.6854142361978448,280.3363855805924,15.767595107227319,0.0,1.0,0.0,0.0,1.0,Taxi
18.2,-0.08849326419013229,5.817870813430062,16.298970770374446,-0.412766560164405,0.316947748951152,280.2379509003398,16.720283931243724,0.0,1.0,0.0,0.0,1.0,Taxi
18.3,0.046644542489748864,-19.69975049692621,15.63655118084846,-0.18363007465255565,0.3257479601160032,280.12328950139863,16.615313755163108,0.0,1.0,0.0,0.0,1.0,Taxi
18.400000000000002,-0.03754598440967596,17.87825590403175,15.756798207742621,-0.7696836879366926,0.0775844303148819,280.280186790103,16.608511190672765,0.0,1.0,0.0,0.0,1.0,Taxi
18.5,0.0008980153300263276,7.374938218787932,15.927897413353476,-0.13313401274562503,-0.12610781321575287,280.3728025193616,15.875422147080227,0.0,1.0,0.0,0.0,1.0,Taxi
18.6,0.08351923358368839,12.902735121254592,16.43374166187592,-0.6743374834038736,0.4287987053575204,280.3239013786292,16.567782398443253,0.0,1.0,0.0,0.0,1.0,Taxi
18.7,0.026967691196596862,14.752155295653429,15.204333563444695,-0.06073551917834685,0.2798159967983384,280.18279268306264,15.004168495352005,0.0,1.0,0.0,0.0,1.0,Taxi
18.8,0.07465879180829331,-12.117465719015337,16.21077667129041,-0.408099989407676,0.03181069500786222,280.392225565173,15.25936981179652,0.0,1.0,0.0,0.0,1.0,Taxi
18.900000000000002,0.022931904988611564,-20.06604227884433,15.531496975177914,-0.41049748944228803,-0.4246166951252457,280.00085596713734,15.753768380209005,0.0,1.0,0.0,0.0,1.0,Taxi
19.0,-0.07336252019762493,-40.91079365214183,15.5618101752355,-0.622586293018222,0.35269791431040165,280.42255982990764,16.177201755955803,0.0,1.0,0.0,0.0,1.0,Taxi
19.1,-0.12989517645241597,22.102021414798163,14.862957156692277,-0.5746779639879718,-0.3415256573825658,280.2543484023852,16.018740034246164,0.0,1.0,0.0,0.0,1.0,Taxi
19.200000000000003,0.1334420120626022,-1.2953104488413107,16.27562497499068,-0.45607908187005497,0.4201120680259507,280.1584149104501,15.917953568066556,0.0,1.0,0.0,0.0,1.0,Taxi
19.3,-0.07983907244183164,60.36996468916116,15.629940727290908,-0.38457033372385835,0.21012574697090336,280.2033880825861,16.064055257802533,0.0,1.0,0.0,0.0,1.0,Taxi
19.400000000000002,0.1719546469933897,-60.3748062060457,15.620916158004214,-0.6359984885467944,-0.01725780351850218,280.3592188412432,16.735045411875976,0.0,1.0,0.0,0.0,1.0,Taxi
19.5,-0.16843201896762636,-7.078641881386151,15.63582449956796,-0.4425551020690228,0.19982185971431266,280.21380742227234,15.896366533260322,0.0,1.0,0.0,0.0,1.0,Taxi
19.6,-0.11523228184876247,-28.059630512618924,15.694879358955843,-0.3645653551290343,0.293193676864098,280.28897532514316,16.700807715604192,0.0,1.0,0.0,0.0,1.0,Taxi
19.700000000000003,0.03165649443029496,37.42883770925694,15.914007875600975,-0.6454741231186624,-0.20855208893615834,280.1776614185728,16.891922286758213,0.0,1.0,0.0,0.0,1.0,Taxi
19.8,0.01871216957865817,8.173495640563674,16.418866605614966,-0.5174284638459886,0.19785162583282095,279.9889081162363,16.25239560796756,0.0,1.0,0.0,0.0,1.0,Taxi
19.900000000000002,-0.07436480364594428,-63.80742014804006,16.5285502255799,-0.4538411692076855,-0.22710396236675068,280.22696905557655,16.38216579203369,0.0,1.0,0.0,0.0,1.0,Taxi
20.0,-0.28738060630990553,-19.20253684181252,16.910165115054763,-0.24853854459095706,0.7667360579756711,280.1776356078334,16.316009763365003,0.0,1.0,0.0,0.0,1.0,Taxi
20.1,-0.07730051463040459,46.104221191559255,15.660881647262482,-0.37140035156668627,0.4094161534558098,280.1369129700272,16.89205488276067,0.0,1.0,0.0,0.0,1.0,Taxi
20.200000000000003,0.15615630231185185,24.875087023274688,15.447413111996864,-0.6668217822394635,-0.008501023167440927,280.216008210655,15.784758185459218,0.0,1.0,0.0,0.0,1.0,Taxi
20.3,-0.1630051711935322,12.096585149477937,16.36892240939933,-0.7339518474911448,-0.4409955220112762,280.27350118888285,16.110083142246893,0.0,1.0,0.0,0.0,1.0,Taxi
20.400000000000002,-0.016817588883015083,-37.28348699757632,14.726077724895866,-0.33720681278279857,-0.041947452148669594,280.1790083705522,15.833292340731594,0.0,1.0,0.0,0.0,1.0,Taxi
20.5,-0.03026113267602995,22.912383856734778,16.660733817805493,-0.6330548982964731,0.32633020221360565,280.2592245654315,16.69184848757946,0.0,1.0,0.0,0.0,1.0,Taxi
20.6,-0.0484432519098585,16.604696723467853,17.374215356408772,-0.2595345333252612,-0.23153504901278182,280.2245654318574,16.181471534155243,0.0,1.0,0.0,0.0,1.0,Taxi
20.700000000000003,0.066205894734324,-28.94300082001838,15.501549209521766,-0.7391893387942183,-0.6722173382959177,280.07961385841486,16.33989001590312,0.0,1.0,0.0,0.0,1.0,Taxi
20.8,-0.174976136776122,37.102270350692685,16.535019722517884,-0.5378920829868162,-0.20464567174794734,280.1811766434589,15.59422090842564,0.0,1.0,0.0,0.0,1.0,Taxi
20.900000000000002,0.13706809984360477,-4.498461051742164,16.309381083264068,-0.3763409611455917,0.4772168312921514,280.11932726938403,17.13979679161998,0.0,1.0,0.0,0.0,1.0,Taxi
21.0,0.043713589475613025,23.90658855140828,15.842556136088879,-0.5776930500224848,0.019871347544153248,280.0609198900943,16.230928912188524,0.0,1.0,0.0,0.0,1.0,Taxi
21.1,-0.055443194019080794,-37.95785236584762,16.490110913066157,-0.25572770997392125,0.1980972413254722,280.2096652312807,17.03044114813813,0.0,1.0,0.0,0.0,1.0,Taxi
21.200000000000003,-0.05272116198563351,-27.145938194337987,16.09453125620625,-0.18796105124927975,0.20580693876472633,280.38437495105256,16.356135623158472,0.0,1.0,0.0,0.0,1.0,Taxi
21.3,-0.0920161014960771,29.681862291162883,15.400220867924004,-0.9081989164472011,-0.3516682152970728,280.0097744174175,15.280904786385996,0.0,1.0,0.0,0.0,1.0,Taxi
21.400000000000002,0.09296611743673344,15.512568781273673,15.518148871826586,-0.7052049769914787,0.1317770295688335,280.3470994408418,16.065344638828613,0.0,1.0,0.0,0.0,1.0,Taxi
21.5,0.024841681920734694,38.647150197346036,16.02500279662259,-0.5197619867887067,-0.11641219678794519,280.21425102414844,16.57407697134211,0.0,1.0,0.0,0.0,1.0,Taxi
21.6,0.10121964949065294,-26.17702611055388,15.266919413170962,-0.31041917058290475,-0.8082544464452864,280.3349918671711,16.593768757747252,0.0,1.0,0.0,0.0,1.0,Taxi
21.700000000000003,-0.037919013116036085,-40.97624951996747,14.759237669703928,-0.6708782446799345,-0.4692532279466202,280.33751881790863,16.22080519089816,0.0,1.0,0.0,0.0,1.0,Taxi
21.8,-0.18003956567910281,-48.157354632933824,16.519932202179838,-0.44564684633961116,-0.4899456359283322,280.35979484022846,15.868779164981575,0.0,1.0,0.0,0.0,1.0,Taxi
21.900000000000002,-0.13956712367401639,10.105115490250464,15.883504245388425,-0.5655637379985723,-0.6921244279809732,280.2754704835967,16.486197277695545,0.0,1.0,0.0,0.0,1.0,Taxi
22.0,0.012606564335216043,40.84490764007913,14.677627748937796,-0.5493399623915407,0.03513277473246185,280.1084545757385,15.594740366275559,0.0,1.0,0.0,0.0,1.0,Taxi
22.1,0.02418497252129266,39.43762252437484,16.19518581904304,-0.3873832253791666,0.0963408360528066,280.15282918454034,16.222426636083846,0.0,1.0,0.0,0.0,1.0,Taxi
22.200000000000003,0.05762098894785764,-27.046643991351676,16.35165198149647,-0.34904090944987076,0.140857938942945,280.23775283146483,16.297427863123616,0.0,1.0,0.0,0.0,1.0,Taxi
22.3,-0.12262665562154251,-10.106840999462642,16.721080634438593,-0.3562787850694627,0.12813357334706008,280.1631597141038,15.705330349378267,0.0,1.0,0.0,0.0,1.0,Taxi
22.400000000000002,-0.026349232476020723,-7.4306120611213435,15.88736427988094,-0.8944234485682068,0.3219056852698324,280.34653746548963,16.37522465178681,0.0,1.0,0.0,0.0,1.0,Taxi
22.5,0.020467928642250752,64.17980140854105,16.15431391072796,-0.25721323478464664,-0.39620334243806626,280.2709571992325,16.183568660197412,0.0,1.0,0.0,0.0,1.0,Taxi
22.6,0.1982723514211626,43.65820480875357,16.232940081273597,-0.6869542100471611,-0.5055979353951487,280.32861579531414,16.10708003751946,0.0,1.0,0.0,0.0,1.0,Taxi
22.700000000000003,0.19194179156774693,-17.890844095119235,16.34089242681842,-0.7775093109476428,0.2780921730316428,280.14870919755845,15.314537859488233,0.0,1.0,0.0,0.0,1.0,Taxi
22.8,-0.06898629183334558,-23.997313091169598,16.48700205998012,-0.5024095503884841,0.24830128812462238,280.2724411560861,16.22260880474869,0.0,1.0,0.0,0.0,1.0,Taxi
22.900000000000002,0.07828578596531446,-57.33702335258389,15.387272769338875,-0.4759717263735533,0.5239677824806246,280.1001452303399,15.826883043898219,0.0,1.0,0.0,0.0,1.0,Taxi
23.0,-0.09474332519517267,19.713217587574814,15.514828727409453,-0.47036154179357736,-0.24224289931590356,280.22902400004045,16.659019391523287,0.0,1.0,0.0,0.0,1.0,Taxi
23.1,0.029579796104528357,-4.232899839417471,16.15727748436193,-0.8203294673653326,-0.09017235030391993,280.21166298069716,16.22503484778331,0.0,1.0,0.0,0.0,1.0,Taxi
23.200000000000003,0.05712128676822695,21.301416164635953,15.367441565921624,-0.3381400597481917,0.9124597519570788,280.1762525654151,16.33870201370414,0.0,1.0,0.0,0.0,1.0,Taxi
23.3,0.01176375562800692,1.1604179543606143,15.502946486965719,-0.8975310788434352,0.24676090611876128,280.1662009100562,16.201937259439806,0.0,1.0,0.0,0.0,1.0,Taxi
23.400000000000002,0.03538188587633125,3.795814167597596,15.79995193473155,-0.5017601369347472,0.6724675835894746,280.0909904622471,16.33748962055344,0.0,1.0,0.0,0.0,1.0,Taxi
23.5,0.07610035760621475,-10.73140712261804,15.42926601438087,-0.3207023585991602,0.4114748206894018,280.0912056347114,16.207134859057064,0.0,1.0,0.0,0.0,1.0,Taxi
23.6,-0.04189327998508345,18.183938071330754,16.86991225873563,-0.5620321092505566,-0.3612239722132508,280.42439432395133,15.163849694330777,0.0,1.0,0.0,0.0,1.0,Taxi
23.700000000000003,0.12630157623298485,-36.52727910516054,16.334936230540404,-0.23134452357574498,-0.3416083576639115,280.28638766852737,16.2305724261497,0.0,1.0,0.0,0.0,1.0,Taxi
23.8,-0.10653603791958809,-6.792803440689528,15.490587554804803,-0.3472283339911588,0.010732046882583555,280.08375975894523,15.954302239703592,0.0,1.0,0.0,0.0,1.0,Taxi
23.900000000000002,-0.07585729718853125,-37.38335023866173,15.73046685294637,-0.49213748641028526,0.14470456598105416,280.2158895671995,16.6527781546022,0.0,1.0,0.0,0.0,1.0,Taxi
24.0,-0.06061517496032396,52.13623315505845,15.883472292768282,-0.4119795485466844,0.12213598643696351,280.1779767540015,16.19949793119756,0.0,1.0,0.0,0.0,1.0,Taxi
24.1,0.15414512785570403,41.20847068818586,15.540152035555177,-0.4798675129675646,-0.2613531088095831,280.1994410343758,16.337873559031085,0.0,1.0,0.0,0.0,1.0,Taxi
24.200000000000003,0.13018505625239793,34.144738665084255,17.42413282601067,-0.544584273134292,0.3755897620605532,280.1653551202496,15.938514486326316,0.0,1.0,0.0,0.0,1.0,Taxi
24.3,0.11010851836509719,-32.616129514937654,16.181367902388452,-0.5139879447932372,-0.5926014646340054,280.24397859408066,16.514436505789046,0.0,1.0,0.0,0.0,1.0,Taxi
24.400000000000002,-0.00893551971898438,15.820664402072788,15.810176203596583,-0.6206835546522982,-0.14139387660611455,280.22052086417807,16.510755564109292,0.0,1.0,0.0,0.0,1.0,Taxi
24.5,0.20928837826276175,-20.324171423375162,16.58263044845247,-0.2228574622410546,-0.773849832753953,280.3303723242766,16.076003827949837,0.0,1.0,0.0,0.0,1.0,Taxi
24.6,0.008487661248221246,23.025410968047055,17.399087072348593,-0.44079268727726273,-0.27971989750718235,280.3310245964317,16.358854481777403,0.0,1.0,0.0,0.0,1.0,Taxi
24.700000000000003,0.10619153512125075,-4.562237439632876,16.632507645206644,-0.37514641994918,-0.2951392160214064,280.1043061908704,15.994573425650982,0.0,1.0,0.0,0.0,1.0,Taxi
24.8,0.18647719106459723,-11.393693549908988,16.30707152389176,-0.21698813140038864,0.13259129968710254,280.24169255771346,15.411009729382767,0.0,1.0,0.0,0.0,1.0,Taxi
24.900000000000002,-0.048480806501323824,-17.986621283314292,15.67380443238453,-0.15464871549188647,0.4411979494771031,280.02868658666534,16.27772573412886,0.0,1.0,0.0,0.0,1.0,Taxi
25.0,0.016258428704679168,-16.497575156502197,15.831980327433584,-0.17525899775404297,-0.2866097593633926,280.12131626265705,16.247913463696722,0.0,1.0,0.0,0.0,1.0,Taxi
25.1,0.1039893152820861,26.401309628278998,15.643623685731031,-0.2784696060112307,-0.05971786131056721,280.1795394295019,16.487992705883848,0.0,1.0,0.0,0.0,1.0,Taxi
25.200000000000003,0.08352574164007104,16.540809778770257,15.730609241016015,-0.3694541958378783,0.31672252440823484,280.2799821393136,16.92191354526269,0.0,1.0,0.0,0.0,1.0,Taxi
25.3,0.0989624775985303,-20.769867518422306,16.489339557630718,-0.6149935431190146,-0.10235800213650265,280.20959753337956,16.78047397115974,0.0,1.0,0.0,0.0,1.0,Taxi
25.400000000000002,0.00013997768997442135,14.517905078140409,15.992576244354673,-0.3264760318132359,0.06061548030914284,280.0415910304655,15.788586765890056,0.0,1.0,0.0,0.0,1.0,Taxi
25.5,0.15611526703077294,6.048707084949701,15.392137757692815,-0.4633047943230209,-0.23455831206544986,280.0689669631106,15.998559646360393,0.0,1.0,0.0,0.0,1.0,Taxi
25.6,0.12920601302327867,7.175155551848495,15.722279569394553,-0.3982580388854669,0.47461551521558093,280.30480945365093,15.351505100565973,0.0,1.0,0.0,0.0,1.0,Taxi
25.700000000000003,0.03601575544921677,-37.978129201372425,16.732247109007325,-0.991677734114168,1.1798511103982563,280.26516291673215,16.19634464896411,0.0,1.0,0.0,0.0,1.0,Taxi
25.8,-0.033775378976089315,6.5793031142179546,15.070931051069826,-0.18880000328257396,0.5567631853762364,280.236440505696,15.729726653196552,0.0,1.0,0.0,0.0,1.0,Taxi
25.900000000000002,0.1621025285943683,-33.33897491353573,16.88236915818939,-0.31208280823827966,-0.74123335519991,280.08999297829064,16.711369841286178,0.0,1.0,0.0,0.0,1.0,Taxi
26.0,-0.13067911911846203,27.18632602423793,15.139426561398952,-0.4829467306835945,-0.8838367171893723,280.2013313248307,15.408418814601253,0.0,1.0,0.0,0.0,1.0,Taxi
26.1,0.10215625114510019,-35.769463580160654,15.836991262494942,-0.7940762040610633,-0.1534133680662019,280.03258542335743,15.857900073201304,0.0,1.0,0.0,0.0,1.0,Taxi
26.200000000000003,-0.016744789306435127,17.25776449453011,16.092974867746086,-0.14523360044396344,-0.4473525251600484,280.4042980277279,15.530789749531053,0.0,1.0,0.0,0.0,1.0,Taxi
26.3,-0.0443902966458116,-0.2889134740800898,14.692781499684088,-0.7876489728733065,-0.2328290651392833,280.24729197760666,15.36562270951278,0.0,1.0,0.0,0.0,1.0,Taxi
26.400000000000002,0.10071168377469959,-13.829358668009215,15.785520893821744,-0.2960979178485085,-0.2845795801318826,279.9275228942022,15.76554496901023,0.0,1.0,0.0,0.0,1.0,Taxi
26.5,-0.08589158264648133,-8.828808229244137,16.49791976847363,-0.42277716255913056,-0.5428349942785587,280.3130802962796,16.120769996194067,0.0,1.0,0.0,0.0,1.0,Taxi
26.6,-0.08853433779203242,-12.001123888658347,16.226379113449365,-0.5550805058959195,-0.35075195712860874,280.30700432509525,16.667716540568332,0.0,1.0,0.0,0.0,1.0,Taxi
26.700000000000003,0.04070606433140773,5.664375464666894,15.974091702985241,-0.8241172168487767,-0.05733842729410636,280.3358785987414,16.928724649962547,0.0,1.0,0.0,0.0,1.0,Taxi
26.8,-0.05756970532314701,27.057437149620295,15.936003212514324,-0.43026917348203086,-0.17755201378658403,280.1920884438907,16.80274263002866,0.0,1.0,0.0,0.0,1.0,Taxi
26.900000000000002,0.04675284795606893,0.7537434913126678,15.5721477955477,-0.468432708630114,-0.411661708043858,280.10165900823154,16.362941594466047,0.0,1.0,0.0,0.0,1.0,Taxi
27.0,0.04447478178797094,30.430455819846333,15.649574375940828,-0.31256217210293924,0.3929135556989628,280.06512863557714,16.752358242827214,0.0,1.0,0.0,0.0,1.0,Taxi
27.1,0.09458257377608455,-7.711382073388421,16.023190679870186,-0.6741030668113097,0.3081836634187992,280.23834432866,15.74342276873509,0.0,1.0,0.0,0.0,1.0,Taxi
27.200000000000003,0.008195937589126704,-38.41987347781389,16.161487330608004,-0.3768771819409746,-0.5772710062656974,280.3025165224817,15.680247090400655,0.0,1.0,0.0,0.0,1.0,Taxi
27.3,-0.1476245856010986,-19.33217385737875,16.006198704502545,-0.5308447421410577,0.16681646705439687,280.1189144315765,16.412582665594936,0.0,1.0,0.0,0.0,1.0,Taxi
27.400000000000002,-0.002078295510809317,5.25994539615695,15.543911267711982,-0.7247773356210514,0.6816752739190357,280.0770481144632,15.448491021374092,0.0,1.0,0.0,0.0,1.0,Taxi
27.5,0.03449566456991134,32.82460796846157,15.603226192681724,-0.6226062072028218,-0.08424226026436936,280.19781678760296,16.618899410907513,0.0,1.0,0.0,0.0,1.0,Taxi
27.6,0.016498454241209156,0.5732767998242867,15.871879873814851,-0.32894099194402737,-0.8075755601530815,280.22594342566583,16.549887169656138,0.0,1.0,0.0,0.0,1.0,Taxi
27.700000000000003,0.0007880884883119839,-27.734923745894694,15.871651244450401,-0.8460058224447489,1.4910131228198469,280.41391555383757,17.139274952497754,0.0,1.0,0.0,0.0,1.0,Taxi
27.8,-0.10417895415956227,15.448687334641528,15.028378207187318,-0.37551364770739626,0.43420325917246355,280.1201149433409,16.556291949736273,0.0,1.0,0.0,0.0,1.0,Taxi
27.900000000000002,0.09374189091441666,2.965590937788349,15.725628779747078,-0.8043536296850848,0.6145048793349273,280.19121081502317,16.471402689408894,0.0,1.0,0.0,0.0,1.0,Taxi
28.0,0.015616043177253581,10.269277707443749,15.461254847814846,-0.7121574658088254,-1.0986568775995986,280.16613708410796,15.051142707598245,0.0,1.0,0.0,0.0,1.0,Taxi
28.1,-0.05283256562234365,-8.116223492897833,15.202855895176821,-0.510473287804958,0.15760186960446876,280.2574057730551,16.467294713899086,0.0,1.0,0.0,0.0,1.0,Taxi
28.200000000000003,0.05316077344992737,-57.35202015720886,16.232424959475846,-0.8292323526851096,-0.3024096536645803,280.13560308836145,15.67615286700981,0.0,1.0,0.0,0.0,1.0,Taxi
28.3,-0.27114405760879084,15.724834190568194,16.980963044014423,-0.43223740906253305,-1.3467346252289285,280.18118575012863,15.709828347307088,0.0,1.0,0.0,0.0,1.0,Taxi
28.400000000000002,0.02579160533049725,5.844501329429576,15.434319595880519,-0.344907165601091,-0.30536303330376846,280.3196497796922,16.880718610586044,0.0,1.0,0.0,0.0,1.0,Taxi
28.5,0.08238328009707517,55.18935300560252,15.704408020237928,-0.24204200253903083,-0.3482627419009325,280.1356532374872,15.696459960107477,0.0,1.0,0.0,0.0,1.0,Taxi
28.6,0.004802707419221654,4.137231064472778,16.389448634113847,-0.3324044366824961,0.23355653846699,280.1140365303513,15.925302289505892,0.0,1.0,0.0,0.0,1.0,Taxi
28.700000000000003,0.046477760652861064,-14.341417212224135,15.423020720683724,-0.43510144545708684,0.7150528103007159,280.2697966295091,16.85026285527079,0.0,1.0,0.0,0.0,1.0,Taxi
28.8,0.01067619403595442,-0.29488686420703125,16.631704425759068,-0.6669550890027688,0.1926039057184768,280.15772382080786,15.999021281891299,0.0,1.0,0.0,0.0,1.0,Taxi
28.900000000000002,0.0033282730981864157,-16.846011477410173,15.938707436273685,0.12836423157634214,-0.29152563850674235,280.03461857391596,16.54342735952063,0.0,1.0,0.0,0.0,1.0,Taxi
29.0,-0.03775229673418988,-0.038620335807245,15.762330663411763,-0.45559270008580754,-0.8271023996007756,280.1222627344084,16.552636364773885,0.0,1.0,0.0,0.0,1.0,Taxi
29.1,0.010483092356918113,1.3014172738494425,16.025549409395797,-0.5326326985945484,-0.5450191297363882,280.170243209716,16.04257016331651,0.0,1.0,0.0,0.0,1.0,Taxi
29.200000000000003,0.009835359467433545,-4.0508611723065675,15.222249788255354,-0.5371346286685061,-1.5704653865060032,280.099168986245,16.74158285094749,0.0,1.0,0.0,0.0,1.0,Taxi
29.3,-0.0580066025957228,-29.435390302215424,16.50047303983785,-0.31535243072139196,0.43462306485981406,280.1172771505227,16.213947414740183,0.0,1.0,0.0,0.0,1.0,Taxi
29.400000000000002,-0.13669385915415908,-7.3284823058198185,15.484601036108895,-0.2847407415488069,0.2651202674473877,280.1770445861639,15.390018426950384,0.0,1.0,0.0,0.0,1.0,Taxi
29.5,-0.02680705206166561,35.597606189376116,17.218871018127405,-0.4711471069834793,-0.21593444140715473,280.31091164048917,15.923555590528856,0.0,1.0,0.0,0.0,1.0,Taxi
29.6,0.11998142835115772,35.757374484520135,15.395213680189814,-0.08177542066822913,-0.358612199387412,280.27370699919425,16.551418833544066,0.0,1.0,0.0,0.0,1.0,Taxi
29.700000000000003,0.042093013268441476,17.514743791317567,15.558767173790875,-0.5379597948361408,1.2225229886687135,280.2898228750844,17.189926588105717,0.0,1.0,0.0,0.0,1.0,Taxi
29.8,0.06076666689492213,-17.813035472196347,14.985316496636242,-0.37418808351401744,-0.06160151105613447,280.2363157643722,16.123130529704287,0.0,1.0,0.0,0.0,1.0,Taxi
29.900000000000002,0.0309162509901759,-4.634746597210416,16.197824359572728,-0.4231170421131978,0.0467424045266995,280.11783690969935,15.374140812368223,0.0,1.0,0.0,0.0,1.0,Taxi
30.0,0.0189192802823893,-42.26459028306848,15.482363566123905,-0.31216190164923174,-0.06003328244554709,280.4338772158645,16.014689972246398,0.0,1.0,0.0,0.0,1.0,Taxi
30.1,-0.15055628452042036,-0.6353061630515953,15.754855407732494,-0.4921720903443227,0.1684292566778189,280.1389164590472,15.806105649928398,0.0,1.0,0.0,0.0,1.0,Taxi
30.200000000000003,0.027739720174917826,13.158580411422157,15.867174817380159,-0.5537347454111334,-1.3413708529367208,280.1422703697667,15.942426107518527,0.0,1.0,0.0,0.0,1.0,Taxi
30.3,0.08471218233949998,47.22334827022649,15.329992083216824,-0.579201586386535,1.0654903718667301,280.42060943536103,16.04215013546772,0.0,1.0,0.0,0.0,1.0,Taxi
30.400000000000002,0.08556045683071196,-32.56230562694628,16.605182150518136,-0.3291123568900365,-0.052286753211175284,280.1235326891873,15.097407056764514,0.0,1.0,0.0,0.0,1.0,Taxi
30.5,-0.13507180795981363,-43.956798059862706,16.157103024179655,-0.49229789303580623,0.6603790486978637,280.30807757007324,17.614003538932547,0.0,1.0,0.0,0.0,1.0,Taxi
30.6,-0.13507180795981363,-44.12645295810511,14.149858322898108,0.9694977891810528,-0.19984912025514467,280.30807757007324,88.91936871742848,1.0,1.0,13.229634403149053,0.0,1.0,Takeoff
30.700000000000003,-0.13507180795981363,0.0,14.673702183404355,0.9694977891810528,-0.19984912025514467,280.30807757007324,88.79203034914278,1.0,1.0,13.229634403149053,0.0,1.0,Takeoff
30.8,-0.13507180795981363,0.0,14.510162092659995,0.9694977891810528,-0.19984912025514467,280.30807757007324,88.88157186830145,1.0,1.0,13.229634403149053,0.0,1.0,Takeoff
30.900000000000002,-0.13507180795981363,0.0,16.769792449624838,0.9694977891810528,-0.19984912025514467,280.30807757007324,88.45241110302618,1.0,1.0,13.229634403149053,0.0,1.0,Takeoff
31.0,-0.13507180795981363,0.0,15.975320505366255,0.9694977891810528,-0.19984912025514467,280.30807757007324,88.81218419993306,1.0,1.0,13.229634403149053,0.0,1.0,Takeoff
31.1,-0.13507180795981363,0.0,17.63534866192769,0.9694977891810528,-0.19984912025514467,280.30807757007324,88.8811907682004,1.0,1.0,13.229634403149053,0.0,1.0,Takeoff
31.200000000000003,-0.13507180795981363,0.0,18.49456080391367,0.9694977891810528,-0.19984912025514467,280.30807757007324,88.06781213358734,1.0,1.0,13.229634403149053,0.0,1.0,Takeoff
31.3,-0.13507180795981363,0.0,19.28649888684359,0.9694977891810528,-0.19984912025514467,280.30807757007324,88.72836386161788,1.0,1.0,13.229634403149053,0.0,1.0,Takeoff
31.400000000000002,-0.13507180795981363,0.0,20.036040624987628,0.9694977891810528,-0.19984912025514467,280.30807757007324,88.29666315783267,1.0,1.0,13.229634403149053,0.0,1.0,Takeoff
31.5,-0.13507180795981363,0.0,20.863614880433797,0.9694977891810528,-0.19984912025514467,280.30807757007324,89.07572207400068,1.0,1.0,13.229634403149053,0.0,1.0,Takeoff
31.6,-0.13507180795981363,0.0,20.064270152832222,0.9694977891810528,-0.19984912025514467,280.30807757007324,88.39840273463457,1.0,1.0,13.229634403149053,0.0,1.0,Takeoff
31.700000000000003,-0.13507180795981363,0.0,21.681366000591964,0.9694977891810528,-0.19984912025514467,280.30807757007324,88.02625664956287,1.0,1.0,13.229634403149053,0.0,1.0,Takeoff
31.8,-0.13507180795981363,0.0,21.584991953570185,0.9694977891810528,-0.19984912025514467,280.30807757007324,88.55859799739676,1.0,1.0,13.229634403149053,0.0,1.0,Takeoff
31.900000000000002,-0.13507180795981363,0.0,24.246140377058193,0.9694977891810528,-0.19984912025514467,280.30807757007324,88.68530533697795,1.0,1.0,13.229634403149053,0.0,1.0,Takeoff
32.0,-0.13507180795981363,0.0,23.45229354289708,0.9694977891810528,-0.19984912025514467,280.30807757007324,88.42768603563533,1.0,1.0,13.229634403149053,0.0,1.0,Takeoff
32.1,-0.13507180795981363,0.0,23.409472360641118,0.9694977891810528,-0.19984912025514467,280.30807757007324,88.44119841835578,1.0,1.0,13.229634403149053,0.0,1.0,Takeoff
32.2,-0.13507180795981363,0.0,25.145470092446175,0.9694977891810528,-0.19984912025514467,280.30807757007324,89.10770593413791,1.0,1.0,13.229634403149053,0.0,1.0,Takeoff
32.300000000000004,-0.13507180795981363,0.0,24.99930833931193,0.9694977891810528,-0.19984912025514467,280.30807757007324,88.93947005607242,1.0,1.0,13.229634403149053,0.0,1.0,Takeoff
32.4,-0.13507180795981363,0.0,28.05150321342069,0.9694977891810528,-0.19984912025514467,280.30807757007324,88.89941118389757,1.0,1.0,13.229634403149053,0.0,1.0,Takeoff
32.5,-0.13507180795981363,0.0,26.34897572104759,0.9694977891810528,-0.19984912025514467,280.30807757007324,88.78383555290081,1.0,1.0,13.229634403149053,0.0,1.0,Takeoff
32.6,-0.13507180795981363,0.0,28.412034544786785,0.9694977891810528,-0.19984912025514467,280.30807757007324,88.43428912712908,1.0,1.0,13.229634403149053,0.0,1.0,Takeoff
32.7,-0.13507180795981363,0.0,29.584764524937572,0.9694977891810528,-0.19984912025514467,280.30807757007324,89.23715700878391,1.0,1.0,13.229634403149053,0.0,1.0,Takeoff
32.800000000000004,-0.13507180795981363,0.0,28.51957288888277,0.9694977891810528,-0.19984912025514467,280.30807757007324,88.71698998904267,1.0,1.0,13.229634403149053,0.0,1.0,Takeoff
32.9,-0.13507180795981363,0.0,31.140679560536892,0.9694977891810528,-0.19984912025514467,280.30807757007324,88.63323132435207,1.0,1.0,13.229634403149053,0.0,1.0,Takeoff
33.0,-0.13507180795981363,0.0,30.79688359774077,0.9694977891810528,-0.19984912025514467,280.30807757007324,88.50086207002298,1.0,1.0,13.229634403149053,0.0,1.0,Takeoff
33.1,-0.13507180795981363,0.0,29.918751992605575,0.9694977891810528,-0.19984912025514467,280.30807757007324,88.69558151371655,1.0,1.0,13.229634403149053,0.0,1.0,Takeoff
33.2,-0.13507180795981363,0.0,31.223309592121552,0.9694977891810528,-0.19984912025514467,280.30807757007324,88.68156625009219,1.0,1.0,13.229634403149053,0.0,1.0,Takeoff
33.300000000000004,-0.13507180795981363,0.0,33.779856109661374,0.9694977891810528,-0.19984912025514467,280.30807757007324,88.7443482254545,1.0,1.0,13.229634403149053,0.0,1.0,Takeoff
33.4,-0.13507180795981363,0.0,34.32845697903897,0.9694977891810528,-0.19984912025514467,280.30807757007324,89.39303613989227,1.0,1.0,13.229634403149053,0.0,1.0,Takeoff
33.5,-0.13507180795981363,0.0,34.81244982187767,0.9694977891810528,-0.19984912025514467,280.30807757007324,89.03979621687961,1.0,1.0,13.229634403149053,0.0,1.0,Takeoff
33.6,-0.13507180795981363,0.0,34.45219921465168,0.9694977891810528,-0.19984912025514467,280.30807757007324,88.82140684476174,1.0,1.0,13.229634403149053,0.0,1.0,Takeoff
33.7,-0.13507180795981363,0.0,36.04484885201802,0.9694977891810528,-0.19984912025514467,280.30807757007324,88.18464570701619,1.0,1.0,13.229634403149053,0.0,1.0,Takeoff
33.800000000000004,-0.13507180795981363,0.0,37.187870933272016,0.9694977891810528,-0.19984912025514467,280.30807757007324,88.81725342287537,1.0,1.0,13.229634403149053,0.0,1.0,Takeoff
33.9,-0.13507180795981363,0.0,37.50219324203214,0.9694977891810528,-0.19984912025514467,280.30807757007324,88.66109032127419,1.0,1.0,13.229634403149053,0.0,1.0,Takeoff
34.0,-0.13507180795981363,0.0,37.81865157910729,0.9694977891810528,-0.19984912025514467,280.30807757007324,89.01170660658322,1.0,1.0,13.229634403149053,0.0,1.0,Takeoff
34.1,-0.13507180795981363,0.0,38.88705040783147,0.9694977891810528,-0.19984912025514467,280.30807757007324,88.92244664717163,1.0,1.0,13.229634403149053,0.0,1.0,Takeoff
34.2,-0.13507180795981363,0.0,39.584039504011386,0.9694977891810528,-0.19984912025514467,280.30807757007324,89.65922587363723,1.0,1.0,13.229634403149053,0.0,1.0,Takeoff
34.300000000000004,-0.13507180795981363,0.0,38.43093112097728,0.9694977891810528,-0.19984912025514467,280.30807757007324,88.49050246213235,1.0,1.0,13.229634403149053,0.0,1.0,Takeoff
34.4,-0.13507180795981363,0.0,39.535500697653866,0.9694977891810528,-0.19984912025514467,280.30807757007324,89.67388514068796,1.0,1.0,13.229634403149053,0.0,1.0,Takeoff
34.5,-0.13507180795981363,0.0,39.17712079176281,0.9694977891810528,-0.19984912025514467,280.30807757007324,88.39940109995604,1.0,1.0,13.229634403149053,0.0,1.0,Takeoff
34.6,-0.13507180795981363,0.0,42.58258301274489,0.9694977891810528,-0.19984912025514467,280.30807757007324,88.96511831296863,1.0,1.0,13.229634403149053,0.0,1.0,Takeoff
34.7,-0.13507180795981363,0.0,40.60598694241931,0.9694977891810528,-0.19984912025514467,280.30807757007324,88.5100405763328,1.0,1.0,13.229634403149053,0.0,1.0,Takeoff
34.800000000000004,-0.13507180795981363,0.0,44.05635725019366,0.9694977891810528,-0.19984912025514467,280.30807757007324,89.10613172978385,1.0,1.0,13.229634403149053,0.0,1.0,Takeoff
34.9,-0.13507180795981363,0.0,43.262855041007896,0.9694977891810528,-0.19984912025514467,280.30807757007324,89.33101651686411,1.0,1.0,13.229634403149053,0.0,1.0,Takeoff
