time_s,altitude_ft,vertical_speed_fpm,ias_kt,pitch_deg,roll_deg,heading_deg,throttle_pct,afterburner_on,gear_down,flaps_deg,speedbrake_pct,weight_on_wheels,label
0.0,-0.15064179045640055,-3.290514460446381,12.827177771003349,1.6334222232536642,0.3374380947665562,332.85312000857334,15.147798124082463,0.0,1.0,0.0,0.0,1.0,Taxi
0.1,-0.16161017199122182,24.15337272115355,13.41382941952977,1.9033768852131996,-0.12247864335437307,332.98995794252824,16.29747351313097,0.0,1.0,0.0,0.0,1.0,Taxi
0.2,-0.029874926850632817,19.185248730886247,11.736888554098718,1.9079907107279934,-0.6368036660636701,332.88490862234005,14.880416488421197,0.0,1.0,0.0,0.0,1.0,Taxi
0.30000000000000004,-0.05471554680196932,19.036421626967304,12.561054897553797,2.180911892435319,-0.5999415876800345,332.89130828480893,16.159522656266397,0.0,1.0,0.0,0.0,1.0,Taxi
0.4,-0.06642806385638532,-0.19564826314050876,13.618728120564498,1.8794884382999841,-0.20105565968649852,332.9436044838915,15.435845012491153,0.0,1.0,0.0,0.0,1.0,Taxi
0.5,-0.030853168166335366,0.3552886069940578,12.86897040847967,1.7116241323698669,-0.5588752141652468,332.99252758472437,15.838053005180228,0.0,1.0,0.0,0.0,1.0,Taxi
0.6000000000000001,-0.052939103766999035,20.7340653773917,12.945237188403961,2.1654385794335096,-0.09952653684665674,332.97986655190994,15.779821798111458,0.0,1.0,0.0,0.0,1.0,Taxi
0.7000000000000001,0.03724226303057318,3.9108726144510406,13.54277379023697,2.0581932543474397,0.22544044749553474,332.99926845716925,16.063436093144574,0.0,1.0,0.0,0.0,1.0,Taxi
0.8,-0.011298805094080173,-8.03852138035734,12.663690551878053,2.2526259630408303,-0.6557842451560031,332.9090074368347,15.12072187706663,0.0,1.0,0.0,0.0,1.0,Taxi
0.9,-0.09313171066878573,-15.670344413145749,13.00979686052641,1.9105939532978833,-0.25733826677540445,332.78850428430474,15.990378467222845,0.0,1.0,0.0,0.0,1.0,Taxi
1.0,-0.04110945903515556,-10.92552602959691,13.016500159561886,1.8595633366266575,-0.46399585443252095,333.04730739019215,14.200358293586598,0.0,1.0,0.0,0.0,1.0,Taxi
1.1,-0.06592643524206471,11.124604016490515,11.673465199013824,2.035243665598981,-0.06511868474233923,332.9378856858997,14.91104900028185,0.0,1.0,0.0,0.0,1.0,Taxi
1.2000000000000002,-0.03750869058633315,14.345593676764738,12.836221495045283,2.0442327623864616,-0.41184999044841314,332.8227397900548,15.825322440206811,0.0,1.0,0.0,0.0,1.0,Taxi
1.3,0.030618509348668135,40.089012549497134,13.194847641481626,1.924046376980911,-0.2811340773574495,332.9639050501985,15.890610686260416,0.0,1.0,0.0,0.0,1.0,Taxi
1.4000000000000001,0.13451862750542098,2.3947170256085712,13.049451297023332,1.6403919378102911,0.85960151104487,333.00922345206027,15.743718887953843,0.0,1.0,0.0,0.0,1.0,Taxi
1.5,-0.025535105458290287,8.23405432123028,13.000978321172234,2.3790099349844525,0.005115443263058259,333.0008712088227,16.529956395292736,0.0,1.0,0.0,0.0,1.0,Taxi
1.6,0.07178878095481954,-11.95341164183663,13.027904179636078,2.0042326915204227,0.1286649976565371,332.89820326267,15.898127280842731,0.0,1.0,0.0,0.0,1.0,Taxi
1.7000000000000002,0.07475156929623784,29.17009478969237,13.778377952277953,1.9127234657766163,-0.18245368897127787,332.92744531274263,14.912474570672435,0.0,1.0,0.0,0.0,1.0,Taxi
1.8,0.12031536849017155,4.619751741934366,11.450277588275107,2.0797466533725695,-0.46140572698584964,332.9010528959284,14.442546541748095,0.0,1.0,0.0,0.0,1.0,Taxi
1.9000000000000001,0.09488753966449137,-9.740277904357919,11.350819420602933,2.09837991593803,0.3802186996509488,332.943277274926,15.179631035056259,0.0,1.0,0.0,0.0,1.0,Taxi
2.0,0.026050179774448252,-23.03522037638491,12.288835771561946,1.8725334834230565,0.6824149606971317,332.8803610812099,15.45091663742845,0.0,1.0,0.0,0.0,1.0,Taxi
2.1,0.005139266608247005,-22.288785720101867,13.250313012725403,1.8738318144948176,-0.09239730429710986,332.9085789146138,15.676141671279163,0.0,1.0,0.0,0.0,1.0,Taxi
2.2,-0.01655638893601795,-19.875295748765364,12.38993552115575,1.623080421113687,0.10557848121555027,332.8464195723865,15.708352761461606,0.0,1.0,0.0,0.0,1.0,Taxi
2.3000000000000003,-0.07332629896937856,-23.192844868549347,12.580691472951761,2.1408296793593986,-0.5469144192950898,332.79738249413685,15.72887094570446,0.0,1.0,0.0,0.0,1.0,Taxi
2.4000000000000004,-0.11082495773449974,-34.11611590645825,13.327525043147869,2.1047989657636594,0.09257804632312397,332.91219392880885,15.725846877324075,0.0,1.0,0.0,0.0,1.0,Taxi
2.5,-0.1871369684683092,53.75784289693311,13.022608386553756,1.956963794659112,0.27340736145596667,332.81256072741144,15.318433649909123,0.0,1.0,0.0,0.0,1.0,Taxi
2.6,0.19546291551528697,28.483700003838546,13.899847265166308,2.0573850285871913,0.0993451810632713,332.7019315303271,15.439359990552603,0.0,1.0,0.0,0.0,1.0,Taxi
2.7,0.03159354228469296,19.094156854146203,12.920409426135908,1.9739936640652338,0.2774159278309612,332.99698016504885,15.278969653536675,0.0,1.0,0.0,0.0,1.0,Taxi
2.8000000000000003,-0.09166618419757823,-37.232046889547156,12.933092445487459,2.0462901949992864,-0.7918268600242561,333.13682840974934,14.963044922745556,0.0,1.0,0.0,0.0,1.0,Taxi
2.9000000000000004,0.009302681067551144,6.931026660354907,13.702196574136702,2.2319031999639343,0.43956767346837117,332.8258543442471,15.63599032377761,0.0,1.0,0.0,0.0,1.0,Taxi
3.0,0.06624867558646746,24.007151654879845,12.388282106870136,1.8531931654807554,-0.2948666693338763,332.9328258662815,15.151905235308444,0.0,1.0,0.0,0.0,1.0,Taxi
3.1,0.028369574076820954,-25.238096456174087,13.608120921526705,1.6903023694097037,-0.31535956065320025,333.0273826804241,15.00053865746902,0.0,1.0,0.0,0.0,1.0,Taxi
3.2,-0.11688780121331935,-40.902792025712216,12.950343145283007,1.8881618881272113,-1.070332772601001,332.9402808541997,15.982133743838983,0.0,1.0,0.0,0.0,1.0,Taxi
3.3000000000000003,-0.13826528454209366,-7.937637714413313,12.295917046088455,1.916023692127994,1.1769589002877,332.8405436287653,15.139796841811494,0.0,1.0,0.0,0.0,1.0,Taxi
3.4000000000000004,-0.011318614495245674,56.63591984650325,12.94765390721567,1.949613623055438,0.6433644870143517,333.02951731102917,14.745946065725473,0.0,1.0,0.0,0.0,1.0,Taxi
3.5,0.16629179801919686,10.738804627311083,13.574636243644989,1.833895024752131,-0.8814781253994728,332.9069396654736,14.396803977611029,0.0,1.0,0.0,0.0,1.0,Taxi
3.6,-0.08457126140553828,-18.12685767426312,12.096054026652034,1.8763279540164675,0.9558250732150874,332.8444271211263,14.970532108444504,0.0,1.0,0.0,0.0,1.0,Taxi
3.7,-0.10195290286656132,-29.13338956196243,12.625219068293976,1.7601156564953162,0.8163442963517707,333.0421065374967,16.055181634379764,0.0,1.0,0.0,0.0,1.0,Taxi
3.8000000000000003,0.02062485020938465,23.525142167481693,12.776278760596764,2.02551688009116,-0.4177457710048913,332.9621988635265,15.8325740750721,0.0,1.0,0.0,0.0,1.0,Taxi
3.9000000000000004,0.03305444943187017,43.92814445857931,13.052161774053015,1.7233510072000053,-0.10309943816419681,332.9557553227403,15.713032777572693,0.0,1.0,0.0,0.0,1.0,Taxi
4.0,0.11768781942633522,-0.5019916753662367,13.510641258465144,2.053608459547885,-0.15841697200396995,332.88486259574756,15.082333423428462,0.0,1.0,0.0,0.0,1.0,Taxi
4.1000000000000005,0.018114891832553447,-39.359788215336266,13.604500783904419,1.7503700378108304,0.07907437702761615,332.9864940004171,16.009767569352196,0.0,1.0,0.0,0.0,1.0,Taxi
4.2,-0.1637444916448112,-15.116147715252017,12.860168523428035,1.7009753154201954,0.26104174801588137,332.70007198320263,15.591238572019368,0.0,1.0,0.0,0.0,1.0,Taxi
4.3,0.04210708085007505,48.04546957145052,12.946356414073266,2.287351636632961,0.33228683580144575,332.960953567782,15.007662007678356,0.0,1.0,0.0,0.0,1.0,Taxi
4.4,0.25834223968980596,15.916787501078971,13.9058816206189,1.7057837132348672,0.6152745656377531,333.0054855185831,15.027919946746668,0.0,1.0,0.0,0.0,1.0,Taxi
4.5,-0.08416055413941634,-6.642825065696788,12.910232801297475,1.9796565607359464,-0.5590183736455074,332.9907789243721,14.701441764321531,0.0,1.0,0.0,0.0,1.0,Taxi
4.6000000000000005,0.008892955521591145,-12.38087001080045,12.571295718170452,1.72116957689065,0.4279482915891085,332.9845037975549,16.07205120737615,0.0,1.0,0.0,0.0,1.0,Taxi
4.7,0.19643788963580378,38.25862767757326,12.370865523260186,1.779365840585334,0.7892875646760202,332.7506453397016,15.855488494265357,0.0,1.0,0.0,0.0,1.0,Taxi
4.800000000000001,0.10713258424844996,-40.340040898056664,12.732037748921897,2.2506634990601833,0.8540844531986374,333.0056868172137,15.466324541383552,0.0,1.0,0.0,0.0,1.0,Taxi
4.9,-0.1928072489686922,-33.388719754704766,12.475711797159196,1.871762865700404,0.07612657208185712,332.7942782320878,14.911794846657244,0.0,1.0,0.0,0.0,1.0,Taxi
5.0,0.029494290862279882,-53.206839486171106,13.531535509595455,2.10328217168251,-0.4062034850440608,333.081355727954,15.659918682269582,0.0,1.0,0.0,0.0,1.0,Taxi
5.1000000000000005,-0.1589016131824056,38.32685681975319,13.43788129260323,1.8947496535800463,-0.32713025932865875,333.06372866170454,14.992001549463625,0.0,1.0,0.0,0.0,1.0,Taxi
5.2,-0.0011729648699262223,1.051108739217381,12.450299696729735,2.2702546582546654,0.01647956975294502,332.92728025771,14.642301523113273,0.0,1.0,0.0,0.0,1.0,Taxi
5.300000000000001,0.03474983455836684,28.069819853483448,12.354119560759546,2.137579530857525,0.26806654745629616,332.9158408652979,15.992280604548029,0.0,1.0,0.0,0.0,1.0,Taxi
5.4,-0.018552513914988283,-25.066440573403806,11.870341874284795,2.13058076922093,-0.04866244965444847,332.9052041854429,16.24761799464194,0.0,1.0,0.0,0.0,1.0,Taxi
5.5,-0.1265051677369452,24.73798719952889,12.589994291133072,1.9107745220500998,-0.2739483627431661,332.94582037480757,15.549913612897397,0.0,1.0,0.0,0.0,1.0,Taxi
5.6000000000000005,0.1584397705560113,23.449257554786115,12.448417876476396,2.0791370700680454,-0.23488844593941102,332.98232718656993,15.3352796528558,0.0,1.0,0.0,0.0,1.0,Taxi
5.7,0.0986937738589423,41.508106055482415,12.498100851311715,1.8813458170257602,0.460994118963364,332.9078098363739,15.603878663217984,0.0,1.0,0.0,0.0,1.0,Taxi
5.800000000000001,0.0810353625404669,-36.422484366745685,12.437140816146393,1.6548027028620622,0.43367090446496775,332.87090417760214,16.344560877849585,0.0,1.0,0.0,0.0,1.0,Taxi
5.9,-0.02367265127771709,-34.43339287189701,13.235139305228927,1.8553843966609616,-0.09180028704064105,332.89940159307776,15.284911915319304,0.0,1.0,0.0,0.0,1.0,Taxi
6.0,-0.07347319050054271,-11.929262249027127,12.172422500750967,2.001380595135529,-0.10775696053786693,332.99493969274374,14.722867634232724,0.0,1.0,0.0,0.0,1.0,Taxi
6.1000000000000005,0.02138905129533128,19.302365988832516,13.452331343910757,2.0185328866235563,-0.03039338948758367,333.07298598731234,14.161084013342778,0.0,1.0,0.0,0.0,1.0,Taxi
6.2,0.07283917866644553,-4.121983622847286,12.428223516468531,1.8472449721366648,0.4430785995628952,332.9054499693932,15.577944411034842,0.0,1.0,0.0,0.0,1.0,Taxi
6.300000000000001,-0.0940831086147791,0.3417474809307066,14.147079864462606,1.7968109273291384,1.1101413199258492,333.06783360506165,15.226363999156908,0.0,1.0,0.0,0.0,1.0,Taxi
6.4,0.02309778869998488,4.482862252449357,14.055799197787133,2.063593743905508,-0.2832289722634643,332.94470248009304,15.521631877379074,0.0,1.0,0.0,0.0,1.0,Taxi
6.5,0.09525348992869237,38.70101937898607,13.020213562271485,1.9413724559859895,0.11830690163099482,332.92675961758073,15.440589396870578,0.0,1.0,0.0,0.0,1.0,Taxi
6.6000000000000005,0.09942198828015131,7.724502690460175,12.950201109727066,1.8176000597119828,0.5288857244131523,332.9954076090753,14.85248149405658,0.0,1.0,0.0,0.0,1.0,Taxi
6.7,0.0617203021522858,-33.27499443515833,12.520122327462214,2.1953957414951275,0.8322173182583116,333.0427863095731,15.083349866602662,0.0,1.0,0.0,0.0,1.0,Taxi
6.800000000000001,-0.07112148224709922,-54.82164179473782,12.282894134152603,1.9009275042045484,-0.44499909645767205,333.06267620417657,15.77205544296167,0.0,1.0,0.0,0.0,1.0,Taxi
6.9,-0.17468622069353776,-6.977384044334144,13.468198305011452,1.8673710810020403,-0.1910135935920558,333.0146925696549,15.486930499080337,0.0,1.0,0.0,0.0,1.0,Taxi
7.0,0.02683338193061508,12.660018811644797,11.889440490808786,1.961708826052429,-0.028273663975812362,332.82093430132545,15.071767244439638,0.0,1.0,0.0,0.0,1.0,Taxi
7.1000000000000005,-0.007821388188875197,57.22813719757602,11.98689653204037,2.1187438330926085,-0.14145713237158836,332.9453818538957,15.355347872256724,0.0,1.0,0.0,0.0,1.0,Taxi
7.2,0.11145446529434236,6.979335520379743,12.647828417707721,1.9200780999830092,0.20735532860404954,333.0355881828117,15.992215308262464,0.0,1.0,0.0,0.0,1.0,Taxi
7.300000000000001,0.06173005953251385,2.1337356981497635,12.768432142994211,1.4943926658827142,0.6543462565233242,332.96051660467106,15.909948454023535,0.0,1.0,0.0,0.0,1.0,Taxi
7.4,0.00284729030187369,-2.3019947657577142,12.749560242378356,1.9717041951732996,0.13527240631000656,332.82472982747595,15.435891240798645,0.0,1.0,0.0,0.0,1.0,Taxi
7.5,0.09994449146555384,8.509887995188041,12.156752486142578,2.0043529588658515,0.1918794977190535,332.8966432931886,14.722352670837033,0.0,1.0,0.0,0.0,1.0,Taxi
7.6000000000000005,0.10427949950845411,-2.4054283345905674,12.773873492982526,1.9897667333254236,0.08958331721626307,332.9057868046102,15.180428082717361,0.0,1.0,0.0,0.0,1.0,Taxi
7.7,-0.00917985137107912,-23.11477438053015,12.95792110758925,1.9651776435215953,1.2337689910359468,332.9798279459819,14.934818092781722,0.0,1.0,0.0,0.0,1.0,Taxi
7.800000000000001,-0.015629380437096902,26.245800138664535,12.241195233176441,1.8878064683062552,0.6427704427180364,332.76035743414013,15.707837733974992,0.0,1.0,0.0,0.0,1.0,Taxi
7.9,0.23550850020177677,-15.84837714651716,12.563906786492215,2.0882949048123516,-0.47251801737972715,333.01733175714503,15.2649738602159,0.0,1.0,0.0,0.0,1.0,Taxi
8.0,-0.08842173710366492,14.204654385995937,13.586296031907967,1.9839915264097951,0.3134971082344243,332.936725479856,15.847035957664326,0.0,1.0,0.0,0.0,1.0,Taxi
8.1,0.05539389149288279,-30.647214175845097,12.15007482672562,1.9945079221001325,0.3419131718518274,332.9772150803967,15.769516635836757,0.0,1.0,0.0,0.0,1.0,Taxi
8.200000000000001,0.08227242932255133,20.220644459146804,12.827253334370019,1.7094007469490986,-0.14254976583579015,333.11180030138826,15.209733883342869,0.0,1.0,0.0,0.0,1.0,Taxi
8.3,0.012681485192069098,-22.707037984372693,12.887617803930011,1.6243880589712485,-0.27384560788969414,333.21812831466355,14.924457519743111,0.0,1.0,0.0,0.0,1.0,Taxi
8.4,-0.05814129842898065,-47.58191873373183,13.459930375859924,1.8564848920568708,0.02344175118864321,332.9861660064573,15.869009175064363,0.0,1.0,0.0,0.0,1.0,Taxi
8.5,-0.1556371643461078,-8.208833412608291,13.996170429297386,2.0193354456759818,-0.3345729480491619,332.96359790567476,14.974790036996783,0.0,1.0,0.0,0.0,1.0,Taxi
8.6,-0.02836268187097233,24.573144600258114,12.60141526237105,2.0105217876754513,0.04826817724380391,333.1121925898244,15.631809532301428,0.0,1.0,0.0,0.0,1.0,Taxi
8.700000000000001,0.06472442457230994,16.238768110668534,12.558494454847965,2.160147094751422,0.3781546265497901,332.7721201408741,14.878097910964298,0.0,1.0,0.0,0.0,1.0,Taxi
8.8,-0.07444332379276508,12.537524812382566,12.169109614768722,1.6457123478965998,-1.2348197277859783,332.874196672841,14.3831097838991,0.0,1.0,0.0,0.0,1.0,Taxi
8.9,0.03432494219094053,-32.455078648551876,12.034049330152484,1.8598876873522574,-0.4343228494212321,332.91198177176375,15.961284612267034,0.0,1.0,0.0,0.0,1.0,Taxi
9.0,-0.0975509686704494,4.742779874402268,11.917061934048196,1.9388356230010984,0.12708100365329514,332.9674328310259,15.510994746828871,0.0,1.0,0.0,0.0,1.0,Taxi
9.1,-0.05072942442075371,25.66264691565098,12.731750457679597,2.2875607043290436,0.32593425878525056,332.9460547818851,15.198133999468213,0.0,1.0,0.0,0.0,1.0,Taxi
9.200000000000001,0.16263817676919545,2.7488801100692704,11.713856033044383,1.9412810468565813,-0.40574199949198936,333.0687468799788,14.633255475482667,0.0,1.0,0.0,0.0,1.0,Taxi
9.3,-0.08380656812010301,2.228112885647126,13.458995606180705,2.0656886099463643,0.08765691501971917,332.80715221414096,14.901109843126857,0.0,1.0,0.0,0.0,1.0,Taxi
9.4,-0.03958885999251803,11.91642185719715,12.963987355689685,1.8092870420488818,-0.1946851400032519,333.02425553684463,15.095831765143016,0.0,1.0,0.0,0.0,1.0,Taxi
9.5,0.22222028605518124,-16.1032952219128,12.383381305250142,2.1623750676096276,-0.2972209203095695,333.0232892367046,14.533692874002629,0.0,1.0,0.0,0.0,1.0,Taxi
9.600000000000001,-0.16432304422966695,-2.730240344843191,12.04229845051538,2.3094323580851537,-0.795644958525457,333.207323488861,15.947143195233233,0.0,1.0,0.0,0.0,1.0,Taxi
9.700000000000001,-0.05324006171673395,-39.544788267859424,12.89828129394793,2.0751901662310863,0.3791445731200672,332.99368833513734,15.481305020155926,0.0,1.0,0.0,0.0,1.0,Taxi
9.8,0.024496344715884175,63.04076485872431,13.562891753758137,1.6114826562364792,-0.046940534251508154,332.71456125650366,15.11876202904603,0.0,1.0,0.0,0.0,1.0,Taxi
9.9,0.15088078006395467,-17.352505804066976,12.88438251322428,1.7526220735031315,0.1971162914171865,332.99883384539976,15.265293778597897,0.0,1.0,0.0,0.0,1.0,Taxi
10.0,-0.14000259073706878,16.169967187014677,12.307498539205655,2.199606541263616,0.04520629523644024,332.88365599377767,15.351754039121396,0.0,1.0,0.0,0.0,1.0,Taxi
10.100000000000001,0.1053461806509576,-29.438179954052682,12.356351197420345,1.9679006364212497,0.3155557578303215,332.90399860218986,14.413487772617877,0.0,1.0,0.0,0.0,1.0,Taxi
10.200000000000001,0.00368988029369128,29.606699423160894,13.114050630173066,1.58365927825308,0.11894472568187221,332.9900507670005,14.692280659127793,0.0,1.0,0.0,0.0,1.0,Taxi
10.3,0.008030906378735724,-38.5072708495033,13.730925309875989,2.083155182076933,-0.24425609447085747,332.98500331073444,15.382432572164989,0.0,1.0,0.0,0.0,1.0,Taxi
10.4,-0.08719017359655887,-14.014755795465703,13.329902565300097,2.0024648237162017,0.40393737355581977,332.96784592404174,14.693018459817223,0.0,1.0,0.0,0.0,1.0,Taxi
10.5,-0.06638389868363721,-6.102667060041415,11.371384500302378,1.992994900688388,0.02546271727402045,332.87173933647694,16.464173845903588,0.0,1.0,0.0,0.0,1.0,Taxi
10.600000000000001,-0.022482428921471318,31.510912426573384,12.877288540732561,1.8963188293109348,-0.23330567005642996,332.8558624667162,15.62699808560788,0.0,1.0,0.0,0.0,1.0,Taxi
10.700000000000001,0.0703643885363081,-17.087594808450124,14.195980034635875,1.9271394389941385,-1.0581331019820432,332.97520929057987,15.505485182978134,0.0,1.0,0.0,0.0,1.0,Taxi
10.8,-0.15182187272588785,-38.81792171608887,12.552631550749181,1.6610524370825637,-0.8586735481148008,333.02793189046815,14.911685208454431,0.0,1.0,0.0,0.0,1.0,Taxi
10.9,-0.21657203750191562,-52.55895347140456,13.327415016008947,1.9456240736365782,0.760497091690242,332.85483455356064,15.275799174977209,0.0,1.0,0.0,0.0,1.0,Taxi
11.0,-0.1924303788207147,3.5962481175976557,13.425990416832036,1.724456765673144,-0.4333560035205017,332.9103963112857,15.121333140125332,0.0,1.0,0.0,0.0,1.0,Taxi
11.100000000000001,-0.1338406321378995,89.9880724422538,12.583569023398192,1.6714334424873032,0.5868188868466206,333.00746199092964,15.709743663507789,0.0,1.0,0.0,0.0,1.0,Taxi
11.200000000000001,0.2333683247093534,50.23840240580887,13.110745403428643,1.8547428211385604,-1.0175362326175426,333.102981279741,15.953108680837795,0.0,1.0,0.0,0.0,1.0,Taxi
11.3,0.05876163320832964,43.57129661286721,12.101342350327737,2.284887312015782,-0.27091904517935,332.99940240034925,15.048638797914021,0.0,1.0,0.0,0.0,1.0,Taxi
11.4,0.08401585092643654,-58.18228136747583,12.703414920655584,2.1439637215426592,0.6479899729949924,332.81397612323167,15.375060203078313,0.0,1.0,0.0,0.0,1.0,Taxi
11.5,-0.05754308212802572,-18.569644153088323,13.77276397135251,1.961072201880427,-0.6680228056050921,333.0826541815919,15.358815270874908,0.0,1.0,0.0,0.0,1.0,Taxi
11.600000000000001,-0.03408658755711196,-3.655499778303773,12.47986069056692,2.018278228585649,0.42481434913346144,333.00381224358443,15.779579623355175,0.0,1.0,0.0,0.0,1.0,Taxi
11.700000000000001,0.06573835203491771,24.768130214046945,13.901777327172564,1.886206961952629,0.22063100320533405,332.99000002634466,15.076557469281001,0.0,1.0,0.0,0.0,1.0,Taxi
11.8,0.066297568942209,7.218428554127011,13.281061216040511,1.8343732929081817,-0.777937821517388,332.92772618654135,14.984318857427011,0.0,1.0,0.0,0.0,1.0,Taxi
11.9,0.0020055552135231102,15.02629869277816,12.583451614901639,1.8586797160552082,0.6087629423641158,333.081250665492,15.301586417158676,0.0,1.0,0.0,0.0,1.0,Taxi
12.0,0.14086984549880852,17.635730914300527,13.202071288260225,2.126384749860092,0.32546572685013214,332.79144708503543,16.239762925215462,0.0,1.0,0.0,0.0,1.0,Taxi
12.100000000000001,0.15447622351371165,5.391941956581448,13.363993436092127,1.8515349754108146,1.0367264318122034,333.0140383669591,15.480724508183759,0.0,1.0,0.0,0.0,1.0,Taxi
12.200000000000001,0.02896526499643036,-63.91773653663707,12.596274671470168,2.046876009487388,-0.16592427721612335,333.02000931771727,15.447059611297963,0.0,1.0,0.0,0.0,1.0,Taxi
12.3,-0.1787188371843768,-40.88310281060982,12.85528640224959,1.867648399536722,-0.06814811081765051,333.05050139116724,14.512771134523426,0.0,1.0,0.0,0.0,1.0,Taxi
12.4,-0.04993929053933746,0.011046897318839418,12.74929251931086,1.9401318896758661,0.05892085336133764,332.7888527156829,14.89852655156898,0.0,1.0,0.0,0.0,1.0,Taxi
12.5,0.029020499483024566,62.84266174244175,12.945122607261888,1.89190738460834,0.041062308859869424,332.8838819572635,15.200059705102506,0.0,1.0,0.0,0.0,1.0,Taxi
12.600000000000001,0.13549447152783198,6.1259110722336345,11.54089032283579,2.1425710216879095,-0.5193345537568959,332.830234536842,15.376021007248974,0.0,1.0,0.0,0.0,1.0,Taxi
12.700000000000001,-0.019309735178169283,13.608250385382709,13.605310024489981,1.6910714347210563,0.10291452663670353,333.08188618048655,15.689205774842605,0.0,1.0,0.0,0.0,1.0,Taxi
12.8,0.09706175140993814,-17.301432376663943,12.520563809997034,1.9297966646669882,-0.16640881968135068,332.95167078124894,16.156576702257812,0.0,1.0,0.0,0.0,1.0,Taxi
12.9,0.048987309644512284,37.97330662105583,13.01190673358603,2.1679562208044643,-0.5343188653698243,332.8758579585457,15.164100679299093,0.0,1.0,0.0,0.0,1.0,Taxi
13.0,0.17055679792710993,-27.294707396074568,12.723588212970288,1.9371500082619038,-0.15051960768592243,332.7995835924579,16.339395471780392,0.0,1.0,0.0,0.0,1.0,Taxi
13.100000000000001,-0.039411785570434676,-12.99117853389851,11.845277854721552,1.8077511578793901,0.7461471601329118,332.9890311126785,15.530736627178278,0.0,1.0,0.0,0.0,1.0,Taxi
13.200000000000001,-0.01596858302498026,2.942770286757195,12.854192941863493,1.849739439682545,-0.23169873340725278,332.87295973049834,14.929120681722782,0.0,1.0,0.0,0.0,1.0,Taxi
13.3,0.18527064936089593,-14.415728341403726,13.716554752952758,1.8354680430645736,1.1745745608253455,332.85073745049453,15.084565903874438,0.0,1.0,0.0,0.0,1.0,Taxi
13.4,-0.11149042727745329,-27.85164100482022,13.699408876725155,2.0637979417833607,-0.0641414182739154,333.01215474200194,15.196496077670961,0.0,1.0,0.0,0.0,1.0,Taxi
13.5,-0.15522678804908133,-28.76860050448251,12.31386349900899,2.1732353670030555,0.1275375263075536,332.94763003400544,15.95438857872878,0.0,1.0,0.0,0.0,1.0,Taxi
13.600000000000001,0.041427646838483385,14.667353989308202,12.051167226800628,1.9280393670092408,0.020398457203021567,332.74959945313026,16.106604463986518,0.0,1.0,0.0,0.0,1.0,Taxi
13.700000000000001,-0.03815365733091228,22.36723482104073,11.63259174297522,1.8375076710450764,-0.47417062992272113,332.97502899894175,15.622011748983002,0.0,1.0,0.0,0.0,1.0,Taxi
13.8,-0.04339061394387769,-5.90797624304011,12.699673923317395,1.9098202849070265,-0.25770573514705974,332.8004835260085,15.037524545387027,0.0,1.0,0.0,0.0,1.0,Taxi
13.9,0.011887765623282824,8.47328114576761,12.483953125703232,2.0468588682036026,0.28329685301996665,332.948554937351,15.117545599628523,0.0,1.0,0.0,0.0,1.0,Taxi
14.0,0.00421274839792577,19.797413211156353,13.268254892014069,1.6673742081766545,-0.3669503347964914,332.9555878031963,14.765074979851748,0.0,1.0,0.0,0.0,1.0,Taxi
14.100000000000001,0.055596452111904074,-7.454465067182731,11.55608499387095,2.2237957325505557,0.5453174316486951,332.8852080704536,15.783688477302823,0.0,1.0,0.0,0.0,1.0,Taxi
14.200000000000001,-0.025384559712630823,-3.305924338060526,12.004478367350822,1.939268284996096,0.001077487911075357,333.0301452572918,15.350775678560028,0.0,1.0,0.0,0.0,1.0,Taxi
14.3,-0.01231687329237685,-30.810235339176813,13.423923410490653,1.693293447188818,0.18518051458571394,333.04631593048316,15.601070181595178,0.0,1.0,0.0,0.0,1.0,Taxi
14.4,-0.09845472458397998,-6.410793298504317,12.64408996690402,2.2860025905034975,-0.2108180987753122,333.0113104800413,15.22790732403287,0.0,1.0,0.0,0.0,1.0,Taxi
14.5,-0.05743852620515242,-8.106609898063882,13.812008892131924,2.260256582381442,0.6580345465485838,332.9633013516135,15.782764751969784,0.0,1.0,0.0,0.0,1.0,Taxi
14.600000000000001,-0.05284992278269627,13.110315255142163,12.526158996914894,1.8640158431993425,-0.6867126837699155,332.94990528345807,15.68077861227632,0.0,1.0,0.0,0.0,1.0,Taxi
14.700000000000001,-0.03290314830826916,-18.465891855215933,14.38261541770276,1.8595292388743363,-0.38736646712695627,333.0161569597574,15.267391345003608,0.0,1.0,0.0,0.0,1.0,Taxi
14.8,-0.1497679854812321,-9.83163236350183,11.96595768679057,2.1728882977643647,-0.07961579071984085,332.8750303015905,15.053146809156834,0.0,1.0,0.0,0.0,1.0,Taxi
14.9,-0.10200808460020544,36.96800168635171,12.716050719228214,2.416488496731949,0.12602231155876842,333.11145351297205,14.903327148011323,0.0,1.0,0.0,0.0,1.0,Taxi
15.0,0.1519368601234894,33.31838413020307,13.544021523477221,1.9517437878539046,-0.29727737809069,333.01988852541876,14.872188931204892,0.0,1.0,0.0,0.0,1.0,Taxi
15.100000000000001,0.016823935169783272,22.96545158716333,12.503932219173707,1.5807861131829306,-0.4922550752897383,332.909453145749,14.467290894176388,0.0,1.0,0.0,0.0,1.0,Taxi
15.200000000000001,0.012819173335611212,5.813293558804081,13.12543263333988,2.0471479849839858,0.5503593944614225,332.9953147042663,15.290157225487459,0.0,1.0,0.0,0.0,1.0,Taxi
15.3,0.1810033279175098,-10.247680032249733,12.620987200597082,1.7450517510084804,-0.44045111922992175,332.9437856683992,15.586666897599091,0.0,1.0,0.0,0.0,1.0,Taxi
15.4,-0.03441446499146539,14.109103578028732,13.088102054881315,1.644974321435497,0.1062553548918538,332.9568966875464,15.93266115851976,0.0,1.0,0.0,0.0,1.0,Taxi
15.5,0.08336469122575488,-22.467075469988703,13.765587359503286,2.150497479321366,0.2356494419961688,332.7994546347302,15.3024825317946,0.0,1.0,0.0,0.0,1.0,Taxi
15.600000000000001,0.06866795056756629,50.00540115209113,13.433433515638917,2.2967706678503137,-0.398830995261428,333.0891653686954,15.716190714531711,0.0,1.0,0.0,0.0,1.0,Taxi
15.700000000000001,0.21561254076899028,-37.00585282332282,13.148518005538017,2.0632295579534996,-0.015489670276612749,332.8865679252036,15.199387388442444,0.0,1.0,0.0,0.0,1.0,Taxi
15.8,-0.10166457289085923,1.6033737771514798,12.087161079670194,2.016799017620392,-0.8706385766454122,332.9796436707993,15.56755920252143,0.0,1.0,0.0,0.0,1.0,Taxi
15.9,0.07668481945332369,-55.82354084310399,12.705606154176788,1.455951227796725,0.0005932852896597263,332.78699158205063,15.88802924522283,0.0,1.0,0.0,0.0,1.0,Taxi
16.0,-0.06350516344652969,28.2591710639375,13.245264764472955,1.9011664783867752,0.024462255690648634,332.89458694816653,15.690762831695897,0.0,1.0,0.0,0.0,1.0,Taxi
16.1,0.03963128242882829,-18.421847559277783,12.322825778502873,2.108521639356451,0.10125008617486077,332.93558422055753,15.533720488371841,0.0,1.0,0.0,0.0,1.0,Taxi
16.2,-0.015424418343065233,3.1101236359235855,12.28698510803023,1.9861513996762676,0.2321593348276978,333.009725732367,15.362081997952039,0.0,1.0,0.0,0.0,1.0,Taxi
16.3,-0.047954545266911765,1.4901808555405534,11.989695207636062,1.9182179801299182,0.7184531363161287,333.04750106848064,15.374529827556273,0.0,1.0,0.0,0.0,1.0,Taxi
16.400000000000002,0.047082186706531054,44.9367791824159,11.972590756413084,1.93491996526288,-0.10446733778234375,332.99419462671403,15.043672349916946,0.0,1.0,0.0,0.0,1.0,Taxi
16.5,0.20925947756901425,15.518967621247944,13.653415037539384,2.041599544846706,0.25094876073093547,332.99070774003303,15.223015358115688,0.0,1.0,0.0,0.0,1.0,Taxi
16.6,0.029640292839327932,-15.444749263132005,14.005608476872514,2.0636792723688577,-0.40711294853187435,333.05096602757726,15.532168810337122,0.0,1.0,0.0,0.0,1.0,Taxi
16.7,-0.030141559609129006,-23.23016414700989,12.026360665500093,1.8758751996272565,0.01607220948743478,333.1350207603324,15.858043338231646,0.0,1.0,0.0,0.0,1.0,Taxi
16.8,0.09310865683396476,12.018803395122893,12.881549211749393,1.7533082237385564,0.4256603891295793,333.18372196936207,15.056280647935386,0.0,1.0,0.0,0.0,1.0,Taxi
16.900000000000002,0.08973430981494236,-17.88751983483982,12.576105082679454,2.010890304961486,-0.10168112995907394,332.93861255501633,15.514089354835129,0.0,1.0,0.0,0.0,1.0,Taxi
17.0,-0.11957915878332813,-24.78598051835756,12.604166001044597,1.7938271929522611,0.4803836685480823,332.9815773027947,15.153244019930284,0.0,1.0,0.0,0.0,1.0,Taxi
17.1,-0.03082124575782305,-49.77704117976507,12.318450380522151,1.8879436908651264,-0.05723396576250625,332.97123531439456,15.724352831904827,0.0,1.0,0.0,0.0,1.0,Taxi
17.2,-0.159150896083883,17.82540289873744,11.899644563965921,1.8778646099462724,0.6839807947304883,332.9755670466185,15.471997742162458,0.0,1.0,0.0,0.0,1.0,Taxi
17.3,-0.030452144289640926,-4.1808023869268744,13.228130520114131,2.0991343727679554,0.8132742299148764,332.8798940657714,14.412558926932526,0.0,1.0,0.0,0.0,1.0,Taxi
17.400000000000002,-0.05172525769245743,25.757473491642457,12.0557019667215,1.8214623687557407,0.5566712014751659,332.891492901604,16.523746815099567,0.0,1.0,0.0,0.0,1.0,Taxi
17.5,-0.03036352862567068,37.592548933590756,13.297950603328983,1.9688634353044985,-0.38910592086897217,333.10510543420935,14.654673701642013,0.0,1.0,0.0,0.0,1.0,Taxi
17.6,0.15751060037831285,-10.101791086268326,12.73508891430593,2.262637228996144,-0.6103738195521111,332.8761853775061,16.424864189211117,0.0,1.0,0.0,0.0,1.0,Taxi
17.7,-0.10223421312379909,-3.0355124991147164,12.931744546272455,2.0603314094959893,0.2837685388706402,332.83228790664816,15.037677542501733,0.0,1.0,0.0,0.0,1.0,Taxi
17.8,-0.045541091121244284,-49.0719421565145,13.71270380739708,2.0756111908769483,0.35327810795529463,333.00043618268114,15.997472272319612,0.0,1.0,0.0,0.0,1.0,Taxi
17.900000000000002,-0.08784911040425968,15.520152770320843,13.290700583769915,1.7806726522253906,-0.1745829478477818,332.9967102883081,14.743105315399777,0.0,1.0,0.0,0.0,1.0,Taxi
18.0,-0.02463344927219485,14.773558048070027,12.41838571937056,2.318439789483662,0.2254317225492448,333.26854181427814,14.286428544092608,0.0,1.0,0.0,0.0,1.0,Taxi
18.1,0.028326699119105875,-10.824154734923198,12.54430478882755,1.8016816887122438,0.32807942075257696,332.95829942881824,15.251372741155736,0.0,1.0,0.0,0.0,1.0,Taxi
18.2,-0.14196988407887565,46.907032079561155,13.595670511178108,1.9350847014625767,-0.24033267728310517,333.0900764845296,15.273510963023213,0.0,1.0,0.0,0.0,1.0,Taxi
18.3,0.20990171112561093,-23.76935291049953,12.532396063012024,1.6271186726157538,-0.027483249404057195,332.9093493464386,14.884729614617049,0.0,1.0,0.0,0.0,1.0,Taxi
18.400000000000002,-0.09052006543339179,17.05690998107053,12.997465623923503,1.9779105962947552,-0.5602807434310583,332.96991439039743,15.435251692172166,0.0,1.0,0.0,0.0,1.0,Taxi
18.5,-0.056685334173522985,-26.82295260656856,13.142384791862554,1.857428918168125,0.606239332914346,332.89203250318633,14.714615323600992,0.0,1.0,0.0,0.0,1.0,Taxi
18.6,0.07578694809276817,9.012877531803815,12.022859269954864,2.019434899160195,0.28019723603063496,332.8846262485995,15.234894589310729,0.0,1.0,0.0,0.0,1.0,Taxi
18.7,-0.04545567777437266,23.160211299653387,11.681518559585507,1.7896169177567627,-0.4089516969032221,332.80365954977333,15.126699002261448,0.0,1.0,0.0,0.0,1.0,Taxi
18.8,0.059115722324744005,-1.8594450007975887,13.51922676758551,1.6729510852037681,0.8625439170801056,332.9184905591045,15.441076879689211,0.0,1.0,0.0,0.0,1.0,Taxi
18.900000000000002,0.06648972308878026,12.445886667956088,12.089874468437733,1.956551752674878,-0.33760366685911847,332.97861897165217,15.195894389161039,0.0,1.0,0.0,0.0,1.0,Taxi
19.0,0.0167737555654078,9.784975302532596,13.613577453609722,1.9550403994794414,-0.043032034880548006,333.01497616463905,15.000472641620592,0.0,1.0,0.0,0.0,1.0,Taxi
19.1,0.10804059883740702,-37.07727383067439,14.200694183355598,1.9455746150800035,0.13945769689140214,333.0496755544584,14.375544213158518,0.0,1.0,0.0,0.0,1.0,Taxi
19.200000000000003,-0.1188966460645917,-53.65823382395149,11.510590994962257,2.0776499335718177,0.028972761549242877,333.00173183113407,15.515116530725633,0.0,1.0,0.0,0.0,1.0,Taxi
19.3,-0.2515174135543497,-2.7150981573008153,13.615943745714498,1.5293582650990112,0.9535930051573878,332.9241223587203,15.103082372101476,0.0,1.0,0.0,0.0,1.0,Taxi
19.400000000000002,0.09446510805090295,24.264334779550563,13.313297339691886,2.1206419837607022,0.5703149167396334,332.97460453187637,15.343439093120846,0.0,1.0,0.0,0.0,1.0,Taxi
19.5,0.002425027833161151,44.13572796950061,12.632542159982606,1.939994078471957,1.4362200087215042,333.03207943330676,15.38808794725757,0.0,1.0,0.0,0.0,1.0,Taxi
19.6,-0.03083877370684661,-8.029431010115696,13.374138999820941,2.0448732615757215,0.23552721721177125,332.931067412419,15.962499693801833,0.0,1.0,0.0,0.0,1.0,Taxi
19.700000000000003,0.05431795300032452,-24.821026550346847,13.327670591079716,2.174198069544541,0.4323515531156262,332.9748980599684,15.676010894918422,0.0,1.0,0.0,0.0,1.0,Taxi
19.8,-0.12168010491857305,-22.06489757000554,12.174433203874194,2.230490430494258,0.2191557722646868,332.9265832647375,15.276730661311186,0.0,1.0,0.0,0.0,1.0,Taxi
19.900000000000002,-0.14116326155687428,-13.188325306931318,13.217466562785027,1.6196846415005668,-0.18942397150084608,332.99478201955617,15.615371209163879,0.0,1.0,0.0,0.0,1.0,Taxi
20.0,-0.011623673534332059,25.645184721139074,12.20366291954166,1.914301551705948,-0.1927596759656617,332.88684662170704,16.04740933093964,0.0,1.0,0.0,0.0,1.0,Taxi
20.1,0.006545818687122347,22.719989822517665,13.081009440258695,2.0681692867963952,0.591875591204607,333.0596884189647,15.169233945049374,0.0,1.0,0.0,0.0,1.0,Taxi
20.200000000000003,-0.027563312444285917,15.190918544902809,12.589298207593725,2.154145640863622,0.7707397322119434,332.76747145433694,15.354306557647583,0.0,1.0,0.0,0.0,1.0,Taxi
20.3,0.06433091919018205,11.963548598206875,12.998866672770099,1.5896203399729338,-0.10701337366133731,332.8667026891143,15.395670658581075,0.0,1.0,0.0,0.0,1.0,Taxi
20.400000000000002,0.06636356167815678,26.933623404445,13.441343409128692,2.128583796544038,0.08296363479779187,332.85348879647734,15.469610544106482,0.0,1.0,0.0,0.0,1.0,Taxi
20.5,0.10710480457793917,-52.5737681448803,12.149481446032484,2.2652049500472393,0.13151537832938,333.18941700736104,15.512045538582319,0.0,1.0,0.0,0.0,1.0,Taxi
20.6,-0.19853792153421934,-11.246220623167309,12.347633838138208,2.252933754034578,-0.24930371799968268,332.8296454535939,16.113651723350326,0.0,1.0,0.0,0.0,1.0,Taxi
20.700000000000003,0.010132458562320309,-32.16267775938357,12.401448974473466,2.046248680169911,-0.25901613133028367,332.8896885315173,15.252808328786577,0.0,1.0,0.0,0.0,1.0,Taxi
20.8,-0.05370858421897861,42.92559225440895,12.880947693304547,1.670373069291279,0.030442630960660577,332.8323110638853,15.28250976469958,0.0,1.0,0.0,0.0,1.0,Taxi
20.900000000000002,0.016090039737825496,-9.2114870985359,12.354133203937717,1.790140821200924,0.38121836041292545,332.93459198137396,14.386599332340493,0.0,1.0,0.0,0.0,1.0,Taxi
21.0,-0.03592497693035911,16.432848004992092,12.34316834953995,2.111257648836573,0.5646947383968577,333.123894355258,15.853363099362829,0.0,1.0,0.0,0.0,1.0,Taxi
21.1,0.028455655805981944,13.510804005100857,12.125193164909831,1.9685844274968718,-0.48180511119994746,332.96053651473574,14.677482293562514,0.0,1.0,0.0,0.0,1.0,Taxi
21.200000000000003,0.08364405976332988,11.1844431509775,11.857445317792802,2.2188503126877794,-1.0536485066683325,333.1222771890143,14.869312174972793,0.0,1.0,0.0,0.0,1.0,Taxi
21.3,0.01999723882452848,-3.6797184366017013,13.77474241674546,1.8898492365411512,-0.8254587751889308,332.91383528909137,14.678744938625206,0.0,1.0,0.0,0.0,1.0,Taxi
21.400000000000002,0.010057063622973532,-28.986881757666286,12.541715686622622,1.6345498016466977,0.5099698295500178,332.8300110991146,14.821136808919121,0.0,1.0,0.0,0.0,1.0,Taxi
21.5,-0.06129034902500147,-8.041919261627973,12.61167469458254,1.8155988734406006,-0.45158223541215103,333.03274230952195,15.94731548025984,0.0,1.0,0.0,0.0,1.0,Taxi
21.6,-0.02021235748361129,-15.058617311390947,12.109676618791864,2.240017372150306,-0.04188408732198057,333.09490932783933,15.268549951707898,0.0,1.0,0.0,0.0,1.0,Taxi
21.700000000000003,-0.0652360229339811,17.418309379115012,13.29961538934305,1.7447749081940132,-0.5136026174742301,332.81344807975665,14.866478571331514,0.0,1.0,0.0,0.0,1.0,Taxi
21.8,0.025801197870573694,-28.85548013999676,12.338956150460932,1.8080154594050197,0.29972759969924556,332.89127189248825,15.24459467282698,0.0,1.0,0.0,0.0,1.0,Taxi
21.900000000000002,-0.16448975818359501,-26.585384264378906,13.078752766006946,2.138709308593402,-1.3297460165727604,332.8522375761995,16.57645173594862,0.0,1.0,0.0,0.0,1.0,Taxi
22.0,-0.19816294425587555,-46.46626230848286,12.201327658432636,2.0365411558244064,-0.004222022181780796,332.8917908593062,16.076337399304375,0.0,1.0,0.0,0.0,1.0,Taxi
22.1,-0.20653011367184054,31.10435047394215,12.838410678773883,2.09704706194609,-0.23437761449267194,332.95857222371455,14.923945680532066,0.0,1.0,0.0,0.0,1.0,Taxi
22.200000000000003,-0.008968005813884159,44.16000241253331,12.050242745072746,1.7683631514963483,-0.22017053448276291,332.9628611458554,15.358754951202787,0.0,1.0,0.0,0.0,1.0,Taxi
22.3,0.022637067806791075,47.1124727885313,13.151868018057462,2.0008172662039754,0.4111544861912553,332.9970233161548,14.991799644703955,0.0,1.0,0.0,0.0,1.0,Taxi
22.400000000000002,0.029032250270816042,-5.444419497939587,12.575713196669916,2.0358707085036603,0.2554284421401189,333.0293594301256,14.454692426844767,0.0,1.0,0.0,0.0,1.0,Taxi
22.5,-0.036190103303581994,-13.031277017268643,13.436578054256616,1.4822270111138667,0.3236358965885225,333.0396246284831,15.931334776586702,0.0,1.0,0.0,0.0,1.0,Taxi
22.6,-0.04251931727955205,26.140451636308153,13.539499605349448,2.0638329840308307,-0.5080476946709166,333.0675895148546,14.906254170073089,0.0,1.0,0.0,0.0,1.0,Taxi
22.700000000000003,0.15973450845235693,-5.336130633340697,13.193010468845147,2.466865506449271,0.2832237761984797,333.0033162514917,14.796904587954032,0.0,1.0,0.0,0.0,1.0,Taxi
22.8,-0.06287075647028538,36.07011833109238,14.011021036460438,1.9583228941995645,0.14131543907850314,332.84115713300093,15.16818697312775,0.0,1.0,0.0,0.0,1.0,Taxi
22.900000000000002,0.13783127437591,-37.4627438787876,13.22871192331701,1.6059555255775189,0.5793649404439518,332.9473496182202,15.170654860262665,0.0,1.0,0.0,0.0,1.0,Taxi
23.0,-0.02757921094158098,28.61497057076157,13.987284431197804,1.94485819624848,-0.2784258213964935,332.8146750590287,15.56746432621767,0.0,1.0,0.0,0.0,1.0,Taxi
23.1,0.08020409638352256,-18.020987372335153,12.995879000458284,1.982768806574547,-0.3002861067412287,332.9315465538227,15.388038322169113,0.0,1.0,0.0,0.0,1.0,Taxi
23.200000000000003,0.047726337514234295,5.6786505089937975,13.25891163289179,1.6969292619955887,-0.1307544247699005,332.89674368827264,14.713905148247699,0.0,1.0,0.0,0.0,1.0,Taxi
23.3,0.0008140416033880918,-38.21814647663468,13.029855132674548,1.5921303038363037,-1.377439227085055,332.99803074496117,15.076241499892044,0.0,1.0,0.0,0.0,1.0,Taxi
23.400000000000002,-0.11088663599965075,-1.1876217971476233,13.123463344687723,2.166618339492631,-0.22605748895933755,333.04825834274754,15.22768686845332,0.0,1.0,0.0,0.0,1.0,Taxi
23.5,0.04178822852849631,30.60236373865196,10.95676782429043,1.928962212314514,0.0020233493631541563,333.0407755434169,15.389269878762242,0.0,1.0,0.0,0.0,1.0,Taxi
23.6,0.15382586029664802,1.5151828194776347,12.263924398576926,2.2773402916303804,-0.6195696113425295,333.0028462302382,15.986323264509368,0.0,1.0,0.0,0.0,1.0,Taxi
23.700000000000003,-0.10331072190226241,-12.912597026763706,13.411759452730289,1.7361620969379863,-0.6064660666570955,332.98640323361553,16.23694746331828,0.0,1.0,0.0,0.0,1.0,Taxi
23.8,-0.02277475660532209,-37.02539316810925,12.958328394006536,2.215725424601241,-0.13951381847544292,332.94534969170013,14.549892458316405,0.0,1.0,0.0,0.0,1.0,Taxi
23.900000000000002,-0.03130110554389808,9.554294987830582,13.035487364780941,1.7282302144770332,0.5894568721844629,333.00100273911926,15.540784835684198,0.0,1.0,0.0,0.0,1.0,Taxi
24.0,-0.05553924696310939,-3.65071922686791,12.772055308334537,1.769709174237223,-0.5702715433063906,332.9426474308509,16.011434799222332,0.0,1.0,0.0,0.0,1.0,Taxi
24.1,-0.041028352739661544,4.600965421892451,13.008054475991903,1.9359133643397903,0.07472897382720209,332.9622838260311,14.372066855417575,0.0,1.0,0.0,0.0,1.0,Taxi
24.200000000000003,-0.00829627843443573,2.776960536360638,12.218172011330953,1.6948337141948877,0.6817750007650691,332.88066526942396,14.750047745588251,0.0,1.0,0.0,0.0,1.0,Taxi
24.3,-0.04165444428130611,21.861784533311333,12.5819322872284,1.8614514543728782,-0.25573964736235283,332.92624096465033,15.367967582733035,0.0,1.0,0.0,0.0,1.0,Taxi
24.400000000000002,0.0682805699268952,2.718941830714369,12.936672163698882,2.100961581054285,1.005074605134363,332.82180687698724,15.426544232208217,0.0,1.0,0.0,0.0,1.0,Taxi
24.5,0.0052984307191362,13.296324907024657,13.504680072149725,1.6981315920640336,-0.20776223885673806,332.9494709670222,15.938800278065944,0.0,1.0,0.0,0.0,1.0,Taxi
24.6,0.024827180253817253,2.648467434175707,13.586087613194552,1.9259732158393073,0.12377566144539762,332.9746418839344,15.941273735119697,0.0,1.0,0.0,0.0,1.0,Taxi
24.700000000000003,0.08152290709777381,19.63838470858742,13.94438608823511,1.8766790014223032,-0.12335182464409357,332.98933864444143,15.255549038818145,0.0,1.0,0.0,0.0,1.0,Taxi
24.8,0.10349035426207338,-2.204399813958183,13.289221701485166,1.9533274184372023,0.7645703644618189,332.9696902776975,15.789554705356956,0.0,1.0,0.0,0.0,1.0,Taxi
24.900000000000002,0.013805181184026426,11.838505172631697,13.361851158386829,2.1359847511760983,0.4440004713382814,332.83072607222175,14.94158652204453,0.0,1.0,0.0,0.0,1.0,Taxi
25.0,0.1407154329609324,-52.26565866940928,12.345371891339925,1.97179525180941,-0.5806357088260857,332.78608176430873,14.981200956752057,0.0,1.0,0.0,0.0,1.0,Taxi
25.1,-0.1578379390849729,-12.181423185747994,14.008196160552686,1.5459207249537135,0.7975175745092532,332.97921252552464,14.769927304561984,0.0,1.0,0.0,0.0,1.0,Taxi
25.200000000000003,-0.04710193474471352,-31.46140313176585,13.207005137288784,2.1794882999040257,1.0453240160763742,333.04490652558593,16.142862489655887,0.0,1.0,0.0,0.0,1.0,Taxi
25.3,-0.016591582697896824,45.247860886992065,12.001089369390671,2.076626426391032,-0.07979816389427885,332.8717200390538,16.282673410328606,0.0,1.0,0.0,0.0,1.0,Taxi
25.400000000000002,0.06840136534998746,13.570979328466796,11.79495901043927,2.0648532348947244,-0.3867334051318864,332.8566367795281,15.773134447764408,0.0,1.0,0.0,0.0,1.0,Taxi
25.5,0.02075296189762051,-17.290202161324977,11.842089793434921,1.9877688073316957,0.26355767964726046,332.97190957735233,15.043203405301291,0.0,1.0,0.0,0.0,1.0,Taxi
25.6,-0.10304259350452166,-24.68196984856513,12.824506502577002,1.7766474969018489,0.7671553432606159,332.90309608978396,15.881953147912196,0.0,1.0,0.0,0.0,1.0,Taxi
25.700000000000003,-0.055008483892838134,-6.590825335523539,11.869735582691238,2.0033961996649112,-0.26154143973247096,332.81099714495815,15.280465743183115,0.0,1.0,0.0,0.0,1.0,Taxi
25.8,-0.012201164779997128,22.169830298087447,12.954222854215912,1.7120562761384224,-0.29276312746199484,333.07404031504166,15.37107094241502,0.0,1.0,0.0,0.0,1.0,Taxi
25.900000000000002,0.007806557985915609,24.324531412460743,13.44250465209932,1.6787532514884345,0.008266137517253188,332.99247240157547,14.791772257727322,0.0,1.0,0.0,0.0,1.0,Taxi
26.0,0.06661417316946565,-11.647587486079482,12.706259231266456,1.5897507293378297,0.652743313215561,332.9605890908347,15.021263917790007,0.0,1.0,0.0,0.0,1.0,Taxi
26.1,-0.07043910221039448,25.128599916856036,13.231271174375715,2.3893323977883383,-0.07955498462633835,332.98752346587185,15.614639883567659,0.0,1.0,0.0,0.0,1.0,Taxi
26.200000000000003,0.13344955757019586,-1.4772897742563604,13.069240177470729,1.7516498481607834,0.16718229032640042,333.0067118400159,14.534840390718406,0.0,1.0,0.0,0.0,1.0,Taxi
26.3,0.059227724298183904,6.014950765525195,13.064751542586592,1.7865613352908862,0.04010138502393161,332.91763065143687,15.299880383088826,0.0,1.0,0.0,0.0,1.0,Taxi
26.400000000000002,-0.04036434838276846,-42.92242405042856,12.479043696713962,2.2584230852281504,0.3634239863073195,332.7812358242155,15.099841994089616,0.0,1.0,0.0,0.0,1.0,Taxi
26.5,-0.08116256268194688,40.21641970873495,12.881030843432631,1.9069490335464852,0.3328352220294506,332.8659626740945,14.8499906815823,0.0,1.0,0.0,0.0,1.0,Taxi
26.6,0.2603098228418587,-3.742652224300324,13.404990998871272,1.959118977264244,-0.23054699638910534,332.78996555792764,15.024805980007645,0.0,1.0,0.0,0.0,1.0,Taxi
26.700000000000003,-0.059077609504270025,19.426453292786274,12.837378973994005,1.9024173908849062,0.005105677469195649,333.0559515634036,15.80051244428069,0.0,1.0,0.0,0.0,1.0,Taxi
26.8,0.01596970378198456,-60.200509190409555,13.449698950351307,1.9854399393552458,0.05828361634451899,332.90896479609523,15.79199367731846,0.0,1.0,0.0,0.0,1.0,Taxi
26.900000000000002,-0.04069272311018904,46.912610516111066,13.341885254851322,1.937626767626287,-0.13392986027385936,332.9699568810713,14.729154962220221,0.0,1.0,0.0,0.0,1.0,Taxi
27.0,0.1754854430762853,14.122317910896394,12.949610176894247,2.0683890184367564,0.6998409512553447,333.02759537016925,15.612640748598679,0.0,1.0,0.0,0.0,1.0,Taxi
27.1,0.08658129333646654,-6.262210020171447,13.61098597049201,2.112564968491338,0.4910938889031585,332.9593295649779,15.138965987995645,0.0,1.0,0.0,0.0,1.0,Taxi
27.200000000000003,-0.07200377321104628,-56.68588557431028,13.568269975683572,1.4384461663953332,0.050580662162397115,332.9824532520654,16.90802971678208,0.0,1.0,0.0,0.0,1.0,Taxi
27.3,-0.10794398479526608,-6.717417736219943,12.454326554157108,1.7776682278321028,-0.1718364384345836,333.0280613155045,14.622572737933712,0.0,1.0,0.0,0.0,1.0,Taxi
27.400000000000002,0.052994204655366806,-0.7689885267733558,12.738320928072016,1.8630963511372507,0.9807110389937095,333.1006173071205,14.516181961447918,0.0,1.0,0.0,0.0,1.0,Taxi
27.5,-0.07584871584491307,35.355121110092036,12.586753553709071,2.0091990353988414,-0.44953267225058235,333.11341559286484,15.631130321931202,0.0,1.0,0.0,0.0,1.0,Taxi
27.6,0.06883162075519408,-64.81405832310462,12.300008561824916,1.995478637294614,-0.27858927879301165,332.9311212139006,15.987419438354378,0.0,1.0,0.0,0.0,1.0,Taxi
27.700000000000003,-0.27107608696015634,-11.076925894021912,12.60089767334355,1.9178988406476674,-0.5300470382672375,333.0283760483619,15.479820340036852,0.0,1.0,0.0,0.0,1.0,Taxi
27.8,-0.13123334531502265,-12.80741799153725,12.628523894223045,1.5902549452270327,-0.1783276564041616,333.0059356737378,15.426515065128958,0.0,1.0,0.0,0.0,1.0,Taxi
27.900000000000002,0.004794530797507843,62.17940881441615,13.769848500418783,2.112996576956345,0.4479271587571612,332.9629250013511,16.232225592925726,0.0,1.0,0.0,0.0,1.0,Taxi
28.0,0.03982095711192446,25.633638136175538,12.690000849351826,1.529656093669688,-0.16860194713033286,332.9380796958792,15.519155045584895,0.0,1.0,0.0,0.0,1.0,Taxi
28.1,-0.003065154634144922,-10.519328148826505,13.55166262335852,1.8510283103495904,0.7082905392127746,332.8444294401162,15.966037987986526,0.0,1.0,0.0,0.0,1.0,Taxi
28.200000000000003,-0.04780210994662468,-18.83522736278004,13.697024393336743,1.9304864122685634,0.3961794197103538,332.93606892502885,15.605511417171305,0.0,1.0,0.0,0.0,1.0,Taxi
28.3,-0.05435517970197573,-9.970825306128956,13.128093157571783,2.065150725541446,0.9414412107848928,332.75278775335414,15.211004808614268,0.0,1.0,0.0,0.0,1.0,Taxi
28.400000000000002,-0.0529192811647897,12.04625921181381,11.893929156224996,2.300470932515062,-0.5080159605139162,332.97932489643654,15.532850328420215,0.0,1.0,0.0,0.0,1.0,Taxi
28.5,0.012429186112444363,24.426003897949798,12.87044260319801,1.440355551282236,0.4617627406046858,332.9129085098135,16.347622932662347,0.0,1.0,0.0,0.0,1.0,Taxi
28.6,0.06777483978777325,-11.284769979648331,13.167904472757666,1.930936572039278,-0.07721591756796606,332.73934743195,15.111150688482022,0.0,1.0,0.0,0.0,1.0,Taxi
28.700000000000003,-0.10934313106303135,-1.1722551150801053,14.279326773219312,2.1446859988048828,0.7157810249189732,332.9419578169709,15.763409657724626,0.0,1.0,0.0,0.0,1.0,Taxi
28.8,0.006567910537043806,8.670117361260255,12.537367775514804,2.0913586104086455,-0.07064394093379897,332.98409296313525,16.19603478273479,0.0,1.0,0.0,0.0,1.0,Taxi
28.900000000000002,0.1111254265940745,20.584899941405762,12.321963744388892,1.867698310053476,0.11944517110909761,333.112820171523,15.227083831431026,0.0,1.0,0.0,0.0,1.0,Taxi
29.0,-0.006418631356002575,-19.800468024972943,12.33876724107878,2.0006447229922224,-0.9002327313340049,332.92742508437755,15.543211533251446,0.0,1.0,0.0,0.0,1.0,Taxi
29.1,-0.09243442958782089,-25.086165266515376,13.617187540012505,2.130342452007697,0.08295849456063463,332.9364066640064,14.668996522942244,0.0,1.0,0.0,0.0,1.0,Taxi
29.200000000000003,-0.014305399738502365,-41.41505200632947,12.536092612255716,1.8553298117427868,-0.931888696849141,332.91360031462955,15.406303918703749,0.0,1.0,0.0,0.0,1.0,Taxi
29.3,-0.2134938913876499,43.64129641474539,13.592874480794842,1.793800953589097,0.43339156085058667,332.897001919476,16.113111236711163,0.0,1.0,0.0,0.0,1.0,Taxi
29.400000000000002,0.12577205248590612,56.3858817144735,12.41468768702056,1.9540367711501292,-0.2287771294969253,332.9337317540974,15.466141779586753,0.0,1.0,0.0,0.0,1.0,Taxi
29.5,0.2676240088338652,60.51313257082169,13.771490278093177,1.8340627600971766,-0.3603856991100199,332.93472187402176,15.732615684250082,0.0,1.0,0.0,0.0,1.0,Taxi
29.6,0.08907177146645862,-10.352377798583673,12.98527985016306,2.0871474434106014,0.6821463948172092,332.9275074353377,15.188043087088708,0.0,1.0,0.0,0.0,1.0,Taxi
29.700000000000003,0.07401016349298777,-76.85639158613354,12.515061134558911,1.7224562555507357,-0.09987965835054322,333.0496346800653,15.15587039214985,0.0,1.0,0.0,0.0,1.0,Taxi
29.8,-0.1166579490968025,-9.83171041075588,12.943734013687196,2.245906393017779,-0.4489830553638628,332.76387586188366,15.789477354405271,0.0,1.0,0.0,0.0,1.0,Taxi
29.900000000000002,0.03991321941267923,-11.77345540125071,12.887655205157413,2.243675195970239,-0.2920848946154135,332.9126281840612,15.29174794827892,0.0,1.0,0.0,0.0,1.0,Taxi
30.0,0.015142886486734225,3.4497365115553955,12.666200856539344,2.0469224483751858,0.8170420466072302,333.0036743854437,15.703333104837329,0.0,1.0,0.0,0.0,1.0,Taxi
30.1,-0.09940926653902549,-13.489455025942414,12.52869207750537,1.808181167851586,0.3347795514993845,333.01610952591204,15.688749252903305,0.0,1.0,0.0,0.0,1.0,Taxi
30.200000000000003,-0.02753405571703282,-5.583756725202149,12.57100098646375,1.896390992997701,0.6042938092661851,332.9676773216821,15.592436547896826,0.0,1.0,0.0,0.0,1.0,Taxi
30.3,-0.0127758971392765,30.138793391354444,12.17186795204657,1.8841524143253638,-0.28618406284288894,332.9278300822439,15.415711332259887,0.0,1.0,0.0,0.0,1.0,Taxi
30.400000000000002,0.05128470041774677,11.720609076871916,12.599925807902974,2.1587292186459144,0.5698442571986294,333.0297224285084,15.249738090550622,0.0,1.0,0.0,0.0,1.0,Taxi
30.5,0.031068989667326775,34.74584711036338,12.753760149236086,1.9345628403198016,0.2645935505233274,332.7723992556763,16.029614657727596,0.0,1.0,0.0,0.0,1.0,Taxi
30.6,0.1609533384125404,-4.963253171158736,12.58016703407771,1.6844962171039874,-0.8097866992993609,332.97900143320953,15.054278011736631,0.0,1.0,0.0,0.0,1.0,Taxi
30.700000000000003,0.026468434561953098,15.048841954083942,11.880918718065065,2.09235398782237,0.42981946525269693,332.8134771708327,14.226642209152372,0.0,1.0,0.0,0.0,1.0,Taxi
30.8,0.10631319943774648,-29.139091736424763,12.390919287891533,1.7811831383517123,-0.11211341798334516,333.0879603291371,15.02787183234002,0.0,1.0,0.0,0.0,1.0,Taxi
30.900000000000002,0.015257879730416566,17.449260692213482,12.784428602365871,1.9678262681315049,0.6050359087371069,333.13487246061266,16.081052814410313,0.0,1.0,0.0,0.0,1.0,Taxi
31.0,0.11371473802302051,-19.3517244685022,12.4975870215033,1.8904393598037132,0.18443147909736646,333.0125982542389,14.908900707442893,0.0,1.0,0.0,0.0,1.0,Taxi
31.1,0.009554577095235469,-17.29862601421923,13.07636010673274,1.7843370209317706,0.8465015121062891,332.8501515736291,15.638512828663522,0.0,1.0,0.0,0.0,1.0,Taxi
31.200000000000003,-0.0712352503406796,-18.32212967398243,12.989706304700507,2.058597967968556,-0.7661997887060911,332.8405752435808,14.765721136046436,0.0,1.0,0.0,0.0,1.0,Taxi
31.3,0.022104089653108356,20.430108372317893,13.51615673168044,1.7588143353844794,0.06983993628698862,332.95828611669936,15.492870375072403,0.0,1.0,0.0,0.0,1.0,Taxi
31.400000000000002,0.11170511895682494,-1.813353923796915,13.089797473732167,1.666602248931292,-0.18005078667621166,332.9196543513822,15.541490328849385,0.0,1.0,0.0,0.0,1.0,Taxi
31.5,-0.08030201995966416,9.769012869137013,13.760402327632963,2.334397445915454,-1.1492475337337267,332.8522923537827,15.019298131182094,0.0,1.0,0.0,0.0,1.0,Taxi
31.6,0.07094915399879342,10.519039453819637,12.259674640503377,1.7541197231710781,-0.7795484993382917,333.09850930226435,15.561963401229141,0.0,1.0,0.0,0.0,1.0,Taxi
31.700000000000003,0.16430031622592314,9.583326629472348,13.768611409774014,2.178375577999661,-0.719724093512485,332.9317609528558,15.672239922057077,0.0,1.0,0.0,0.0,1.0,Taxi
31.8,-0.03238538681230239,-22.14512622621145,14.068148413663593,1.8174616338426945,-0.6549336100932482,332.8331041494638,14.926680522098032,0.0,1.0,0.0,0.0,1.0,Taxi
31.900000000000002,-0.03977647713226383,-28.675953293149462,13.818724070633818,2.2262873652569017,-0.11066664617198337,332.8921772565683,15.254716397457438,0.0,1.0,0.0,0.0,1.0,Taxi
32.0,0.02092054976017583,18.784798184783224,13.041580986455621,1.960445235125743,0.38982938679888124,332.8251011591208,15.667399844283652,0.0,1.0,0.0,0.0,1.0,Taxi
32.1,0.06153860411161374,19.412022120795736,13.495049148824672,1.9711976918185252,-0.4631881209098655,332.9178170771215,14.906071324212975,0.0,1.0,0.0,0.0,1.0,Taxi
32.2,0.05728363347171485,-12.336557354829337,12.582415675905178,1.9149774130326154,-0.261137898433487,332.9103140214977,16.266660254272065,0.0,1.0,0.0,0.0,1.0,Taxi
32.300000000000004,-0.04076223701397086,3.0858276525871253,13.456264516426758,2.222234542049647,0.0013838262892109253,333.1001028000451,15.527025016261295,0.0,1.0,0.0,0.0,1.0,Taxi
32.4,0.07696774237454934,-7.2175654969914875,11.58675202669549,1.8310361360518064,-0.1630244979792576,332.82429850176004,15.461994822860243,0.0,1.0,0.0,0.0,1.0,Taxi
32.5,0.021195805986757382,9.103532274122669,12.637321343845489,2.097385041779285,0.5083306917773919,332.89569867295563,16.062573583953384,0.0,1.0,0.0,0.0,1.0,Taxi
32.6,0.004755424356642466,-27.775363740111164,13.289208311849867,1.972784847670571,-0.15524742328683497,332.79097640824216,15.491355397716609,0.0,1.0,0.0,0.0,1.0,Taxi
32.7,-0.06190907632600651,-18.561825531972204,11.47113211560109,1.9693082530061596,-0.4804359537713012,333.01532935295654,15.86713871687094,0.0,1.0,0.0,0.0,1.0,Taxi
32.800000000000004,-0.07161332167310365,-13.184147791468533,12.967277425946245,1.973577171230119,0.5843137378272483,332.8151849420128,14.983586994854784,0.0,1.0,0.0,0.0,1.0,Taxi
32.9,-0.06116531460070022,11.148095762230776,13.042413915216795,1.8787627905530655,0.11397848080645548,332.9952851465787,15.191755858429254,0.0,1.0,0.0,0.0,1.0,Taxi
33.0,-0.00616859751485262,-49.32209624212828,14.0278859301963,1.993797983466708,-0.0549050127601709,332.8843604177234,15.551617138298237,0.0,1.0,0.0,0.0,1.0,Taxi
33.1,-0.318223802883745,18.28333557601121,12.433334749420734,2.228257226612953,-0.05324260157666222,333.1032265919497,15.287364409721164,0.0,1.0,0.0,0.0,1.0,Taxi
33.2,0.030251363279355854,0.8954334405751491,12.704071733211213,2.0278594903828453,0.43262253977824794,332.78194735479974,14.516342766956356,0.0,1.0,0.0,0.0,1.0,Taxi
33.300000000000004,-0.0016914303119768483,72.72309343162188,13.75318086744205,2.0988140474155412,-0.2872200378246384,333.19573632376546,15.06991661544619,0.0,1.0,0.0,0.0,1.0,Taxi
33.4,0.04539166427436438,27.99911171052844,13.753924910639586,2.2750265978849376,-0.4228125035425822,332.86949446353765,16.14068524624056,0.0,1.0,0.0,0.0,1.0,Taxi
33.5,0.17024692183199808,17.42002255380256,12.792562876246153,1.6144751068000296,0.12242688912595047,332.89647596913244,14.548523075878704,0.0,1.0,0.0,0.0,1.0,Taxi
33.6,0.08540868245703598,-17.624594446250075,12.576757587353985,1.8900956502178106,-1.2292459677612428,332.8718782461051,15.074331390799705,0.0,1.0,0.0,0.0,1.0,Taxi
33.7,-0.04273130795688596,-41.811341436831924,13.522692396199524,2.074482208825935,-0.5473559636577473,332.9950675244395,15.352467281458427,0.0,1.0,0.0,0.0,1.0,Taxi
33.800000000000004,-0.03880978535216154,-0.9771244621441895,12.71787020634203,2.0422297779285774,-0.2355600217130647,332.96725146778977,15.086927191947813,0.0,1.0,0.0,0.0,1.0,Taxi
33.9,0.08052306014631506,19.349644939703214,13.283660438017371,2.1323060010124895,-0.2709779721961297,333.0478966919578,15.267384898780573,0.0,1.0,0.0,0.0,1.0,Taxi
34.0,0.054016916741630144,-3.57276740017898,13.194335119069548,1.9067540873178241,-0.15447441924297534,333.03006634655026,15.147102561550875,0.0,1.0,0.0,0.0,1.0,Taxi
34.1,-0.05667362235305641,1.056734627403311,12.620934303189053,1.986845392567227,0.03824974230728084,333.0923832909011,15.294489425656526,0.0,1.0,0.0,0.0,1.0,Taxi
34.2,0.08580673328333165,-13.845774742635095,12.415262344058359,1.8234263602016876,0.7911628678843549,332.77497073752863,15.541328081016093,0.0,1.0,0.0,0.0,1.0,Taxi
34.300000000000004,-0.01521195697154531,29.765490933491378,13.32007102292283,1.6644170900114852,-0.42543350700499094,332.8941089774064,14.762074338845707,0.0,1.0,0.0,0.0,1.0,Taxi
34.4,0.09215383231440051,-39.2187857432968,12.558006915834339,1.7645204589811416,0.5209828032053719,333.07245991682043,14.858039138682468,0.0,1.0,0.0,0.0,1.0,Taxi
34.5,-0.11028719543315231,17.005208041510645,11.964346070639538,1.9863080266379924,0.9545992247985445,332.8527522347565,15.985348581996464,0.0,1.0,0.0,0.0,1.0,Taxi
34.6,0.06981408323600796,-57.03875884948318,12.712664453160432,1.9901020737414086,-0.1445889044779249,332.90763163757833,15.808310820991416,0.0,1.0,0.0,0.0,1.0,Taxi
34.7,-0.19303996193301534,17.33451146576883,13.05004870327334,2.0346199309848796,-0.09365568343200915,332.8426239059645,15.896313038896857,0.0,1.0,0.0,0.0,1.0,Taxi
34.800000000000004,-0.02361463810430812,-27.565263323444878,13.12894011148314,1.7592816946856409,-0.17075507450717833,333.0751153806003,15.524015233273678,0.0,1.0,0.0,0.0,1.0,Taxi
34.9,-0.06801223338121641,46.763600156071554,12.619005435855476,1.844012673520423,-0.3930060570721594,333.03072140195354,15.846225421866766,0.0,1.0,0.0,0.0,1.0,Taxi
35.0,0.04077803884734241,29.538538445521187,12.400792595661635,1.8106597105906381,-0.0050726284974465605,332.9587166629499,16.54287945449659,0.0,1.0,0.0,0.0,1.0,Taxi
35.1,0.12407805412329781,5.253145289851791,13.792457553388429,2.1293303714372813,0.2399979674768693,332.9736569465397,15.539736096041295,0.0,1.0,0.0,0.0,1.0,Taxi
35.2,-0.041746506931957444,-13.212622439252932,13.074409657484361,1.9982489006002233,1.0661668156037827,332.72136695605,15.15746821044815,0.0,1.0,0.0,0.0,1.0,Taxi
35.300000000000004,-0.02528507334892224,-34.156146342362554,13.164372526136525,2.1083133252732926,0.46791980560859914,332.83349784206234,15.60213022206698,0.0,1.0,0.0,0.0,1.0,Taxi
