time_s,altitude_ft,vertical_speed_fpm,ias_kt,pitch_deg,roll_deg,heading_deg,throttle_pct,afterburner_on,gear_down,flaps_deg,speedbrake_pct,weight_on_wheels,label
0.0,-2.3498748576655326,-688.603223702316,172.26460022949655,2.8892302077933,-4.694587148520897,353.27094576413197,41.51479719558885,0.0,1.0,17.001517792832388,13.57865075580185,0.0,Landing
0.1,-4.645218936673253,-918.8564099055435,173.33182500698405,3.4089706686130805,-4.5124389376213205,353.27680650962316,41.00584193591999,0.0,1.0,17.001517792832388,13.57865075580185,0.0,Landing
0.2,-6.94415690719325,-1377.6300353921195,172.7325436581627,3.3894231448156598,-4.262621158110597,352.96236878737204,40.9038055296379,0.0,1.0,17.001517792832388,13.57865075580185,0.0,Landing
0.30000000000000004,-9.23802503462613,-1368.2495797446006,174.10490106805025,3.2039072458171667,-4.555995931791413,353.233805382481,41.44793105302819,0.0,1.0,17.001517792832388,13.57865075580185,0.0,Landing
0.4,-11.486466835396255,-1363.1719262014283,173.8715236462585,3.6634952359283366,-4.506955909968721,353.1955646430215,40.96296377268887,0.0,1.0,17.001517792832388,13.57865075580185,0.0,Landing
0.5,-13.760016538200391,-1358.4468249420931,173.85681389855566,3.205010963076865,-4.436742451319349,353.268324608649,40.55225341762266,0.0,1.0,17.001517792832388,13.57865075580185,0.0,Landing
0.6000000000000001,-16.030259159336595,-1352.9873901332837,174.4708610106633,3.26975587512767,-3.930939217899652,353.4599213086924,41.584667597532004,0.0,1.0,17.001517792832388,13.57865075580185,0.0,Landing
0.7000000000000001,-18.251403786062674,-1359.8093254036412,173.9879640325397,3.221383488174614,-4.4389361889186265,353.08665336110994,40.813252342576384,0.0,1.0,17.001517792832388,13.57865075580185,0.0,Landing
0.8,-20.559063165218596,-1372.1383696622277,171.03432492310012,3.5481070144073206,-4.247281798772453,353.07159300830165,41.59140151869205,0.0,1.0,17.001517792832388,13.57865075580185,0.0,Landing
0.9,-22.890951007647732,-1396.1657965731263,174.09617187670443,3.337209738318478,-4.512384911652864,353.23076130024083,40.972658301391455,0.0,1.0,17.001517792832388,13.57865075580185,0.0,Landing
1.0,-25.232232768928306,-1393.8897522207765,174.0492600414455,3.1604100445082186,-4.83915093913097,353.1861283609753,40.729302614731395,0.0,1.0,17.001517792832388,13.57865075580185,0.0,Landing
1.1,-27.52851192632248,-1393.7465751172788,173.50371444206203,3.6743487637168237,-4.520846460908346,353.45060425893575,41.04425772684878,0.0,1.0,17.001517792832388,13.57865075580185,0.0,Landing
1.2000000000000002,-29.859683883234126,-1373.6654706760662,173.36394514020483,3.2957568328764837,-4.1693570579972965,353.01423804668343,40.80741878067688,0.0,1.0,17.001517792832388,13.57865075580185,0.0,Landing
1.3,-32.100560122308636,-1358.6175223465573,174.90851592176554,3.944924680455751,-4.4646582995460875,353.1631938526391,40.61571879370597,0.0,1.0,17.001517792832388,13.57865075580185,0.0,Landing
1.4000000000000001,-34.32159953805527,-1351.720559843946,171.91543685863925,3.303749471355946,-4.450811179515107,353.12496945491057,41.576792684720886,0.0,1.0,17.001517792832388,13.57865075580185,0.0,Landing
1.5,-36.618286682453856,-1355.553409665663,173.76626894294608,3.368567378230576,-4.548599756089286,353.42185956190406,40.77629368725674,0.0,1.0,17.001517792832388,13.57865075580185,0.0,Landing
1.6,-38.87832717063695,-1362.9460895038676,174.4061159472422,3.449071407523813,-4.961240818263544,353.2271744463246,40.889352109082324,0.0,1.0,17.001517792832388,13.57865075580185,0.0,Landing
1.7000000000000002,-41.136329985574605,-1347.423939841735,173.3512518445833,3.423458362428702,-4.442242231184135,353.2376956603216,41.298038574087,0.0,1.0,17.001517792832388,13.57865075580185,0.0,Landing
1.8,-43.35540638166253,-1349.0843163275642,173.86759750159038,3.431092145829041,-4.647770530157212,353.235914924858,41.199704658753475,0.0,1.0,17.001517792832388,13.57865075580185,0.0,Landing
1.9000000000000001,-45.62374875227477,-1343.901772388422,173.07311910049913,3.1710222900206464,-4.401393736220422,353.14772045273094,41.06422951009653,0.0,1.0,17.001517792832388,13.57865075580185,0.0,Landing
2.0,-47.855838847516715,-1342.4363469927982,170.1114700208709,3.1053151479082453,-4.366157057262395,353.36581533814046,41.13820257020062,0.0,1.0,17.001517792832388,13.57865075580185,0.0,Landing
2.1,-50.067588116626524,-1330.6881676940534,173.5058665523181,3.2434058235411793,-4.56606962214596,353.2143590236086,41.15863818259258,0.0,1.0,17.001517792832388,13.57865075580185,0.0,Landing
2.2,-52.27718959074504,-1310.1745235233764,173.0392489203231,3.773823372526673,-4.334820021668352,353.3441885792746,41.550956498792566,0.0,1.0,17.001517792832388,13.57865075580185,0.0,Landing
2.3000000000000003,-54.4067114651336,-1310.609657087484,173.4473120015811,2.901297464267999,-4.0986847817385454,353.1801777022995,40.97745998763953,0.0,1.0,17.001517792832388,13.57865075580185,0.0,Landing
2.4000000000000004,-56.620636402063944,-1321.2525090219046,173.0562940273077,3.250609928404756,-4.574147968785554,353.4734445794868,40.87858593565316,0.0,1.0,17.001517792832388,13.57865075580185,0.0,Landing
2.5,-58.88345213585456,-1350.0437110211435,173.5350225572626,3.5641837987443354,-4.5177145626073445,353.3104758382266,40.888417563937075,0.0,1.0,17.001517792832388,13.57865075580185,0.0,Landing
2.6,-61.156930020239315,-1339.6696026022498,174.8077511900654,3.2786262952537997,-3.957640367926121,353.26943416663255,41.05520110673325,0.0,1.0,17.001517792832388,13.57865075580185,0.0,Landing
2.7,-63.31898441507519,-1339.6167825497898,172.18599125860385,3.3441842951177994,-4.362127447815895,353.11365228450154,41.27155650115328,0.0,1.0,17.001517792832388,13.57865075580185,0.0,Landing
2.8000000000000003,-65.58153604860351,-1331.8124966599128,174.05551442206615,3.6310994885238514,-4.06797687463523,352.9582809305123,40.800787954229975,0.0,1.0,17.001517792832388,13.57865075580185,0.0,Landing
2.9000000000000004,-67.81599250353888,-1343.1606266156962,173.27618134148807,3.33144759010746,-4.522749753997201,353.3834624061899,41.01527815257003,0.0,1.0,17.001517792832388,13.57865075580185,0.0,Landing
3.0,-70.03478754815367,-1345.5121043270083,172.17124044591242,3.793476406491236,-4.0543926308352125,352.8618245650222,40.51839048856016,0.0,1.0,17.001517792832388,13.57865075580185,0.0,Landing
3.1,-72.30909657023855,-1345.5307459975302,175.11681753972962,2.913009076033277,-4.202864055276292,353.43657227950905,41.32470775297346,0.0,1.0,17.001517792832388,13.57865075580185,0.0,Landing
3.2,-74.54364623352653,-1333.4326410916617,173.74704408275082,3.1644899714617445,-4.517707831733796,353.3690330980269,40.46656557698606,0.0,1.0,17.001517792832388,13.57865075580185,0.0,Landing
3.3000000000000003,-76.70195075361198,-1321.9140589646117,174.3726143040503,3.4216935026844424,-4.1593529465177905,353.06873327816606,41.33933077266813,0.0,1.0,17.001517792832388,13.57865075580185,0.0,Landing
3.4000000000000004,-78.91866686506161,-1316.8414473658686,174.68029610571935,3.4178623565940107,-4.190876953404353,353.4431848350355,41.13672672501515,0.0,1.0,17.001517792832388,13.57865075580185,0.0,Landing
3.5,-81.12785347035587,-1339.2231674899565,172.77822611171123,3.2278341341252865,-4.43796211096335,353.28627113831,41.32093737340766,0.0,1.0,17.001517792832388,13.57865075580185,0.0,Landing
3.6,-83.39806659106176,-1338.5686508211593,172.30658927382115,3.543310427615605,-4.831385569765949,352.98504162867926,41.641624325059304,0.0,1.0,17.001517792832388,13.57865075580185,0.0,Landing
3.7,-85.6115101191674,-1339.7559129698664,174.09583464333565,3.312135917419116,-4.463569635386997,352.9360930104385,41.517696948896024,0.0,1.0,17.001517792832388,13.57865075580185,0.0,Landing
3.8000000000000003,-87.8266330352052,-1337.9353106628175,173.8574839812666,3.233285648840115,-4.346758463878175,353.12664132578084,41.38577052835237,0.0,1.0,17.001517792832388,13.57865075580185,0.0,Landing
3.9000000000000004,-90.08774314437585,-1340.8804348856536,173.08184622738784,3.014352681311231,-4.3508847478765995,353.2651896253825,40.498821699660915,0.0,1.0,17.001517792832388,13.57865075580185,0.0,Landing
4.0,-92.31591229359567,-1333.4788770291652,176.5875805468988,3.515825405289421,-4.697408506134749,353.16812906416203,40.98115033687635,0.0,1.0,17.001517792832388,13.57865075580185,0.0,Landing
4.1000000000000005,-94.49402742035103,-1341.6921652616081,171.86764219051113,3.3485825962141305,-4.499203596555776,353.18858964196306,40.93012754553964,0.0,1.0,17.001517792832388,13.57865075580185,0.0,Landing
4.2,-96.79620397068389,-1334.5668465881033,173.02002637336227,3.4334560006064248,-4.400179505516292,353.07422720696945,41.57681950807478,0.0,1.0,17.001517792832388,13.57865075580185,0.0,Landing
4.3,-98.98874652653619,-1340.6571350844247,172.79762844728893,3.2107034763904925,-4.404429864392551,353.08353864422725,40.97490585491653,0.0,1.0,17.001517792832388,13.57865075580185,0.0,Landing
4.4,-101.19731309577315,-1322.0377539271994,173.10051391313627,3.2644414105854787,-4.470675461324013,353.27339745060567,40.843166415509245,0.0,1.0,17.001517792832388,13.57865075580185,0.0,Landing
4.5,-103.40639274031989,-1336.243590358103,173.49276384973538,3.217501561013733,-4.673790392055877,353.33265369257015,41.065447464900174,0.0,1.0,17.001517792832388,13.57865075580185,0.0,Landing
4.6000000000000005,-105.6699644783267,-1336.598450691943,172.5215148263215,3.7756397514322737,-4.560633414931814,353.4090598005911,41.35515251548443,0.0,1.0,17.001517792832388,13.57865075580185,0.0,Landing
4.7,-107.88030534923287,-1328.9517916064283,174.54587375723938,3.416313706058903,-4.653004925153462,353.22143208087914,41.11017206317586,0.0,1.0,17.001517792832388,13.57865075580185,0.0,Landing
4.800000000000001,-110.05115169835203,-1318.6688266771996,174.38918167861272,3.2303752088825157,-4.604190630265457,353.2528442130781,40.876927357152745,0.0,1.0,17.001517792832388,13.57865075580185,0.0,Landing
4.9,-112.2633086117127,-1333.6959988352844,171.66058015874052,3.321458234468916,-4.348772583318657,353.22503970973935,41.96106165815975,0.0,1.0,17.001517792832388,13.57865075580185,0.0,Landing
5.0,-114.54878534340929,-1331.4646571678225,174.68859685656756,3.0426452522567002,-4.385682232812639,353.4822712183235,41.06215083597629,0.0,1.0,17.001517792832388,13.57865075580185,0.0,Landing
5.1000000000000005,-116.70847498419114,-1327.6100009548231,172.72772383217125,3.4539000243748186,-4.581915991557694,353.51553309083033,41.18464945863552,0.0,1.0,17.001517792832388,13.57865075580185,0.0,Landing
5.2,-118.90135861648682,-1312.982906517877,174.84704627019408,3.595763312823058,-4.22747905130467,353.3827803284588,40.42971884767828,0.0,1.0,17.001517792832388,13.57865075580185,0.0,Landing
5.300000000000001,-121.11369987599868,-1344.6915272461156,174.02034974475652,3.50721514811854,-4.453761307359834,353.3389087087064,40.80060500650297,0.0,1.0,17.001517792832388,13.57865075580185,0.0,Landing
5.4,-123.43193262042172,-1333.818246775755,172.83875080424494,3.2782366904281184,-4.694184479663085,353.32448389496676,41.179967188668556,0.0,1.0,17.001517792832388,13.57865075580185,0.0,Landing
5.5,-125.57044985036559,-1330.6828718737677,174.75458078240806,3.3422555773661697,-4.417845816665944,353.47260081866636,41.186412510892104,0.0,1.0,17.001517792832388,13.57865075580185,0.0,Landing
5.6000000000000005,-127.76711423536752,-1294.289853765207,173.855636439846,3.469507595138996,-4.281046014414498,353.53765791087096,41.20260589706734,0.0,1.0,17.001517792832388,13.57865075580185,0.0,Landing
5.7,-129.90338188924775,-1305.88554334353,172.84664806285673,3.3633465130003537,-4.069178667894295,353.43071231682814,41.04747757158904,0.0,1.0,17.001517792832388,13.57865075580185,0.0,Landing
5.800000000000001,-132.09987756708324,-1305.9623334647567,173.95395461650028,3.220900172356846,-4.351351761558695,353.1495551884266,41.23003095120162,0.0,1.0,17.001517792832388,13.57865075580185,0.0,Landing
5.9,-134.2969259026913,-1317.0086053619798,172.4838539778869,3.1895642576505794,-4.405040158292195,353.30943042625177,40.58946622761433,0.0,1.0,17.001517792832388,13.57865075580185,0.0,Landing
6.0,-136.48842491605765,-1313.4095761876438,172.65262369664163,3.27949534028122,-4.417164100772549,353.3696302583576,41.12567640555948,0.0,1.0,17.001517792832388,13.57865075580185,0.0,Landing
6.1000000000000005,-138.66692544802146,-1338.9296292146012,171.46189249659068,3.602186172333687,-4.337314361623928,353.08795024952985,41.139466162819396,0.0,1.0,17.001517792832388,13.57865075580185,0.0,Landing
6.2,-140.9915740487643,-1346.3875303551504,173.28038166487164,3.453552859182234,-4.441551972598994,353.213074580907,41.105614878233304,0.0,1.0,17.001517792832388,13.57865075580185,0.0,Landing
6.300000000000001,-143.2203625678334,-1336.6768796721033,173.17872200166678,3.4081067621233436,-4.086809083992309,353.2779996173109,41.005478721335095,0.0,1.0,17.001517792832388,13.57865075580185,0.0,Landing
6.4,-145.35030984638198,-1321.41389154242,172.9742691410322,3.547698796750824,-4.5849557870811015,353.2610213699993,41.02977781961656,0.0,1.0,17.001517792832388,13.57865075580185,0.0,Landing
6.5,-147.5986435064764,-1307.4954211190004,173.8640085067279,3.112744854807235,-4.5228156257310745,353.58661840861737,41.255124735304925,0.0,1.0,17.001517792832388,13.57865075580185,0.0,Landing
6.6000000000000005,-149.7578396734284,-1317.4768473768097,172.8594430218778,3.696772334949469,-4.694609365239164,353.2742283938285,41.33484371508594,0.0,1.0,17.001517792832388,13.57865075580185,0.0,Landing
6.7,-151.93769408326602,-1320.4924086268932,174.07702914079348,3.318137131652166,-4.165344594946744,353.0994244810838,40.912470302116276,0.0,1.0,17.001517792832388,13.57865075580185,0.0,Landing
6.800000000000001,-154.20110554961087,-1313.887365374785,172.86284315502405,3.316581259595356,-4.563318310912425,353.3423126749308,41.5972234974705,0.0,1.0,17.001517792832388,13.57865075580185,0.0,Landing
6.9,-156.32727650030233,-1317.85064496558,172.8009586178189,3.1046462892964772,-4.223849285412957,353.2948337486839,41.70777734185935,0.0,1.0,17.001517792832388,13.57865075580185,0.0,Landing
7.0,-158.52694730809392,-1293.5003541616084,174.29476080098536,3.5419733820579253,-4.435549757704086,353.32713229106685,41.189185037417104,0.0,1.0,17.001517792832388,13.57865075580185,0.0,Landing
7.1000000000000005,-160.66860732041891,-1317.9834953969248,172.77681206824502,3.5529843889927637,-4.489296261502834,353.44205150486005,40.971500911088896,0.0,1.0,17.001517792832388,13.57865075580185,0.0,Landing
7.2,-162.91719397728696,-1315.7936636856846,173.30412426630903,3.4341738519118734,-4.476307031823742,353.0125103339469,41.72619832611284,0.0,1.0,17.001517792832388,13.57865075580185,0.0,Landing
7.300000000000001,-165.10591562652235,-1309.8683515461175,173.03860700105875,3.2922483549028185,-4.497931187631478,353.34393107607536,41.27306691413357,0.0,1.0,17.001517792832388,13.57865075580185,0.0,Landing
7.4,-167.2179490781495,-1292.707203129305,172.56474130428504,3.4305697509758475,-4.316887050006511,353.28998168367025,40.912224538042345,0.0,1.0,17.001517792832388,13.57865075580185,0.0,Landing
7.5,-169.38072999293348,-1294.0463293104358,173.9571053898079,3.265201975661888,-4.597823715902916,353.3198320199758,41.18989432239946,0.0,1.0,17.001517792832388,13.57865075580185,0.0,Landing
7.6000000000000005,-171.57614727307453,-1300.1116268120143,173.28056490300835,3.3620649463108196,-4.630385729489084,353.24596689599446,41.41051590596833,0.0,1.0,17.001517792832388,13.57865075580185,0.0,Landing
7.7,-173.71850721220957,-1308.4211996092847,172.96439435071883,3.359115013084611,-4.347223175698673,353.27569935086,41.32648145091496,0.0,1.0,17.001517792832388,13.57865075580185,0.0,Landing
7.800000000000001,-175.9228359909799,-1313.8874445583667,174.1894904323983,3.1531993339906723,-4.535453392758312,353.3473153979975,41.27156732481078,0.0,1.0,17.001517792832388,13.57865075580185,0.0,Landing
7.9,-178.14558449586636,-1320.1178809773526,173.2705568794402,3.0585934226970917,-4.463868517868851,353.6458623843589,40.778089501291035,0.0,1.0,17.001517792832388,13.57865075580185,0.0,Landing
8.0,-180.31909661709633,-1315.420585986675,174.93579489945958,3.336779464330858,-4.453094722706678,353.48744442309476,40.66123325086429,0.0,1.0,17.001517792832388,13.57865075580185,0.0,Landing
8.1,-182.49993892091328,-1279.037948859752,172.25265882821637,3.211011345729034,-4.7974343565686155,353.287271842182,40.382844733607364,0.0,1.0,17.001517792832388,13.57865075580185,0.0,Landing
8.200000000000001,-184.54077424016512,-1265.1915521935734,174.4098318116306,3.563330781786127,-4.300821320789122,353.2052084823433,40.669303725184946,0.0,1.0,17.001517792832388,13.57865075580185,0.0,Landing
8.3,-186.6450543780642,-1260.2505956081757,172.67413030852074,3.2295220280575023,-4.366115165469954,353.5517367825771,41.575242513002664,0.0,1.0,17.001517792832388,13.57865075580185,0.0,Landing
8.4,-188.80119189895416,-1279.5802091281419,174.0627131682845,3.328604264203688,-4.203178289610824,353.41903726551413,40.96509421707546,0.0,1.0,17.001517792832388,13.57865075580185,0.0,Landing
8.5,-190.93867528580583,-1287.9377960755053,173.81693844231506,3.3884912742771838,-4.428220240144454,353.35255987747655,41.12624632237189,0.0,1.0,17.001517792832388,13.57865075580185,0.0,Landing
8.6,-193.08474335844173,-1298.9682566576164,175.1449913873211,3.4080265006185715,-4.2488829387300875,353.0577479812415,40.67970951199967,0.0,1.0,17.001517792832388,13.57865075580185,0.0,Landing
8.700000000000001,-195.29603318224224,-1320.659060824073,172.8600832643826,3.3336780745215004,-4.633739691137052,353.146456434685,41.71720279500032,0.0,1.0,17.001517792832388,13.57865075580185,0.0,Landing
8.8,-197.5419705899262,-1302.536337371157,173.90957999603162,3.012582637876745,-4.736733921347449,353.5789832277843,41.337073343486516,0.0,1.0,17.001517792832388,13.57865075580185,0.0,Landing
8.9,-199.5974250452975,-1267.9679853358266,174.6306466830298,3.160732673776066,-4.679613697398358,353.2916886937163,41.06436758058673,0.0,1.0,17.001517792832388,13.57865075580185,0.0,Landing
9.0,-201.63587310892137,-1252.8152546202307,172.22943106971178,3.4370796791163616,-4.428680568228069,353.16943243359015,40.802676709253966,0.0,1.0,17.001517792832388,13.57865075580185,0.0,Landing
9.1,-203.80604686302735,-1274.3666208716775,173.14022561243797,3.391712836013091,-4.754612478668148,353.30970302594255,40.799138398288186,0.0,1.0,17.001517792832388,13.57865075580185,0.0,Landing
9.200000000000001,-205.9692581496559,-1294.54735026398,172.64254009636264,3.218418267046675,-4.398234267150681,353.1638969366602,40.87968553464085,0.0,1.0,17.001517792832388,13.57865075580185,0.0,Landing
9.3,-208.10860986024127,-1295.6085871494508,173.29853421353172,3.181439034011225,-4.690006791993129,353.0247578040944,41.49489980157327,0.0,1.0,17.001517792832388,13.57865075580185,0.0,Landing
9.4,-210.2840897987746,-1275.1441204969126,175.34199518417842,3.3974252404573297,-4.593395527236414,353.21508221020486,40.974939593969815,0.0,1.0,17.001517792832388,13.57865075580185,0.0,Landing
9.5,-212.34497875214046,-1282.8226391558417,172.29390904821986,3.448110653579593,-4.3140483928778695,353.43240513853834,40.79158847790246,0.0,1.0,17.001517792832388,13.57865075580185,0.0,Landing
9.600000000000001,-214.52272305602048,-1277.3658827289694,171.65462142312796,3.16941117872663,-4.384042740840575,353.27184289381853,41.21890546182469,0.0,1.0,17.001517792832388,13.57865075580185,0.0,Landing
9.700000000000001,-216.67091921241945,-1263.4432274721519,174.0933798320911,3.481210546019369,-4.513996304930513,353.24776678120304,40.76754584724648,0.0,1.0,17.001517792832388,13.57865075580185,0.0,Landing
9.8,-218.66219488950122,-1257.0388375362427,172.85183190089785,3.6464162685552353,-4.48209383488042,353.5386859352433,41.051310945595816,0.0,1.0,17.001517792832388,13.57865075580185,0.0,Landing
9.9,-220.8079172437017,-1253.8911823436479,174.64416786818356,3.1189607613220063,-4.350854322477618,353.06749996054964,41.04596915901361,0.0,1.0,17.001517792832388,13.57865075580185,0.0,Landing
10.0,-222.9403751241377,-1277.556406492937,171.6914488756439,3.1848164875070344,-4.255879515153684,353.2189508740787,41.29540209239193,0.0,1.0,17.001517792832388,13.57865075580185,0.0,Landing
10.100000000000001,-225.0499769219659,-1276.5240840504248,172.5979768869872,3.252453367322456,-4.311362950600441,353.2316300918012,40.96652184534006,0.0,1.0,17.001517792832388,13.57865075580185,0.0,Landing
10.200000000000001,-227.19053766395382,-1309.0156315575769,173.26098922886433,3.1349470446312213,-4.612798264399024,353.2016069863928,41.28223498241081,0.0,1.0,17.001517792832388,13.57865075580185,0.0,Landing
10.3,-229.48545328192557,-1311.896738933774,173.64973436311703,2.8681300104410186,-4.333804370412379,353.56997213275304,41.85304162090066,0.0,1.0,17.001517792832388,13.57865075580185,0.0,Landing
10.4,-231.60946061663478,-1316.2131230312184,171.6718200069086,3.290706777854994,-4.2730862148391795,353.4031567168165,40.93745455164924,0.0,1.0,17.001517792832388,13.57865075580185,0.0,Landing
10.5,-233.7716032791099,-1286.6404474099,173.99106181738176,3.6270918924307827,-4.319254649186214,353.3648113054161,41.12207602630731,0.0,1.0,17.001517792832388,13.57865075580185,0.0,Landing
10.600000000000001,-235.91865551897507,-1280.354368142241,172.5049280446894,3.2283133123723844,-4.431894347412941,353.22816321910136,40.82982007332342,0.0,1.0,17.001517792832388,13.57865075580185,0.0,Landing
10.700000000000001,-238.01123245734598,-1284.9568522666345,174.43873688153644,2.9218791008033587,-4.506299654415371,353.28907826985323,41.13746708347927,0.0,1.0,17.001517792832388,13.57865075580185,0.0,Landing
10.8,-240.19638754044308,-1295.0320781092103,174.33590064684262,3.465907143321416,-4.890942844259791,353.4818069613293,40.720812066583186,0.0,1.0,17.001517792832388,13.57865075580185,0.0,Landing
10.9,-242.39381590952112,-1310.1506523355854,173.4673969145839,3.2774734318587018,-4.561204066206145,353.31220803338465,41.42037766278355,0.0,1.0,17.001517792832388,13.57865075580185,0.0,Landing
11.0,-244.5619857190239,-1311.9946343314155,174.02147293641517,3.965308803628931,-4.3885135329481155,353.580816976342,41.21210283404219,0.0,1.0,17.001517792832388,13.57865075580185,0.0,Landing
11.100000000000001,-246.75636071210016,-1314.458920107569,172.78163476810766,3.0247478341802947,-4.215625571751399,353.3922488308739,40.68117125622321,0.0,1.0,17.001517792832388,13.57865075580185,0.0,Landing
11.200000000000001,-248.96611051005897,-1303.8781533236827,173.8429450508251,3.302898936634207,-4.438481130823879,353.33046949072263,40.826506105716156,0.0,1.0,17.001517792832388,13.57865075580185,0.0,Landing
11.3,-251.08137648564232,-1287.264192830861,173.94600128409536,3.4637045513324756,-4.603265589882402,353.2281013970214,40.509938340835966,0.0,1.0,17.001517792832388,13.57865075580185,0.0,Landing
11.4,-253.19268167625447,-1263.0679328751114,173.6643784244544,2.9609212514853693,-4.5246533780882725,353.2656601877678,41.436802927117625,0.0,1.0,17.001517792832388,13.57865075580185,0.0,Landing
11.5,-255.28145017443453,-1275.668440324722,174.51669161869128,3.526534552073398,-4.424240124342279,353.4613420814602,40.95041762772817,0.0,1.0,17.001517792832388,13.57865075580185,0.0,Landing
11.600000000000001,-257.45971868726593,-1281.7427966150547,171.74188130966706,3.5200024398969507,-4.413741463293342,353.43482856807327,40.684614062268004,0.0,1.0,17.001517792832388,13.57865075580185,0.0,Landing
11.700000000000001,-259.60139565932974,-1303.4910307145253,174.86317967588698,3.57572848630123,-4.434617917469983,353.16058126412463,41.68262183776712,0.0,1.0,17.001517792832388,13.57865075580185,0.0,Landing
11.8,-261.79890532800715,-1297.2264387673931,173.27049109193027,3.5857582951675093,-4.834843896623656,353.4104532244421,40.986987855886206,0.0,1.0,17.001517792832388,13.57865075580185,0.0,Landing
11.9,-263.9458508811029,-1266.5742292452933,174.22712289070586,3.346442864841682,-4.233643921449341,353.4584040148678,41.01779439865882,0.0,1.0,17.001517792832388,13.57865075580185,0.0,Landing
12.0,-265.9342668055562,-1248.397863758612,174.6863722626619,3.2338204078338277,-4.337539933465287,353.2564994475821,41.20776875104028,0.0,1.0,17.001517792832388,13.57865075580185,0.0,Landing
12.100000000000001,-268.0408946468002,-1254.5144328691322,174.788925819631,3.197338013496655,-4.571771872890588,353.2113355128474,41.11677719678735,0.0,1.0,17.001517792832388,13.57865075580185,0.0,Landing
12.200000000000001,-270.21842304544856,-1274.9123614290284,174.0986996062998,3.5811427516072696,-4.040274815728486,353.07057076153274,41.16193876651386,0.0,1.0,17.001517792832388,13.57865075580185,0.0,Landing
12.3,-272.30882861270135,-1283.3348437924656,174.76214928035802,3.5241090963607524,-4.199216656573188,353.10439405100476,41.191731693779275,0.0,1.0,17.001517792832388,13.57865075580185,0.0,Landing
12.4,-274.45756886576254,-1268.9407894828491,173.64617407679597,3.721814583218364,-4.314481925165837,353.29807854341846,40.74993695873484,0.0,1.0,17.001517792832388,13.57865075580185,0.0,Landing
12.5,-276.5631269928628,-1281.0227176831972,171.37811489711734,3.1998075580205336,-4.4010808972463815,353.3829677027653,41.43346175791979,0.0,1.0,17.001517792832388,13.57865075580185,0.0,Landing
12.600000000000001,-278.71394220111733,-1258.9700204707015,173.92891146696303,3.299452067151354,-4.409838449026548,353.28519864580494,41.67292368771777,0.0,1.0,17.001517792832388,13.57865075580185,0.0,Landing
12.700000000000001,-280.75241896811605,-1248.7174030588108,172.48316761928626,3.404914820713358,-4.473240415345018,353.481330483702,40.841615044265005,0.0,1.0,17.001517792832388,13.57865075580185,0.0,Landing
12.8,-282.80671400815686,-1227.8677336545115,172.87897841249608,3.20779093834767,-4.359910972181574,353.3761188376657,40.99715035214173,0.0,1.0,17.001517792832388,13.57865075580185,0.0,Landing
12.9,-284.8532808693899,-1233.350521880368,173.25458284923798,3.2861524752172335,-4.35956250989461,353.3379496657569,41.2590075107758,0.0,1.0,17.001517792832388,13.57865075580185,0.0,Landing
13.0,-286.9191715775179,-1233.484645354713,173.36124221706987,3.765477237496923,-4.341796228619368,353.5281674763453,41.37978401903318,0.0,1.0,17.001517792832388,13.57865075580185,0.0,Landing
13.100000000000001,-288.9741372349304,-1249.7737594730097,172.908603035987,3.2396984402729214,-4.82061940754873,353.19041481123236,41.388889552019954,0.0,1.0,17.001517792832388,13.57865075580185,0.0,Landing
13.200000000000001,-291.10214966675494,-1271.8273294539813,175.15653717638136,3.2451457461354156,-4.1975275029410914,353.42031257822816,41.0681802495623,0.0,1.0,17.001517792832388,13.57865075580185,0.0,Landing
13.3,-293.2783082247878,-1263.6551818424437,171.22566463971725,3.8659940833075237,-4.357115891747128,353.36558649312667,40.7046339378843,0.0,1.0,17.001517792832388,13.57865075580185,0.0,Landing
13.4,-295.29241314414264,-1251.3881899711578,174.62723565918716,3.6229696174572705,-4.533294694907977,353.25003773569983,40.83061895783543,0.0,1.0,17.001517792832388,13.57865075580185,0.0,Landing
13.5,-297.35909061661073,-1242.1958245914766,175.6475823798022,3.4618546019104772,-4.39584418127847,353.3562463261003,41.086243343873775,0.0,1.0,17.001517792832388,13.57865075580185,0.0,Landing
13.600000000000001,-299.4892873477452,-1257.990305860028,174.4741973305418,3.4865167952088316,-4.654790361330921,353.2503414197754,41.40976945649369,0.0,1.0,17.001517792832388,13.57865075580185,0.0,Landing
13.700000000000001,-301.5823646734428,-1264.6249291278536,174.71952898826396,3.446671335941941,-4.597691477388629,353.6758976094254,40.40013108409136,0.0,1.0,17.001517792832388,13.57865075580185,0.0,Landing
13.8,-303.68221526225,-1264.3555082060516,172.96449857351524,2.944585991971331,-4.6064324670108086,353.40795939029636,41.56942863676214,0.0,1.0,17.001517792832388,13.57865075580185,0.0,Landing
13.9,-305.81106488877543,-1253.3884572302327,173.19970455036494,3.53679324572958,-4.180373003339438,353.26306749097125,41.03395159717845,0.0,1.0,17.001517792832388,13.57865075580185,0.0,Landing
14.0,-307.84930695959395,-1254.2538775574826,173.61940318803036,3.3926582686828044,-3.988963375865662,353.04737756934765,41.09209094665579,0.0,1.0,17.001517792832388,13.57865075580185,0.0,Landing
14.100000000000001,-309.9534846500374,-1247.2823665463125,171.2999458031811,3.5828967523270174,-4.39925373512055,353.34788408493876,41.148527406564256,0.0,1.0,17.001517792832388,13.57865075580185,0.0,Landing
14.200000000000001,-312.047476721507,-1254.6995242681874,175.08104541973958,3.268866841071863,-4.325536076078856,353.193486393621,41.1830464883787,0.0,1.0,17.001517792832388,13.57865075580185,0.0,Landing
14.3,-314.1228045809349,-1233.1484098516853,172.7181729212401,3.7357551576582124,-4.627630658894956,353.49731085604196,40.93262817206461,0.0,1.0,17.001517792832388,13.57865075580185,0.0,Landing
14.4,-316.11922669929584,-1225.8359806428416,173.57981007324423,3.4456591701872283,-4.425159242987033,353.1277276795854,41.33297150097494,0.0,1.0,17.001517792832388,13.57865075580185,0.0,Landing
14.5,-318.1766566247212,-1210.9928876694426,173.0967438120555,3.6113008596965313,-4.533939516458187,353.254095182053,41.12137631726469,0.0,1.0,17.001517792832388,13.57865075580185,0.0,Landing
14.600000000000001,-320.1777690192821,-1226.543656343597,174.06051119651693,3.393611331027045,-4.328077818213378,353.07374766099997,41.44039973984668,0.0,1.0,17.001517792832388,13.57865075580185,0.0,Landing
14.700000000000001,-322.2519449810138,-1231.3168121644253,171.93617507723047,3.2824779862475575,-4.711052714996303,353.0615368164979,41.03484932902828,0.0,1.0,17.001517792832388,13.57865075580185,0.0,Landing
14.8,-324.33324068554333,-1251.5856838433479,173.6084379444484,3.3217009103076722,-4.516687039251421,353.20634091228226,40.89078777332951,0.0,1.0,17.001517792832388,13.57865075580185,0.0,Landing
14.9,-326.43569743849883,-1244.3533442150397,174.72973255603756,3.1041592451405196,-4.942692268478698,353.26141736600493,41.69901835692757,0.0,1.0,17.001517792832388,13.57865075580185,0.0,Landing
15.0,-328.473711702089,-1239.5138346928775,172.16019016775962,3.435127425275503,-4.403380277041114,353.30720348515933,41.5553274155335,0.0,1.0,17.001517792832388,13.57865075580185,0.0,Landing
15.100000000000001,-330.5308098590077,-1238.9188228202102,175.23207651602058,3.611944499367858,-4.764679813529585,353.3474601421226,41.49777656236774,0.0,1.0,17.001517792832388,13.57865075580185,0.0,Landing
15.200000000000001,-332.6302915525999,-1229.708429194477,173.119556324127,3.4178171592087234,-4.765836960237535,353.51662325933717,41.089568258383146,0.0,1.0,17.001517792832388,13.57865075580185,0.0,Landing
15.3,-334.6222538480614,-1223.9062418566618,172.9930512962439,3.2883835818959954,-4.456327861345759,353.45617770708964,40.9356948817534,0.0,1.0,17.001517792832388,13.57865075580185,0.0,Landing
15.4,-336.650341068291,-1205.214437747361,174.10349396118255,3.076536937370288,-4.427122229227225,353.3180035639034,40.87541806244415,0.0,1.0,17.001517792832388,13.57865075580185,0.0,Landing
15.5,-338.6563637413367,-1228.2395378706724,174.31542184072788,3.469491117373401,-4.559577077879778,353.61136224853203,40.84339481654552,0.0,1.0,17.001517792832388,13.57865075580185,0.0,Landing
15.600000000000001,-340.76345153741477,-1244.5438153704913,173.60984623304614,3.1231015354262537,-4.735306381303642,353.5379883564949,41.077232861735894,0.0,1.0,17.001517792832388,13.57865075580185,0.0,Landing
15.700000000000001,-342.8730601451435,-1261.5544977382228,174.42963271754138,3.5167529523991856,-3.986215237584879,353.56937486135735,40.922045452665344,0.0,1.0,17.001517792832388,13.57865075580185,0.0,Landing
15.8,-344.9641362300278,-1257.170817115184,174.25524127573019,3.3080505306811463,-4.268713038304316,353.37871019269573,40.89770699335384,0.0,1.0,17.001517792832388,13.57865075580185,0.0,Landing
15.9,-347.0493056229907,-1241.6863444099135,172.7823038549256,3.2654101932852955,-4.544431302572541,353.14574669670594,40.55004950480557,0.0,1.0,17.001517792832388,13.57865075580185,0.0,Landing
16.0,-349.08149186719305,-1226.605026185723,172.7487383818024,3.6889940565875396,-4.112359040652975,353.3367349212788,40.98845957708781,0.0,1.0,17.001517792832388,13.57865075580185,0.0,Landing
16.1,-351.0971613609564,-1209.0492098742288,173.0339521329118,3.6222342814344053,-4.127279772779993,353.47222493911727,40.90460143189743,0.0,1.0,17.001517792832388,13.57865075580185,0.0,Landing
16.2,-353.09455167236183,-1227.3454779833742,172.2839618539962,3.3488818673185166,-4.43335668875995,353.41744317091025,41.177709956176294,0.0,1.0,17.001517792832388,13.57865075580185,0.0,Landing
16.3,-355.2182192571099,-1213.5360102731852,172.84829317362414,3.2044128881743577,-4.714984382397474,353.2108821830201,40.62906061072838,0.0,1.0,17.001517792832388,13.57865075580185,0.0,Landing
16.400000000000002,-357.16484141232235,-1226.4358457836806,174.85737691433667,2.911988860816107,-4.465529205245584,353.3247405562147,41.28834574976054,0.0,1.0,17.001517792832388,13.57865075580185,0.0,Landing
16.5,-359.22673090128023,-1211.528701955865,173.13819793686469,3.3891762688610436,-4.266406115372918,353.2454283589344,41.14617447882023,0.0,1.0,17.001517792832388,13.57865075580185,0.0,Landing
16.6,-361.27586276688925,-1231.1771820923695,174.1387638559694,3.3106133649562524,-4.379902817504759,353.46681733053674,41.625878754225425,0.0,1.0,17.001517792832388,13.57865075580185,0.0,Landing
16.7,-363.3207273227842,-1210.0722799391633,173.72000703739246,3.238811036431292,-4.566494837813733,353.3061392366849,41.715166778270714,0.0,1.0,17.001517792832388,13.57865075580185,0.0,Landing
16.8,-365.27709230097605,-1196.6646314002787,174.25815090987868,3.569493822145175,-4.523089741330367,353.33810007812303,40.661721500423404,0.0,1.0,17.001517792832388,13.57865075580185,0.0,Landing
16.900000000000002,-367.25918592389064,-1199.060060567058,173.48641167339363,3.2989341297382313,-4.127874959869425,353.2877667993092,41.505681299219134,0.0,1.0,17.001517792832388,13.57865075580185,0.0,Landing
17.0,-369.3160276256195,-1226.5148905963429,172.1992732174018,3.281033109644866,-4.374336385723318,353.3262801627367,41.224596584857885,0.0,1.0,17.001517792832388,13.57865075580185,0.0,Landing
17.1,-371.40966675395777,-1231.6114445756398,172.89572264766338,3.3550714341091963,-4.729704552963376,353.2382107774474,40.6363571794022,0.0,1.0,17.001517792832388,13.57865075580185,0.0,Landing
17.2,-373.41724314676884,-1222.8474579696012,173.64632291745153,3.3832229759716035,-4.485730626342545,353.46061280137667,41.45693115413854,0.0,1.0,17.001517792832388,13.57865075580185,0.0,Landing
17.3,-375.4302649154675,-1216.3167438607843,176.1037441613586,3.5914573847637787,-4.076666108107733,353.34861192894016,41.05051300966475,0.0,1.0,17.001517792832388,13.57865075580185,0.0,Landing
17.400000000000002,-377.4912504732617,-1213.0157044036423,172.77312534211094,3.564796676811573,-4.464403281122929,353.20130003756356,41.41677926242336,0.0,1.0,17.001517792832388,13.57865075580185,0.0,Landing
17.5,-379.48232166878705,-1221.153679680242,174.5931801707244,3.450796511248569,-4.261941344337449,353.3605085274519,40.771368156496585,0.0,1.0,17.001517792832388,13.57865075580185,0.0,Landing
17.6,-381.5360333138687,-1225.331120166743,173.6269016075039,3.4996919193456244,-4.4970793311263035,353.24732713695425,41.000428379167296,0.0,1.0,17.001517792832388,13.57865075580185,0.0,Landing
17.7,-383.6179060740954,-1243.3652143625181,173.27261526063756,3.6095114885054658,-4.4533086829512785,353.3710901397268,41.00444407807119,0.0,1.0,17.001517792832388,13.57865075580185,0.0,Landing
17.8,-385.69914774059964,-1238.67643875584,172.4236254214738,3.3142345239431807,-4.284941915286551,353.11641570393704,41.280827226117665,0.0,1.0,17.001517792832388,13.57865075580185,0.0,Landing
17.900000000000002,-387.7294155076479,-1234.131081587816,174.52180499664644,3.2698784117379494,-4.4059203017678685,353.00669969323053,41.34187294113407,0.0,1.0,17.001517792832388,13.57865075580185,0.0,Landing
18.0,-389.7885614820345,-1224.7196572446228,172.3470556287824,3.426220455033002,-4.456713189114929,353.50584459572656,41.14774711440425,0.0,1.0,17.001517792832388,13.57865075580185,0.0,Landing
18.1,-391.82274602682276,-1228.884296002002,174.74301706442415,3.26778753119734,-4.4140282081243445,353.3227614288794,40.8798943003764,0.0,1.0,17.001517792832388,13.57865075580185,0.0,Landing
18.2,-393.8738369876579,-1225.1424474163514,172.90314616539692,3.358019015620288,-4.183581038780245,353.28315944606413,41.202118236444235,0.0,1.0,17.001517792832388,13.57865075580185,0.0,Landing
18.3,-395.91427371911624,-1240.1037992175816,173.37829985842512,3.187569310616132,-4.609877591760089,353.3034715498143,41.29882225606056,0.0,1.0,17.001517792832388,13.57865075580185,0.0,Landing
18.400000000000002,-398.02326502291066,-1248.019360188755,172.06252485149415,3.2159047672319745,-4.578774017688963,353.20061470331643,41.01952788525598,0.0,1.0,17.001517792832388,13.57865075580185,0.0,Landing
18.5,-400.1139337886017,-1240.3031371650968,173.45690456706356,3.309963598541907,-4.355729996898148,353.26972356662554,40.723666458386944,0.0,1.0,17.001517792832388,13.57865075580185,0.0,Landing
18.6,-402.1157894049417,-1216.0585888134165,173.83090187126854,3.3903271764124203,-4.542852388782413,353.1860478223091,40.85584871537247,0.0,1.0,17.001517792832388,13.57865075580185,0.0,Landing
18.7,-404.10355796697775,-1201.3550150424066,172.38320604865393,3.4566359942864366,-4.420514109594063,353.21889012212296,40.571126033890536,0.0,1.0,17.001517792832388,13.57865075580185,0.0,Landing
18.8,-406.1207088638137,-1212.739735711591,173.11621951813743,3.355949605179651,-4.452136031665784,353.1307152672771,40.88272759109511,0.0,1.0,17.001517792832388,13.57865075580185,0.0,Landing
18.900000000000002,-408.1794880834997,-1205.7231551933683,173.79950358921343,3.2095601489500387,-4.221709774946486,353.47266088337165,41.280272727496495,0.0,1.0,17.001517792832388,13.57865075580185,0.0,Landing
19.0,-410.1321737429446,-1209.498341429446,173.3915459603416,3.408333951560044,-4.365696989834059,353.2637478262018,41.3557149491337,0.0,1.0,17.001517792832388,13.57865075580185,0.0,Landing
19.1,-412.16820057096095,-1206.884044663525,174.28250356095378,3.4561753184816792,-4.381083764839639,353.30119565045754,41.584517098496185,0.0,1.0,17.001517792832388,13.57865075580185,0.0,Landing
19.200000000000003,-414.2139083068173,-1212.8276141212837,173.69283130260368,3.39994161992901,-4.445236183135691,353.10477881222846,41.14144106532985,0.0,1.0,17.001517792832388,13.57865075580185,0.0,Landing
19.3,-416.196311813551,-1191.5053505165247,172.71275571728646,3.809119546061655,-4.290763267745737,353.4468326270812,41.21828118826715,0.0,1.0,17.001517792832388,13.57865075580185,0.0,Landing
19.400000000000002,-418.1257273235436,-1175.6587775976186,173.9429158056521,3.387161505327848,-4.5305775736624705,353.1812546684657,41.27488201401368,0.0,1.0,17.001517792832388,13.57865075580185,0.0,Landing
19.5,-420.0922021948054,-1195.0121223075598,173.29055176181933,3.4289177596386584,-4.3620747264825015,353.54641046554957,40.75887297970727,0.0,1.0,17.001517792832388,13.57865075580185,0.0,Landing
19.6,-422.1713724250888,-1215.8640459295952,173.99949287809392,3.16765823917314,-4.65502676034033,353.2620097840363,41.47295323989139,0.0,1.0,17.001517792832388,13.57865075580185,0.0,Landing
19.700000000000003,-424.20504755319155,-1208.6978900619556,172.36197275701497,3.388677834442488,-4.487364762663327,353.58240107601705,41.14829155889838,0.0,1.0,17.001517792832388,13.57865075580185,0.0,Landing
19.8,-426.1356916451152,-1185.3920951537589,174.06223986532115,3.2793576727246516,-4.326046409999483,353.0050679669596,41.430226239966586,0.0,1.0,17.001517792832388,13.57865075580185,0.0,Landing
19.900000000000002,-428.0983329008576,-1192.3234746656021,175.65710114243257,3.4015926019611924,-3.995815798630742,353.06829746266385,41.53911352159857,0.0,1.0,17.001517792832388,13.57865075580185,0.0,Landing
20.0,-430.16666492651956,-1201.9918033175486,173.898305210506,3.45109238529605,-4.392897561407348,353.351078810624,41.25177647581287,0.0,1.0,17.001517792832388,13.57865075580185,0.0,Landing
20.1,-432.1456506617029,-1211.6925152951922,174.18078690513153,3.0682726424049895,-4.441847895958116,353.5912946857286,41.28375913284033,0.0,1.0,17.001517792832388,13.57865075580185,0.0,Landing
20.200000000000003,-434.15679547733356,-1198.3269642981213,174.72424400215476,3.5263533455464,-4.347466424157294,353.21951402198215,41.41964214979052,0.0,1.0,17.001517792832388,13.57865075580185,0.0,Landing
20.3,-436.15829974801017,-1204.8567042564628,174.37696901457832,3.1277595210842413,-4.359119941245654,353.1501152047176,41.403615893550764,0.0,1.0,17.001517792832388,13.57865075580185,0.0,Landing
20.400000000000002,-438.16993418298523,-1183.7077425568282,172.41209111256867,3.218459290885169,-4.5557330033688075,353.5839666990282,41.38179983019713,0.0,1.0,17.001517792832388,13.57865075580185,0.0,Landing
20.5,-440.0753341901177,-1165.1017518645517,173.45167316572676,3.447475067494026,-4.190119203317508,353.23539895244653,41.26853812439976,0.0,1.0,17.001517792832388,13.57865075580185,0.0,Landing
20.6,-441.9838085073329,-1156.9445300306484,172.96442080194274,2.9682364511335777,-4.374256318165735,353.3235984203035,41.22004562547687,0.0,1.0,17.001517792832388,13.57865075580185,0.0,Landing
20.700000000000003,-443.9546568331385,-1174.6674365952458,172.05921526072598,3.115876384190399,-4.426882632722328,353.3520630887906,40.86981911625447,0.0,1.0,17.001517792832388,13.57865075580185,0.0,Landing
20.8,-445.94867137309393,-1184.3029239262364,173.32191055315866,3.324378434411635,-4.5304684660270835,353.1277066868388,40.87054716734167,0.0,1.0,17.001517792832388,13.57865075580185,0.0,Landing
20.900000000000002,-447.9053231269641,-1197.218105529339,174.04182806885646,3.467435894926923,-4.150488362148696,353.1642030663886,40.89690894428404,0.0,1.0,17.001517792832388,13.57865075580185,0.0,Landing
21.0,-449.94074736078517,-1178.6063982230644,174.07528215370002,3.7069430674772463,-4.108789889516089,353.4706780537074,41.18050138049537,0.0,1.0,17.001517792832388,13.57865075580185,0.0,Landing
21.1,-451.84170336420925,-1163.4809692618205,176.04910361313011,2.993432827355941,-4.561650692473884,353.3496966862955,40.825683996842514,0.0,1.0,17.001517792832388,13.57865075580185,0.0,Landing
21.200000000000003,-453.7227279732732,-1151.3739302100817,172.57985519079378,3.7108107630193388,-4.202347023304165,353.1537520631832,41.63974545842277,0.0,1.0,17.001517792832388,13.57865075580185,0.0,Landing
21.3,-455.6976170118356,-1162.1293994143002,172.11873492445,3.329856012058745,-4.093793838241342,352.99670631444883,41.32928661102949,0.0,1.0,17.001517792832388,13.57865075580185,0.0,Landing
21.400000000000002,-457.65235036128075,-1178.4011538863297,172.02617508305457,3.1500082382566736,-4.395414867721158,353.37918803911975,41.90529949432884,0.0,1.0,17.001517792832388,13.57865075580185,0.0,Landing
21.5,-459.61473374270486,-1191.2546922100887,173.86416237918436,3.1413837771110837,-4.613310735687302,353.6050419030719,41.13628420094423,0.0,1.0,17.001517792832388,13.57865075580185,0.0,Landing
21.6,-461.653890472886,-1204.7089026349,173.74289874374927,3.565979920248442,-4.008827243400008,353.20753125956674,41.1822246926821,0.0,1.0,17.001517792832388,13.57865075580185,0.0,Landing
21.700000000000003,-463.67589487445525,-1199.393002825775,175.62823740967238,3.291563176872827,-4.354865547052271,353.3239681886,41.4524705845492,0.0,1.0,17.001517792832388,13.57865075580185,0.0,Landing
21.8,-465.61169875683373,-1185.3561055276145,173.1522314359824,3.6286813689857507,-4.66779463602371,353.32758104367144,40.95325034510884,0.0,1.0,17.001517792832388,13.57865075580185,0.0,Landing
21.900000000000002,-467.5806710005241,-1161.1927651984615,172.6384610286921,3.7472411434515966,-4.4283763604516855,353.23089827981664,41.92583884446207,0.0,1.0,17.001517792832388,13.57865075580185,0.0,Landing
22.0,-469.48185870044756,-1162.2618384214434,172.339840361766,3.0721793271458147,-4.516621353908283,353.4169653035153,41.371543070052404,0.0,1.0,17.001517792832388,13.57865075580185,0.0,Landing
22.1,-471.42300794894095,-1160.395986718413,173.89125671479962,3.285929233648218,-4.486039685978288,353.3292131486544,40.835939210500456,0.0,1.0,17.001517792832388,13.57865075580185,0.0,Landing
22.200000000000003,-473.38265093411616,-1172.0795685040457,173.57356077018198,3.225920874573145,-4.262856281589729,353.48883497731526,41.55794819433645,0.0,1.0,17.001517792832388,13.57865075580185,0.0,Landing
22.3,-475.3422565429678,-1184.3733536700029,172.25986527245672,3.6815966472674506,-4.3464357301941545,353.053490854801,41.129814578882566,0.0,1.0,17.001517792832388,13.57865075580185,0.0,Landing
22.400000000000002,-477.34487471729096,-1188.4075800324467,173.81642067002775,3.2471450924186698,-4.4377335794736155,353.3452113020428,40.79063774483486,0.0,1.0,17.001517792832388,13.57865075580185,0.0,Landing
22.5,-479.3246888342784,-1198.979676018132,172.28636906699498,3.190593727387972,-4.625880654669745,353.29510881395913,40.86149310990056,0.0,1.0,17.001517792832388,13.57865075580185,0.0,Landing
22.6,-481.33715492305845,-1188.9341262009793,172.1544759467525,3.5722301301360546,-4.521034805864072,353.34691114771726,40.870880243064164,0.0,1.0,17.001517792832388,13.57865075580185,0.0,Landing
22.700000000000003,-483.28954534829586,-1180.1450209587983,172.13342246767397,3.4761153845069956,-4.262939252275723,353.2286069959074,41.4443799513287,0.0,1.0,17.001517792832388,13.57865075580185,0.0,Landing
22.8,-485.2254139390724,-1158.8381156595005,172.68893494002018,3.1586322970315797,-4.2718558129667485,353.2088058462107,41.423020768555304,0.0,1.0,17.001517792832388,13.57865075580185,0.0,Landing
22.900000000000002,-487.13134550135595,-1144.7358044605153,172.3142762196954,3.4604588518438604,-4.332280558401709,353.3081644876363,41.45323985330815,0.0,1.0,17.001517792832388,13.57865075580185,0.0,Landing
23.0,-489.01322437059844,-1154.6970763225772,173.38102976569198,3.171034050530012,-4.070910294571821,353.4160143341045,40.67187190413221,0.0,1.0,17.001517792832388,13.57865075580185,0.0,Landing
23.1,-490.99889932068527,-1163.5264699234199,173.30007915997402,3.481833121210777,-4.464470290091702,353.3641015046114,41.68063551528241,0.0,1.0,17.001517792832388,13.57865075580185,0.0,Landing
23.200000000000003,-492.94897785097305,-1168.8058499238878,172.30660616657974,3.309305081049525,-4.3558996085866335,353.51485757577416,41.29673037458729,0.0,1.0,17.001517792832388,13.57865075580185,0.0,Landing
23.3,-494.8572536202179,-1156.2530515251979,172.2764824341848,3.5066354268592823,-4.447447854890203,353.19295306054755,41.547541993213684,0.0,1.0,17.001517792832388,13.57865075580185,0.0,Landing
23.400000000000002,-496.78016457831126,-1164.0464915130792,172.46137525771326,3.8515151560371916,-4.329935714703627,353.6578285702203,41.43983892346677,0.0,1.0,17.001517792832388,13.57865075580185,0.0,Landing
23.5,-498.76921030853845,-1152.9752676015733,173.46995603710573,3.4924403595521913,-4.436592528096175,353.30793190746795,41.663076615517014,0.0,1.0,17.001517792832388,13.57865075580185,0.0,Landing
23.6,-500.62212995822574,-1139.4567065362594,174.35846629823254,3.3376589372439134,-4.542848698745576,353.12554884471456,41.16915487448593,0.0,1.0,17.001517792832388,13.57865075580185,0.0,Landing
23.700000000000003,-502.47744811099255,-1148.2917656103723,175.6080947851085,3.086165169765114,-4.622638994657475,353.2468721006601,41.38506574767427,0.0,1.0,17.001517792832388,13.57865075580185,0.0,Landing
23.8,-504.5106691365903,-1158.578524455288,173.34553692054973,3.385874981230573,-4.150444224091141,353.3239617424306,41.51923053736574,0.0,1.0,17.001517792832388,13.57865075580185,0.0,Landing
23.900000000000002,-506.4150225805022,-1179.360202078783,170.92240540016547,3.453125014411948,-4.418774812378337,353.2651156027579,41.603141986257775,0.0,1.0,17.001517792832388,13.57865075580185,0.0,Landing
24.0,-508.37424912138647,-1169.4288217855274,174.4809112186212,3.4492961681917045,-4.193602625166133,353.39255225119246,41.300546630538804,0.0,1.0,17.001517792832388,13.57865075580185,0.0,Landing
24.1,-510.35781324551795,-1182.743576646567,173.60587983342415,3.4746525283476326,-4.647271632014689,353.2488328189668,40.92103368456465,0.0,1.0,17.001517792832388,13.57865075580185,0.0,Landing
24.200000000000003,-512.328740463735,-1178.4801963015525,172.00131825782677,3.5566246457977533,-4.256415685641255,353.4467309431411,41.14804037832228,0.0,1.0,17.001517792832388,13.57865075580185,0.0,Landing
24.3,-514.2666501028942,-1170.1409142703596,173.7066910443111,3.0482210861273167,-4.328916388162455,353.58834290398966,41.15024707983753,0.0,1.0,17.001517792832388,13.57865075580185,0.0,Landing
24.400000000000002,-516.2085178168697,-1149.4146495537507,172.50455632488817,3.380577620816364,-3.9992614651607505,353.19928798089404,40.9798430688147,0.0,1.0,17.001517792832388,13.57865075580185,0.0,Landing
24.5,-518.0758137115038,-1136.7379868467879,173.93100796395132,3.4577030322664055,-4.411690712449444,353.52927103078673,41.74492240114554,0.0,1.0,17.001517792832388,13.57865075580185,0.0,Landing
24.6,-519.9503400371282,-1153.6016704019858,174.48228755284833,3.116157474569471,-4.145273208156791,353.4692930019901,41.12214355746981,0.0,1.0,17.001517792832388,13.57865075580185,0.0,Landing
24.700000000000003,-521.9765261688797,-1178.516133675339,175.5117090715095,3.7278279190926944,-4.266270125628047,353.10233687308914,40.58205647107044,0.0,1.0,17.001517792832388,13.57865075580185,0.0,Landing
24.8,-523.9683943798805,-1179.0897676984514,174.40707204960282,3.565198356082799,-4.223465024252829,353.2764922396607,41.27681864457398,0.0,1.0,17.001517792832388,13.57865075580185,0.0,Landing
24.900000000000002,-525.8457888756204,-1153.8380026748882,172.25560674638635,3.825452617961113,-3.9569178086184342,353.4439919554544,41.42612426385596,0.0,1.0,17.001517792832388,13.57865075580185,0.0,Landing
25.0,-527.7457161822541,-1151.1189280202643,173.3966541747791,3.876992929065251,-4.391703686180715,353.0632953540322,41.66135897644374,0.0,1.0,17.001517792832388,13.57865075580185,0.0,Landing
25.1,-529.7239890199818,-1148.106689827705,174.07116408443335,3.3824751597243403,-4.259333192391195,353.29266320858574,41.49369763376066,0.0,1.0,17.001517792832388,13.57865075580185,0.0,Landing
25.200000000000003,-531.586322324759,-1160.4936436269782,174.6275002363449,3.3636906075548136,-4.089744299312218,353.38849604952486,40.64962119683054,0.0,1.0,17.001517792832388,13.57865075580185,0.0,Landing
25.3,-533.548184400389,-1146.2655819277188,172.87345930553013,3.4719096040416226,-4.853423111237131,353.0549337529353,40.14472798541919,0.0,1.0,17.001517792832388,13.57865075580185,0.0,Landing
25.400000000000002,-535.4553169296204,-1157.3113555707096,171.29371236029962,3.2860827897363727,-4.561173472369439,353.1625644817776,41.21998645431483,0.0,1.0,17.001517792832388,13.57865075580185,0.0,Landing
25.5,-537.3728791026125,-1150.1634737478525,170.3559589786238,3.682899894257125,-4.647108287884982,353.13306862994386,41.165750889346484,0.0,1.0,17.001517792832388,13.57865075580185,0.0,Landing
25.6,-539.2990017691283,-1174.5456531089985,174.5774885377207,3.288296960199206,-4.275536709665568,353.334849804648,41.04394494848853,0.0,1.0,17.001517792832388,13.57865075580185,0.0,Landing
25.700000000000003,-541.3280451951654,-1164.0179881791937,173.69772440507558,3.2703655785909627,-4.352011522237381,353.3150370001897,40.591653816541495,0.0,1.0,17.001517792832388,13.57865075580185,0.0,Landing
25.8,-543.1929690435085,-1166.0233527272794,174.24083696715223,3.293695772530585,-4.313625984011659,353.14489212251306,41.2114901837891,0.0,1.0,17.001517792832388,13.57865075580185,0.0,Landing
25.900000000000002,-545.1291185327647,-1142.4180698908913,172.2106823708351,3.5953193166501234,-4.1747355226837595,353.3133653581566,41.52996560751258,0.0,1.0,17.001517792832388,13.57865075580185,0.0,Landing
26.0,-547.0401355446198,-1160.3571370315876,173.1475250623293,3.3197121376511505,-4.146777725839556,353.4360364823706,41.407954996588764,0.0,1.0,17.001517792832388,13.57865075580185,0.0,Landing
26.1,-548.9947547286664,-1163.9541933922828,172.4146144203041,3.311325299239651,-4.481044319559479,353.16691466964085,41.32593550767787,0.0,1.0,17.001517792832388,13.57865075580185,0.0,Landing
26.200000000000003,-550.9488894997261,-1171.375213593592,172.1314923312693,3.5933006664254705,-4.138302475141794,353.16109712585444,41.170636700141685,0.0,1.0,17.001517792832388,13.57865075580185,0.0,Landing
26.3,-552.8970116125878,-1156.9025944000032,172.38502659847282,3.634117114271256,-4.22730002481943,352.98098759252844,41.007163702725535,0.0,1.0,17.001517792832388,13.57865075580185,0.0,Landing
26.400000000000002,-554.7792677006664,-1115.0491864898413,173.1577956613508,3.0489010201411344,-4.661559187482609,353.4265604337645,40.4982038829452,0.0,1.0,17.001517792832388,13.57865075580185,0.0,Landing
26.5,-556.5241354321753,-1094.3713815049023,173.42082444742397,3.194139047778628,-4.440267897015323,353.4405419636646,41.163604110409274,0.0,1.0,17.001517792832388,13.57865075580185,0.0,Landing
26.6,-558.3688685201123,-1109.5221150744692,173.51626561352225,3.6035848030996283,-4.393834244502532,353.4608246747579,40.997931016775745,0.0,1.0,17.001517792832388,13.57865075580185,0.0,Landing
26.700000000000003,-560.3268782760388,-1126.5556482277134,176.12707998610543,3.8973746158302807,-4.476024527083206,353.0536878823623,41.90500333393021,0.0,1.0,17.001517792832388,13.57865075580185,0.0,Landing
26.8,-562.1569136733139,-1134.2475839881217,172.81475717197284,3.2609258143512356,-4.58839337182338,353.23128782408037,41.09263567901653,0.0,1.0,17.001517792832388,13.57865075580185,0.0,Landing
26.900000000000002,-564.0401064400529,-1128.851571903033,173.84357610503736,3.511134069151168,-4.509054073465686,353.23622873549016,41.186253648531164,0.0,1.0,17.001517792832388,13.57865075580185,0.0,Landing
27.0,-565.9711361355539,-1140.857444623657,172.99639511037762,3.3714640041074153,-4.409993248993397,353.2685836766527,41.11978981921773,0.0,1.0,17.001517792832388,13.57865075580185,0.0,Landing
27.1,-567.8612008964321,-1147.285872556381,174.82468123198896,3.1509321169954037,-4.45368885287921,353.33077652381655,41.10147744821874,0.0,1.0,17.001517792832388,13.57865075580185,0.0,Landing
27.200000000000003,-569.7765358028348,-1149.461594959621,174.79668777059862,3.123166343664499,-4.694163750965714,353.0910956574844,41.21523392550704,0.0,1.0,17.001517792832388,13.57865075580185,0.0,Landing
27.3,-571.718444110352,-1146.234876608969,172.1184155985461,3.132681190311276,-4.9519164181174915,353.0686567828873,40.71590415081996,0.0,1.0,17.001517792832388,13.57865075580185,0.0,Landing
27.400000000000002,-573.592375279477,-1156.2751476279118,172.51165429368984,3.3872700964928986,-4.4866513499577145,353.2011388705165,41.148267221001255,0.0,1.0,17.001517792832388,13.57865075580185,0.0,Landing
27.5,-575.5579115409744,-1140.813087298875,173.68183964744895,3.2858515343706527,-4.383427956995725,353.4007094637591,40.9627242321872,0.0,1.0,17.001517792832388,13.57865075580185,0.0,Landing
27.6,-577.4225095468464,-1137.8054216400187,174.72313106974872,3.766874640202053,-4.083338393366791,353.22818901696564,40.73110727860368,0.0,1.0,17.001517792832388,13.57865075580185,0.0,Landing
27.700000000000003,-579.2814023876771,-1121.501922629568,174.56230677533307,3.2059506220678218,-4.287653605592917,353.0558244651404,41.2134885110611,0.0,1.0,17.001517792832388,13.57865075580185,0.0,Landing
27.8,-581.1654211541222,-1134.5453491759145,173.2534405369807,3.28990840032292,-4.489808954428041,353.44758264183383,41.13881657799919,0.0,1.0,17.001517792832388,13.57865075580185,0.0,Landing
27.900000000000002,-583.095236292726,-1145.1092703198356,174.2998447109788,2.670584420567911,-4.549274782874317,353.1895536622138,40.82747726095695,0.0,1.0,17.001517792832388,13.57865075580185,0.0,Landing
28.0,-585.0069487392763,-1148.6997065650485,173.76649486524235,3.2561822974751853,-4.2784812713974345,353.3389978351249,40.741690422075294,0.0,1.0,17.001517792832388,13.57865075580185,0.0,Landing
28.1,-586.9089196869475,-1137.1861150837049,173.00798463699118,3.2327148889823456,-4.634203998740277,353.14469963572765,40.916428306594604,0.0,1.0,17.001517792832388,13.57865075580185,0.0,Landing
28.200000000000003,-588.7811668681445,-1136.1495844956607,173.19671036913692,3.2298270763560413,-4.381770532052356,353.09293578550455,41.15373937401555,0.0,1.0,17.001517792832388,13.57865075580185,0.0,Landing
28.3,-590.6876966617546,-1117.2858330332701,173.96742552917354,3.511153270834013,-4.510640639302814,353.0736798866244,41.02035050633136,0.0,1.0,17.001517792832388,13.57865075580185,0.0,Landing
28.400000000000002,-592.4953488521138,-1116.6990357017994,173.58691100650168,3.1681400721322497,-4.270411373736726,353.465010426655,41.18107812848966,0.0,1.0,17.001517792832388,13.57865075580185,0.0,Landing
28.5,-594.3646620466535,-1096.9274270391224,172.65904305305966,3.0933430679166967,-4.64024608244376,353.5238138264217,40.05369874754218,0.0,1.0,17.001517792832388,13.57865075580185,0.0,Landing
28.6,-596.1723337969502,-1093.5733229631069,172.62347213510793,3.6995517215678957,-4.507368823182872,353.2010475990746,40.85297711094732,0.0,1.0,17.001517792832388,13.57865075580185,0.0,Landing
28.700000000000003,-597.9632154669293,-1087.4131798446115,174.3369183690696,3.392547565980151,-4.434426081117215,353.1649924550617,41.114079987948514,0.0,1.0,17.001517792832388,13.57865075580185,0.0,Landing
28.8,-599.8017279458766,-1106.6434682365298,172.31441216771418,3.3716234813898565,-4.316767555445771,353.2857184363079,40.515857942375256,0.0,1.0,17.001517792832388,13.57865075580185,0.0,Landing
28.900000000000002,-601.7055511381328,-1125.7638431639862,172.7056679288016,3.4842745656527194,-4.534435623846912,353.4316323690341,41.37836336779068,0.0,1.0,17.001517792832388,13.57865075580185,0.0,Landing
29.0,-603.5920346827493,-1136.5317750511167,175.15105987222307,3.6477879954219925,-4.529422968349876,353.0374484191267,41.021896169848624,0.0,1.0,17.001517792832388,13.57865075580185,0.0,Landing
29.1,-605.4843868211321,-1112.9323657869463,172.47928850381572,3.6426675086736005,-4.430567468677491,353.5651225497261,41.257538051360704,0.0,1.0,17.001517792832388,13.57865075580185,0.0,Landing
29.200000000000003,-607.2702129670676,-1095.9836586983783,172.44879910865367,3.0081564219547166,-4.490122792129486,353.56318995043,41.33424000097294,0.0,1.0,17.001517792832388,13.57865075580185,0.0,Landing
29.3,-609.0719529762412,-1094.4915008640237,172.95231125129644,3.8573953805139447,-4.575429333832278,353.5986440143407,40.84612809841716,0.0,1.0,17.001517792832388,13.57865075580185,0.0,Landing
29.400000000000002,-610.9568443254523,-1127.264431503204,173.60401129996347,3.1451647240623624,-4.714871513290846,353.3209825399788,40.87272466979206,0.0,1.0,17.001517792832388,13.57865075580185,0.0,Landing
29.5,-612.9065351245836,-1155.0030978608447,174.88113418350082,3.081149914182117,-4.501157414087557,353.47426098614915,41.05261142313902,0.0,1.0,17.001517792832388,13.57865075580185,0.0,Landing
29.6,-614.8469684655454,-1140.441308671393,172.65495886999437,3.7310353419681848,-4.430595257444719,353.3539218229722,41.6572141731939,0.0,1.0,17.001517792832388,13.57865075580185,0.0,Landing
29.700000000000003,-616.6590508688092,-1133.6074775272891,173.54323513801336,3.1325319380491146,-4.335245413098957,353.13391427119495,41.07678693866526,0.0,1.0,17.001517792832388,13.57865075580185,0.0,Landing
29.8,-618.57457251222,-1133.890169498295,173.84709522592007,3.244339287050965,-4.385167878857291,353.3558504798277,40.677694596678755,0.0,1.0,17.001517792832388,13.57865075580185,0.0,Landing
29.900000000000002,-620.5164193130369,-1149.4180060577037,172.32663674143598,3.468559171622666,-4.464554076837141,353.37403865420015,41.10099171511436,0.0,1.0,17.001517792832388,13.57865075580185,0.0,Landing
30.0,-622.4061408990977,-1132.8047901313312,172.63718357803424,3.329690329135666,-4.442173147493385,353.2104329053043,41.530168419207136,0.0,1.0,17.001517792832388,13.57865075580185,0.0,Landing
