time_s,altitude_ft,vertical_speed_fpm,ias_kt,pitch_deg,roll_deg,heading_deg,throttle_pct,afterburner_on,gear_down,flaps_deg,speedbrake_pct,weight_on_wheels,label
0.0,0.004409027124389759,20.54228809685974,21.449906249414248,-0.3606787913946763,-0.35210443711182865,239.86728133727775,12.539188252104076,0.0,1.0,0.0,0.0,1.0,Taxi
0.1,0.07288332078058889,1.5929840852256802,21.935883942013763,0.1152468453968831,-0.27059879401523784,240.09695200329793,13.30252968062792,0.0,1.0,0.0,0.0,1.0,Taxi
0.2,0.012373947550518162,-5.787987898364594,20.8677094272652,0.07499755800898003,0.08653953556876237,240.04816287918038,12.779324417798088,0.0,1.0,0.0,0.0,1.0,Taxi
0.30000000000000004,-0.0245309123674332,-25.989685895622312,21.981360913593576,0.11894434785659411,-0.39314723899948634,239.89778404705658,12.865100374833478,0.0,1.0,0.0,0.0,1.0,Taxi
0.4,-0.057065108697522654,8.305906907501507,21.800327030058966,-0.08890361825902782,0.10407334355257565,240.19085840080663,12.373492922559132,0.0,1.0,0.0,0.0,1.0,Taxi
0.5,0.05390348208802569,-6.192093501305493,21.324610983328718,-0.32535859470365047,-0.33897782455182146,239.86777877990664,12.06078544449495,0.0,1.0,0.0,0.0,1.0,Taxi
0.6000000000000001,-0.05549137987396066,-6.019794529621241,20.63693467588323,-0.28256309391315887,0.2319653844031307,240.01295872818378,13.176541182418484,0.0,1.0,0.0,0.0,1.0,Taxi
0.7000000000000001,-0.08716408134562886,-26.981574587679784,20.91392099210068,-0.09254435043814797,0.28613601854275045,240.0003483510618,12.71322235120693,0.0,1.0,0.0,0.0,1.0,Taxi
0.8,-0.08100439085037321,30.439903898457782,20.8599852721244,-0.3463104661338611,-0.7335074337062502,239.95722589717536,12.402742597160982,0.0,1.0,0.0,0.0,1.0,Taxi
0.9,0.09670813961832823,45.22432264658328,22.90266588203383,0.12870002979011702,0.49026544741213907,239.9282972621843,12.033630332463558,0.0,1.0,0.0,0.0,1.0,Taxi
1.0,0.13895753188728752,10.656830508910735,21.67017720076936,-0.4245618492893331,-0.8203502312294781,240.00089520226265,13.449731059384852,0.0,1.0,0.0,0.0,1.0,Taxi
1.1,-0.02772023830581957,-52.013109670027596,20.477414676151586,-0.2882630661633885,-0.06495321938970916,239.99868849134407,13.076959231238435,0.0,1.0,0.0,0.0,1.0,Taxi
1.2000000000000002,-0.16335740873180973,-21.87075903797891,21.571047816319894,-0.18804640015055243,-0.4480512042315237,240.05483837633233,13.404871965663842,0.0,1.0,0.0,0.0,1.0,Taxi
1.3,0.02960373669739293,19.992016169959186,21.050629985827218,-0.39514652748903306,1.1858575045166564,240.02255923167547,12.445706640523207,0.0,1.0,0.0,0.0,1.0,Taxi
1.4000000000000001,0.07223984254397635,28.307046833736894,22.098037760976073,-0.23496157886851746,1.092509624354008,240.0172032169503,12.423718843929171,0.0,1.0,0.0,0.0,1.0,Taxi
1.5,-0.021822174563125254,-32.28080858863863,21.48024334615187,-0.26108020227477136,-0.01731007130083756,239.89435220506618,12.586883942983269,0.0,1.0,0.0,0.0,1.0,Taxi
1.6,-0.13180030624580022,-35.94085534635489,20.636515719354687,-0.08035517537779507,-0.7281939345102237,240.05517758939482,12.810296880569178,0.0,1.0,0.0,0.0,1.0,Taxi
1.7000000000000002,-0.10746443418779808,-22.54750489906564,21.813907935694417,-0.1871351274249306,0.1510295656961319,239.90558056433758,11.28009533478504,0.0,1.0,0.0,0.0,1.0,Taxi
1.8,-0.13455969905845344,13.986874566572004,22.10547086777993,-0.1037645639615618,-0.3386801496528247,239.94153285773848,12.986232120107726,0.0,1.0,0.0,0.0,1.0,Taxi
1.9000000000000001,-0.061865933412940194,-6.202909418974606,21.28268295748302,-0.1852503765588207,0.5869532707301803,239.94426491061313,11.804130779746325,0.0,1.0,0.0,0.0,1.0,Taxi
2.0,-0.1384789812826711,29.648279777530632,21.836462729217946,-0.14925865913699002,0.1356192911292838,240.03160109225996,12.259752770821242,0.0,1.0,0.0,0.0,1.0,Taxi
2.1,0.013681699829199728,12.873480950184572,21.86359229896037,0.1411269127186296,-0.025647819435876937,239.97597318592182,12.795809196543027,0.0,1.0,0.0,0.0,1.0,Taxi
2.2,0.0025014713379826773,67.42251113273495,21.269522241248833,0.2722747407875915,0.5977699535605161,239.81656008752168,12.912395864631458,0.0,1.0,0.0,0.0,1.0,Taxi
2.3000000000000003,0.1986335743810037,-7.037769248719219,22.686502074364302,-0.11353600433239285,-0.05027443710160066,239.9955248900103,12.153134679149705,0.0,1.0,0.0,0.0,1.0,Taxi
2.4000000000000004,-0.02150714641439632,-10.88157598103283,21.14710500117547,-0.08141843378992836,-0.06140836820116744,240.07943548267428,13.4818663399842,0.0,1.0,0.0,0.0,1.0,Taxi
2.5,-0.05190640856718141,-18.607274732887603,21.767890783689374,-0.08437548944267406,0.7494940878762473,239.85620479114175,11.884381819615042,0.0,1.0,0.0,0.0,1.0,Taxi
2.6,0.10559720071656574,-8.640573187103248,21.736935122154662,-0.08681509091789086,-0.18910886470913113,239.82022594707348,12.634889847914735,0.0,1.0,0.0,0.0,1.0,Taxi
2.7,-0.06471001234991254,28.758690017192816,22.99136559720599,-0.21843962849079904,0.9067571763938013,239.93807007482326,12.47394514821767,0.0,1.0,0.0,0.0,1.0,Taxi
2.8000000000000003,0.09188704151878266,-44.145674508472574,20.85846469076815,-0.2441255668146175,-0.6904515891413393,240.02988880410715,12.648644772095269,0.0,1.0,0.0,0.0,1.0,Taxi
2.9000000000000004,-0.11513117182579709,7.158334301118704,21.25195861517852,-0.09385707386590335,0.4777947800206492,239.9713081401469,12.434964259947716,0.0,1.0,0.0,0.0,1.0,Taxi
3.0,-0.028918340844318977,3.481078463681181,20.52472251468907,-0.5303184898828398,0.08844900656688524,240.10107439427225,12.882151828487475,0.0,1.0,0.0,0.0,1.0,Taxi
3.1,0.10929243383718862,25.621547931054987,19.75894181818717,-0.010897259003880805,-0.2129041794444033,240.1387342602568,12.831610383490432,0.0,1.0,0.0,0.0,1.0,Taxi
3.2,0.012976567829477904,-4.5789414415686265,20.937490205434084,-0.15408568408292422,0.3079450941186678,240.1424214600222,12.089400910741048,0.0,1.0,0.0,0.0,1.0,Taxi
3.3000000000000003,-0.05181304805216206,-56.300745820361094,21.874887795912965,-0.13298897516369196,-0.24975770453711962,240.184222156538,11.822032011769187,0.0,1.0,0.0,0.0,1.0,Taxi
3.4000000000000004,-0.1722112952646168,4.991180256797709,22.332058676153352,0.0943853202210678,-0.11228207176598143,239.9150297479673,12.009122989500908,0.0,1.0,0.0,0.0,1.0,Taxi
3.5,0.03793246911346651,-3.9908586873877048,21.418887430033813,0.0977064983844339,0.20193155087960177,240.03410665591377,12.913024640335873,0.0,1.0,0.0,0.0,1.0,Taxi
3.6,-0.07176734148910051,38.61342135640184,21.18922072944501,-0.029261217624809543,0.9870613999807162,239.83781295552103,12.98095197773478,0.0,1.0,0.0,0.0,1.0,Taxi
3.7,0.020855811517392492,-26.476771112494202,20.445024949609092,-0.2165414297639256,0.2067092921910927,239.98821751369417,12.02209100737387,0.0,1.0,0.0,0.0,1.0,Taxi
3.8000000000000003,-0.09445138644900446,-34.417545141271255,21.769325887798047,-0.29982977181585324,0.7342678781356222,240.20647547078318,12.556739594843528,0.0,1.0,0.0,0.0,1.0,Taxi
3.9000000000000004,-0.24385506719545674,-15.324691706550595,21.70043457797927,-0.247211740716285,-0.6024082035769426,240.0205875508351,13.411291806805353,0.0,1.0,0.0,0.0,1.0,Taxi
4.0,-0.055767647015360446,49.96738037665805,21.779858074153566,0.07122601676124607,-0.7720888441349092,239.8580008734241,12.172697024499843,0.0,1.0,0.0,0.0,1.0,Taxi
4.1000000000000005,0.15538551543428586,45.318971000217296,21.27059621870903,-0.26382953705103784,0.12042827346285594,240.0841768509914,12.176322222726016,0.0,1.0,0.0,0.0,1.0,Taxi
4.2,-0.017260212194370208,-18.09132539183894,20.670022592769996,0.3666524480087848,-0.29640897002999006,240.08848976975878,12.58981506877489,0.0,1.0,0.0,0.0,1.0,Taxi
4.3,-0.1462242739745551,3.523479160594784,21.484235649511866,-0.17381401471112776,0.1242233046879325,239.88750459356186,13.017433272406416,0.0,1.0,0.0,0.0,1.0,Taxi
4.4,0.17300291123725978,2.7310373863168422,22.231837218197168,-0.14907498633509303,-0.3099912222052669,239.91490549421246,13.463804883693227,0.0,1.0,0.0,0.0,1.0,Taxi
4.5,-0.003605025262785999,36.26313406717525,21.23707913936121,-0.19726941141032253,0.0009430719372144154,239.88093152485897,13.303780271133245,0.0,1.0,0.0,0.0,1.0,Taxi
4.6000000000000005,0.035091396361321185,-36.096853530446424,20.808955671349977,0.01717574786416387,0.4418231196234368,240.0562733268663,12.854367855095198,0.0,1.0,0.0,0.0,1.0,Taxi
4.7,-0.007481356414972307,-3.8783438803929084,21.958174245825415,-0.09644800162470497,0.3041200122168699,239.87993402486927,13.36550666034409,0.0,1.0,0.0,0.0,1.0,Taxi
4.800000000000001,-0.022996744664750518,23.57030785920047,20.859526659906695,-0.06488745191336981,-0.6813860736870772,240.07767447593324,12.330918075526407,0.0,1.0,0.0,0.0,1.0,Taxi
4.9,0.15294293565732356,26.03857070895894,20.129391819483764,-0.0945639166357736,0.8699344279235021,240.01469992902923,12.877430852437993,0.0,1.0,0.0,0.0,1.0,Taxi
5.0,0.12271149712982242,-11.071352912674575,21.69124908233955,0.14932064901319458,-0.6000395073613463,239.87691086316158,11.985521450213135,0.0,1.0,0.0,0.0,1.0,Taxi
5.1000000000000005,-0.07835350922812334,-6.9267867156433836,22.11554967609115,-0.00021169974733220576,0.5377801463181707,239.95946483455623,12.186399089700222,0.0,1.0,0.0,0.0,1.0,Taxi
5.2,0.11830900207910669,-49.43349199327377,22.07309578837727,-0.2897722610845146,-0.03126166217776796,240.0897267575732,12.780525243662819,0.0,1.0,0.0,0.0,1.0,Taxi
5.300000000000001,-0.12445596283654636,46.65431858064088,21.782664089781253,-0.27653460715033906,-0.43957514059788433,239.78823210242717,13.210552554915942,0.0,1.0,0.0,0.0,1.0,Taxi
5.4,0.15491808367508114,-85.12078860682904,21.686997702132608,-0.43782468849777895,-0.8700104425173699,239.86082325248844,12.992251179981725,0.0,1.0,0.0,0.0,1.0,Taxi
5.5,-0.30729494095503845,26.367847253333952,21.612226516430507,-0.31874579235728695,-0.12609903002548875,240.08023071465811,12.742732522037896,0.0,1.0,0.0,0.0,1.0,Taxi
5.6000000000000005,0.007383273430123412,-33.95599053773133,20.815502887182912,-0.00249497620010547,-1.2928351278196641,240.0108352356218,12.575597333029728,0.0,1.0,0.0,0.0,1.0,Taxi
5.7,-0.014861869013575515,49.58876205016961,21.494880839613394,-0.12896590690143628,-0.6426986322523796,240.01886475852257,12.631856583608759,0.0,1.0,0.0,0.0,1.0,Taxi
5.800000000000001,-0.059351130704190305,-10.665159602239171,21.846815688302172,-0.20493219328437728,-0.10389413608861715,239.9991061322918,12.863670093982597,0.0,1.0,0.0,0.0,1.0,Taxi
5.9,-0.04594252458107237,1.8888325028553024,21.080701351258377,-0.10843907759741266,-0.20284910684397572,240.05316739467332,12.656087160895522,0.0,1.0,0.0,0.0,1.0,Taxi
6.0,-0.005417706499298929,13.716088021752507,21.98312354307505,-0.24206358860216198,0.20171712917947687,240.00655698851813,13.726478242390765,0.0,1.0,0.0,0.0,1.0,Taxi
6.1000000000000005,0.009229309404572306,0.6942123610363732,20.268667179299182,0.012336726486915611,0.730831871094798,239.99239301681837,13.156919105868152,0.0,1.0,0.0,0.0,1.0,Taxi
6.2,-0.04247146277589044,-5.24264030739769,21.15493757821467,-0.3005626009559769,-0.6445851052925394,239.7858171809761,12.296324206624153,0.0,1.0,0.0,0.0,1.0,Taxi
6.300000000000001,-0.03163090803628731,35.086849916909664,20.80481588189157,-0.25409339068322,-0.5942667497849909,240.24790964712383,12.238149365448518,0.0,1.0,0.0,0.0,1.0,Taxi
6.4,0.18466355898912065,-33.571870160398326,21.934712126788305,-0.11457974695179267,-0.21977734475987556,239.8538692564016,13.211119447654367,0.0,1.0,0.0,0.0,1.0,Taxi
6.5,-0.21033081357788197,-10.74245142354873,20.84268854650135,-0.19309622025546347,-0.6425842401180046,239.99094560677236,12.42112334891893,0.0,1.0,0.0,0.0,1.0,Taxi
6.6000000000000005,-0.08534316515403086,-45.66497037405466,21.518867719160916,0.18852300566932606,-0.49525075257239765,240.01703313088024,12.370793212050941,0.0,1.0,0.0,0.0,1.0,Taxi
6.7,-0.04366129288115251,45.27931155085782,21.55553823336783,-0.10371608303489961,0.299776866171768,239.97296378866577,12.37966057275861,0.0,1.0,0.0,0.0,1.0,Taxi
6.800000000000001,0.016065744176407215,0.09354920013021939,22.094959448048094,-0.11942900997891591,0.0637327246855724,240.03074803625327,12.820203511349352,0.0,1.0,0.0,0.0,1.0,Taxi
6.9,-0.0848754191533797,-8.177298433420416,21.018913809891465,-0.20109307931778977,-0.260242605849183,240.0090164597865,12.483129702238685,0.0,1.0,0.0,0.0,1.0,Taxi
7.0,-0.08454778504825454,-35.81965773665278,21.243779516952618,-0.7336761079922854,-0.7396315814117187,240.14610566519707,12.504933246354364,0.0,1.0,0.0,0.0,1.0,Taxi
7.1000000000000005,-0.1630325445068566,-8.22837663089662,20.831096487651397,-0.028416975879980877,0.12871677802248083,240.04098775461296,13.243842657405699,0.0,1.0,0.0,0.0,1.0,Taxi
7.2,-0.12601730230786276,7.594270168038702,20.866119986608272,-0.19366687051226122,0.6463007364789478,239.9122193316391,13.134860498611252,0.0,1.0,0.0,0.0,1.0,Taxi
7.300000000000001,-0.046576434208060985,7.54117101733672,21.514016376573437,0.19660679029128314,-0.5521108015826669,239.83613309885345,11.73818702781404,0.0,1.0,0.0,0.0,1.0,Taxi
7.4,-0.12532668942017297,71.71858426172936,21.649250609978203,0.20275308462542968,0.14717206886133233,240.01570618556025,11.96422341781942,0.0,1.0,0.0,0.0,1.0,Taxi
7.5,0.23257561900078413,-23.17638529710098,20.95799728718517,-0.43120358142264487,0.21368824436608927,240.20073820846642,12.684598361873787,0.0,1.0,0.0,0.0,1.0,Taxi
7.6000000000000005,-0.16245836069356578,21.854657968547286,22.271840205274533,-0.013562753456161508,-0.548246797104363,240.0041892144177,12.77271380268406,0.0,1.0,0.0,0.0,1.0,Taxi
7.7,-0.016053399577436452,4.373708342951356,21.68687173510275,-0.7515873478215072,0.3570575245711017,239.9420909500817,12.515414833172894,0.0,1.0,0.0,0.0,1.0,Taxi
7.800000000000001,0.254444160715541,27.65853906483319,22.909068782415428,0.1898742943934545,0.12456860596327023,240.13599911288543,12.192057818716817,0.0,1.0,0.0,0.0,1.0,Taxi
7.9,-0.024165665369399784,-3.8190782189916725,22.564840883724386,-0.2629779004173555,0.5188709165405581,239.91715691541935,12.596661463000403,0.0,1.0,0.0,0.0,1.0,Taxi
8.0,-0.03514879067239476,-51.313904427985726,21.385948327942646,-0.24152313608008436,0.5483153729322048,239.8744278319066,11.621493913559878,0.0,1.0,0.0,0.0,1.0,Taxi
8.1,-0.0021253614243875924,15.967002577064855,22.560117576611624,-0.03433121020119011,0.37328120733522085,240.19665987456176,13.044500872588623,0.0,1.0,0.0,0.0,1.0,Taxi
8.200000000000001,0.05566934751592452,12.97313019418627,22.00082460513742,-0.30836450235002405,-0.7466166569956991,239.90517098998282,12.160078040752275,0.0,1.0,0.0,0.0,1.0,Taxi
8.3,0.029716860298536613,-9.295127205172479,22.35481401747936,-0.10962369457260795,-0.43285286463161093,239.90715346291938,12.223217465222618,0.0,1.0,0.0,0.0,1.0,Taxi
8.4,-0.04860099745024998,-14.601757769126936,21.00211521423509,0.29332044896259085,-0.4984586552802959,239.8585211198756,12.579578603557335,0.0,1.0,0.0,0.0,1.0,Taxi
8.5,-0.017339441329710152,13.629548645002624,20.4178893746125,-0.2571416896455726,-0.6586022561400192,239.9526609872346,11.813809235729252,0.0,1.0,0.0,0.0,1.0,Taxi
8.6,0.09786460352354977,-21.1907063277019,21.515375059766185,-0.28428229552407724,-0.1362691025967602,239.8521225971956,12.206166667972598,0.0,1.0,0.0,0.0,1.0,Taxi
8.700000000000001,-0.15455452908875944,13.66925386584632,22.013256865279896,-0.15189715789393146,-0.5287996601736463,239.79226950436475,12.824879598619496,0.0,1.0,0.0,0.0,1.0,Taxi
8.8,0.05100682799952148,-12.360803654724533,20.981340419202663,-0.08372153330389068,0.3322696747962842,240.185876197202,13.216505801060629,0.0,1.0,0.0,0.0,1.0,Taxi
8.9,0.03606058524992712,2.904584510653109,20.308033294973708,-0.44516559070556794,1.3638350358924767,240.0721608392687,12.663726074305455,0.0,1.0,0.0,0.0,1.0,Taxi
9.0,-0.14003160653549387,-10.299074409209771,21.61068152177938,0.002659515235775345,0.47310155924974073,240.0432301413989,13.00222986729856,0.0,1.0,0.0,0.0,1.0,Taxi
9.1,-0.0004885440465273379,-30.170925975998415,20.884618238625,-0.27977079901164303,0.13428773307143674,240.02114385475647,12.58425533846643,0.0,1.0,0.0,0.0,1.0,Taxi
9.200000000000001,-0.11479404463006491,8.803040803848303,21.316230458757445,0.08480420801024335,-0.16175363791271588,239.97951018784806,12.124220120993813,0.0,1.0,0.0,0.0,1.0,Taxi
9.3,-0.09601640251625233,-10.319719389301316,21.14644117292835,-0.2690588888477615,0.4133351205218806,240.056001539396,11.967049979414261,0.0,1.0,0.0,0.0,1.0,Taxi
9.4,-0.0520871409930339,24.493371085797744,20.836057984248953,-0.05211442263864989,-0.28910630257563236,239.80968550690227,13.245648275168765,0.0,1.0,0.0,0.0,1.0,Taxi
9.5,0.007672810798923795,15.938971838568042,21.725150422601036,-0.04510446794137468,0.16170706291353815,240.13969643075984,13.037040687546991,0.0,1.0,0.0,0.0,1.0,Taxi
9.600000000000001,-0.016321543323412124,-13.58009447883054,21.51937786384216,-0.5018861615438275,-0.4240402554032666,240.06793209196155,12.696719204183756,0.0,1.0,0.0,0.0,1.0,Taxi
9.700000000000001,-0.11998761338718661,8.410580779708942,21.00939834126141,0.15301680853556227,-1.456718789970771,239.86143291631856,12.08870633722709,0.0,1.0,0.0,0.0,1.0,Taxi
9.8,0.049725714697468504,38.264981226600675,21.732242287090404,-0.04188395688169927,-0.0448495172825032,239.91541153857156,12.841448982266774,0.0,1.0,0.0,0.0,1.0,Taxi
9.9,0.17500336280959128,-14.58958083391956,21.62597490289151,0.137261379255406,0.5718789332879737,239.94645738418694,11.579740443325624,0.0,1.0,0.0,0.0,1.0,Taxi
10.0,-0.19293551755678442,19.94810824605482,21.31827570839738,-0.06413816392122693,-0.10572538525246347,240.01087834934333,13.91654662158838,0.0,1.0,0.0,0.0,1.0,Taxi
10.100000000000001,0.1494662559277426,-24.6823374975219,20.98300482882258,0.018279669864895792,0.7933523100076536,240.0713406865176,12.598422678123537,0.0,1.0,0.0,0.0,1.0,Taxi
10.200000000000001,0.05159167532198176,3.499888771741657,20.51126679221491,0.13651446302212444,-0.20462979628601138,240.12991636304957,12.687482551417181,0.0,1.0,0.0,0.0,1.0,Taxi
10.3,-0.17543607369807612,-34.09667234167557,22.253675731863126,0.08904700196344623,1.6033174968994708,239.9870426908467,12.765774267704323,0.0,1.0,0.0,0.0,1.0,Taxi
10.4,-0.021017105780635235,-8.401757478083189,21.771006373525715,0.04309866064320969,1.0911276291882306,239.90575177549692,12.331224958778206,0.0,1.0,0.0,0.0,1.0,Taxi
10.5,0.009582887931565835,46.35406134255313,20.93144404997551,0.070724114790569,0.47561595772971255,239.8110347468048,13.000697645265696,0.0,1.0,0.0,0.0,1.0,Taxi
10.600000000000001,0.05633423301468954,14.458214892653011,22.055208907091128,-0.10895172227635826,0.6171874475960327,240.15993765483677,12.845311318163231,0.0,1.0,0.0,0.0,1.0,Taxi
10.700000000000001,0.051273968682629824,-13.772931248804545,22.209205285972594,0.33178378894073846,0.10203498427905286,239.83854990596296,13.950853145722279,0.0,1.0,0.0,0.0,1.0,Taxi
10.8,-0.059281768312456865,15.306333442196168,21.119475352040478,0.06361382399647653,-0.48707006743619374,239.9740987253183,11.999887785414929,0.0,1.0,0.0,0.0,1.0,Taxi
10.9,0.13286590022567038,12.508174171175021,21.02648847752974,0.105862180514123,0.2935835602177823,239.98938359436283,12.65706750733103,0.0,1.0,0.0,0.0,1.0,Taxi
11.0,0.11381483953850494,15.38145587606021,20.803133310583586,-0.5378638437108683,1.0054466461564913,240.05006008509167,12.793411138915884,0.0,1.0,0.0,0.0,1.0,Taxi
11.100000000000001,0.017625511067844195,-20.26031752651496,21.277089583508403,0.06780925240107652,0.7673308193669827,240.04186796815475,11.984082013405262,0.0,1.0,0.0,0.0,1.0,Taxi
11.200000000000001,0.031564312593095604,-30.590161381318737,21.602594537867443,0.15728853628989709,0.34647300629941674,239.91475935235667,13.129108479197841,0.0,1.0,0.0,0.0,1.0,Taxi
11.3,-0.03913596736808871,-5.603063852729664,21.36602768008545,-0.0857189523297669,0.13874740453699927,240.02541608512752,12.808095957215397,0.0,1.0,0.0,0.0,1.0,Taxi
11.4,-0.010389808195804092,-37.694431111192735,21.502102489580157,0.15590248272272772,0.3000493394835732,240.0475948829643,12.027866018859031,0.0,1.0,0.0,0.0,1.0,Taxi
11.5,-0.15690784296286803,-30.964392905836036,23.09135153119725,0.25915667526059044,-0.24041171393661093,240.00917273795812,11.784050700613701,0.0,1.0,0.0,0.0,1.0,Taxi
11.600000000000001,-0.19395793189726887,11.041295368530266,21.089127656672968,-0.31840934059324094,-0.44258759612450477,239.93724809464334,12.951133721136069,0.0,1.0,0.0,0.0,1.0,Taxi
11.700000000000001,0.04481666864684725,13.839685213495779,19.95133533489519,-0.03842910965324681,0.20112927485357343,239.9071481177516,12.84721343396791,0.0,1.0,0.0,0.0,1.0,Taxi
11.8,-0.08770941689538912,51.94717207772671,20.943995310593827,-0.17749332075731492,0.14894687701600332,239.92520269012437,11.937948725118279,0.0,1.0,0.0,0.0,1.0,Taxi
11.9,0.06577792849136467,-49.53535824080953,20.959893978069726,-0.23345928816130515,0.1375634644195754,239.98554780954169,12.707648291473799,0.0,1.0,0.0,0.0,1.0,Taxi
12.0,-0.20286012255720035,-4.214437103633682,21.108755403937636,-0.34170490439241596,-0.6793338575978357,239.8851157576753,12.02329385958625,0.0,1.0,0.0,0.0,1.0,Taxi
12.100000000000001,-0.10878160241355748,-11.042315289002763,22.1579454695673,0.08177084222188138,0.5924181915206477,240.00574810207343,11.658212341498537,0.0,1.0,0.0,0.0,1.0,Taxi
12.200000000000001,0.010566352046350917,10.017458625792093,21.753460265317237,-0.371598169473322,1.0025816644241627,240.05229491427838,13.439439067337966,0.0,1.0,0.0,0.0,1.0,Taxi
12.3,-0.1527728294282398,43.21247936070021,21.87170544085111,0.09308701974609657,0.325523222475701,239.87286949446536,13.492215444046517,0.0,1.0,0.0,0.0,1.0,Taxi
12.4,0.10728079438994363,8.936597097281608,22.85606052421612,0.16944798219513052,-0.5497016156305965,240.04527218382384,11.677219476428562,0.0,1.0,0.0,0.0,1.0,Taxi
12.5,0.055249337532759006,1.1234117578007243,21.84061791230946,-0.22462709649931356,0.9180020533575239,240.01334906811053,11.872011447354428,0.0,1.0,0.0,0.0,1.0,Taxi
12.600000000000001,-0.1471557706392361,-29.31727336425014,22.26803958052194,-0.26055962767423313,-0.9174014720210294,240.00459067487952,11.472668014121655,0.0,1.0,0.0,0.0,1.0,Taxi
12.700000000000001,-0.03930557243130696,4.924384248122041,21.05617035822771,-0.1365029066338655,0.39212327422388477,240.04738805409875,12.378682449692095,0.0,1.0,0.0,0.0,1.0,Taxi
12.8,0.07987125877336933,-16.19983940148626,20.909021724352744,0.08018936494425605,-0.2919132814176132,239.70710179161097,12.257086376899126,0.0,1.0,0.0,0.0,1.0,Taxi
12.9,-0.22815496764666732,19.721058785356558,20.82352223085921,-0.08181256417075426,0.13392227683212576,240.04850186480326,12.63559072755825,0.0,1.0,0.0,0.0,1.0,Taxi
13.0,0.0592997214954759,-39.83093531235884,21.088944584925386,-0.08181640405596871,-0.35702266082077944,239.88137957055505,13.12671961361393,0.0,1.0,0.0,0.0,1.0,Taxi
13.100000000000001,-0.1192834177884248,30.314760897396372,21.993340702291025,-0.31391506082987364,-0.17173518199312027,240.0448602523967,12.419790228302348,0.0,1.0,0.0,0.0,1.0,Taxi
13.200000000000001,-0.07658116315968538,-10.110092098927007,22.215951205694,-0.25119159424835824,0.9852896875394862,240.03282219459788,12.015528531649105,0.0,1.0,0.0,0.0,1.0,Taxi
13.3,0.008749261000840959,41.09922390418794,21.481328346217076,-0.04410825511486938,-0.5404828037592899,240.01283456224883,12.525228494994378,0.0,1.0,0.0,0.0,1.0,Taxi
13.4,0.08621270173251498,-26.427970995202344,20.109862139390916,-0.2317953840766216,0.3111617563851043,239.77509925633092,12.415899514538745,0.0,1.0,0.0,0.0,1.0,Taxi
13.5,-0.208721018135697,-24.213467793219465,20.74419554338131,0.20631873869377743,-0.14972025235282682,239.95373222906096,12.649598614563917,0.0,1.0,0.0,0.0,1.0,Taxi
13.600000000000001,-0.11231807796525627,-27.252838622013282,20.762429361441097,-0.30136122671838095,0.07841616059348748,240.0278116918954,12.907129169166344,0.0,1.0,0.0,0.0,1.0,Taxi
13.700000000000001,-0.05005149137755132,40.15723818980974,22.64382216521279,-0.10621717783384299,0.16921784916976812,240.04214834255333,13.758300050171206,0.0,1.0,0.0,0.0,1.0,Taxi
13.8,-0.007934827186648202,19.636206547034583,20.329053410519524,-0.07170127322134999,0.318212751629594,239.87214649055238,12.514987963374425,0.0,1.0,0.0,0.0,1.0,Taxi
13.9,-0.014137045230083252,-15.324896877617384,21.965077352664263,-0.03732875304442072,-0.17166755095277492,240.0739426555915,11.994085832660668,0.0,1.0,0.0,0.0,1.0,Taxi
14.0,-0.12667597576563813,-5.566342619125206,21.877780037475564,-0.1673258712813796,-0.8532782225810931,240.08683430915346,12.504611729269108,0.0,1.0,0.0,0.0,1.0,Taxi
14.100000000000001,-0.03576654028227412,8.977234088112317,21.101221579929483,0.12220172789481265,0.13026787950768673,239.93320681501996,12.26062534868746,0.0,1.0,0.0,0.0,1.0,Taxi
14.200000000000001,0.030749125210478425,33.40214007892001,20.636552340165064,-0.01412993098154773,-0.18730071149144614,239.94054652754596,12.333833297569264,0.0,1.0,0.0,0.0,1.0,Taxi
14.3,0.04033472462896201,-4.88326176463634,20.967675603582634,0.2968220230893921,0.08902695508238433,240.00952710988804,12.05737246085354,0.0,1.0,0.0,0.0,1.0,Taxi
14.4,-0.06018284910545574,6.575072271873094,20.219317780531178,-0.12959428455469543,-0.5793560422466587,240.01001108493858,12.947450283828582,0.0,1.0,0.0,0.0,1.0,Taxi
14.5,0.063624486569844,-28.981442757415124,22.025396965426104,0.03486969047631594,0.018657918463041948,239.88897499746054,12.366103938327822,0.0,1.0,0.0,0.0,1.0,Taxi
14.600000000000001,-0.10457248915811349,30.24996873656747,21.058765333568452,-0.29915437921694826,-0.530635428563813,239.85726664405115,12.64744501637008,0.0,1.0,0.0,0.0,1.0,Taxi
14.700000000000001,0.09106699457738177,-11.96446675969712,21.875427917927833,0.2654949287596522,0.2148001368025302,240.03379025512402,13.41696127651723,0.0,1.0,0.0,0.0,1.0,Taxi
14.8,0.003802152771358532,-1.6312811680068364,20.779379237737526,-0.031052552048679932,-0.0819856834505795,239.88210497506736,13.37361765167487,0.0,1.0,0.0,0.0,1.0,Taxi
14.9,-0.11272889499814756,-31.853379721569734,21.293616002294385,-0.04772581120820599,-0.3733014567559021,239.96630388591666,12.514606823204186,0.0,1.0,0.0,0.0,1.0,Taxi
15.0,-0.06819990403046682,-5.292975202646395,22.212281381142642,-0.27611511913044595,0.12576891504908763,239.95151007326922,13.08338206310464,0.0,1.0,0.0,0.0,1.0,Taxi
15.100000000000001,-0.02266272324187335,35.046805888337445,20.522767931597368,0.170694516846507,-0.20280053664444433,239.9503229371395,12.760763533698173,0.0,1.0,0.0,0.0,1.0,Taxi
15.200000000000001,0.06250513444353976,0.4298057585334713,21.850587056488465,-0.05872991171189078,-0.1793329192031776,239.9434283250106,12.67364261480972,0.0,1.0,0.0,0.0,1.0,Taxi
15.3,-0.06605087523779939,-12.285503955526435,22.281626450060394,-0.11715785610012638,-0.8295319531636459,240.18223110211432,12.796952939853599,0.0,1.0,0.0,0.0,1.0,Taxi
15.4,-0.08409024301950543,1.3005497981299499,21.22298183887091,-0.13029871067450044,-0.6216277384571149,239.83449595699813,12.92022611959616,0.0,1.0,0.0,0.0,1.0,Taxi
15.5,0.06900788343418962,11.218284652181042,22.300534301985653,-0.21727321362728141,0.15584800348645847,240.10417175908344,10.993211257033467,0.0,1.0,0.0,0.0,1.0,Taxi
15.600000000000001,-0.009959451976894077,20.660697229931706,20.852200078632823,0.037420281930392985,-0.6282328198252977,239.81175277254226,12.80425233093331,0.0,1.0,0.0,0.0,1.0,Taxi
15.700000000000001,0.019213243130153188,-31.57510910890694,21.5618679680507,-0.3298389079936347,0.45030886600764386,239.89141209591332,12.583949574493234,0.0,1.0,0.0,0.0,1.0,Taxi
15.8,-0.08886766211034498,9.191942320551483,20.372545958918376,0.023618475599012423,-0.23227464233979206,239.67960685500952,13.14798828117173,0.0,1.0,0.0,0.0,1.0,Taxi
15.9,0.036000259625863444,-27.37180077110881,21.423075991098766,-0.22936445582603404,-0.1527239461543849,240.16994366761537,12.575629570219386,0.0,1.0,0.0,0.0,1.0,Taxi
16.0,-0.11764576072539074,33.575361736153695,21.338848909927172,-0.27954913589381736,0.11493941319605627,239.83044054047923,13.161474988875383,0.0,1.0,0.0,0.0,1.0,Taxi
16.1,0.07900914657042361,4.845558745448917,20.335895328414015,0.024021142695934472,0.9284716112789739,239.93541894456735,12.037135539992603,0.0,1.0,0.0,0.0,1.0,Taxi
16.2,0.06022805335310814,10.237529394157113,21.08926066332283,0.028826054109926835,-0.5752341420922831,239.79326411689362,12.121388773569267,0.0,1.0,0.0,0.0,1.0,Taxi
16.3,-0.06645811375460507,39.726779634655564,20.907574081646327,0.04500984927139143,0.03696515744163469,239.98322102883117,13.244942475176398,0.0,1.0,0.0,0.0,1.0,Taxi
16.400000000000002,0.2776430447437015,-8.780796582308918,21.511912072524737,-0.21461606755501053,-0.22853912987425215,239.90754474278788,12.016572923450974,0.0,1.0,0.0,0.0,1.0,Taxi
16.5,0.016324070441563615,13.370115319018412,21.097430117587553,-0.2091420127501767,0.46055491180378744,239.96560408033292,12.475297111496173,0.0,1.0,0.0,0.0,1.0,Taxi
16.6,0.0003924628404870459,-55.697739540543914,22.348006915175233,-0.3875703473593231,-1.7141629737294286,239.9395503685364,13.091742204721246,0.0,1.0,0.0,0.0,1.0,Taxi
16.7,-0.0008456529590179854,1.186365486039908,21.229781364894325,0.15738121469485827,0.18284802235484787,239.9620480749652,12.67143765273187,0.0,1.0,0.0,0.0,1.0,Taxi
16.8,0.022255897871763238,-6.138209193686692,21.063788526834543,-0.29504167262384295,0.21791897230944945,239.98865840231997,12.135524601615893,0.0,1.0,0.0,0.0,1.0,Taxi
16.900000000000002,-0.030298583127946335,-18.20566562529589,20.731183477625375,-0.48997369171612837,-0.08752655509001517,240.09787717524864,13.049694467862258,0.0,1.0,0.0,0.0,1.0,Taxi
17.0,-0.09187398108549735,-9.343999362565166,22.150994886109896,0.008736703232975956,-0.11017342623029307,240.1251061192395,12.264185210263244,0.0,1.0,0.0,0.0,1.0,Taxi
17.1,-0.024464098941062523,12.268176211184084,21.848029048129234,-0.38684064578265964,0.09171604468566673,239.98356422448978,12.608382239315057,0.0,1.0,0.0,0.0,1.0,Taxi
17.2,0.03104229792797414,2.4874008103204233,20.945446069331293,-0.5740576868009835,1.1139688503272716,240.08245310980305,12.830734390310282,0.0,1.0,0.0,0.0,1.0,Taxi
17.3,-0.07943697703389518,-15.838918713649557,22.56809824065078,0.06523703543183859,-0.31564010610667326,239.99507379153124,12.771458997424107,0.0,1.0,0.0,0.0,1.0,Taxi
17.400000000000002,-0.10365869250931026,-15.758635292498283,19.98999660055896,-0.22501103852440119,0.4868302295960148,240.0772803479258,13.281522689095926,0.0,1.0,0.0,0.0,1.0,Taxi
17.5,-0.04775087853451721,24.593171937255303,20.7488877249711,-0.27716801723642903,0.8027641767578586,240.03424193386627,12.203682052066526,0.0,1.0,0.0,0.0,1.0,Taxi
17.6,0.043528882652381376,5.554607842307585,20.995090129743172,-0.0340058991613697,-0.030315652828694632,240.03531327827454,12.437178882277,0.0,1.0,0.0,0.0,1.0,Taxi
17.7,-0.07588565329777228,25.659860445714614,21.282622441677926,-0.0733120942431722,0.3287886527142525,239.7519006180455,12.192923443906771,0.0,1.0,0.0,0.0,1.0,Taxi
17.8,0.0805484236940559,7.202033241794987,19.47863588684085,-0.0702689824792525,-0.21981961950872683,239.91610798896238,12.0160878802419,0.0,1.0,0.0,0.0,1.0,Taxi
17.900000000000002,0.07953904886135638,19.819705800363582,20.948080557360154,0.1383837709647478,-0.47043717876705193,239.96116746906137,12.739963476750145,0.0,1.0,0.0,0.0,1.0,Taxi
18.0,0.02321287570404569,-10.993906992283636,22.07749866304398,0.10354975360570748,-0.27418655001394976,240.2033129301393,12.27670552235871,0.0,1.0,0.0,0.0,1.0,Taxi
18.1,0.025578888732637795,-15.02995604949451,21.263675231019764,-0.5699090741750867,-0.5568586067265513,239.933922319286,13.42056513151594,0.0,1.0,0.0,0.0,1.0,Taxi
18.2,0.0043892686138838856,-15.155638844769236,21.242018700084593,-0.1227260289843801,0.24188694110056363,240.00387382490123,12.066528408536275,0.0,1.0,0.0,0.0,1.0,Taxi
18.3,-0.05256531851980043,-12.403286948050294,21.103084529113577,-0.12121438246374319,0.37092049553954676,239.8935411182274,12.8937545271611,0.0,1.0,0.0,0.0,1.0,Taxi
18.400000000000002,-0.03643754600761362,10.217525264961415,19.72743743476754,0.028112064210395,-0.16921506297698438,239.97460798403563,12.973901661336129,0.0,1.0,0.0,0.0,1.0,Taxi
18.5,0.05547689493869101,4.891468518208579,22.085792098576984,-0.07869171058612845,-0.5263888732342621,240.03395827208158,12.675224151441116,0.0,1.0,0.0,0.0,1.0,Taxi
18.6,-0.02810797592875748,27.786489499842688,20.638897136812894,-0.2337328289193136,0.4353065712771087,239.88563114169847,12.128097629636422,0.0,1.0,0.0,0.0,1.0,Taxi
18.7,0.1024949014915999,-21.529980048755267,21.15477335153861,-0.034767200874069884,-0.24858332904550776,239.98534690121107,12.951301873755376,0.0,1.0,0.0,0.0,1.0,Taxi
18.8,-0.05217300530508526,-11.342662740834326,20.960680155947266,-0.09688736617966826,-0.453735847626389,240.21566337761192,10.898573188082725,0.0,1.0,0.0,0.0,1.0,Taxi
18.900000000000002,-0.08482128963292904,-20.174332337727233,21.609388059833044,-0.08390922754942115,-0.5458333242843846,239.95922509659408,12.970818050905699,0.0,1.0,0.0,0.0,1.0,Taxi
19.0,0.0016232398029637958,42.96359869837267,21.893826510584702,-0.012067647415813162,-0.11622557044657553,239.90202465905656,11.932111156436603,0.0,1.0,0.0,0.0,1.0,Taxi
19.1,0.1626449881867782,0.16563056668019271,21.451633059353732,0.09046480374601273,-0.49787558178252594,239.99092988661823,13.482082928586964,0.0,1.0,0.0,0.0,1.0,Taxi
19.200000000000003,-0.08399313679952802,-11.894016393469501,21.292346382397678,0.10672496780582255,-0.07580271904031877,240.09646194593574,12.661382481166726,0.0,1.0,0.0,0.0,1.0,Taxi
19.3,-0.057846842164383655,-36.17256174226916,21.172547947374493,-0.3503724923364563,0.5446785852423165,239.87427874390607,12.520728201226731,0.0,1.0,0.0,0.0,1.0,Taxi
19.400000000000002,-0.018217820524567576,23.303361596534632,21.445047177386005,-0.41800608810483836,0.1194963249570202,240.12794246634508,12.105427979658884,0.0,1.0,0.0,0.0,1.0,Taxi
19.5,0.03252367118314517,48.62358723511895,21.714988217239224,0.017092703234223516,-0.24315557022070852,239.86076832733738,11.916796935357949,0.0,1.0,0.0,0.0,1.0,Taxi
19.6,0.1852710940112111,-14.724959541461104,21.885778873720007,-0.18614484068326814,-0.45683642503301547,239.95291747654687,12.779961843191904,0.0,1.0,0.0,0.0,1.0,Taxi
19.700000000000003,-0.09184261823187305,15.76012631198993,21.471880416085238,-0.18273069033462694,-0.6992374347666713,240.04150833680353,12.551779189992171,0.0,1.0,0.0,0.0,1.0,Taxi
19.8,0.11132430274309489,-27.646576473372935,21.757207836462996,0.23405424499103655,-0.28509571463526123,240.22900337576345,12.536212357441869,0.0,1.0,0.0,0.0,1.0,Taxi
19.900000000000002,0.0470382116443465,0.4216398524419181,22.204291164434988,0.03625936248940542,0.08554633958424578,240.0600833938165,13.067289476854958,0.0,1.0,0.0,0.0,1.0,Taxi
20.0,-0.08973441896966342,-46.79685040675978,21.68058836585482,0.23677436905896715,-0.10535036695006031,240.02647432168465,12.582271935980097,0.0,1.0,0.0,0.0,1.0,Taxi
20.1,-0.12265994929070397,-29.533439343378916,21.3983409364672,-0.06489528086789872,-0.135671570655145,239.97831104587976,12.358372041126254,0.0,1.0,0.0,0.0,1.0,Taxi
20.200000000000003,-0.10062898507254806,27.548229582075496,21.14849652290081,-0.08671661805632362,0.12818842746910358,240.0436173070226,12.804434401809178,0.0,1.0,0.0,0.0,1.0,Taxi
20.3,0.04800672894071411,25.03730172829997,21.973200609907334,0.056076246600379825,0.08751995696269958,239.8583026828327,12.730115968621988,0.0,1.0,0.0,0.0,1.0,Taxi
20.400000000000002,0.0025265593507959342,-22.739222475500565,21.598293518984075,-0.0013749429452319661,-0.6533284814998983,239.9413027448088,11.79891004126879,0.0,1.0,0.0,0.0,1.0,Taxi
20.5,-0.21432509745005085,-14.230556018497092,20.991880564897652,-0.08867993125107196,0.6255157787447806,239.98210431966254,13.331054087097872,0.0,1.0,0.0,0.0,1.0,Taxi
20.6,-0.023146051151771308,-1.9804162984924087,21.30670511031678,-0.30159970321586504,-0.8937335500353928,240.07196667175867,13.439860803047825,0.0,1.0,0.0,0.0,1.0,Taxi
20.700000000000003,-0.007375522141666069,71.78505986655797,20.798863006668476,-0.021639580082129267,-0.8419326438872489,239.97141275131435,13.30191856344147,0.0,1.0,0.0,0.0,1.0,Taxi
20.8,0.14460020188273912,24.72089020108729,20.30065113641619,-0.15770563281709982,0.10374376408460656,239.83345873443295,13.088337759671202,0.0,1.0,0.0,0.0,1.0,Taxi
20.900000000000002,0.10045839985366521,-6.885415596368844,22.19348934524538,-0.12499901373370548,0.33873270868089206,239.75541914532016,12.857436571524559,0.0,1.0,0.0,0.0,1.0,Taxi
21.0,-0.041802600123510204,-33.91098767755336,21.26167153854086,-0.36713063801531554,0.2737992161418935,239.94445745024393,12.306627958245446,0.0,1.0,0.0,0.0,1.0,Taxi
21.1,-0.024954736505027594,-43.52695848304966,22.033897077065326,-0.1778477634736384,0.3372107997371609,239.96418547276198,12.7943798779162,0.0,1.0,0.0,0.0,1.0,Taxi
21.200000000000003,-0.11717639256158299,28.47189434607931,21.452390588887802,-0.05545338297158202,-0.4069467482766402,239.95639143300286,12.182998192209986,0.0,1.0,0.0,0.0,1.0,Taxi
21.3,0.10055687160688642,30.66959277766806,20.656927044357783,-0.27371180403833206,0.8201379836275149,240.16470595926648,13.475872644970035,0.0,1.0,0.0,0.0,1.0,Taxi
21.400000000000002,0.1283932273833128,7.128650854451858,21.170206387170985,-0.10617046830154908,-0.06469967528321408,240.04563751501496,12.875375517827655,0.0,1.0,0.0,0.0,1.0,Taxi
21.5,-0.08153313828932358,-41.02808533707739,21.18520898849063,-0.43268636338983857,-0.477271622412429,239.85192980356646,12.695716026065904,0.0,1.0,0.0,0.0,1.0,Taxi
21.6,-0.10458355507850044,-32.31455977961716,21.203493553487487,0.04313283639316151,0.0010489065832549709,240.10849904617692,12.522247740171439,0.0,1.0,0.0,0.0,1.0,Taxi
21.700000000000003,-0.03317957151477293,7.805031732020044,21.030156471523224,0.013760409632770004,0.18058851807058768,239.93240943217086,12.614012568556298,0.0,1.0,0.0,0.0,1.0,Taxi
21.8,-0.042507979629223286,37.964989096058865,21.08539371133068,-0.24493130416451583,0.7733415580251901,239.99734555289706,12.924202662604387,0.0,1.0,0.0,0.0,1.0,Taxi
21.900000000000002,0.085241390401794,-21.016580815245195,22.535005330388678,0.03350396576977702,-0.6577230208076292,240.00969397921074,11.86320426999567,0.0,1.0,0.0,0.0,1.0,Taxi
22.0,-0.1382624755909988,-9.215098331123174,20.78868493512412,-0.10087922223763168,-0.624064358685428,239.92612207172965,12.895723626500132,0.0,1.0,0.0,0.0,1.0,Taxi
22.1,-0.08858347128483904,-31.474131283143464,21.392988376056916,-0.1610294071994958,0.3140711654181623,239.9730266610827,12.725158035698383,0.0,1.0,0.0,0.0,1.0,Taxi
22.200000000000003,-0.07212926601392322,32.92069418492956,21.28559605987912,-0.12381781066330072,-0.7569589067938441,240.0940133013553,12.7366252504801,0.0,1.0,0.0,0.0,1.0,Taxi
22.3,0.026340995333649076,8.526301279693465,21.274887733835484,-0.10832024640978716,0.25978135320515383,240.01704914207346,12.415645389597854,0.0,1.0,0.0,0.0,1.0,Taxi
22.400000000000002,-0.04595196488637163,-11.551115121192694,21.480014841403193,0.054781853088245014,0.41793154149093914,240.0466588751574,13.823640023208931,0.0,1.0,0.0,0.0,1.0,Taxi
22.5,-0.12988484161988662,5.126200384140366,20.559413252358553,-0.17331462754592286,0.598902950446535,239.91942814063736,12.563141339216905,0.0,1.0,0.0,0.0,1.0,Taxi
22.6,0.051971997254351004,46.720249368444456,21.01498844449102,-0.3151840030443174,0.26949448555869654,240.09382988025118,12.35075764699289,0.0,1.0,0.0,0.0,1.0,Taxi
22.700000000000003,0.18764928195585076,34.9402471091488,20.9509975824945,-0.31852411077080967,1.0843159324741813,240.05664123706856,12.42008278183023,0.0,1.0,0.0,0.0,1.0,Taxi
22.8,0.044816393925857456,7.8815503544479055,21.173893305679908,-0.3897015264914926,0.9949168009654354,240.0577301333849,12.69959909908891,0.0,1.0,0.0,0.0,1.0,Taxi
22.900000000000002,0.0913797490265906,-35.79954265057926,20.77463446150522,-0.009625129408802557,-0.12217145196855501,239.92259315712522,13.426921919617966,0.0,1.0,0.0,0.0,1.0,Taxi
23.0,0.008651568702954545,-33.09144073525979,21.171555477879814,-0.26710889412958055,-0.05707566760970783,239.9310960498808,12.370297923502818,0.0,1.0,0.0,0.0,1.0,Taxi
23.1,-0.12064080975044139,11.27191098500541,21.971189144329713,0.1377741426017094,0.011091747085270012,239.96905346879248,11.948218155977376,0.0,1.0,0.0,0.0,1.0,Taxi
23.200000000000003,0.1477393039516178,13.528133318912474,21.69966677319556,-0.4172486477981664,0.916176953938807,240.00802008207893,12.41830354581362,0.0,1.0,0.0,0.0,1.0,Taxi
23.3,0.07629223529751707,18.966971258122268,23.08183392926126,-0.025791827118967367,-0.27207963234040633,240.17675604960482,12.608686049290169,0.0,1.0,0.0,0.0,1.0,Taxi
23.400000000000002,-0.025805953459829934,-46.22988465312094,21.496151270736895,-0.1487421359443004,0.9373299266266975,239.8771684815821,12.17834462019064,0.0,1.0,0.0,0.0,1.0,Taxi
23.5,-0.08341011931398681,-30.89817407111511,21.917592743434557,-0.31575774428189307,0.17471933993993238,239.8295972890371,12.760062601788734,0.0,1.0,0.0,0.0,1.0,Taxi
23.6,-0.07819863505805841,16.089014226388837,20.982091827515934,-0.2770890390920562,0.17668118297552277,239.98954056998127,12.45026638894102,0.0,1.0,0.0,0.0,1.0,Taxi
23.700000000000003,0.05463911767211432,20.59839087793294,21.960002388301557,-0.4548701109990859,-0.23017214235752445,239.80547378480253,12.627414617990064,0.0,1.0,0.0,0.0,1.0,Taxi
23.8,0.019581835075677956,76.60828742490133,20.71486376139181,-0.4288482086419839,-0.858541140941479,239.89460336341222,12.762886537413994,0.0,1.0,0.0,0.0,1.0,Taxi
23.900000000000002,0.3048428020664483,43.04119670012679,20.775653760854244,-0.1892544879278284,0.5657626203537599,240.03061097984516,12.546512660237623,0.0,1.0,0.0,0.0,1.0,Taxi
24.0,0.26984510117274835,15.598460512916754,22.48701869328085,0.089156526225317,-0.3627711431841914,240.0757372221401,12.375448792654234,0.0,1.0,0.0,0.0,1.0,Taxi
24.1,0.09757413764026178,-17.814350535740033,21.730697695518476,-0.5507709065801579,1.7515296718867357,239.99158023397024,12.762507963571844,0.0,1.0,0.0,0.0,1.0,Taxi
24.200000000000003,0.2157710493877482,-78.46626047176456,20.867665306649965,-0.10680657579413086,0.10154206022656029,239.88056226493927,12.525782316457747,0.0,1.0,0.0,0.0,1.0,Taxi
24.3,-0.1224862011860744,13.307832296117661,21.667055489519665,0.18406614512824782,-0.7140821589189276,240.07317724993356,13.194517431473841,0.0,1.0,0.0,0.0,1.0,Taxi
24.400000000000002,0.16411329912085007,-16.78105895528873,21.38220065739974,-0.045559904731102704,-0.06498120305368901,239.98036500238368,12.68491411912362,0.0,1.0,0.0,0.0,1.0,Taxi
24.5,0.13186575461130454,14.959410155567667,21.818348969356215,-0.27910350533046996,0.4471642209995061,240.12166079677877,11.961565107098798,0.0,1.0,0.0,0.0,1.0,Taxi
24.6,-0.047689150408236056,-19.245285325278925,21.07327630073497,0.04305491820976526,-0.723938489474919,239.98802198176202,12.744507342596554,0.0,1.0,0.0,0.0,1.0,Taxi
24.700000000000003,0.06788687249445552,-37.360212317091786,21.18476719622812,-0.2380635653165718,-0.46755404747600693,239.9389345794359,11.374428128170555,0.0,1.0,0.0,0.0,1.0,Taxi
24.8,-0.054935306974154365,16.142660670067116,21.40204818456925,-0.4204488073686461,-0.7644964454687606,240.0357727053282,12.772851146956276,0.0,1.0,0.0,0.0,1.0,Taxi
24.900000000000002,0.03302415294209955,-40.82915475224679,21.6246239277157,0.1964403594465488,0.8360213874075207,240.07548967956495,12.94069039007257,0.0,1.0,0.0,0.0,1.0,Taxi
25.0,-0.1362589012667784,9.025077115777782,22.212271613650756,-0.1775790335713582,-0.28265080933398834,240.06621984769458,12.885915637796568,0.0,1.0,0.0,0.0,1.0,Taxi
25.1,-0.009809921395265398,-3.5199273488033236,21.415430656001693,-0.17915487327511342,0.13183111644873063,240.05024514721754,13.296860532492476,0.0,1.0,0.0,0.0,1.0,Taxi
25.200000000000003,0.015424516198083006,34.392698837999184,21.182463469055314,0.05001115528753969,-0.07383771869446853,240.17497793510108,12.063362380259042,0.0,1.0,0.0,0.0,1.0,Taxi
25.3,0.03570459292321756,-1.6922795573843412,21.48371291979225,-0.08844437839760433,-0.6419634422361209,240.0502671410503,11.882158477649744,0.0,1.0,0.0,0.0,1.0,Taxi
25.400000000000002,-0.018271319182187065,9.47849477569642,22.24809025635671,0.1133601483829744,-0.6120589255170512,239.93470822293875,12.7903059526157,0.0,1.0,0.0,0.0,1.0,Taxi
25.5,0.06281699007656515,-43.44495732116899,20.84398910076801,-0.409928718522775,-0.014172329240297873,240.03586083608616,11.700480194289396,0.0,1.0,0.0,0.0,1.0,Taxi
25.6,-0.18152019368262737,-33.01106703072265,21.560977250304486,-0.19094896985543236,0.04798245174424407,239.91600102404345,12.504566278668392,0.0,1.0,0.0,0.0,1.0,Taxi
25.700000000000003,-0.18332665433580028,2.2753931610084996,21.144841054955133,-0.09573042893424766,0.20533960195318232,240.04274108636002,13.185785286965512,0.0,1.0,0.0,0.0,1.0,Taxi
25.8,0.07419395588160767,43.70679477737107,21.331699165429104,0.028355223728492418,0.24223110710947196,239.8246797201249,12.583687539226247,0.0,1.0,0.0,0.0,1.0,Taxi
25.900000000000002,0.03701378020422801,27.621175336197897,20.680514052140513,-0.19284018579028472,-0.4530247973006077,240.00584402254697,13.053782896481446,0.0,1.0,0.0,0.0,1.0,Taxi
26.0,-0.04522077765481075,1.2751664500224298,21.6418989887667,-0.2772371052562026,-0.16756546656217422,239.93054277374245,12.946779252013469,0.0,1.0,0.0,0.0,1.0,Taxi
26.1,0.08056978813171989,-41.34658001491409,21.829180228651378,0.0008010395031393114,0.17711833543806496,240.00932369119334,11.91687500342092,0.0,1.0,0.0,0.0,1.0,Taxi
26.200000000000003,-0.16971911987034238,11.36706519651984,20.98944013806697,-0.15071928913024907,-0.4729518421512547,239.8707548351914,12.213320238965842,0.0,1.0,0.0,0.0,1.0,Taxi
26.3,0.011614548327788509,-30.272701340307766,20.04802115677383,-0.14849489325819243,-0.5948109328824479,240.03051497557396,12.169795996971649,0.0,1.0,0.0,0.0,1.0,Taxi
26.400000000000002,-0.0707937185698189,27.73588330240067,21.70538917096585,-0.14387284411911855,-0.29584670455018386,240.17180315478265,12.532688125829539,0.0,1.0,0.0,0.0,1.0,Taxi
26.5,-0.031039703358339017,3.8905537508963,20.813795326337004,-0.11709406714947124,0.3918588685061112,239.85367987418954,12.556892242456158,0.0,1.0,0.0,0.0,1.0,Taxi
26.6,0.031067317082270063,-28.70443641527345,20.989029793793375,0.02188128570711373,-0.31736367619051176,239.98752499038665,12.415480095778639,0.0,1.0,0.0,0.0,1.0,Taxi
26.700000000000003,-0.21431590064618608,35.95107092335261,21.264202270675835,0.0026258055975916794,0.4866137372053836,240.00897457000247,13.290804780062773,0.0,1.0,0.0,0.0,1.0,Taxi
26.8,0.1487156512584241,0.5555279373222106,19.561972189652927,0.14367780623242393,-0.2793847756148638,240.0365877610127,12.019897666414224,0.0,1.0,0.0,0.0,1.0,Taxi
26.900000000000002,0.03384495676888117,79.42117813400328,20.857293700921538,-0.06606022191975897,0.43814572980828204,239.8316212310259,11.660793799032746,0.0,1.0,0.0,0.0,1.0,Taxi
27.0,0.18278999002383034,-26.542819364863462,21.608842222791598,0.5102827362155459,-0.5816740165709609,239.85125432325765,12.173021938561968,0.0,1.0,0.0,0.0,1.0,Taxi
27.1,0.016001554434106845,3.7603773042700794,21.263878738112684,-0.3519941519388404,0.20473144560353473,240.02829772450173,12.646922333682728,0.0,1.0,0.0,0.0,1.0,Taxi
27.200000000000003,0.05264684329023164,-21.283407483786196,21.996479632407322,0.0346156086980457,-0.059282457334804986,239.9845392326447,13.387322003267862,0.0,1.0,0.0,0.0,1.0,Taxi
27.3,0.07637295260489944,-21.66415378476101,21.414723780088806,-0.6563518304373687,-0.6180001888222806,240.04880422004248,12.559086826952743,0.0,1.0,0.0,0.0,1.0,Taxi
27.400000000000002,-0.09231921448969815,-50.74746165962616,21.47671093619427,-0.0929329105047581,-0.3011482142473388,239.85593068403648,13.10890389084071,0.0,1.0,0.0,0.0,1.0,Taxi
27.5,-0.20109046500789912,-14.835875367047796,21.931667873969815,-0.11746137271976073,0.1265066498036054,240.0964907021646,12.736282760388217,0.0,1.0,0.0,0.0,1.0,Taxi
27.6,0.0021935757696605013,28.76192605309684,21.35571923918151,-0.22772178711214053,0.49689786823650045,239.98700232692545,12.226523846916386,0.0,1.0,0.0,0.0,1.0,Taxi
27.700000000000003,0.051490415775786086,49.69430671239539,21.26479974410007,-0.32453503445946597,0.6576680205332395,240.0270509237822,12.534609674369825,0.0,1.0,0.0,0.0,1.0,Taxi
27.8,0.04738106855407784,4.672622281903505,19.5410414494371,-0.65057308780178,0.36129859156870303,240.0454418377817,12.732416752367774,0.0,1.0,0.0,0.0,1.0,Taxi
27.900000000000002,0.02555668717917807,-4.245387629427565,20.98073586044178,0.17495466330407156,0.5268987616657286,240.11854399969434,12.471950079727407,0.0,1.0,0.0,0.0,1.0,Taxi
28.0,0.030263477628648307,1.299821850034439,21.84777312124892,-0.35994325224910695,-0.26015919773391494,239.94418514575443,12.962790785240257,0.0,1.0,0.0,0.0,1.0,Taxi
28.1,0.05388017780425008,18.005643409124712,21.47339312209481,-0.28334956004150846,-0.4994768397148597,239.94625752163813,12.208483463585713,0.0,1.0,0.0,0.0,1.0,Taxi
28.200000000000003,0.11558490422480167,1.6961477883037475,21.66160056354161,-0.06357794854878025,0.062380922086389644,239.91376349788595,11.937390847809956,0.0,1.0,0.0,0.0,1.0,Taxi
28.3,0.03874421657016709,-4.778753517109836,22.19589277143986,-0.11701879008322087,0.10143551062776403,239.97623694880474,12.786814996778977,0.0,1.0,0.0,0.0,1.0,Taxi
28.400000000000002,0.029986410218700944,-20.484060330831063,21.37302236908415,-0.2588762571314249,0.23148343947633088,240.07443134235223,13.576907044640793,0.0,1.0,0.0,0.0,1.0,Taxi
28.5,0.0131646025706464,-18.925102628828036,21.397298361300614,-0.20536852977159464,-0.4571209726635403,240.01560164552677,11.911505537851145,0.0,1.0,0.0,0.0,1.0,Taxi
28.6,-0.05588129657397303,6.950538861277399,22.318350393095077,-0.11084790376885648,0.26585347160318556,240.0663881008802,12.749927491381383,0.0,1.0,0.0,0.0,1.0,Taxi
28.700000000000003,0.06473910452508799,22.03514051367485,21.317003454299268,-0.2724998673943583,-0.35263225789803365,240.05561618676688,11.899642855253061,0.0,1.0,0.0,0.0,1.0,Taxi
28.8,0.12334030513902071,30.631925552007942,20.652469638867046,-0.0036486055178192034,0.43786956630267426,239.93990218284557,12.910033728755812,0.0,1.0,0.0,0.0,1.0,Taxi
28.900000000000002,0.09727833118606673,5.1537162671027295,21.57055964548559,-0.3550091488566752,-0.40452599215013496,239.91867571054627,12.755293401712034,0.0,1.0,0.0,0.0,1.0,Taxi
29.0,0.09050768586060169,-32.438749782812195,22.287163486541036,-0.36378089803443736,-1.3541907168957565,239.88273924664497,12.136523067032199,0.0,1.0,0.0,0.0,1.0,Taxi
29.1,-0.03885344377504023,-46.807746726271944,20.74844581811013,0.16234947107092512,0.15572998165194332,239.8914449394416,11.87946560646926,0.0,1.0,0.0,0.0,1.0,Taxi
29.200000000000003,-0.13676040244529297,-48.82797528806194,22.144796420761264,0.07034812241297711,0.0816399427346135,239.99018865958658,12.312333937376975,0.0,1.0,0.0,0.0,1.0,Taxi
29.3,-0.153632190579708,15.911631765964861,21.45500647636272,-0.029001738039340516,0.05226888693231946,240.1534024806756,12.362354066575362,0.0,1.0,0.0,0.0,1.0,Taxi
29.400000000000002,0.04070471505478409,27.491333146933993,21.548938411074943,0.02379170798434191,-0.32321143801244445,240.0097667627433,12.730617732129964,0.0,1.0,0.0,0.0,1.0,Taxi
29.5,0.0006962632893770207,58.73278495874708,21.101285206727624,-0.06063097465545059,0.31665106884497946,239.88773703538573,12.70670761781875,0.0,1.0,0.0,0.0,1.0,Taxi
29.6,0.14003173421402737,6.058216113380117,21.536375872639677,-0.19638072184730193,0.16909411695652662,239.9598331494601,12.695456399507325,0.0,1.0,0.0,0.0,1.0,Taxi
29.700000000000003,0.07099579562168472,23.484246212259006,21.732396433480453,-0.08965411220262064,0.10588930465697227,239.99998020340388,13.271629317902502,0.0,1.0,0.0,0.0,1.0,Taxi
29.8,0.11811749435067208,-51.452885055069736,20.860903094821744,-0.13295978903480093,0.6799250905680294,240.11997150040588,12.575827379023544,0.0,1.0,0.0,0.0,1.0,Taxi
29.900000000000002,-0.11723269106132124,13.050070322876115,20.78336147595824,-0.02618063738488305,-0.2688975800189834,240.18363987438624,13.477362685979799,0.0,1.0,0.0,0.0,1.0,Taxi
30.0,0.13624614723606537,-25.651216966356685,22.03548222521012,-0.003589530032907115,-0.45210056811182925,239.9121180807855,12.92463792683493,0.0,1.0,0.0,0.0,1.0,Taxi
30.1,-0.010138590481111265,15.54923138936852,21.69612017818095,-0.1709169798823154,-0.2667195752261933,239.96796165827595,11.94198638742954,0.0,1.0,0.0,0.0,1.0,Taxi
30.200000000000003,-0.03948653411447854,-24.570552144009465,22.38444470014219,0.11872788481902607,-0.8649713910797078,240.16005942800234,11.906433388985368,0.0,1.0,0.0,0.0,1.0,Taxi
30.3,0.013393386516018133,-9.715662025032124,21.47056794771054,-0.21864899139562438,-0.3914186181981749,240.06492821280062,12.952236031936252,0.0,1.0,0.0,0.0,1.0,Taxi
30.400000000000002,-0.0587169006062718,18.765175041761008,21.66177559493713,-0.08107448056321628,0.5125808651133301,240.03419021586956,12.351886687009781,0.0,1.0,0.0,0.0,1.0,Taxi
30.5,0.05433934109432659,-4.3586311432539375,21.108375015672607,-0.06740240009274986,0.025513845475788163,239.89388985723212,12.903173524848492,0.0,1.0,0.0,0.0,1.0,Taxi
30.6,-0.00839976920025149,-2.2512643675359647,20.41804588279975,-0.032485511021891206,0.7522466825435453,239.97185874119623,12.49672727548753,0.0,1.0,0.0,0.0,1.0,Taxi
30.700000000000003,-0.06997322244395156,3.055469467330463,21.399576996967266,-0.08747476439674773,-1.1110038703219565,240.06585839019067,13.431035354731613,0.0,1.0,0.0,0.0,1.0,Taxi
30.8,0.06961668843097894,-34.00428840712038,20.69398152403791,-0.10289705257380197,0.5376193555721395,240.03764865556468,12.588269337689242,0.0,1.0,0.0,0.0,1.0,Taxi
30.900000000000002,-0.1784212112358533,30.925754288765052,21.678702707870695,0.12473609115006506,0.010294257212424735,239.86929583054757,12.289970658681886,0.0,1.0,0.0,0.0,1.0,Taxi
31.0,0.08465554899987378,0.738013187303674,21.10559035330865,0.1416349600741761,0.8991263695918772,239.84822801754956,12.760984841524735,0.0,1.0,0.0,0.0,1.0,Taxi
31.1,0.0733067543674974,12.059156843729738,22.536011781738942,-0.06114561505102574,0.43942629041497094,239.9509849929259,13.788881715390858,0.0,1.0,0.0,0.0,1.0,Taxi
31.200000000000003,-0.1181254270172045,-62.874151806245685,22.206808643760848,0.09903580340814525,0.41310005599451655,240.1038447756148,12.701760495726312,0.0,1.0,0.0,0.0,1.0,Taxi
31.3,-0.22971521003135453,-18.174946243434814,21.40020296141766,0.09784813414448668,-0.446132016598986,240.0807025719505,13.018029658261383,0.0,1.0,0.0,0.0,1.0,Taxi
31.400000000000002,-0.017567976849676575,48.847371416193404,21.68118015881813,0.011796572085061657,0.3476744512653376,240.0429654223741,12.640068177843725,0.0,1.0,0.0,0.0,1.0,Taxi
31.5,0.12611143006376258,88.04792912253292,20.82486635114391,-0.4345280202368262,0.9026123499051286,239.94504779605586,13.485374626137496,0.0,1.0,0.0,0.0,1.0,Taxi
31.6,0.21052443558131007,-26.518549614692233,20.895410081368823,0.2001864451831843,-0.35716217209875456,240.03288375215993,13.029762558320622,0.0,1.0,0.0,0.0,1.0,Taxi
31.700000000000003,-0.15016072492313767,-33.069151176699116,20.680139636910035,0.1920714458584053,-0.7930883244144052,239.7229950042214,12.097672044310286,0.0,1.0,0.0,0.0,1.0,Taxi
31.8,-0.039234325819732956,-40.02066665458794,20.691380335953383,-0.418144246710855,0.3456874763935361,240.02190809074432,11.845033237763213,0.0,1.0,0.0,0.0,1.0,Taxi
31.900000000000002,0.010421102308370428,40.09381046816997,20.67850660689977,-0.0034500860967648234,0.07307070748999532,239.98564178720153,12.836340915989515,0.0,1.0,0.0,0.0,1.0,Taxi
32.0,0.05030832741771221,15.647348326787414,22.521917374934763,-0.14244464357388617,0.24518994196173446,239.99481146198423,12.511764507256318,0.0,1.0,0.0,0.0,1.0,Taxi
32.1,0.03900241581420416,18.671575682222414,20.999965856607663,-0.15324731571428402,-0.07036812536860536,240.0644390442519,11.88970442444024,0.0,1.0,0.0,0.0,1.0,Taxi
32.2,0.10377898071948255,-27.711297691994435,20.40028100291825,-0.16162204983025164,-0.551729852574033,240.12473188292302,12.275440355873558,0.0,1.0,0.0,0.0,1.0,Taxi
32.300000000000004,-0.0882481610422599,-35.980778895758284,22.333756262786366,-0.048154207184501016,0.3263490075960534,239.94915230023457,12.70676411584786,0.0,1.0,0.0,0.0,1.0,Taxi
32.4,-0.1409014786645872,-11.298105961663234,20.159109495623763,-0.07123152918757185,-0.5883800832044968,239.9632759439229,12.219347253517324,0.0,1.0,0.0,0.0,1.0,Taxi
32.5,0.047288450911166395,-4.947747092023292,21.69136061715832,-0.08235208612569499,0.16109805637574467,240.0277698344703,12.835358315338324,0.0,1.0,0.0,0.0,1.0,Taxi
32.6,-0.11298689650237632,23.690124123094648,20.957158644204206,-0.1882226200020934,0.12550801476915674,240.1278447365478,12.69479253154408,0.0,1.0,0.0,0.0,1.0,Taxi
32.7,-0.022450858049113894,-33.045230907310106,22.610558065206266,-0.2871662649679874,-0.11896848707597042,240.07031395918523,12.06973504142542,0.0,1.0,0.0,0.0,1.0,Taxi
32.800000000000004,-0.11793770362538405,-29.888061816718235,21.374637809971613,0.13163342585696852,0.03267707493610346,240.16897050841953,12.355228423076577,0.0,1.0,0.0,0.0,1.0,Taxi
32.9,-0.26242720558596744,3.7868424537007193,21.1598545706218,-0.13004855311905422,0.1433570896153321,240.13567044317642,13.525155186528604,0.0,1.0,0.0,0.0,1.0,Taxi
33.0,-0.003516645780610237,26.653795637652692,21.24237533197155,0.06404244023586686,-0.6124547246409303,240.0139584473386,12.883135722527383,0.0,1.0,0.0,0.0,1.0,Taxi
33.1,0.015331274562879452,63.789216700258464,21.36956161377273,-0.2040553144755039,1.2569563431738433,239.9510489777631,12.71372049719545,0.0,1.0,0.0,0.0,1.0,Taxi
33.2,0.05651887791532495,16.668652703812324,21.275913104448996,-0.1730866315806975,0.5678049944232529,239.92926967736753,12.917229162067263,0.0,1.0,0.0,0.0,1.0,Taxi
33.300000000000004,0.0798266177384514,-15.753848157619695,20.76202843399216,-0.22882335875774476,-0.3430995186891383,240.1520794077943,12.422665701888024,0.0,1.0,0.0,0.0,1.0,Taxi
33.4,-0.063437966225219,-5.973084772384023,21.691684086705926,-0.10758851414660542,-0.32210672475113483,239.91850146483466,13.088087255506805,0.0,1.0,0.0,0.0,1.0,Taxi
33.5,0.02665345405340487,-12.628516274624575,21.07585263120606,-0.2801620584429294,0.10789568519347874,239.97830516266356,12.366309229703143,0.0,1.0,0.0,0.0,1.0,Taxi
33.6,0.016684036365328555,10.408519626810342,22.59210052868743,-0.37077733535218377,-0.2438101088720282,240.05747406871637,12.696207053324581,0.0,1.0,0.0,0.0,1.0,Taxi
33.7,-0.011395368091167256,1.7373860972061774,22.089726965997844,-0.1844703148782093,-0.05663646296675574,239.94579427161295,12.394262570306179,0.0,1.0,0.0,0.0,1.0,Taxi
33.800000000000004,0.03534038453943578,13.935332338914725,21.62638122038662,-0.31115972151463356,0.17505958713233377,239.7249993182544,13.043536405678468,0.0,1.0,0.0,0.0,1.0,Taxi
33.9,0.08636069805990221,37.55655937994984,21.098399381113268,-0.13381184264098872,0.6465244280355039,239.94623063942925,12.84569792994791,0.0,1.0,0.0,0.0,1.0,Taxi
34.0,0.176387428808582,-20.188728555885973,22.197505102110842,-0.05164710262589295,0.5786765954464398,240.1009384372702,12.457694595630988,0.0,1.0,0.0,0.0,1.0,Taxi
34.1,-0.06560325823999405,-44.34993764237336,20.662327686326062,-0.009646107250216474,0.07399413572149108,240.0605413704386,12.630241392309804,0.0,1.0,0.0,0.0,1.0,Taxi
34.2,-0.13538899015196457,-9.484993717914884,20.303057874714312,-0.30952287154502245,0.4369991079889691,240.02800808180803,12.771757889459563,0.0,1.0,0.0,0.0,1.0,Taxi
34.300000000000004,0.12896246021900765,-8.065186975878456,19.816233368952467,-0.37406282009085223,0.12222253619340202,239.9351048378802,12.745084494092064,0.0,1.0,0.0,0.0,1.0,Taxi
34.4,-0.10592919311938627,15.052556205098819,21.350671954171077,0.29698089381419235,0.07011543884262904,240.10069216122008,12.527358497216687,0.0,1.0,0.0,0.0,1.0,Taxi
34.5,-0.060126209126470403,6.445294269774625,19.843737151079726,-0.02227551900922417,-0.009502393860544541,239.95156464383808,13.277031767360935,0.0,1.0,0.0,0.0,1.0,Taxi
34.6,0.16118893156788075,-6.572094211207229,21.171787086984448,-0.16424950714218828,1.0288115878616153,239.8987488383441,12.3011688238526,0.0,1.0,0.0,0.0,1.0,Taxi
34.7,-0.1387896641754224,-52.92146756787548,21.818826360956965,-0.11099853330572608,-0.3072322352997911,239.99386205331507,12.302671359830454,0.0,1.0,0.0,0.0,1.0,Taxi
34.800000000000004,-0.3247335469658478,-43.28701804426988,21.31137389611344,-0.3501109343028016,0.8473179335860027,240.00135490287494,12.270940869546827,0.0,1.0,0.0,0.0,1.0,Taxi
34.9,-0.05524615865346863,25.452920228999734,21.95321969253071,-0.10684768359849636,-1.0233889017947315,239.98186937247692,12.414861409321697,0.0,1.0,0.0,0.0,1.0,Taxi
