time_s,altitude_ft,vertical_speed_fpm,ias_kt,pitch_deg,roll_deg,heading_deg,throttle_pct,afterburner_on,gear_down,flaps_deg,speedbrake_pct,weight_on_wheels,label
0.0,0.07772718981819855,-76.46822901954963,12.642835105312253,-0.3039621674924762,0.3836765495234723,37.246253304361744,10.259315547377897,0.0,1.0,0.0,0.0,1.0,Taxi
0.1,-0.17716690691363357,-25.373951743656846,11.961766032457495,-0.7050785141569558,-0.30429078669614246,37.14307205855471,10.12367711081356,0.0,1.0,0.0,0.0,1.0,Taxi
0.2,-0.049142568900085726,-43.36869053552439,13.211791673417972,-0.8803206707046631,0.661819315169736,37.25458414340733,10.311138889021384,0.0,1.0,0.0,0.0,1.0,Taxi
0.30000000000000004,-0.13911626285942344,24.233413763421662,12.181601657936739,-0.945134145060032,0.362987068991003,37.059900932898245,9.879507423148308,0.0,1.0,0.0,0.0,1.0,Taxi
0.4,-0.055999838096525284,15.76285533806575,12.575773211720776,-0.507627425276605,-0.22239612285501376,37.203364005817605,11.079418919859997,0.0,1.0,0.0,0.0,1.0,Taxi
0.5,0.029671707790243036,52.49738021681207,11.601135377534442,-1.0308339777149724,0.1291354760863013,37.046470598660505,10.31376669309147,0.0,1.0,0.0,0.0,1.0,Taxi
0.6000000000000001,0.1233706382246369,13.04451816363381,13.377785193448595,-0.8445707344903404,-1.3612216975879154,36.972885944952395,10.72902041726417,0.0,1.0,0.0,0.0,1.0,Taxi
0.7000000000000001,0.009222752721643758,-34.645112519950004,12.089134853217168,-0.7297643144238581,0.1897826884563805,37.010702686062814,10.755507476746464,0.0,1.0,0.0,0.0,1.0,Taxi
0.8,-0.14355385480950703,-30.91224549564529,12.036098018911602,-1.0892488757034289,-0.4736311677863584,36.986960197040446,11.20220184123474,0.0,1.0,0.0,0.0,1.0,Taxi
0.9,-0.0311905892535896,-5.851272897818133,11.929648355191507,-0.6286829589155354,0.08339145388295226,37.070985381366086,9.934370568706006,0.0,1.0,0.0,0.0,1.0,Taxi
1.0,-0.020033611767446925,39.901906388629726,11.579901838429334,-1.0225460503335142,-0.30972084858093,37.13560897058045,9.983840640572033,0.0,1.0,0.0,0.0,1.0,Taxi
1.1,0.05595567713364159,15.596338449638369,12.498459878820816,-0.80630988300246,0.30327534419209423,37.09415591060895,10.065906957701635,0.0,1.0,0.0,0.0,1.0,Taxi
1.2000000000000002,0.04679110299460225,-29.944913982568178,13.210935066881476,-1.1131158390125968,0.18901749828412473,37.01882900390518,10.683735485554353,0.0,1.0,0.0,0.0,1.0,Taxi
1.3,-0.16975818168028783,-5.315551393909132,12.891302060785046,-0.7206906017494882,-0.6796554142740019,37.09781932060167,9.573663567736748,0.0,1.0,0.0,0.0,1.0,Taxi
1.4000000000000001,0.029377920164095912,-14.633121452675427,12.19339217194021,-0.89534801266135,-0.22678600052754583,37.18202703520575,10.49944623621342,0.0,1.0,0.0,0.0,1.0,Taxi
1.5,-0.026374504268774926,40.05139327335317,13.058514972271288,-0.6644129813868995,0.31748080653853744,37.035083763861735,10.123851505529874,0.0,1.0,0.0,0.0,1.0,Taxi
1.6,0.030498784686478004,14.988334745862398,13.175337527041739,-0.7903639975848124,-0.18705862980832416,37.06095154188125,9.854865270545778,0.0,1.0,0.0,0.0,1.0,Taxi
1.7000000000000002,0.1043195938934079,6.651943940950285,11.350112915747633,-0.7306846617014575,0.0899883345893865,37.07478854598139,8.843988119639302,0.0,1.0,0.0,0.0,1.0,Taxi
1.8,0.006885215435976509,-17.730715380803378,12.263613855842896,-1.0935800075372628,-0.18059885560370836,37.02803790852431,10.357672014127365,0.0,1.0,0.0,0.0,1.0,Taxi
1.9000000000000001,-0.058154792217538887,-2.2049073030722846,12.785497142726603,-0.6612475865851473,0.1622933140016971,36.905633749263416,10.86374612528106,0.0,1.0,0.0,0.0,1.0,Taxi
2.0,0.09329505737804651,-7.128262107478233,11.855523389799654,-1.0003289545928227,0.09728209584964506,37.246024179361996,9.575913335234754,0.0,1.0,0.0,0.0,1.0,Taxi
2.1,-0.028756095101414664,7.999144382949854,12.879102918486511,-0.5781387880890071,0.250268292902674,37.0152928261914,10.395795760443882,0.0,1.0,0.0,0.0,1.0,Taxi
2.2,-0.01815907030278961,19.41700584608699,12.552668018320395,-0.8746276668219815,0.8696471622938705,37.12460702993849,11.375148230300816,0.0,1.0,0.0,0.0,1.0,Taxi
2.3000000000000003,0.19038008660848144,26.92517931020953,12.521444545613756,-0.6258879688098997,-0.36566552323333534,36.894109688341246,9.556946278363245,0.0,1.0,0.0,0.0,1.0,Taxi
2.4000000000000004,0.10586980144963297,-29.625721627152654,12.363774682670137,-0.5997979270916639,0.3975311696068689,36.82201830606925,10.842010547736306,0.0,1.0,0.0,0.0,1.0,Taxi
2.5,-0.16628767843855286,-43.90405022883878,11.839666324754846,-0.7445133511214562,-0.8051215676243113,36.83946618340144,9.490025190717969,0.0,1.0,0.0,0.0,1.0,Taxi
2.6,-0.02914016453571243,-19.257036189806147,12.213467861615422,-0.7569089735112643,0.2149471537256053,36.90746568643016,10.901713490657018,0.0,1.0,0.0,0.0,1.0,Taxi
2.7,0.009584620500602244,19.420452492715388,13.552787040613225,-0.7632174624709712,0.19719817245190815,37.17459215809623,10.22866102682079,0.0,1.0,0.0,0.0,1.0,Taxi
2.8000000000000003,-0.06918541597497589,29.715396061120334,12.884789994847784,-0.7432180651154723,0.6647650228719376,37.15949258246849,10.425231451284342,0.0,1.0,0.0,0.0,1.0,Taxi
2.9000000000000004,0.11943681576988925,-7.344476750792268,13.087604286356516,-0.8465077708792927,-0.26102911959812314,37.19376085662458,10.77098946548335,0.0,1.0,0.0,0.0,1.0,Taxi
3.0,-0.027137763253359093,19.908257319051952,12.871033276229005,-0.7024404038936379,0.07958184793711645,37.07631276154393,10.037456560079908,0.0,1.0,0.0,0.0,1.0,Taxi
3.1,0.030355870620283873,-28.95334002826851,12.182598270274624,-0.8227887073870689,-0.024633151513868023,36.98278699810879,9.499740707349389,0.0,1.0,0.0,0.0,1.0,Taxi
3.2,-0.025329884371453296,19.363791047928363,12.710687202922244,-0.6439598617720834,-0.0851122528212096,36.98813705880917,9.747121433629715,0.0,1.0,0.0,0.0,1.0,Taxi
3.3000000000000003,0.06968119198628273,-36.75389145549321,12.362687490181417,-0.5681798695810881,0.12536764588434754,37.08608762768392,10.666916907568227,0.0,1.0,0.0,0.0,1.0,Taxi
3.4000000000000004,-0.1534135866571822,-11.724210833501965,12.458108048412933,-0.8055007805241909,-0.07092337550929775,37.122374262841504,10.331636955305715,0.0,1.0,0.0,0.0,1.0,Taxi
3.5,-0.08395093853896314,5.366914978563808,13.093890115640395,-0.760134305440613,0.15991522900407695,37.02109389685705,10.116066407162236,0.0,1.0,0.0,0.0,1.0,Taxi
3.6,0.09651576687910175,21.283178621173438,11.410231628607674,-0.4335140147778224,0.22165253882529312,37.07872352019672,9.650846815146974,0.0,1.0,0.0,0.0,1.0,Taxi
3.7,-0.046997693551314994,-12.92603552449674,11.629327475076563,-0.9247936331441085,0.501401133729882,37.14058256643375,9.961051912079306,0.0,1.0,0.0,0.0,1.0,Taxi
3.8000000000000003,-0.14858111616144684,-29.16201362501559,12.601518923111128,-0.7700256649041097,0.7427565053108977,37.2038725485524,9.833416809748996,0.0,1.0,0.0,0.0,1.0,Taxi
3.9000000000000004,-0.04929430124597616,0.3767484237372874,13.196952314769684,-0.9303632459775152,0.05898633484217695,37.00489155107357,10.031416178292039,0.0,1.0,0.0,0.0,1.0,Taxi
4.0,-0.04511395143262853,38.755213371574456,13.224868336815309,-0.5971271115855188,0.17291919766412003,36.88470250885234,10.663117580214273,0.0,1.0,0.0,0.0,1.0,Taxi
4.1000000000000005,0.045194950696425484,21.912837325158396,12.341741944434412,-0.8690233526199181,-0.5483932179028123,37.007507229660234,10.170531563093844,0.0,1.0,0.0,0.0,1.0,Taxi
4.2,0.06026988537981585,31.255179122265123,12.500092398803698,-0.40288287890736857,0.5308424452612635,37.07812402015077,10.479456317633534,0.0,1.0,0.0,0.0,1.0,Taxi
4.3,0.11116194417869713,1.4953897700932093,12.483860843031104,-0.7348620016853774,0.6031382718386284,37.12433587239866,11.061250769307232,0.0,1.0,0.0,0.0,1.0,Taxi
4.4,0.052671899546891554,5.868755299599942,12.2639582391879,-0.9298412275292827,-1.0771447241434484,36.953958060784544,10.267697748345281,0.0,1.0,0.0,0.0,1.0,Taxi
4.5,0.08961366187781558,9.508282032788111,11.590620110039882,-0.7883456346089869,-0.10235450581809363,37.053909428122324,9.522689070127434,0.0,1.0,0.0,0.0,1.0,Taxi
4.6000000000000005,0.15870335434263771,-27.60456456430065,11.956517517001737,-0.7191006836134688,0.6132645751941949,37.105840862407206,10.083214158254535,0.0,1.0,0.0,0.0,1.0,Taxi
4.7,-0.08535092327461166,-33.455822655769346,12.662401539459282,-0.32503355157720404,-0.4947763939200097,37.09270121610484,9.468389712797064,0.0,1.0,0.0,0.0,1.0,Taxi
4.800000000000001,-0.07766545140103112,-29.111058186384525,11.700000697776566,-0.8427031716016784,-0.5839546142038549,37.24762442648887,9.863742332022468,0.0,1.0,0.0,0.0,1.0,Taxi
4.9,0.013148063410715097,16.73589385635567,12.463854682585726,-0.801517784295187,0.13498008490688512,37.07167022976324,10.407612443583146,0.0,1.0,0.0,0.0,1.0,Taxi
5.0,-0.001671453992833288,25.930904236817838,13.104018563683754,-0.9522503261039403,0.35383013597793933,36.971200152210145,10.42526521026101,0.0,1.0,0.0,0.0,1.0,Taxi
5.1000000000000005,0.051989069783058096,-17.188200839941562,13.351479602665332,-0.9869444421598182,-0.42252640814805226,37.15532178727699,10.953631226069156,0.0,1.0,0.0,0.0,1.0,Taxi
5.2,-0.07279294078899269,-7.257300411399117,12.237708543591731,-0.7558095666585293,0.10001405876954986,37.00580052654698,10.398908740202101,0.0,1.0,0.0,0.0,1.0,Taxi
5.300000000000001,-0.03795795604982885,-4.946343593958574,12.751421512058513,-1.042341970592593,0.2225909806344161,37.095269247915894,10.612724640252463,0.0,1.0,0.0,0.0,1.0,Taxi
5.4,0.027257351813265263,-31.163970029650404,12.036076474694374,-0.8659376875169573,-0.1364868254155665,36.90058747719627,10.286048998436732,0.0,1.0,0.0,0.0,1.0,Taxi
5.5,-0.22861279093724468,11.069938298648566,12.923918012381362,-0.8335787054312003,-0.8023907748854887,36.91116762392761,10.53368258147915,0.0,1.0,0.0,0.0,1.0,Taxi
5.6000000000000005,0.017391735443413988,36.49401289170215,12.967092649715347,-1.026863083007066,0.1978441696852804,37.0565132251495,9.267249212471862,0.0,1.0,0.0,0.0,1.0,Taxi
5.7,0.209727416271776,29.611572156223804,12.282449182801793,-0.8179769767708186,-0.7642482930229721,37.022504540436614,9.736265181059483,0.0,1.0,0.0,0.0,1.0,Taxi
5.800000000000001,-0.08055493015612568,-2.670070148854151,11.980207705297865,-0.7159720377129263,1.0259477125419056,37.00088767817755,10.93724242028098,0.0,1.0,0.0,0.0,1.0,Taxi
5.9,0.0040413846991432766,-66.78767322803606,12.68885274164839,-0.7146043432295057,-0.8011602026803226,37.083590316782534,10.673623052778813,0.0,1.0,0.0,0.0,1.0,Taxi
6.0,-0.12421094986840427,44.485456752392395,12.79316721607077,-0.3598804627127466,-0.21080931634373642,37.15895341788155,10.175443231646263,0.0,1.0,0.0,0.0,1.0,Taxi
6.1000000000000005,0.1418723536058363,-2.8229336153716864,12.790102479804906,-0.9092929920430735,0.33536777215404556,36.94228156956456,10.361885903326892,0.0,1.0,0.0,0.0,1.0,Taxi
6.2,-0.010073283377715117,44.64720090858296,13.086288178752204,-0.8802970498001665,0.8931269673653869,37.05746920191734,10.521521494928756,0.0,1.0,0.0,0.0,1.0,Taxi
6.300000000000001,0.09902505467451059,-18.075082173032005,13.147270331380085,-0.6849875950210516,-0.7423288604600536,37.04962832551138,9.887025685836537,0.0,1.0,0.0,0.0,1.0,Taxi
6.4,0.051496942740676344,12.28131130859599,12.504903315030644,-0.7598451544437839,-0.014943073969201968,37.163708601609756,10.122185283883567,0.0,1.0,0.0,0.0,1.0,Taxi
6.5,0.051333273165264884,-13.893925136612852,12.88101748812866,-1.0136168999356159,-0.05401272889508065,36.95042764580046,8.937415880614505,0.0,1.0,0.0,0.0,1.0,Taxi
6.6000000000000005,0.02955542899144637,2.4966818859791347,12.103682471020713,-0.948304825440284,-0.25855157446985966,36.897692025518495,10.536866264279967,0.0,1.0,0.0,0.0,1.0,Taxi
6.7,0.06398035217057206,-25.29735313684124,12.72330541735681,-0.8754184686190807,-0.8035068341766044,37.0218423852931,11.216017975370757,0.0,1.0,0.0,0.0,1.0,Taxi
6.800000000000001,-0.0751534925189413,6.1932095327663035,12.226672233418045,-0.6227661229644136,-0.014002916568358118,37.173058080719954,10.109765977605456,0.0,1.0,0.0,0.0,1.0,Taxi
6.9,0.060521476655277934,-4.756287685508347,11.492075108036435,-0.896095143006364,-0.39150335125662983,37.09193067267165,10.140890232512476,0.0,1.0,0.0,0.0,1.0,Taxi
7.0,0.04019891374303036,24.083187983414103,12.786763141906466,-0.5089719667276493,0.21164736627798042,37.13250506880979,10.589225769257359,0.0,1.0,0.0,0.0,1.0,Taxi
7.1000000000000005,0.045262447398129256,16.697849428234967,11.993588352209262,-0.48221577649854885,-0.8527051684596229,37.04476582798554,9.672880653530408,0.0,1.0,0.0,0.0,1.0,Taxi
7.2,0.14401072379645283,-5.249548935911702,12.739574726561928,-1.2137532228997694,-0.8317454619873316,37.10853035252501,10.528168341977103,0.0,1.0,0.0,0.0,1.0,Taxi
7.300000000000001,0.013951169063471908,-41.99980999125604,13.055463934596084,-0.9617303112040367,0.8731470113326398,37.16643926232382,9.350742324662738,0.0,1.0,0.0,0.0,1.0,Taxi
7.4,-0.1647366025581509,4.5336326486853125,11.765067211097442,-0.6188401430422958,0.5929383401499976,37.120380994105176,10.460044003203185,0.0,1.0,0.0,0.0,1.0,Taxi
7.5,0.1666788870398795,-9.511642084424432,12.746225400145427,-0.46144299115119924,-0.8429656256419398,37.03157710394851,10.452797657938222,0.0,1.0,0.0,0.0,1.0,Taxi
7.6000000000000005,-0.03360704135865018,27.097489056138457,11.268294806356463,-0.813719249485566,-0.950561023610462,37.25255642344422,11.1851940173446,0.0,1.0,0.0,0.0,1.0,Taxi
7.7,-0.02924915727745856,-61.14458248818736,13.334454674806556,-1.0838549051838189,0.4198879141876038,37.083717103491324,10.673019623252276,0.0,1.0,0.0,0.0,1.0,Taxi
7.800000000000001,-0.13904402540105731,43.61038142503981,12.26224562743164,-0.8619601433152251,0.8829525550130125,37.04403230675558,11.277056591406874,0.0,1.0,0.0,0.0,1.0,Taxi
7.9,0.18444486576654895,-28.51016143116873,12.939108015474933,-0.7234042508425782,0.6999233857952878,36.94556183579158,11.075821219410269,0.0,1.0,0.0,0.0,1.0,Taxi
8.0,-0.17179996443330214,9.574414060395014,12.455665208117058,-0.8510692960557624,-0.49410082026964175,37.23931042980723,9.436754068258821,0.0,1.0,0.0,0.0,1.0,Taxi
8.1,-0.09117195509908214,-61.853320366956126,12.255648870308233,-0.6227014599695015,-0.1771347533283947,37.233540413113076,10.499671581667455,0.0,1.0,0.0,0.0,1.0,Taxi
8.200000000000001,-0.12482173606823165,45.11061708668644,13.157681893534749,-0.7920878833405164,0.9002648505738642,37.17241688453231,10.539471722432465,0.0,1.0,0.0,0.0,1.0,Taxi
8.3,0.053753121000130105,4.808659185499773,12.534067595604197,-0.820583204361122,0.6156065217359219,37.097209670059556,11.060374782916025,0.0,1.0,0.0,0.0,1.0,Taxi
8.4,-0.06712865917158323,13.572027296078721,12.703675480714114,-0.7997585744728124,0.15423362190989875,37.13799591534706,10.26708524997136,0.0,1.0,0.0,0.0,1.0,Taxi
8.5,-0.056961599587838,-12.20287257321244,13.10667369043585,-1.093130168459117,-0.12946039960456424,37.08787776877989,11.198659767670343,0.0,1.0,0.0,0.0,1.0,Taxi
8.6,-0.00726124186593206,6.5347555074925365,12.622184333742496,-1.0286055776240461,-0.07750242788449177,37.08837325869615,11.09450445890465,0.0,1.0,0.0,0.0,1.0,Taxi
8.700000000000001,-0.03445488163412053,22.356579949892417,13.275320605315828,-0.7350300477696542,0.6264584857528512,37.04963014619574,10.547483909794106,0.0,1.0,0.0,0.0,1.0,Taxi
8.8,0.05482130016162409,-10.347771848209575,12.30284063348269,-0.690279826310529,0.2579313320248512,36.98669453833736,10.239441680169548,0.0,1.0,0.0,0.0,1.0,Taxi
8.9,-0.059000101106979896,-25.945418251346798,12.86715829168823,-0.7412023554982254,-0.15564635099107943,36.931832864213675,10.275712773022725,0.0,1.0,0.0,0.0,1.0,Taxi
9.0,-0.16418197289085448,-31.58794992808049,11.411261942743886,-0.7140539696765149,0.6625459563061467,37.11139422112319,10.318439502607761,0.0,1.0,0.0,0.0,1.0,Taxi
9.1,-0.10311844947877831,0.8639436686546643,13.044405987547194,-0.7466478433334944,0.2845456358364784,37.260379729870294,9.739897342533617,0.0,1.0,0.0,0.0,1.0,Taxi
9.200000000000001,-0.05468038276370653,49.917853885226236,13.074532837546345,-0.6363772463998926,0.1475896836080514,37.00731142374167,10.232744179554961,0.0,1.0,0.0,0.0,1.0,Taxi
9.3,0.08540729653527673,37.01640351864446,13.047288098860996,-1.319350802772199,0.5683352029160752,37.16198811331327,10.308133043522895,0.0,1.0,0.0,0.0,1.0,Taxi
9.4,0.08196356811444401,10.2790424289598,12.334439368469697,-0.555354304610516,0.49047288865335725,37.136376361425505,9.644778609260468,0.0,1.0,0.0,0.0,1.0,Taxi
9.5,-0.003285170618907483,-33.163786999874965,12.014784839636643,-0.6571449920256986,-0.0463041713544075,37.078224670622774,9.59424800309719,0.0,1.0,0.0,0.0,1.0,Taxi
9.600000000000001,-0.0804116384640981,-24.993842058893307,12.244463921492066,-0.5214556111778912,0.43874393052881033,37.09298088978261,10.528420575052925,0.0,1.0,0.0,0.0,1.0,Taxi
9.700000000000001,-0.0430056421800225,35.951409109898236,12.216049308354068,-0.3196224606540301,-0.5724517764262654,37.01118750515121,10.14667952247324,0.0,1.0,0.0,0.0,1.0,Taxi
9.8,0.17647187493058372,-8.621512764438307,13.359259282165572,-0.9611497557903108,-0.4373105315217239,37.06142349706943,9.997860243434884,0.0,1.0,0.0,0.0,1.0,Taxi
9.9,-0.12351920228628964,16.317027324425975,12.910758286307821,-1.010466033275119,-0.40771159758430736,37.2501807677271,10.554687136723588,0.0,1.0,0.0,0.0,1.0,Taxi
10.0,0.03857949444210737,-57.81929925505674,12.204774739394884,-1.029220276533163,-0.2903303019446503,37.05380013755564,10.103662355578173,0.0,1.0,0.0,0.0,1.0,Taxi
10.100000000000001,-0.1126246213447,54.197651266704874,12.347309828424379,-0.450445353841809,-0.3208176914783089,36.880020603500725,10.037559589756025,0.0,1.0,0.0,0.0,1.0,Taxi
10.200000000000001,0.14746905404723487,2.7696712546984705,11.956958750163203,-0.9706263956376293,-0.20058159298193717,37.08302903417808,9.988826565728028,0.0,1.0,0.0,0.0,1.0,Taxi
10.3,0.052427850715599855,22.326209395056836,11.681293961242824,-0.6108160131122344,-0.22826139929084532,37.00454890491926,10.997167636673742,0.0,1.0,0.0,0.0,1.0,Taxi
10.4,-0.0009935743694156926,-32.88378378285738,11.025588725293069,-0.6004928029680141,-0.08151411607032788,37.00265671980998,10.090407359976478,0.0,1.0,0.0,0.0,1.0,Taxi
10.5,-0.01694986486705194,-1.6005141976992974,12.840321266409669,-0.4287741405301133,0.05222383144402841,36.97461308175491,9.11370956456023,0.0,1.0,0.0,0.0,1.0,Taxi
10.600000000000001,0.044425279727103445,22.01063385006341,13.065757216947492,-0.7201029258906909,0.5110394305514618,36.87649134397179,9.903826468973447,0.0,1.0,0.0,0.0,1.0,Taxi
10.700000000000001,0.10905959488090143,5.836412191197421,13.106801744376229,-0.6324041722613482,0.21877088100018258,37.01870612779919,10.939423976274751,0.0,1.0,0.0,0.0,1.0,Taxi
10.8,0.012232196088935228,-37.46179028134346,12.206360803394734,-0.6045519018085145,0.32190366474809595,37.128211305345985,10.541241242984249,0.0,1.0,0.0,0.0,1.0,Taxi
10.9,-0.1428836716796138,-11.32839063452361,12.879630318177174,-0.42832920718863776,0.19525548099287143,37.15535539771207,10.003998531640493,0.0,1.0,0.0,0.0,1.0,Taxi
11.0,0.05241764170828346,-8.967123154145417,12.029525121344689,-0.8460112298512479,-0.4919472142641844,37.103720064295885,10.409244006155927,0.0,1.0,0.0,0.0,1.0,Taxi
11.100000000000001,-0.032603419681791763,44.681699923661675,12.480439114817397,-0.657965573340637,-0.07662498830683381,37.278225157642055,11.054923019847394,0.0,1.0,0.0,0.0,1.0,Taxi
11.200000000000001,0.08052482793869464,28.69525212751739,12.980014930079587,-0.6278952951264389,0.06110175436976274,37.22726876555049,9.553701755153531,0.0,1.0,0.0,0.0,1.0,Taxi
11.3,0.19589390234587048,9.504353752442853,11.983395465858456,-0.6260952558603582,0.156365772462641,37.06093047000326,10.290876275896084,0.0,1.0,0.0,0.0,1.0,Taxi
11.4,0.014918349080422617,-22.353227620523977,13.240437618728551,-0.7153703596352368,-0.1320456268347078,37.1296963920376,10.652770798936052,0.0,1.0,0.0,0.0,1.0,Taxi
11.5,-0.031241310163925142,-32.758281783162246,11.411737361443018,-0.8790844148643953,0.525317558368695,36.9715866254777,10.28106903170432,0.0,1.0,0.0,0.0,1.0,Taxi
11.600000000000001,0.03210249343005932,-32.32943294790058,12.074349556031537,-0.893447519568318,-0.10253311725015667,36.90512087116417,10.12591198674272,0.0,1.0,0.0,0.0,1.0,Taxi
11.700000000000001,-0.1467288156590802,-16.90007985729723,12.25793135875588,-0.7485243084402955,0.7840161453608706,37.137920705667284,9.987532063078186,0.0,1.0,0.0,0.0,1.0,Taxi
11.8,-0.11574170945041118,-20.724362308431655,11.384635446860447,-0.9234322813133348,0.4101012031640802,37.10042840896665,10.27582578269207,0.0,1.0,0.0,0.0,1.0,Taxi
11.9,-0.07151931811209887,23.98938590297402,12.652866618060811,-0.5730367362508099,0.2904070609771253,37.1069785888418,10.434752731478307,0.0,1.0,0.0,0.0,1.0,Taxi
12.0,-0.026781886144210024,19.482869594245916,12.097921414822128,-0.42522460784606536,0.43838017626162856,36.94268396014502,9.729525071978209,0.0,1.0,0.0,0.0,1.0,Taxi
12.100000000000001,-0.018327361479181525,35.182149757583126,12.07584003690087,-0.6197914192091636,-0.42308800044982636,36.99769660718778,10.356986453521385,0.0,1.0,0.0,0.0,1.0,Taxi
12.200000000000001,0.10439143067581683,15.025893750037818,11.728814017241746,-0.6645374755767802,-0.3041502708104954,37.16922160882848,10.296719980789812,0.0,1.0,0.0,0.0,1.0,Taxi
12.3,0.04834758260597916,8.499678799927784,12.390795185953236,-0.939794311338292,0.49241566061480585,37.104893623929456,10.737650754844806,0.0,1.0,0.0,0.0,1.0,Taxi
12.4,0.024171032520457474,3.6588495491375213,12.634533282343826,-1.0544442814530082,0.06222228737838234,37.172201547114355,10.477140363039252,0.0,1.0,0.0,0.0,1.0,Taxi
12.5,0.12268567842150452,-21.803251630868715,13.56897963391468,-1.120057057334756,0.39796286396413694,37.0626189643375,10.160506351598762,0.0,1.0,0.0,0.0,1.0,Taxi
12.600000000000001,-0.06066867554836433,-32.83326209653913,12.066888416272372,-0.888611249125488,0.04932033413979871,37.17656997206433,10.998395512506736,0.0,1.0,0.0,0.0,1.0,Taxi
12.700000000000001,-0.1399952779622381,15.850516792669112,12.910805809657214,-0.6603097363623364,0.30903152270771983,37.04841062528732,10.326105823761504,0.0,1.0,0.0,0.0,1.0,Taxi
12.8,0.20193826238485016,22.207404020891005,11.700881922781246,-0.8484565486991236,-0.6193960033829835,37.08595064037064,9.826186031093867,0.0,1.0,0.0,0.0,1.0,Taxi
12.9,0.05036834455609075,-2.721185064040308,11.262594659092528,-0.7956650475921884,0.3418504911808002,36.93485031860297,9.623025468562709,0.0,1.0,0.0,0.0,1.0,Taxi
13.0,-0.15360120328243956,-31.553516900381553,13.726517933877222,-0.8530897494573996,0.14881694047551441,36.98685887041944,10.216670645227012,0.0,1.0,0.0,0.0,1.0,Taxi
13.100000000000001,0.04417067788294243,-29.23169571432221,12.78468812400693,-0.5436926624018181,0.24178897734267882,37.100960722518266,10.095553473458123,0.0,1.0,0.0,0.0,1.0,Taxi
13.200000000000001,-0.09579013401552025,64.93758003773955,13.359860625636102,-0.7297928425769774,-0.289781120055558,37.002740133938346,10.589356709044829,0.0,1.0,0.0,0.0,1.0,Taxi
13.3,0.17108669690625825,-52.000404007281155,11.775603663766827,-1.0957875304838849,0.5341969789106517,37.324252156796035,10.548825682779265,0.0,1.0,0.0,0.0,1.0,Taxi
13.4,-0.21583134215346328,38.84928006971233,11.355455105893764,-1.246088610525021,1.562292229533156,37.04636677984098,10.35291988097871,0.0,1.0,0.0,0.0,1.0,Taxi
13.5,0.09845626633304151,-55.371536853436986,12.134899970048744,-1.1081257086652545,-1.3865738330262332,36.88414675834571,9.824864301452232,0.0,1.0,0.0,0.0,1.0,Taxi
13.600000000000001,-0.1057709873609266,11.060277455566307,12.887156701192549,-0.5455647369737648,-0.6857371781933645,36.94184515120946,9.533681153938351,0.0,1.0,0.0,0.0,1.0,Taxi
13.700000000000001,-0.1605299548756317,-51.34128724123237,11.95075155085405,-0.8708181330960219,-0.04661557411892838,37.16813131555364,9.846204736183164,0.0,1.0,0.0,0.0,1.0,Taxi
13.8,-0.15825016987312035,23.48261982107006,12.608786483744614,-0.7620670072457915,-0.032228792592718526,37.00267513179887,10.411981108967861,0.0,1.0,0.0,0.0,1.0,Taxi
13.9,0.0116421117444237,42.774215193291134,12.569777371905387,-0.7889193214878982,0.21365983239056444,37.28498647665208,10.990208206844072,0.0,1.0,0.0,0.0,1.0,Taxi
14.0,0.053341121090824,38.274131090804666,12.790951380309998,-0.8055488906573932,0.3944817344709857,37.06090175905172,10.334037618205407,0.0,1.0,0.0,0.0,1.0,Taxi
14.100000000000001,0.03312048558090299,-7.2550292009157955,12.081351550647742,-0.7625874141407384,-0.2248517414998403,37.026334149091895,10.425238016386933,0.0,1.0,0.0,0.0,1.0,Taxi
14.200000000000001,-0.024633034260155253,-11.362785380871742,12.073473452127503,-0.8477299211992293,0.10394856969106793,36.979868491288926,9.968290240808756,0.0,1.0,0.0,0.0,1.0,Taxi
14.3,-0.003472805813534679,-27.108804610371497,12.532431546812939,-1.2230755053331293,0.49317759230107644,37.00963476333385,10.766870318205791,0.0,1.0,0.0,0.0,1.0,Taxi
14.4,-0.10242353747095448,20.688470868754482,11.782742198593247,-0.5943587256308294,-1.2401672895793374,37.12495046539959,9.89360581179845,0.0,1.0,0.0,0.0,1.0,Taxi
14.5,0.07880932008361718,21.74020573210578,13.029832411490274,-0.7888089801372039,-0.27096315204738086,36.921838590612424,9.601407530123055,0.0,1.0,0.0,0.0,1.0,Taxi
14.600000000000001,0.10522822284699425,0.6661489727461571,12.048631924242843,-0.7189850467166136,-0.805896311299726,36.94510828757018,10.651408246940733,0.0,1.0,0.0,0.0,1.0,Taxi
14.700000000000001,-0.09909279260722367,-1.31436020780545,12.34772838593594,-0.7435515375536119,-0.8912451322203719,37.00143269529468,10.132312973850583,0.0,1.0,0.0,0.0,1.0,Taxi
14.8,0.07223751904458993,-1.1434848001710496,11.570600563013159,-0.6750564564326489,-0.024541539417578785,37.092649687279504,10.0321542964396,0.0,1.0,0.0,0.0,1.0,Taxi
14.9,0.09951079884613899,18.222822931425384,13.711653459909977,-0.324773093184882,-0.2702880276278769,36.99019548301044,10.200657034732892,0.0,1.0,0.0,0.0,1.0,Taxi
15.0,-0.007978677950096739,37.511369382488155,11.571387284615124,-0.5478311525131851,-0.44077062504758424,37.115721874391284,10.007465328181956,0.0,1.0,0.0,0.0,1.0,Taxi
15.100000000000001,0.25979436595703076,-23.56196999229614,11.754289506853848,-1.0854483657912493,0.3637327341306676,36.78064560114058,10.362323942396332,0.0,1.0,0.0,0.0,1.0,Taxi
15.200000000000001,-0.018299051115341688,27.32678988096286,12.80069572903177,-0.9805792856475656,-0.02179518509400563,36.96569307247495,11.10942171504033,0.0,1.0,0.0,0.0,1.0,Taxi
15.3,0.12865527145471758,-5.446210193064883,13.415822005801397,-0.8000624028701308,0.34445674147021565,36.98863996859836,9.005612560115042,0.0,1.0,0.0,0.0,1.0,Taxi
15.4,0.23256331499170635,18.803192377362397,12.220904017811074,-0.7728361386683288,0.18188224865687264,37.11096558317723,10.305374028753732,0.0,1.0,0.0,0.0,1.0,Taxi
15.5,0.0757169107714703,19.20535963497387,12.968929562255829,-0.7050307596455823,-0.35257305711246933,36.887494443007085,10.527940318411165,0.0,1.0,0.0,0.0,1.0,Taxi
15.600000000000001,0.22468206962958692,-27.667987006717265,12.964908989947777,-0.9987892273672443,-0.9727614460358085,37.251275839819186,10.502646497908797,0.0,1.0,0.0,0.0,1.0,Taxi
15.700000000000001,0.09422337995812002,-29.44385524305513,13.15954749864911,-0.8151762067406747,0.5859012162329174,37.16110930050843,10.807659720248646,0.0,1.0,0.0,0.0,1.0,Taxi
15.8,-0.07150236544380531,-50.57361807070174,11.999310633682331,-0.8268738120144398,-0.23771025456466927,36.977866520663156,10.43945847005941,0.0,1.0,0.0,0.0,1.0,Taxi
15.9,-0.02818602072392173,-19.67238728567675,12.49952716475736,-0.6913329082378851,0.23103622561608095,37.02766833069455,10.259405060006682,0.0,1.0,0.0,0.0,1.0,Taxi
16.0,-0.004138556470263696,30.779761826246872,12.20053342489072,-0.5266852030956322,0.4669110368012369,37.16701886326257,9.692497760754533,0.0,1.0,0.0,0.0,1.0,Taxi
16.1,0.0823964436874291,13.559822844526943,12.877299452511537,-0.7732811900845127,-0.6479184602773729,36.99213451061377,9.967041098175473,0.0,1.0,0.0,0.0,1.0,Taxi
16.2,0.03961309349871303,26.259229048212053,11.5768475533105,-0.8082392704419684,-0.2450769510384125,36.97452637000953,10.603258076732502,0.0,1.0,0.0,0.0,1.0,Taxi
16.3,0.1271575887707966,1.0624506303263235,11.76575781854413,-0.9023192167342594,-1.2853869928054555,36.883744482913926,9.595729665501155,0.0,1.0,0.0,0.0,1.0,Taxi
16.400000000000002,0.08770869683906074,-13.729487565683092,11.822918534829979,-1.018609771275314,-0.5318142785426677,37.02682630291508,10.699249303390687,0.0,1.0,0.0,0.0,1.0,Taxi
16.5,-0.029034344329702408,-46.779509747889705,11.605290720557107,-0.5206565473608851,-0.5798172297657589,37.34646145022663,9.89300744553676,0.0,1.0,0.0,0.0,1.0,Taxi
16.6,-0.10673995996865189,-6.189406717380247,12.664005365783567,-0.5110118848274188,0.7307781382813241,37.08685009076032,11.27144467337451,0.0,1.0,0.0,0.0,1.0,Taxi
16.7,0.056761663252159505,4.811107943371586,13.124560233339466,-0.6532998002010998,-0.13478986176351812,37.20117341618874,10.34914831393361,0.0,1.0,0.0,0.0,1.0,Taxi
16.8,-0.0049788046128444695,18.824269974638405,11.36642498957756,-0.5921077408191987,0.03218572327285849,37.18905933544238,10.278007302782939,0.0,1.0,0.0,0.0,1.0,Taxi
16.900000000000002,-0.012618610095459863,-12.845096206130561,12.955738442089922,-0.43379916568138377,-0.5593630328707168,36.993738999110406,10.245478043213412,0.0,1.0,0.0,0.0,1.0,Taxi
17.0,-0.007463817778493269,5.941380439668111,12.742287787564804,-1.0287589605884226,-1.0087892852650961,37.173024507169714,10.204468432485433,0.0,1.0,0.0,0.0,1.0,Taxi
17.1,0.024728097585496114,30.85807258230145,12.936211524846344,-1.1469250396429216,0.4281286399778172,37.19029581222924,10.795353486725467,0.0,1.0,0.0,0.0,1.0,Taxi
17.2,0.1416717528160474,-11.009865623055779,13.349701537424554,-0.6764471097864879,-0.16320947894942503,37.19607893619656,10.645445299134412,0.0,1.0,0.0,0.0,1.0,Taxi
17.3,-0.06251314589377215,-11.448961420210749,12.273554844577419,-0.8509750049932293,0.4022188286981835,37.05841330579267,10.329099988458474,0.0,1.0,0.0,0.0,1.0,Taxi
17.400000000000002,-0.032516709515557615,-27.924421618649117,12.924659449274092,-0.6477831539581387,-0.7165515470810547,37.14800804116686,9.146651063072802,0.0,1.0,0.0,0.0,1.0,Taxi
17.5,0.00204964472280184,20.780945626418625,12.100944839352454,-0.7773448645471839,-0.29564140441726233,37.120944350710204,10.32663027998915,0.0,1.0,0.0,0.0,1.0,Taxi
17.6,0.04139158223832099,-2.5230297867035554,13.707953420843216,-0.8785509638629283,-0.35997694206682607,37.0573872645337,10.704889782716299,0.0,1.0,0.0,0.0,1.0,Taxi
17.7,-0.045131858449075385,-38.522588962636895,12.976246033871766,-0.9357502241367079,-0.06052440800652134,37.134877130126256,10.992342657299654,0.0,1.0,0.0,0.0,1.0,Taxi
17.8,-0.19056330009038264,-4.99591618932601,12.025469290440777,-1.3343650061616312,-0.26367740197769984,37.19858960765947,10.5708401110764,0.0,1.0,0.0,0.0,1.0,Taxi
17.900000000000002,0.01641200129169099,25.95260119620312,12.714637294179083,-0.792659951436161,-0.36085460941511305,37.01184424608107,9.685007046219198,0.0,1.0,0.0,0.0,1.0,Taxi
18.0,0.08463114753194023,52.96356679266078,12.725333489709078,-0.5085938311319851,0.641926305646546,37.1161161734081,9.991686764720448,0.0,1.0,0.0,0.0,1.0,Taxi
18.1,0.07425453387292126,-35.795269851469484,12.624765944950651,-0.5612336238038276,0.22233693586724054,37.22229919497943,9.24695426996756,0.0,1.0,0.0,0.0,1.0,Taxi
18.2,-0.16256434796565644,-25.613848850020787,12.704254653400353,-0.9976618357781739,0.5462361185626798,37.12242582424983,10.400750410464894,0.0,1.0,0.0,0.0,1.0,Taxi
18.3,-0.043438096718163705,-23.068758971119706,12.813793405154247,-0.5899100992816124,0.027261811518503324,37.08653336397424,9.408200386000063,0.0,1.0,0.0,0.0,1.0,Taxi
18.400000000000002,-0.04108926098267726,50.77171967552035,12.342478450548645,-0.9771231734432877,0.05052358102118739,37.12023839164931,10.58459616977902,0.0,1.0,0.0,0.0,1.0,Taxi
18.5,0.09129425041194536,22.731910739052804,12.287639264849508,-0.8758499462499266,0.6830416496143088,37.108087748112155,10.497997588312172,0.0,1.0,0.0,0.0,1.0,Taxi
18.6,0.07022145697710035,-9.035049752207732,11.556251535548096,-1.0550172306278434,-0.23704856015126133,37.207581025658214,9.895900222168299,0.0,1.0,0.0,0.0,1.0,Taxi
18.7,-0.08626450974371586,-22.290806945045603,11.632911177073145,-0.7746229800607941,0.19890757747289528,37.276808205692646,10.498456282169174,0.0,1.0,0.0,0.0,1.0,Taxi
18.8,-0.020159784313282608,-35.631518757783546,12.947298291980445,-0.8475002877063245,-0.40245417555937185,37.10568036137738,9.928964056665805,0.0,1.0,0.0,0.0,1.0,Taxi
18.900000000000002,-0.10793613681181734,28.830686042968285,12.2518225583763,-0.6727419962721479,0.22799980756670898,37.05613794322244,10.451330374232871,0.0,1.0,0.0,0.0,1.0,Taxi
19.0,0.05788892047112557,-6.592457657884751,11.659079191902693,-0.7193684510266881,-0.0980000993559204,37.112916037299215,9.424921266392841,0.0,1.0,0.0,0.0,1.0,Taxi
19.1,-0.05312207260270638,38.01995980389848,12.459137667104967,-1.0308626662405858,0.46723720996725315,37.05678999205094,10.021805852657849,0.0,1.0,0.0,0.0,1.0,Taxi
19.200000000000003,0.08216366220767507,-1.6271266534048319,11.883458025986025,-0.9137203774518542,0.22286545530841015,37.163067316084835,10.348906616123868,0.0,1.0,0.0,0.0,1.0,Taxi
19.3,0.04975328720410141,-4.824287938740414,11.907022499165754,-0.6392091845684212,-0.534011110484166,37.1766201779468,9.849936754666768,0.0,1.0,0.0,0.0,1.0,Taxi
19.400000000000002,-0.07724351229640843,-11.377241467508384,13.34009222700908,-1.0222063446583858,-0.008783324220525824,37.12824933346593,10.132765174598626,0.0,1.0,0.0,0.0,1.0,Taxi
19.5,0.02527745487013316,21.223389581957527,13.133748130961475,-0.9310902770300867,-0.08014364860127725,37.04154456159199,9.857229740020733,0.0,1.0,0.0,0.0,1.0,Taxi
19.6,0.15587023511388903,50.24435748449,12.363860265149123,-0.9982053638595532,-0.4003357558801347,37.11428159755229,11.219618543854915,0.0,1.0,0.0,0.0,1.0,Taxi
19.700000000000003,0.17397827512604158,-17.84429506462055,12.90040412024697,-0.8628122241439352,0.24394740401058834,37.06003152488779,9.579963800654767,0.0,1.0,0.0,0.0,1.0,Taxi
19.8,-0.06394402045296958,0.6622546789776607,11.08225742398825,-0.7660795705202945,-0.16801255549053937,37.234979106777075,10.428727320657485,0.0,1.0,0.0,0.0,1.0,Taxi
19.900000000000002,0.15918150850877733,-28.019424968011204,12.52322951281315,-0.7997901923127577,1.0738324422324077,37.013920695750016,9.391684976105378,0.0,1.0,0.0,0.0,1.0,Taxi
20.0,0.03388115028598556,-1.4638454791375797,12.047940853027276,-1.0043922754386039,-0.7321051296169918,37.17539218802699,10.326499515610706,0.0,1.0,0.0,0.0,1.0,Taxi
20.1,-0.07126324784865751,-15.545819834703972,13.628858941204047,-0.469678489411509,1.1068203948126758,36.948714002232805,9.65470769709236,0.0,1.0,0.0,0.0,1.0,Taxi
20.200000000000003,0.08145240933525745,20.213019533824504,11.538925680046223,-0.5665384433636738,0.8520858931761659,37.00580023716526,11.101740296163182,0.0,1.0,0.0,0.0,1.0,Taxi
20.3,0.1349462479551081,-1.0627154126627545,13.086365923933004,-1.0663674979979112,-0.5350384549379085,37.12247243768536,10.386620986443209,0.0,1.0,0.0,0.0,1.0,Taxi
20.400000000000002,-0.0765768249119713,-11.729253739078786,12.513100530706254,-0.8475245040302135,0.167931853114669,37.0591508143026,9.532692910558511,0.0,1.0,0.0,0.0,1.0,Taxi
20.5,0.0228061406398635,-8.856324420892543,12.808442254818212,-1.0779781499354497,0.15625985933343145,37.117261398373785,10.599420050843413,0.0,1.0,0.0,0.0,1.0,Taxi
20.6,0.09066462585064536,23.085150692473587,11.794575895705055,-0.7536539031352294,0.7582143414297705,37.01963833794406,10.72274809926077,0.0,1.0,0.0,0.0,1.0,Taxi
20.700000000000003,0.038848928550396636,-3.771135349272766,13.417492503632381,-0.870957893701922,-0.05124634363542231,37.031321744193235,10.541994352001861,0.0,1.0,0.0,0.0,1.0,Taxi
20.8,0.003950463893499667,-45.39292997035335,12.181595781179956,-0.6256173525074964,0.7137227876688299,36.84853666127026,10.997548081146746,0.0,1.0,0.0,0.0,1.0,Taxi
20.900000000000002,-0.13630002400112137,17.50703777167419,12.250937076691049,-0.766975776821413,0.5209941868487791,37.09672939657605,10.440016928163422,0.0,1.0,0.0,0.0,1.0,Taxi
21.0,0.12638411740876762,-16.68542904568977,12.596394094313089,-0.8680876063948288,0.6203734225533427,37.05261504244726,10.166209275380206,0.0,1.0,0.0,0.0,1.0,Taxi
21.1,-0.07947668133494915,31.208534706525686,13.378562980076458,-0.720246347772209,0.13515456353376346,37.08803789869853,10.914767791187247,0.0,1.0,0.0,0.0,1.0,Taxi
21.200000000000003,0.019742649531507082,-7.414235326135653,11.900339087530734,-0.4720377719233346,-0.0871562376121929,36.97582804547358,9.619367201391771,0.0,1.0,0.0,0.0,1.0,Taxi
21.3,0.08931294077808938,10.376546561105693,13.249215719138187,-0.7228510982967205,-1.1352561149580114,37.13089046811058,10.56891844451722,0.0,1.0,0.0,0.0,1.0,Taxi
21.400000000000002,-0.027593948529420667,28.483660598248928,13.64481415308427,-0.6910368092655441,0.07887370606317574,36.94891543031048,9.48040729860987,0.0,1.0,0.0,0.0,1.0,Taxi
21.5,0.16216095252275173,5.549230075071557,12.812262650358942,-1.0528122550110885,0.2422572925416064,37.16137398056776,10.63400846601957,0.0,1.0,0.0,0.0,1.0,Taxi
21.6,0.11705909115344718,14.234193811128241,13.529925978645787,-0.8656921780927399,0.834877842633354,36.90912893246548,10.256292447055536,0.0,1.0,0.0,0.0,1.0,Taxi
21.700000000000003,0.043577020526220527,-7.879694224545403,12.590129937743843,-0.7468130773228634,-0.31070951386044343,36.98189735185974,10.158095115459483,0.0,1.0,0.0,0.0,1.0,Taxi
21.8,0.12276248140002471,-24.66497850719711,11.536123131411593,-0.9189171287079405,0.501709760026177,37.01983222714699,11.068396887273552,0.0,1.0,0.0,0.0,1.0,Taxi
21.900000000000002,-0.006265801382538384,-1.3417346504508956,13.008300819810787,-0.8829381910612562,-0.12577691872871175,37.20740276012799,10.149253711522704,0.0,1.0,0.0,0.0,1.0,Taxi
22.0,0.03686834727396604,-6.681815595567028,13.65401294500608,-0.8058220708046703,-0.40196305647359887,37.15231967700322,10.3901224454053,0.0,1.0,0.0,0.0,1.0,Taxi
22.1,0.08935340342218956,-15.042233924477882,11.72574233429426,-0.7220601224256533,0.09166478443521466,37.05137536793444,10.115876052234695,0.0,1.0,0.0,0.0,1.0,Taxi
22.200000000000003,-0.0814769710049278,-19.914766768291443,11.585260635476095,-1.2072894805647791,-0.5284835854477582,37.056246489731905,9.610763903799842,0.0,1.0,0.0,0.0,1.0,Taxi
22.3,-0.06270548656749118,11.012710900666065,12.759744256339772,-0.6134884168486947,0.11836010413253194,36.845803794483516,10.196133920704693,0.0,1.0,0.0,0.0,1.0,Taxi
22.400000000000002,0.14441695792551984,53.530960908775334,12.723654033820816,-0.8183569446255524,0.06877464483450152,37.010853247322984,10.724130239379814,0.0,1.0,0.0,0.0,1.0,Taxi
22.5,0.18617783353894882,-23.857210054533272,13.450359115468226,-0.9742358497685482,-0.03787148836710169,37.14098054650469,9.532859944773422,0.0,1.0,0.0,0.0,1.0,Taxi
22.6,-0.18199153684015756,-83.90221620576602,13.261005794776432,-0.8138102038027529,-0.7482846807653664,37.06341343497047,10.011899592495416,0.0,1.0,0.0,0.0,1.0,Taxi
22.700000000000003,-0.2750941231033103,-27.9090202148861,11.40949994359168,-0.8628246046116436,-0.2820148728615241,37.07709403254245,9.9028986328054,0.0,1.0,0.0,0.0,1.0,Taxi
22.8,0.04663273246451836,-14.010163535630852,12.547215336411735,-1.158803286641146,0.19128370254951527,36.99215395968571,9.94283980255726,0.0,1.0,0.0,0.0,1.0,Taxi
22.900000000000002,-0.2520423545183118,43.00263694120207,10.974610092645658,-0.9852584470581348,-0.08054853580147432,37.10414119827931,10.709354702390403,0.0,1.0,0.0,0.0,1.0,Taxi
23.0,-0.06008093839729988,-2.7365962819277763,12.78026259302636,-0.7025409488688702,0.26224794678063607,36.850487809140304,10.389587666605745,0.0,1.0,0.0,0.0,1.0,Taxi
23.1,0.03294975105487949,38.7487937152846,11.854534673957723,-0.5806574071965194,1.1175297973376808,36.89459642422008,10.156373856170505,0.0,1.0,0.0,0.0,1.0,Taxi
23.200000000000003,-0.058298385941888825,22.70660758099343,11.888514367257967,-0.5178514862066715,-0.4173181037107495,37.19615691502918,11.53498983633321,0.0,1.0,0.0,0.0,1.0,Taxi
23.3,0.053452099507667244,-9.678015593790036,11.780308243196664,-0.8334303194975594,0.02188816525095314,36.86217737384169,10.252847982362487,0.0,1.0,0.0,0.0,1.0,Taxi
23.400000000000002,-0.015440326914070702,2.8841014112006094,12.863598369108598,-0.49990832483867254,-0.22529986621960346,37.155531911313005,9.733353236852375,0.0,1.0,0.0,0.0,1.0,Taxi
23.5,-0.04387787888588579,-0.49189854817498,12.13412717160552,-0.8686143407230453,0.6674583055246458,37.11389279923998,10.202857622765753,0.0,1.0,0.0,0.0,1.0,Taxi
23.6,0.05099260676679235,-5.4602235651493345,12.040078157966963,-0.7046309531229481,0.4341070326069283,37.00424268885422,10.19668495283375,0.0,1.0,0.0,0.0,1.0,Taxi
23.700000000000003,-0.04274144473981737,-1.3269864127962236,12.443530817950526,-0.651597546930442,0.15808131532998734,37.0950567294031,10.386731562894363,0.0,1.0,0.0,0.0,1.0,Taxi
23.8,-0.050512810949866906,-22.507104725929125,13.637448203053578,-0.8389883985225293,0.4251766358973882,37.15937224971958,11.025778661557082,0.0,1.0,0.0,0.0,1.0,Taxi
23.900000000000002,-0.06154291686285327,-18.343742259442525,13.098118301100861,-0.7054271090527082,0.1937852210678643,37.102573233452176,10.254521078292882,0.0,1.0,0.0,0.0,1.0,Taxi
24.0,-0.13446015603703,29.681649492137186,12.132798960189346,-1.044810237105564,0.20804639264508537,37.04566695786269,9.853186565362076,0.0,1.0,0.0,0.0,1.0,Taxi
24.1,0.09789543651081899,-18.92515536812363,11.776261289470256,-1.0183023124815627,-0.5919233598426892,36.967806243015445,10.06277712374968,0.0,1.0,0.0,0.0,1.0,Taxi
24.200000000000003,-0.15616869370347142,9.347410644297243,12.413142966002672,-0.6426114033092701,-0.7620211644761549,36.973069356999474,10.501758984341622,0.0,1.0,0.0,0.0,1.0,Taxi
24.3,-0.08772310281554375,28.798914468924163,12.542833018340252,-0.9676916204851201,0.16793012184359038,37.199614167384084,10.174786138321444,0.0,1.0,0.0,0.0,1.0,Taxi
24.400000000000002,0.24189000885543985,57.142397774316414,12.897346408369836,-0.7230171578417827,-0.0977660673644662,37.108036814525576,10.615636653698576,0.0,1.0,0.0,0.0,1.0,Taxi
24.5,0.12954329516811067,39.63529898148705,11.501634235594032,-0.6777508277372276,-0.7545933454298835,37.04064207624077,10.065184490925498,0.0,1.0,0.0,0.0,1.0,Taxi
24.6,0.11045339209189148,-38.16298793490284,11.922676548222489,-0.8133126218723281,0.5665218898176574,37.04272557963378,9.972576684716602,0.0,1.0,0.0,0.0,1.0,Taxi
24.700000000000003,0.05107506918092572,-28.06999876472295,12.675003621064352,-0.9693195419057805,-0.0112446461562602,36.97547941377519,10.724161155504332,0.0,1.0,0.0,0.0,1.0,Taxi
24.8,-0.01080669865550402,-29.461321737066225,11.869044221056672,-0.5273374474292902,0.07818400627369348,37.158493556913925,10.74380554684164,0.0,1.0,0.0,0.0,1.0,Taxi
24.900000000000002,-0.03685321659343957,4.920717336524312,12.55132440854452,-0.8832412008997842,0.309392482087974,37.12633802102226,10.613292267078881,0.0,1.0,0.0,0.0,1.0,Taxi
25.0,0.07567865586354734,2.968013932891663,12.742318575748657,-1.0225804399058895,-0.40944157122434427,36.97242290371787,10.549620848658563,0.0,1.0,0.0,0.0,1.0,Taxi
25.1,0.00403337100895434,26.854709319162282,12.551158896072387,-0.6518299032841499,0.590568042872254,37.27948552172478,9.753875609203485,0.0,1.0,0.0,0.0,1.0,Taxi
25.200000000000003,0.09742033000237191,1.0593133879063537,11.658748578962792,-0.7559643467930409,0.6481470885062104,36.95626008148895,10.517674326115744,0.0,1.0,0.0,0.0,1.0,Taxi
25.3,0.08097522280307916,-23.39437872726244,12.654184644218997,-0.6664007167394497,0.055720742527278405,37.02018598323252,10.192090220941846,0.0,1.0,0.0,0.0,1.0,Taxi
25.400000000000002,-0.1129385226273578,-14.392092650637352,11.826585744565543,-0.7696216368351487,-0.044272420724228774,37.11050765149298,10.351551966823939,0.0,1.0,0.0,0.0,1.0,Taxi
25.5,0.02545986674918521,-10.719367067403367,13.147522998370162,-0.8857050835283653,-0.48110866722998746,37.22438803624817,9.311675312662306,0.0,1.0,0.0,0.0,1.0,Taxi
25.6,0.027378387466062373,36.53707548705141,12.302643960294125,-1.0388077779807332,-0.2946469250781482,37.140728099642104,9.527369154072415,0.0,1.0,0.0,0.0,1.0,Taxi
25.700000000000003,0.06974685480789931,-3.107597527520023,13.41255673396185,-0.8483276087675398,-0.20945499606996112,36.97594359996606,10.62125631059818,0.0,1.0,0.0,0.0,1.0,Taxi
25.8,0.00992187911158516,5.951687297875772,12.591169590200668,-0.43716098261414843,-0.47195646171729305,36.9419362756409,10.193731188745927,0.0,1.0,0.0,0.0,1.0,Taxi
25.900000000000002,0.0571368239554413,24.763847334912626,13.05840708497991,-0.9529317440822382,-0.1883348108667339,37.217966790242656,10.503026114442624,0.0,1.0,0.0,0.0,1.0,Taxi
26.0,0.19356609148246254,-14.510690115475896,12.469928238902282,-0.9645676342128526,0.06491908631061069,37.06900131613668,9.457993518940539,0.0,1.0,0.0,0.0,1.0,Taxi
26.1,-0.06263157146579423,-1.854852219420792,12.25652342653252,-0.618459924136461,0.5581364479552161,37.09122754716975,9.470133852626395,0.0,1.0,0.0,0.0,1.0,Taxi
26.200000000000003,0.04786256285833744,-34.55461982729274,12.504414918514598,-0.8212313037957519,-0.6176567961154494,36.985602348133966,9.709901447231431,0.0,1.0,0.0,0.0,1.0,Taxi
26.3,0.020792992345998913,-21.889919476396496,12.457364645896925,-0.6722148166248467,-0.9505283692110956,37.17057466471914,10.97273804185946,0.0,1.0,0.0,0.0,1.0,Taxi
26.400000000000002,-0.17208116884777663,10.559855085807365,12.980354404643833,-0.8666299893807047,0.3844010662572765,37.12014830581336,10.444581336092236,0.0,1.0,0.0,0.0,1.0,Taxi
26.5,0.10066183828737432,-21.48393728956331,13.565536201594448,-0.9861527673920221,-0.3803033721923162,37.08995555250692,10.10735232743768,0.0,1.0,0.0,0.0,1.0,Taxi
26.6,-0.08662669410181759,33.041712668461685,12.6499863420705,-1.0655101517017807,-0.16735877885575584,37.02846995402331,10.067036199875366,0.0,1.0,0.0,0.0,1.0,Taxi
26.700000000000003,-0.006872605505468157,-38.92480302998293,12.377652797971416,-0.5526202024974846,0.7374037612997951,37.157239435054635,9.845915466844446,0.0,1.0,0.0,0.0,1.0,Taxi
26.8,-0.09396217686254023,37.04730642738274,12.703339829231048,-1.0281701516164259,0.33633012484017355,37.25592204505017,10.571793120251417,0.0,1.0,0.0,0.0,1.0,Taxi
26.900000000000002,0.0986098380350962,-44.30637017905221,12.413750704474925,-1.0757633113081946,-0.2116172572953966,37.10482388225233,10.092295870062914,0.0,1.0,0.0,0.0,1.0,Taxi
27.0,-0.22840445640072918,5.715732113583343,12.457358641317903,-0.551769154819637,-0.7215532424044134,37.32700496384024,9.996709697967033,0.0,1.0,0.0,0.0,1.0,Taxi
27.1,-0.06538351629462347,8.194383509278191,13.32384336020369,-0.925902553598422,0.4291323666143274,37.027953167318344,10.52208098287672,0.0,1.0,0.0,0.0,1.0,Taxi
27.200000000000003,0.1395817555814872,17.551839350110896,11.752763847452632,-0.8319498790853167,0.6665269855511731,37.02677804661289,10.374630636498695,0.0,1.0,0.0,0.0,1.0,Taxi
27.3,-0.14064525965017466,7.436006390684544,12.558144446401727,-1.0220965403409008,-0.16857385455527746,37.07844312796311,10.22386817052275,0.0,1.0,0.0,0.0,1.0,Taxi
27.400000000000002,-0.028203484341200742,-70.26252685307306,12.363396194448057,-0.8315124877883038,-0.22258482874339622,37.02840304179017,10.262731036471754,0.0,1.0,0.0,0.0,1.0,Taxi
27.5,-0.21173087868387808,14.896937715964006,11.661478417667384,-0.6279632776323871,0.3410231594726831,37.17212423216006,11.843907177802837,0.0,1.0,0.0,0.0,1.0,Taxi
27.6,-0.06616057107035457,13.62342845100651,14.309815649750641,-0.5263965234744225,-0.5119148632688189,37.04848480484668,10.811419241103936,0.0,1.0,0.0,0.0,1.0,Taxi
27.700000000000003,0.03991365791383188,46.005991646360826,11.921948051313484,-0.7676250587215737,0.04266336204420118,36.95850696943211,9.480443209146443,0.0,1.0,0.0,0.0,1.0,Taxi
27.8,0.01829907954792613,39.90958692139668,12.509288093326635,-1.2264086921517716,-0.8670533812722112,37.30171542124873,10.469474251217472,0.0,1.0,0.0,0.0,1.0,Taxi
27.900000000000002,0.13338736353662892,6.073176334512468,12.058757241187962,-1.0489066196646852,0.41095102823577934,37.071651327064785,9.503834436726045,0.0,1.0,0.0,0.0,1.0,Taxi
28.0,0.07027953958639431,21.287675214092683,12.103936800070727,-0.8099545106591282,-0.23883294879689881,37.057877186037786,10.485417291461143,0.0,1.0,0.0,0.0,1.0,Taxi
28.1,0.12473745561838963,-7.5023156121967185,11.971649538372809,-0.6459032172805649,-0.6203561238041247,36.9707440689798,9.728590090859996,0.0,1.0,0.0,0.0,1.0,Taxi
28.200000000000003,0.0958757854756454,-34.8799074608874,12.480374592776945,-0.8408934749878112,0.49522505560306623,37.14820889365251,11.140928490510367,0.0,1.0,0.0,0.0,1.0,Taxi
28.3,-0.10411999771804266,-47.75515121142504,13.20891690359687,-0.7220103295910175,-0.1010971730939125,37.150053301479886,9.653721957315327,0.0,1.0,0.0,0.0,1.0,Taxi
28.400000000000002,-0.11403830043873549,-4.8348590340198525,11.89999080426698,-0.8573794962481358,-0.18675933040826084,37.3058578389963,9.70114235905239,0.0,1.0,0.0,0.0,1.0,Taxi
28.5,0.07170149030554619,15.03615675216196,13.72646807125097,-0.6300183468719973,0.06450899025461018,37.20367728809492,10.006056861436193,0.0,1.0,0.0,0.0,1.0,Taxi
28.6,-0.02893921395723278,38.00761453885486,12.258371656710587,-1.0434632396856611,0.6131337050382931,37.110859152926196,10.247771326419029,0.0,1.0,0.0,0.0,1.0,Taxi
28.700000000000003,0.07599977225553889,-12.119900223574048,12.399510444260276,-1.0077192010529425,-0.14042260480704713,37.01507160970726,9.530992645341463,0.0,1.0,0.0,0.0,1.0,Taxi
28.8,0.011101989187676046,24.965665690511855,12.206197419051687,-0.8586729613798639,-0.6260450650150624,37.08773384423557,10.652956225248019,0.0,1.0,0.0,0.0,1.0,Taxi
28.900000000000002,0.09588911449532658,-28.47272946205149,11.724201555427788,-0.5674743975469891,0.6242786474125935,37.043899897439985,10.288223443911631,0.0,1.0,0.0,0.0,1.0,Taxi
29.0,-0.06636387505471845,-26.4699790809226,12.363765283597402,-1.042330477712562,-1.2068675843820587,37.16575701049851,9.25164489908721,0.0,1.0,0.0,0.0,1.0,Taxi
29.1,-0.12124790621693685,-8.425879658683428,13.282336444838126,-0.9903590128870732,-0.33579221847566143,37.08637401399949,9.9068598195112,0.0,1.0,0.0,0.0,1.0,Taxi
29.200000000000003,0.05375971620190953,35.86800292762449,13.065349013856503,-1.0369651720334627,0.09566292537693027,37.06437190596961,10.423102689099425,0.0,1.0,0.0,0.0,1.0,Taxi
29.3,0.11297613958340409,0.8847536498721146,13.064097934453294,-0.6444548544563794,0.15610173248689926,36.911760873011474,10.241491051951561,0.0,1.0,0.0,0.0,1.0,Taxi
29.400000000000002,-0.11682413796757614,8.75475058521603,12.705739046923672,-0.5950283912226098,-0.13184083462279428,37.079109719077906,10.512439119920534,0.0,1.0,0.0,0.0,1.0,Taxi
29.5,0.0975334691279898,-3.0988303075636385,12.988614559536156,-0.6368136767118724,0.026516448771523857,37.07128819987241,10.46648159491523,0.0,1.0,0.0,0.0,1.0,Taxi
29.6,0.09748198804558601,22.5551678157383,12.050150104510157,-0.7900299279975788,0.8357639164788341,37.08686434380536,10.337119295999887,0.0,1.0,0.0,0.0,1.0,Taxi
29.700000000000003,-0.004048298888884549,8.984711231612698,12.10447516777707,-0.896410337999885,-0.26125317571799833,37.108432014250866,10.000169716300393,0.0,1.0,0.0,0.0,1.0,Taxi
29.8,0.1424570252860534,-41.52920925657647,12.941714117291069,-1.189358472301267,-0.5336212363422989,36.888842362585706,11.324697455917338,0.0,1.0,0.0,0.0,1.0,Taxi
29.900000000000002,-0.11016405823729625,-23.720757627460028,12.223749846027905,-0.7166145086433486,-0.49193315116897024,37.12312421882655,9.342394434627115,0.0,1.0,0.0,0.0,1.0,Taxi
30.0,-0.1226520870261846,-17.407817790409666,12.626041172733025,-0.7551467917526147,-0.7336676159182081,37.08370157396433,10.323753129088216,0.0,1.0,0.0,0.0,1.0,Taxi
30.1,0.05541793633400514,14.706815192507941,11.895142095712956,-0.9562253857407438,0.931268356650166,37.06985785368977,10.180987880618803,0.0,1.0,0.0,0.0,1.0,Taxi
30.200000000000003,-0.036629982274756445,40.936306774248514,13.087794097829978,-0.8413510312117646,-1.2690237635924937,37.16232247600993,10.356434003910039,0.0,1.0,0.0,0.0,1.0,Taxi
30.3,0.08202944684505807,-9.590341992004404,12.408637966062763,-0.8278826132026945,-0.2635960183044762,37.137742391995516,10.353402744987918,0.0,1.0,0.0,0.0,1.0,Taxi
30.400000000000002,0.007466226373983198,-21.94475669617945,12.790679741890871,-0.7218008445610775,-0.1989170602984703,36.94079597886804,9.739314143369542,0.0,1.0,0.0,0.0,1.0,Taxi
30.5,-0.1463537657556536,-25.660088429331495,11.490056703043493,-0.7355733985065734,-0.0896972895153076,36.98519964637171,10.515112538195492,0.0,1.0,0.0,0.0,1.0,Taxi
30.6,-0.04627099530159936,-3.767097344200034,11.981318360312182,-0.8255021630037479,0.1819254608739579,36.909293003506605,10.475939862151758,0.0,1.0,0.0,0.0,1.0,Taxi
30.700000000000003,-0.011369260347016899,40.70122435533849,12.142963522037968,-0.9713182801549423,0.10579677274714412,37.13563881345107,10.53999851216931,0.0,1.0,0.0,0.0,1.0,Taxi
30.8,0.05715235602103892,0.013944902023789988,12.251424016984503,-0.713150275651285,0.6271033373026267,37.049185312803445,10.538831668513994,0.0,1.0,0.0,0.0,1.0,Taxi
30.900000000000002,-0.04620127079148035,39.53441380228696,12.19733993187622,-0.9179748421135212,0.3159258812276717,37.01474031928831,10.386107890877252,0.0,1.0,0.0,0.0,1.0,Taxi
31.0,0.18630280866441795,-4.884435680902707,12.155628222448776,-0.6728282789392802,0.1316486219904172,37.03211240739142,10.33262926432775,0.0,1.0,0.0,0.0,1.0,Taxi
31.1,0.032730177616525406,36.29945301892979,13.477908771483134,-0.8561976954124377,-0.7588555153167791,36.84074628136216,9.919168743223139,0.0,1.0,0.0,0.0,1.0,Taxi
31.200000000000003,0.1352959943031686,-59.897292104887725,12.224215130262435,-1.0110500244751368,0.9721000438041237,37.091040105698994,9.675579625044262,0.0,1.0,0.0,0.0,1.0,Taxi
31.3,-0.11318365186002062,47.98408424609135,12.492203430183334,-0.807838832110566,-0.34433588203782256,37.05193560116129,9.537663397334033,0.0,1.0,0.0,0.0,1.0,Taxi
31.400000000000002,0.27265059884698223,-49.34160085365593,12.908186407978532,-0.7777733105435543,0.5978395407759843,36.834643235531075,10.510397127349428,0.0,1.0,0.0,0.0,1.0,Taxi
31.5,-0.11141200996511098,17.666728140702414,11.424718725830722,-0.5756620827046564,0.526829482704269,37.18582957695412,9.64446347620264,0.0,1.0,0.0,0.0,1.0,Taxi
31.6,-0.024850011156508478,-45.867860940279996,12.489915733469815,-0.5566943851416127,-1.0167913717553234,37.196518881553686,10.24699772812689,0.0,1.0,0.0,0.0,1.0,Taxi
31.700000000000003,0.04331129414558228,27.825456469899994,12.346178608175634,-0.4354779278646833,-0.11457061605595661,37.015860919637134,10.004083264531877,0.0,1.0,0.0,0.0,1.0,Taxi
31.8,0.027715272384389013,18.643604213351917,12.73129728829101,-0.6471637323774204,0.6991711356322464,36.93173950416576,9.921933753125721,0.0,1.0,0.0,0.0,1.0,Taxi
31.900000000000002,0.06836800991025115,2.9340689276355145,12.508452093209417,-0.7854014792982349,0.47296232122629206,37.18457241619285,10.929466926934294,0.0,1.0,0.0,0.0,1.0,Taxi
32.0,0.057981638783759885,-3.7221799222994925,12.290518362622642,-0.7442619384376449,0.44771107281194283,36.980817565292,10.33156411175417,0.0,1.0,0.0,0.0,1.0,Taxi
32.1,0.009104372772891584,-8.240395105926943,13.150988915612869,-0.9850138028735109,-0.18413682339692583,37.03241668816855,9.92650672316576,0.0,1.0,0.0,0.0,1.0,Taxi
32.2,0.027166034380616468,-20.19747651032827,12.248251670250752,-0.9796490012531954,-0.36725477960013597,37.10279630495438,10.592156705979447,0.0,1.0,0.0,0.0,1.0,Taxi
32.300000000000004,-0.04300574376788142,1.5912411545542422,11.584728571268768,-0.6953064708729235,0.6180173729352626,37.08111804870333,10.015604130466714,0.0,1.0,0.0,0.0,1.0,Taxi
32.4,0.01706057854566283,1.0304006252588274,12.40783783200968,-1.0547654620554097,-0.12645809391094326,37.045632996713096,10.73917735826453,0.0,1.0,0.0,0.0,1.0,Taxi
32.5,0.03231803750691064,8.805210438551716,12.66124471354112,-0.7756443583323627,-0.37800274112997556,36.92498035216977,10.408914396582528,0.0,1.0,0.0,0.0,1.0,Taxi
32.6,0.0010203084248771948,-17.51397310866373,12.376423805616769,-0.6030454782194116,0.2915669498973575,36.98052244139046,10.37454524152064,0.0,1.0,0.0,0.0,1.0,Taxi
32.7,-0.07050928699765577,-8.012416572439486,12.786844808389484,-0.9876639979644755,0.5603864990665658,37.12551267020939,9.950962217509753,0.0,1.0,0.0,0.0,1.0,Taxi
32.800000000000004,-0.007744045355286749,1.8060140676889802,12.485206594349993,-0.5607094878939396,0.42496837574141044,37.05112499461251,10.831291575627613,0.0,1.0,0.0,0.0,1.0,Taxi
32.9,0.01005037876332214,11.35653402490508,12.738844112206749,-1.1001173635776667,-0.7503195189745777,36.837958567725536,9.42836400390909,0.0,1.0,0.0,0.0,1.0,Taxi
33.0,-0.013726616873130324,23.158837595321035,12.454270042924808,-0.9575826245816749,0.07149917485958872,36.97220863389367,10.035550195868337,0.0,1.0,0.0,0.0,1.0,Taxi
33.1,0.10805014262131847,-9.924902549080551,12.125731759235599,-0.5532136510857877,0.7824349285480062,37.041446393516765,10.428597062807887,0.0,1.0,0.0,0.0,1.0,Taxi
33.2,-0.03957413398208057,27.384631207130866,12.706106324658194,-1.0687916117556988,-0.4326964812586055,36.99608363138668,9.9553160413025,0.0,1.0,0.0,0.0,1.0,Taxi
33.300000000000004,0.12319653916252407,-14.17445509961231,12.417877818774665,-0.619016591394889,-0.01827966192148345,37.16296338876191,9.023753004472848,0.0,1.0,0.0,0.0,1.0,Taxi
33.4,0.037177867123256984,-10.281510316245253,12.91558878682377,-0.550584791552682,-0.41952362548998107,37.17075861216938,10.388502105033993,0.0,1.0,0.0,0.0,1.0,Taxi
33.5,-0.09098168556330677,-24.183319302194363,12.637943511329873,-0.8636466430928009,-0.579144843297695,36.933684510608146,9.901573853901722,0.0,1.0,0.0,0.0,1.0,Taxi
33.6,0.002279942651552298,2.1888229660093046,12.096098288236874,-0.8255323991019716,-0.18511573085870314,37.20599212420615,9.852014559670758,0.0,1.0,0.0,0.0,1.0,Taxi
33.7,0.048121981953303555,16.06795985097145,12.349994180161342,-0.8372049536622873,0.7475442848136503,36.908744427362365,10.077032072875987,0.0,1.0,0.0,0.0,1.0,Taxi
33.800000000000004,-0.010641886308449491,-23.164887997057814,12.830879048979472,-0.5074348118593603,0.032487141398800566,36.91489829268767,9.987460519015437,0.0,1.0,0.0,0.0,1.0,Taxi
33.9,-0.11354449733373673,0.4834500131913444,12.521058310836663,-0.9574810732196606,-0.6329870714814759,36.97405955838747,11.09660535743751,0.0,1.0,0.0,0.0,1.0,Taxi
34.0,0.0505392320192603,-7.420662584075321,12.452935603465619,-1.2169987612193132,0.9950341374033495,37.06536736423391,10.520252281322984,0.0,1.0,0.0,0.0,1.0,Taxi
34.1,-0.04774519922882608,4.969025494914678,12.228166577967077,-1.1758476318040003,-0.20488005636234827,37.14675309539621,10.895413501054184,0.0,1.0,0.0,0.0,1.0,Taxi
34.2,-0.08869936985916332,-32.95072355312672,12.100862719926972,-0.657639453420777,-0.21475775462915103,36.95292095533654,10.210474164528442,0.0,1.0,0.0,0.0,1.0,Taxi
34.300000000000004,-0.11421438574637327,22.271247733764245,12.188283923924075,-0.900866085180595,0.1313799460963121,37.04889437918297,10.51004374248096,0.0,1.0,0.0,0.0,1.0,Taxi
34.4,0.0636110394399952,-27.933212511431545,13.047688477002263,-0.9053772631763428,0.41842899230212405,37.10315453793197,10.629821951314637,0.0,1.0,0.0,0.0,1.0,Taxi
34.5,-0.22836543241632096,10.21029976794737,12.170664225255202,-0.9271965275182381,-0.09736118018118917,37.13918372609908,10.742043912896266,0.0,1.0,0.0,0.0,1.0,Taxi
34.6,-0.06316288690663632,-15.004267884126003,10.944323241903271,-0.9413627068454561,0.6181441138607956,36.86710187467929,10.300196506387287,0.0,1.0,0.0,0.0,1.0,Taxi
34.7,-0.011410299980634753,51.237930337305585,12.135717177676737,-0.983937743628662,0.09836318436619519,36.972493464319314,10.033864627917923,0.0,1.0,0.0,0.0,1.0,Taxi
34.800000000000004,0.027824219270207014,27.142621966913723,11.69143916331301,-0.8167337139037102,-0.2652275936033725,37.08212649173157,9.244732435361167,0.0,1.0,0.0,0.0,1.0,Taxi
34.9,0.07255022292793231,23.950654569830927,13.151466171179797,-0.7017597770905935,-0.074432842581789,37.02479748432677,9.630041542773606,0.0,1.0,0.0,0.0,1.0,Taxi
35.0,0.1083429728685199,-13.446559107253291,12.408758612674946,-0.7200356893057862,-0.06580989884679929,37.07815326329319,9.508397247585506,0.0,1.0,0.0,0.0,1.0,Taxi
35.1,-0.03940857626605942,1.6632475530768762,12.271942089636372,-0.7325200275548347,0.5600320288336925,37.04208951134319,9.457373013894854,0.0,1.0,0.0,0.0,1.0,Taxi
