time_s,altitude_ft,vertical_speed_fpm,ias_kt,pitch_deg,roll_deg,heading_deg,throttle_pct,afterburner_on,gear_down,flaps_deg,speedbrake_pct,weight_on_wheels,label
0.0,0.05709883891736794,-45.05444407865801,20.78712576763072,-0.2311047989668626,0.053433332665811135,118.68427203321579,14.409257396092972,0.0,1.0,0.0,0.0,1.0,Taxi
0.1,-0.09308264134482543,16.913703629040565,20.652614709106007,-0.44003434132838154,-0.2482323299528379,118.91269293128244,15.269174127537427,0.0,1.0,0.0,0.0,1.0,Taxi
0.2,0.14166735706257075,4.824112171441648,21.13995794181186,-0.26296604669147083,-0.2493812234236656,118.8013112649324,15.024400217580467,0.0,1.0,0.0,0.0,1.0,Taxi
0.30000000000000004,0.08121939977457616,51.49215938570591,20.63738622748028,-0.2201340525033548,0.6308464275257047,118.78063673047899,14.760249360660115,0.0,1.0,0.0,0.0,1.0,Taxi
0.4,0.16437815558370408,-7.570109368899092,20.555626801184605,-0.35973679036434214,-0.5156953414648718,118.8758335069873,15.459789903192698,0.0,1.0,0.0,0.0,1.0,Taxi
0.5,0.10381681021807528,-14.013119651343194,20.265750682918714,-0.5420360168710441,-0.11043567976599404,118.87340007756103,15.060012774412723,0.0,1.0,0.0,0.0,1.0,Taxi
0.6000000000000001,0.011153801517860194,-29.35217276521224,21.616669150556344,0.02098972431694973,0.2894755495188413,118.96171586985969,14.596694375517586,0.0,1.0,0.0,0.0,1.0,Taxi
0.7000000000000001,0.017617291757642883,-20.360825724217445,21.315391953106783,-0.19038696185047518,0.026107074505919182,118.88576933610835,15.853522747114592,0.0,1.0,0.0,0.0,1.0,Taxi
0.8,0.0020126815969880346,-12.922064582598201,21.064104628388026,-0.08588562884364248,-1.0359901624685075,119.02158689111371,15.830534879086935,0.0,1.0,0.0,0.0,1.0,Taxi
0.9,-0.053456521395130824,-23.111271051460175,19.119015297745644,0.17414297069604512,0.08595139542606023,118.87457410198363,14.954179113380489,0.0,1.0,0.0,0.0,1.0,Taxi
1.0,-0.097939063499658,-31.819365169514782,22.103213737943992,-0.22017905163899992,-0.17895053098855407,118.75872848599408,15.480282544642305,0.0,1.0,0.0,0.0,1.0,Taxi
1.1,-0.1570841442505859,12.829210587459045,19.676490987751652,-0.11829246796557175,-0.031332924853689506,118.84157841976315,15.578928007615286,0.0,1.0,0.0,0.0,1.0,Taxi
1.2000000000000002,0.010689531542164392,42.126684007328045,19.568146238049817,-0.004326749677465935,0.9369212908075286,118.82376067986291,15.403905184797873,0.0,1.0,0.0,0.0,1.0,Taxi
1.3,0.11269435653698222,35.19381503936653,20.913493376992463,-0.10232092887804768,-0.15834625311863015,118.9146126116193,15.43230312803209,0.0,1.0,0.0,0.0,1.0,Taxi
1.4000000000000001,0.01888493094624673,2.86317197716748,21.554965283140135,-0.015172470671172417,0.29136850995345354,118.65818738731747,15.389451411449175,0.0,1.0,0.0,0.0,1.0,Taxi
1.5,0.025005391428001796,-34.93763594926318,21.993530607364935,0.059423752175459255,-0.3912034919676156,118.92837653555154,16.004741324228792,0.0,1.0,0.0,0.0,1.0,Taxi
1.6,-0.06199382320933369,-7.995744786879956,19.887170725377956,-0.612419942292262,0.5638474129213497,118.82801932007709,15.579529007744625,0.0,1.0,0.0,0.0,1.0,Taxi
1.7000000000000002,-0.021093792988153046,-36.88144700115594,19.923846058664818,0.06220313898916949,0.19744801315939534,118.84122594873219,14.882593565615558,0.0,1.0,0.0,0.0,1.0,Taxi
1.8,-0.1594018435777779,8.579975928957454,20.36859964555285,-0.1975144500209894,-0.20302334336529654,118.79595834123882,15.71565843224116,0.0,1.0,0.0,0.0,1.0,Taxi
1.9000000000000001,-0.01909394356454641,-22.598832108145242,21.336596320578124,-0.016523745300421083,0.45177503770030414,118.77405634529225,14.80296321571526,0.0,1.0,0.0,0.0,1.0,Taxi
2.0,-0.13408795352887923,18.26527846090391,21.0742482055992,-0.4666417446988111,0.6563495957800425,118.71655853283352,14.88790784563589,0.0,1.0,0.0,0.0,1.0,Taxi
2.1,-0.06807545127325833,-38.091501850986866,21.321486285827255,-0.06623493010489358,0.8641690994973209,118.88441372006184,15.187561540977711,0.0,1.0,0.0,0.0,1.0,Taxi
2.2,-0.20955145281948076,25.188479370270183,22.11192029560111,-0.25078658184619806,0.25361570422944213,118.98628291782177,16.010591353075103,0.0,1.0,0.0,0.0,1.0,Taxi
2.3000000000000003,-0.008145556677528318,3.278370794506421,20.379953215369113,0.063680089000763,-0.2928113159567945,118.73385962860453,14.681983646132654,0.0,1.0,0.0,0.0,1.0,Taxi
2.4000000000000004,-0.05168359730072622,30.735885322850688,20.96570613615029,-0.4563328860915254,-0.2805349408913533,118.756364659062,15.038190669132007,0.0,1.0,0.0,0.0,1.0,Taxi
2.5,-0.0558720262052273,-26.386457164917562,21.137168953018442,-0.3000086427057844,0.32015399264336797,118.83598494079558,14.834548537965533,0.0,1.0,0.0,0.0,1.0,Taxi
2.6,-0.1400778425021161,37.76902244725707,20.687079599765802,-0.1962228028360065,0.516673901076276,118.90093863654681,13.938304844598392,0.0,1.0,0.0,0.0,1.0,Taxi
2.7,0.13716151493555914,-18.340796481109482,20.0525513042963,-0.010702670437199635,0.1512719043433083,118.93182295773823,15.058563629284965,0.0,1.0,0.0,0.0,1.0,Taxi
2.8000000000000003,-0.1475760086107747,37.66652540976522,20.932746559629248,-0.1730523854935394,-0.29679972952736833,119.04773345199402,14.642726427463922,0.0,1.0,0.0,0.0,1.0,Taxi
2.9000000000000004,0.048254784546710026,-30.137167483807193,21.35882659266007,-0.23081224327009842,-0.5714505839843322,118.81307147629292,15.020605599301554,0.0,1.0,0.0,0.0,1.0,Taxi
3.0,-0.013524322483476792,-0.6791640468921448,20.87251523967371,-0.17804298922084333,0.12123348754678545,118.93549132742493,15.24531144488399,0.0,1.0,0.0,0.0,1.0,Taxi
3.1,-0.15097182884523538,-12.893371968299533,20.92358015313969,-0.1426821260030841,0.6238050974868331,119.02332492972334,15.425728808804713,0.0,1.0,0.0,0.0,1.0,Taxi
3.2,-0.016212075294787603,29.84168723611995,21.106603947699252,0.08024572607670383,-0.19586395694258646,119.09816112511425,14.960708669592297,0.0,1.0,0.0,0.0,1.0,Taxi
3.3000000000000003,0.13568411369712297,33.975530727683164,20.504508791394578,-0.12923687073754478,0.7024026742159564,118.9356761892086,15.568137751313554,0.0,1.0,0.0,0.0,1.0,Taxi
3.4000000000000004,0.01890582479318043,6.235047685749717,20.628439583733645,-0.591507135943113,0.010701585320337416,118.8440412055437,14.662813100366943,0.0,1.0,0.0,0.0,1.0,Taxi
3.5,0.014963163133961005,4.207800334129733,20.259733424066834,-0.1775270978841814,-0.47944296338254216,119.10247735778279,15.080863159585169,0.0,1.0,0.0,0.0,1.0,Taxi
3.6,0.1567231153677717,-13.496097518796162,21.098060175565575,-0.05152615815294659,0.32028865049879823,118.81206571537683,14.428413123938052,0.0,1.0,0.0,0.0,1.0,Taxi
3.7,-0.04857466280080033,-35.059822340307754,20.83644033423194,-0.08686452004422233,0.1487203757263767,118.75865461338236,16.143340832058996,0.0,1.0,0.0,0.0,1.0,Taxi
3.8000000000000003,-0.1603359485675777,-17.054315487830404,20.994641265398613,-0.14072474926324074,0.28654539449889427,119.04470910847647,15.575698674905263,0.0,1.0,0.0,0.0,1.0,Taxi
3.9000000000000004,0.07145153792861977,-2.980665886611831,20.874909808020632,-0.3106150939237086,-0.3897642686139804,118.79479621397832,15.326812196257652,0.0,1.0,0.0,0.0,1.0,Taxi
4.0,-0.06347799223385946,33.58160831830096,21.607517095427713,-0.19917661195173433,1.2529234722252873,118.87555208335823,15.34141429571568,0.0,1.0,0.0,0.0,1.0,Taxi
4.1000000000000005,0.00757209302392711,-32.484181595867646,20.969442328169688,0.21586648966863647,-0.19936289469561735,118.95633438057564,14.989059727931075,0.0,1.0,0.0,0.0,1.0,Taxi
4.2,-0.0909693700507184,-8.024699750603306,20.996547072759395,-0.4649809295901048,0.3118527817132139,118.88449913406635,14.982068829364234,0.0,1.0,0.0,0.0,1.0,Taxi
4.3,-0.10360149098687593,1.7766655967278762,22.171185533332313,0.0020973808477348643,-0.37037047314161536,118.86396854203167,14.939871615515703,0.0,1.0,0.0,0.0,1.0,Taxi
4.4,0.01645542100756655,51.446127489178274,21.551781884395485,-0.5637130862329796,0.7169851103900988,118.75332680601048,15.564458316846823,0.0,1.0,0.0,0.0,1.0,Taxi
4.5,0.166261267395173,8.611269978861543,21.09732899135678,-0.3559698465208325,-0.3066574356254688,118.92426709565638,15.059821656708577,0.0,1.0,0.0,0.0,1.0,Taxi
4.6000000000000005,-0.06054514109256812,-4.264317820694394,21.38501293035379,0.028028243733448477,0.03833644902402071,118.83920254898499,15.277942656135991,0.0,1.0,0.0,0.0,1.0,Taxi
4.7,-0.004866168095905321,-34.86158116764985,19.1822374869736,-0.06471033756706569,1.0169758660084462,118.81314522266416,15.102936140311366,0.0,1.0,0.0,0.0,1.0,Taxi
4.800000000000001,-0.008046638443076147,9.736584956457252,20.380522652517005,-0.17977087246258344,-1.1944919454737053,118.99967176110204,14.82711756312156,0.0,1.0,0.0,0.0,1.0,Taxi
4.9,-0.01186221631028182,-7.713393523477307,20.793134452475734,-0.06952376308917531,-0.06005714231512329,118.85631195812346,15.254605266018187,0.0,1.0,0.0,0.0,1.0,Taxi
5.0,-0.043433135713291826,23.99816787341344,20.94202831567763,-0.29788979546403926,-0.17539858545190187,118.8993306222734,15.08142422696573,0.0,1.0,0.0,0.0,1.0,Taxi
5.1000000000000005,0.11194420092399111,10.1116576804464,21.03153009324213,-0.019216293460715878,0.14858174867632548,118.84259399317585,14.668306066020556,0.0,1.0,0.0,0.0,1.0,Taxi
5.2,0.038696072091950244,28.682128940979386,20.896394930597587,-0.026175308477106057,-0.035516701037389485,119.0248711364942,15.982185259767588,0.0,1.0,0.0,0.0,1.0,Taxi
5.300000000000001,0.09997750899160517,-58.954285541595105,20.37506408467979,-0.3482442595803504,-0.9531251329591599,118.8982729948292,16.029548275431413,0.0,1.0,0.0,0.0,1.0,Taxi
5.4,-0.18282722678398433,-7.2583392372678945,20.309390848304147,-0.23686420337544115,1.0665582877678208,118.8676856769332,14.969858741871654,0.0,1.0,0.0,0.0,1.0,Taxi
5.5,0.0024043759056108227,-24.50570497556211,19.921633825750483,-0.26949816992613385,0.268758560205591,118.97600672833852,15.318757188713018,0.0,1.0,0.0,0.0,1.0,Taxi
5.6000000000000005,-0.02255101588620532,78.01192540645047,20.419973138681133,0.057905435556834445,-0.09902359526163017,118.70063016293193,15.862028385013915,0.0,1.0,0.0,0.0,1.0,Taxi
5.7,0.20723240024826808,-28.45556264736511,20.831744963258057,-0.05962445883708628,0.38945961033907045,118.88590672380172,14.707421861477485,0.0,1.0,0.0,0.0,1.0,Taxi
5.800000000000001,-0.1398734373312147,0.8842702626703604,20.890849799013647,-0.1308031072336835,-0.53530410909483,118.86996559591933,14.84295934907286,0.0,1.0,0.0,0.0,1.0,Taxi
5.9,-0.018129664572853536,-39.31972624886226,21.44633457280316,-0.189789705058236,0.340082450775962,118.77494165113478,15.352030377418824,0.0,1.0,0.0,0.0,1.0,Taxi
6.0,0.010633769003956793,-1.1082178603303465,20.913214819120974,0.006831689980632771,0.26492251692966184,118.87982167112568,14.732388554204505,0.0,1.0,0.0,0.0,1.0,Taxi
6.1000000000000005,-0.14541452663286644,-17.93972348115746,20.51925519583604,-0.35812945039897703,-0.8895138779862648,118.8866882817751,15.047874996062486,0.0,1.0,0.0,0.0,1.0,Taxi
6.2,-0.10782828197864083,-54.13880314841191,20.661244485905765,-0.10056723388836179,-0.44903943515228706,118.86483841487848,15.622522887402486,0.0,1.0,0.0,0.0,1.0,Taxi
6.300000000000001,-0.26006024673810274,50.9701502643569,20.335018391603803,0.016674368340402285,-0.6832030034372844,118.8482380628825,16.040274647000235,0.0,1.0,0.0,0.0,1.0,Taxi
6.4,0.10943622468891812,48.30973845159983,19.988892541572756,-0.03659759062148918,-0.7782063637670682,118.89054015002807,15.256895371060063,0.0,1.0,0.0,0.0,1.0,Taxi
6.5,0.13372041027935835,37.94902885187404,20.585971657467432,0.06824217096231153,0.4051424351386205,118.86980559208484,14.643730992165832,0.0,1.0,0.0,0.0,1.0,Taxi
6.6000000000000005,-0.0703151024787325,-42.58173965856019,21.03484445350901,-0.13767024286081753,-0.6693392032338714,118.83401291360849,15.522008732934626,0.0,1.0,0.0,0.0,1.0,Taxi
6.7,-0.10347247360388277,-48.15567687294928,21.434232539929734,0.14870874324695604,-0.043178807978879304,118.94570845056575,14.57470861390255,0.0,1.0,0.0,0.0,1.0,Taxi
6.800000000000001,-0.10705797408538803,51.25660585084457,21.327640264823238,-0.2503876998449543,0.17685912895191339,119.01272693868196,14.678704895597786,0.0,1.0,0.0,0.0,1.0,Taxi
6.9,0.18596792677549037,15.309600755562949,21.45963506404649,-0.1628913815799328,0.6041467556881788,118.74544365316939,15.197548540852923,0.0,1.0,0.0,0.0,1.0,Taxi
7.0,-0.02692446982606804,44.78757507488363,20.46624172572267,-0.1383116859311862,0.09527851315110854,118.85236006124603,15.553154009280274,0.0,1.0,0.0,0.0,1.0,Taxi
7.1000000000000005,0.1168799012890301,-60.716230990501685,21.035717697847048,0.04218767780646729,-0.8996365004753563,118.92251438780033,14.303960193643935,0.0,1.0,0.0,0.0,1.0,Taxi
7.2,-0.11761322817701803,11.356623433348815,21.512044162365576,0.23202391062620897,-1.3066791770544348,119.05393205143753,14.806199418964967,0.0,1.0,0.0,0.0,1.0,Taxi
7.300000000000001,0.029858647340676083,6.418259896847492,21.60340361328874,-0.5029163142499964,0.28261318314652867,118.95369858259392,15.481937705062583,0.0,1.0,0.0,0.0,1.0,Taxi
7.4,0.14897120077326761,17.373207280987113,20.948017580248653,-0.23225931168977998,0.6291548337045335,118.94362798790269,15.706479603792289,0.0,1.0,0.0,0.0,1.0,Taxi
7.5,-0.03074719177208239,-2.9735897969237826,19.941543099637762,-0.3427543008390833,0.24654915155041207,118.82247503308326,15.617304236798981,0.0,1.0,0.0,0.0,1.0,Taxi
7.6000000000000005,0.014990698356057259,-38.16353823556319,20.555222922061542,-0.18713782015692146,0.8465988603502297,118.97640447281157,14.83357173983843,0.0,1.0,0.0,0.0,1.0,Taxi
7.7,-0.041846490404548284,-6.777528144119266,20.283818251695006,-0.21351045597676688,-0.8013481065501596,119.00133342765503,15.819654713578633,0.0,1.0,0.0,0.0,1.0,Taxi
7.800000000000001,-0.06463483249267866,-14.557624334462055,20.755692787543822,0.28504638599438004,-0.37656038842806755,118.92412035627353,14.96506674641111,0.0,1.0,0.0,0.0,1.0,Taxi
7.9,-0.05779742331625296,24.870978887126725,20.232830219887187,0.2356631680541016,0.5329798549096716,118.83714937122534,15.105400641605483,0.0,1.0,0.0,0.0,1.0,Taxi
8.0,0.0825084040310854,18.270913702668064,20.483415899652318,-0.4334589597445954,-0.8172175557259239,118.88882411499935,14.816122969246466,0.0,1.0,0.0,0.0,1.0,Taxi
8.1,0.026719736020661723,42.32586728467461,20.744251386400745,-0.3185550387789054,-0.06083688562728636,118.86115945996278,14.875283020620437,0.0,1.0,0.0,0.0,1.0,Taxi
8.200000000000001,0.15383191310712013,-23.476888688244987,20.51195387145141,-0.060180995967096626,0.5338474960414138,118.82010885906368,15.338258546422903,0.0,1.0,0.0,0.0,1.0,Taxi
8.3,-0.03487603941013946,10.769806689765508,21.371346855315593,-0.21573949120146665,0.1512659413742945,118.86376491280151,15.373982149744085,0.0,1.0,0.0,0.0,1.0,Taxi
8.4,0.08056876946948932,-31.853069629676327,20.83529664320775,0.027228956573695756,0.1994291636218401,118.82645653340057,15.939735664412984,0.0,1.0,0.0,0.0,1.0,Taxi
8.5,-0.0054334350412614365,-24.14308742557084,20.445652875153073,0.008398018304376587,-1.0979152445752167,118.98538220701118,14.707383421328348,0.0,1.0,0.0,0.0,1.0,Taxi
8.6,-0.15559147653799357,45.52504243170356,20.921219658261894,0.09474020730786631,-0.9050594361299956,118.80705401629086,15.04698603603314,0.0,1.0,0.0,0.0,1.0,Taxi
8.700000000000001,0.30819398162800726,-36.03019263595271,20.140567172392554,-0.2729816366542778,-0.38587231512156883,118.86853894466469,15.54655105868089,0.0,1.0,0.0,0.0,1.0,Taxi
8.8,-0.1855843982210248,38.2106285684163,20.292694544791033,-0.5927512594270299,0.34744664259294705,118.75585375496291,15.10109917298662,0.0,1.0,0.0,0.0,1.0,Taxi
8.9,0.035461666304088084,-60.803589779286916,20.784493870572774,-0.1037066269090704,0.1402415958128455,118.8534681565016,15.231137515227076,0.0,1.0,0.0,0.0,1.0,Taxi
9.0,0.004176032731572808,34.78946568050933,21.435378746558264,-0.2977502268627087,0.39711223874258095,118.87046935307075,15.328461818925916,0.0,1.0,0.0,0.0,1.0,Taxi
9.1,-0.01163706981847804,-1.3787238661094368,19.65488373734992,-0.12273700727196435,0.01075492017935926,118.98423637168196,15.302323797430345,0.0,1.0,0.0,0.0,1.0,Taxi
9.200000000000001,0.028568046973541008,4.921814136122007,20.67360701432491,-0.10674007047928187,0.5107040404880757,118.8401715409596,15.996015249488043,0.0,1.0,0.0,0.0,1.0,Taxi
9.3,0.028785103412182947,-4.598206827887271,21.405897328464025,-0.1751757024778351,0.2351543752179762,118.98298963548598,16.251875627016886,0.0,1.0,0.0,0.0,1.0,Taxi
9.4,-0.03462810395791429,1.4130993421203375,20.971797502175377,-0.22907637799617045,0.3135628452239818,118.99965045716476,16.07846601575283,0.0,1.0,0.0,0.0,1.0,Taxi
9.5,0.0356335436841428,40.00817110430747,21.139771882556442,0.05763670184586267,0.5610373537953819,118.89759164945542,15.337081889599528,0.0,1.0,0.0,0.0,1.0,Taxi
9.600000000000001,0.2288259589337204,32.8041168538491,21.523428974018152,-0.10828002006291278,0.3158887569659558,119.0632071307839,15.476996359882131,0.0,1.0,0.0,0.0,1.0,Taxi
9.700000000000001,0.1293924803113313,4.513428504277883,20.8488449460465,0.13963575122524868,0.428796088792843,119.04417649877018,16.16765230731194,0.0,1.0,0.0,0.0,1.0,Taxi
9.8,0.058200686205532315,-56.51720665012933,21.405679776580936,-0.3590412181528331,-0.8586039909984946,118.87449229197989,15.676225032294049,0.0,1.0,0.0,0.0,1.0,Taxi
9.9,-0.05376007431692616,-42.14509287426848,21.376453463787577,-0.1650251879672321,0.3937949986113327,119.0234887052045,14.981439527101081,0.0,1.0,0.0,0.0,1.0,Taxi
10.0,-0.08133298406001098,30.761599587575745,21.4773627082679,-0.2565404758783882,0.27418084541153,119.00949722605304,15.243821725745311,0.0,1.0,0.0,0.0,1.0,Taxi
10.100000000000001,0.21200868414341115,8.578906149591054,20.648537304356758,-0.13851741238658305,0.001533404177352881,118.78791567976015,15.178410566423123,0.0,1.0,0.0,0.0,1.0,Taxi
10.200000000000001,-0.010865543568970785,24.206150445175123,20.08951375206965,-0.23247223383928345,-0.34073883410769285,118.76924676505979,14.818990583135706,0.0,1.0,0.0,0.0,1.0,Taxi
10.3,0.03969776816586474,-55.23086164459723,19.901982534123732,0.14530759190615528,0.08383033985182733,118.95925390435656,15.21255994212218,0.0,1.0,0.0,0.0,1.0,Taxi
10.4,-0.06414562407957486,16.203588343321368,21.616889187213513,-0.4353746801484103,-0.21691447691375607,118.89950512990276,15.228303770389592,0.0,1.0,0.0,0.0,1.0,Taxi
10.5,0.07015239814763617,-4.596434394496978,20.46179469329156,-0.2464983507435417,-0.8156327906117313,118.91935942770539,14.927856219581338,0.0,1.0,0.0,0.0,1.0,Taxi
10.600000000000001,0.01671559619337997,18.483570291691233,20.827651968304902,-0.11162400362118269,0.8527352373540247,118.83901354234695,15.254787225082163,0.0,1.0,0.0,0.0,1.0,Taxi
10.700000000000001,0.028272227378881427,-13.754296242001812,20.860837336145547,-0.5163085084823125,-1.1267323360306756,118.98756290813117,14.939039997873818,0.0,1.0,0.0,0.0,1.0,Taxi
10.8,0.0013809169376272261,17.428455783210193,20.413466768442774,-0.16978399475981115,-0.5732408748706768,118.75244790516973,15.867049022921417,0.0,1.0,0.0,0.0,1.0,Taxi
10.9,0.10385787510943104,14.361005865839259,20.74154458637287,-0.28866152391925237,0.5589908286589093,118.84986015432617,14.222455158697162,0.0,1.0,0.0,0.0,1.0,Taxi
11.0,0.10007725670807782,0.4287642382296942,20.66990906717207,-0.48669662251844387,0.18522052792163596,118.93131509384091,14.365998752680834,0.0,1.0,0.0,0.0,1.0,Taxi
11.100000000000001,0.003524738128775804,-8.147737787792773,20.274732046131668,0.3237749731751153,-1.2053392882517096,118.87259276089554,14.825185533330657,0.0,1.0,0.0,0.0,1.0,Taxi
11.200000000000001,0.06311918617046729,-0.26291014039638344,21.00698433309313,-0.04072071890333731,-1.140251943667448,118.71220125945968,14.229258202136425,0.0,1.0,0.0,0.0,1.0,Taxi
11.3,0.09876270600609602,-39.90297171378296,19.645678628656675,-0.08849742101486868,0.5142141763782561,118.71129726145989,15.125543113926762,0.0,1.0,0.0,0.0,1.0,Taxi
11.4,-0.1959901204401389,10.728379585146522,20.160948561838342,-0.04575075053715516,-0.6092288429056422,118.78725967859702,14.661394568379237,0.0,1.0,0.0,0.0,1.0,Taxi
11.5,0.1167610840962,-26.944640228713833,21.276779084812894,0.06737149131055045,-0.6443522759782192,118.95789643505191,15.060906744466177,0.0,1.0,0.0,0.0,1.0,Taxi
11.600000000000001,-0.03596049513747303,-1.4220281940465753,20.660048816801257,0.006145022549980228,0.08435627228951868,118.76983681092122,15.644746974005162,0.0,1.0,0.0,0.0,1.0,Taxi
11.700000000000001,-0.20310026141037163,-9.908556344173158,20.920627182327678,0.08522441037927247,-0.42422662304468184,118.75615877167525,15.851942044563593,0.0,1.0,0.0,0.0,1.0,Taxi
11.8,0.06721830237533437,-22.815638148018802,21.0986778810523,-0.3677823443415816,-0.42691931886502493,118.91748955258737,14.763392814268736,0.0,1.0,0.0,0.0,1.0,Taxi
11.9,-0.15003868587756686,24.742067863751796,21.05714832186786,-0.17858640410853038,0.4055136440229927,119.02026331373719,14.876649768751152,0.0,1.0,0.0,0.0,1.0,Taxi
12.0,-0.0793899220916125,-27.533957508313335,20.903275192625326,-0.2057003640002663,-0.003711228439228152,118.70140225035942,14.745338387894288,0.0,1.0,0.0,0.0,1.0,Taxi
12.100000000000001,-0.07045148516623216,26.7503902703526,21.13361583168519,-0.46793244545737617,0.03102420449626277,118.93845564083426,14.870035736221649,0.0,1.0,0.0,0.0,1.0,Taxi
12.200000000000001,-0.016286734525803696,10.633355569114503,20.599660343537785,-0.22199223540316929,0.5502772468668707,118.67442253489565,14.5132265390865,0.0,1.0,0.0,0.0,1.0,Taxi
12.3,-0.02622314424603983,18.94725191213836,21.09743508618094,-0.3125788887801516,-0.1894754881000256,118.96588086723341,14.641063960856412,0.0,1.0,0.0,0.0,1.0,Taxi
12.4,0.02428477439445979,-10.454838230039728,21.10874758226685,-0.27181416424474053,1.0175484860072883,118.94306902200566,15.395658450015578,0.0,1.0,0.0,0.0,1.0,Taxi
12.5,-0.0685609256760022,27.933154168676932,20.600838975444333,0.174386569123123,0.17464786602285082,118.76723172855338,15.656300386419325,0.0,1.0,0.0,0.0,1.0,Taxi
12.600000000000001,0.11344262659734493,-8.42748001522286,21.038519668650803,-0.20574619755662737,0.121783207188485,118.69811462780962,14.925175368556163,0.0,1.0,0.0,0.0,1.0,Taxi
12.700000000000001,-0.017852625681654407,6.6440297496396115,20.40158752958614,-0.47737188832301813,-0.6308729918641119,118.74408204045159,14.344670945370657,0.0,1.0,0.0,0.0,1.0,Taxi
12.8,-0.03534077692780404,-5.807604750630607,20.488773764146565,-0.001696006711389586,-0.0028452509753818774,118.76527415038811,14.27646756990764,0.0,1.0,0.0,0.0,1.0,Taxi
12.9,0.08440460284419204,-12.909732091845806,21.48703422433629,-0.3048175849207154,-0.45036806258893436,118.85670511169172,15.135754740334093,0.0,1.0,0.0,0.0,1.0,Taxi
13.0,-0.08240128614088325,-10.386480196834489,21.838056687818877,-0.5814929929418289,-0.6185735356669351,118.72715740885877,14.929789421499823,0.0,1.0,0.0,0.0,1.0,Taxi
13.100000000000001,-0.0872731779119763,-27.18629566592543,21.05935077134638,-0.07011184189977386,-0.8563309101252421,118.79587123164276,15.02954802006985,0.0,1.0,0.0,0.0,1.0,Taxi
13.200000000000001,-0.051526875485434935,3.0724409257760232,20.770123068782397,-0.37965968785415494,-0.08931730100180192,118.71930220283286,15.366500055077253,0.0,1.0,0.0,0.0,1.0,Taxi
13.3,-0.06703908151200298,-19.87075073473108,21.43591631068301,-0.2790440594752553,0.17631132092586752,118.85762093916537,14.891052884313575,0.0,1.0,0.0,0.0,1.0,Taxi
13.4,-0.18662693158563154,20.100381682256113,20.460621653114817,-0.3160023593427914,0.3360184402358827,118.89777957889896,15.090190290143665,0.0,1.0,0.0,0.0,1.0,Taxi
13.5,0.04897503292584576,26.34094793001025,20.46266029889467,-0.002882316327899037,-0.7061662517212716,118.67639381053584,15.025598758796228,0.0,1.0,0.0,0.0,1.0,Taxi
13.600000000000001,0.06466565813804839,51.72892774033855,21.083017953313156,-0.4962304866288758,-0.28103098823630496,119.02884658203891,14.971037678947138,0.0,1.0,0.0,0.0,1.0,Taxi
13.700000000000001,0.07201770711606136,-1.660536694961672,20.966435424949225,-0.2323995322640737,0.6308965007533717,118.90181666926395,14.524781536764053,0.0,1.0,0.0,0.0,1.0,Taxi
13.8,0.040672349451037565,-32.55095413628025,21.537279090899208,-0.18179333113440496,0.7450166778682036,118.87280643191843,14.252567278293643,0.0,1.0,0.0,0.0,1.0,Taxi
13.9,-0.09808911254335267,-36.20222835021318,21.622718623188103,-0.40904376013052846,0.5285174662487065,118.73738467780362,14.742983975908565,0.0,1.0,0.0,0.0,1.0,Taxi
14.0,-0.1089934346350044,-30.270547778194885,20.479635858422487,-0.12887929004902562,-0.4522212896010441,118.77703992708706,14.54130373409089,0.0,1.0,0.0,0.0,1.0,Taxi
14.100000000000001,-0.1106803894399367,46.438354663732376,19.44588438838313,-0.33388429250502205,0.34268700938316465,118.90583497105911,14.6575999036892,0.0,1.0,0.0,0.0,1.0,Taxi
14.200000000000001,0.13410266077530938,10.791745252980064,21.24538880867797,0.1538454494039636,-0.22435580802927838,118.88870006809628,15.198420391907165,0.0,1.0,0.0,0.0,1.0,Taxi
14.3,-0.055034708370103914,26.395269374984114,20.641424092465254,0.0371501669212497,0.13397560720019175,118.85097013375241,15.064045195287884,0.0,1.0,0.0,0.0,1.0,Taxi
14.4,0.021295957434984036,-5.072821872534175,20.46672070945745,-0.3450004804170549,-0.28053859502193346,118.78500129887044,15.90487734260491,0.0,1.0,0.0,0.0,1.0,Taxi
14.5,0.10873855141263869,13.690540267285597,20.758499576193966,0.07771904720992467,0.5798970143348775,118.77211764862847,14.483898973322539,0.0,1.0,0.0,0.0,1.0,Taxi
14.600000000000001,0.013417992966324283,6.7397989034617645,19.9112714944357,-0.205596836923551,-0.2855851967394803,118.93450253484764,15.155524322583677,0.0,1.0,0.0,0.0,1.0,Taxi
14.700000000000001,0.05499495195229307,-40.68898873865067,20.47803141796987,-0.2257023961634665,-0.6555868127726989,118.78986050963903,15.69358486302213,0.0,1.0,0.0,0.0,1.0,Taxi
14.8,-0.09470639228061448,-6.24297860301611,21.29052419981925,-0.28433673669782017,-0.4324911681838674,118.82737476628114,14.80469553199491,0.0,1.0,0.0,0.0,1.0,Taxi
14.9,-0.01779690004875607,-19.35954314174375,19.531781869712304,-0.09832415367403136,0.5293717003381035,118.77116664036214,15.86409260427315,0.0,1.0,0.0,0.0,1.0,Taxi
15.0,-0.04180276375642548,4.941444094363296,20.62310258905488,-0.8245238316428103,0.7981572862179478,118.93474912153613,14.732360105126665,0.0,1.0,0.0,0.0,1.0,Taxi
15.100000000000001,-0.06999917180879779,-17.463667297271257,21.228593626531893,0.10758108134176714,0.3072070793261081,118.95239435157492,15.244891427953315,0.0,1.0,0.0,0.0,1.0,Taxi
15.200000000000001,-0.10511523653511215,39.84053812166107,19.528357701081134,-0.4395692091019387,-0.36421452995406217,118.77570698818238,15.49624286966883,0.0,1.0,0.0,0.0,1.0,Taxi
15.3,0.15739992685188003,45.38672546707372,21.319817707067774,-0.4384755277470513,-0.3384583133501194,118.59190959169791,15.493850807223309,0.0,1.0,0.0,0.0,1.0,Taxi
15.4,0.15693445552657093,-15.790404770095222,20.87805889315014,-0.1342643415888556,0.16780497930104027,118.79219499332237,15.155416517700598,0.0,1.0,0.0,0.0,1.0,Taxi
15.5,-0.18406726038558807,-43.984589436703466,21.64814089113882,-0.33259924173848443,0.12164436069419114,118.79566640772441,14.599743358198369,0.0,1.0,0.0,0.0,1.0,Taxi
15.600000000000001,-0.06252302033163709,-41.53526804724806,21.656598298959775,-0.0954336012188364,0.9931094683820014,118.9454237179188,16.496052138173894,0.0,1.0,0.0,0.0,1.0,Taxi
15.700000000000001,-0.05074188470966915,27.69135123109533,19.947010488758846,-0.23900709615671528,-0.2893252393322196,118.84684699888112,15.379349101293114,0.0,1.0,0.0,0.0,1.0,Taxi
15.8,-0.04561050423011121,36.73057139326536,20.833330384703718,-0.21102419045914272,-0.7157059816130202,118.79557645036078,14.449346422663874,0.0,1.0,0.0,0.0,1.0,Taxi
15.9,0.12112983663468996,-22.81247977344252,20.3706821574677,-0.13066040484944186,0.2800256907499475,118.75995732157395,15.406349043464079,0.0,1.0,0.0,0.0,1.0,Taxi
16.0,-0.16480428357688148,16.020291781604314,20.92864675915899,-1.8491235227291458e-05,-0.25872996699039,118.99540883004033,15.241697123951132,0.0,1.0,0.0,0.0,1.0,Taxi
16.1,0.034490954677910614,-1.3356401712905708,19.917446803925337,-0.18971544012399552,-0.06732444848932999,118.71072258809016,15.510713842306872,0.0,1.0,0.0,0.0,1.0,Taxi
16.2,0.11445163577823735,10.338225473591839,21.264283282373004,-0.2045966034558277,0.07619962631301255,118.86263467746488,15.32666766401488,0.0,1.0,0.0,0.0,1.0,Taxi
16.3,-0.11311315620892204,0.11905215565619187,20.353392363908746,0.0023035007543476538,0.48603530126094063,118.66682435001599,14.368120255980216,0.0,1.0,0.0,0.0,1.0,Taxi
16.400000000000002,0.03508621545619183,-27.03066623696863,20.585739658263456,0.07067485707731291,-0.0495329942817858,118.94181151065845,14.721968701488692,0.0,1.0,0.0,0.0,1.0,Taxi
16.5,-0.020701695406605568,24.749379274547135,20.867971807499487,-0.21610251500730784,-0.049022076402248115,118.84549637684523,14.939406244368545,0.0,1.0,0.0,0.0,1.0,Taxi
16.6,0.010633740163813849,-29.887955368650918,20.568989245422458,0.16576911378097964,-0.019494381504736574,118.88879311242312,14.821101225404462,0.0,1.0,0.0,0.0,1.0,Taxi
16.7,-0.11435356138706253,28.628691617471294,20.343243387406144,-0.2678335830537964,0.5756551948951028,118.93314697782063,15.36590092732611,0.0,1.0,0.0,0.0,1.0,Taxi
16.8,0.12244176268075112,-28.178424068006336,20.368875254142477,-0.15823359158704,0.4633834705613885,118.72636182058716,15.663819288651238,0.0,1.0,0.0,0.0,1.0,Taxi
16.900000000000002,-0.13025838017621763,7.469685928362544,20.12967790124588,0.031143793624138216,0.249869502440873,118.78917648454501,14.492415391420632,0.0,1.0,0.0,0.0,1.0,Taxi
17.0,-0.0770051317452496,-22.96617452141417,21.68789901697189,-0.033873851951045475,0.5682240705944799,118.85120004094688,14.850051280456931,0.0,1.0,0.0,0.0,1.0,Taxi
17.1,0.007610890073680484,12.631537297104126,21.06286931596859,-0.5537039471631406,-0.3214863284861638,118.98368077013316,15.072326265129384,0.0,1.0,0.0,0.0,1.0,Taxi
17.2,-0.06710069369069677,-6.0709694561894025,20.926125332669507,0.12068164750534116,-0.02092733305549193,118.91435080261158,14.294151172273144,0.0,1.0,0.0,0.0,1.0,Taxi
17.3,-0.10735997902619639,8.089780455459126,20.608545832803273,-0.08419885190544646,-0.06955966205344055,118.90174934821823,14.981022753402605,0.0,1.0,0.0,0.0,1.0,Taxi
17.400000000000002,0.04805979235097635,10.995317298483585,20.349516943330283,-0.37645609176667383,-0.43575800125475156,118.90980015888925,14.346074864342043,0.0,1.0,0.0,0.0,1.0,Taxi
17.5,-0.01212410719827861,5.315443619239832,20.492406150544824,-0.3185454746004469,-0.39955443222981124,118.80538209881138,15.143587353030306,0.0,1.0,0.0,0.0,1.0,Taxi
17.6,-0.08078276092999699,20.927197244106697,20.61043479956666,-0.372486974036601,0.30900385013594156,118.95596030546733,14.902300290187732,0.0,1.0,0.0,0.0,1.0,Taxi
17.7,0.15269577857151007,-13.489158381870348,19.673165370067235,-0.2730855623677594,-0.19294503313666797,118.85672049899625,15.140437329559328,0.0,1.0,0.0,0.0,1.0,Taxi
17.8,-0.07956989910763015,23.59591285482486,20.920436468546608,-0.15513172354338217,0.5337177895960329,118.94309421179241,15.510698773222513,0.0,1.0,0.0,0.0,1.0,Taxi
17.900000000000002,0.03719680334412752,-60.46865242709166,20.312919760456353,-0.25134463112032324,-0.11774962131792652,118.81774430159135,16.181894658210826,0.0,1.0,0.0,0.0,1.0,Taxi
18.0,-0.149647483563948,19.474379741497614,20.47510434673278,-0.24693756090392438,0.5821707124024746,118.70007807861617,15.956307536510987,0.0,1.0,0.0,0.0,1.0,Taxi
18.1,0.017801999599858183,7.423541421627898,20.10654304662828,-0.6782189524267656,0.19598148966268253,118.94326238117947,14.777902974792338,0.0,1.0,0.0,0.0,1.0,Taxi
18.2,0.07431451045226727,16.304583892778762,21.2024473770025,-0.15525161438103824,-0.2016640696323846,118.7376329993167,15.151790373726213,0.0,1.0,0.0,0.0,1.0,Taxi
18.3,-0.06812456410005395,-0.3422892872577255,20.868464678486298,-0.07147099254967748,-0.012485263787740527,118.92048285973522,15.590645824986398,0.0,1.0,0.0,0.0,1.0,Taxi
18.400000000000002,0.016090553163569787,-45.15575858625542,20.23639870814483,0.018240466715156195,-0.8648200690799677,119.0093921946646,15.427661255101322,0.0,1.0,0.0,0.0,1.0,Taxi
18.5,-0.15146428247900964,11.83235025138714,20.507970998986913,-0.07927665717202748,-0.14365370255990187,118.92648671027234,14.606131959480186,0.0,1.0,0.0,0.0,1.0,Taxi
18.6,-0.008962812843118041,32.240244742448816,20.006962126298816,-0.13741099259827888,0.6216890505290904,118.94261498728002,15.346317095845214,0.0,1.0,0.0,0.0,1.0,Taxi
18.7,0.17729177687581407,48.65780501480984,20.947957716029,-0.1526375866434604,-0.18348336060271653,118.70779699524883,14.790670453100677,0.0,1.0,0.0,0.0,1.0,Taxi
18.8,0.09182474259503975,31.739549661597835,20.319221634685707,-0.08485464530558758,-0.6758449983226852,118.90305930494435,14.897749487333542,0.0,1.0,0.0,0.0,1.0,Taxi
18.900000000000002,0.14973493546487135,-31.658579755307738,20.369427605319512,-0.3132569606782255,-0.07444812486271446,118.80705898839926,15.922563427857808,0.0,1.0,0.0,0.0,1.0,Taxi
19.0,0.01899887809927558,-14.203124770743356,19.987626419289718,-0.2344728138907914,0.7744910912580726,118.90802859106975,14.997728180567485,0.0,1.0,0.0,0.0,1.0,Taxi
19.1,0.02080911874132318,-60.66094854998428,20.70114065769439,-0.42996661267800307,-0.3867330560208316,118.77753290302468,15.264919834172881,0.0,1.0,0.0,0.0,1.0,Taxi
19.200000000000003,-0.15356980728504988,19.679161825912967,20.909648162947697,-0.13931473135821026,-0.2958290712890636,118.88994458880359,15.39507767420674,0.0,1.0,0.0,0.0,1.0,Taxi
19.3,0.1173946872288406,13.655775004892897,21.616703473930723,-0.369492228937885,-0.27135432766409,118.87090183332117,15.290955032360767,0.0,1.0,0.0,0.0,1.0,Taxi
19.400000000000002,0.08908799376578785,22.514018395511158,20.975151519077087,-0.08591992457518119,-0.3303046111108127,119.09226913318156,14.78360057941618,0.0,1.0,0.0,0.0,1.0,Taxi
19.5,-0.04099971530749391,-11.498845075822572,20.997795673291918,-0.3204622687431026,-0.1043834598998704,118.94471134481023,14.77750727637773,0.0,1.0,0.0,0.0,1.0,Taxi
19.6,0.05990046184972793,4.727941909606554,20.50738197715184,-0.19090861690197664,-0.5563927093286244,118.83344499501572,14.314271186497013,0.0,1.0,0.0,0.0,1.0,Taxi
19.700000000000003,0.11272770331382082,-4.010354638724404,20.345886641847812,0.21457605750999376,0.4052895383840809,118.78935040896454,14.600384302743645,0.0,1.0,0.0,0.0,1.0,Taxi
19.8,-0.06105148850111576,31.374220138951838,20.503800264575908,-0.7929923098720724,-0.35606930092750994,119.05372161443364,14.994724249925227,0.0,1.0,0.0,0.0,1.0,Taxi
19.900000000000002,0.21677156254448723,-40.49842018276366,20.767461510234273,-0.1888900130600738,-0.7614571224125569,118.92080913898059,15.647391341045866,0.0,1.0,0.0,0.0,1.0,Taxi
20.0,-0.08976439759999737,20.0053288590601,20.064530094430015,-0.43236669951762147,0.571628908488847,118.76244203337808,15.132567171437302,0.0,1.0,0.0,0.0,1.0,Taxi
20.1,0.038975155794184896,-41.143859264221376,21.124464053022653,0.08066281900558864,-0.06854701778624954,119.00337956443349,14.471247577613502,0.0,1.0,0.0,0.0,1.0,Taxi
20.200000000000003,0.011052266223380541,3.234415940162369,21.670872712410876,-0.45471168487887165,0.5258288576715026,118.97377600956713,15.45345733827048,0.0,1.0,0.0,0.0,1.0,Taxi
20.3,-0.07359231789918531,-22.22941152158282,21.082328203710496,-0.04881459577785563,-0.1053743591501957,118.93646940352454,14.831048237325012,0.0,1.0,0.0,0.0,1.0,Taxi
20.400000000000002,-0.07217190181372903,19.43909392388547,21.22090748331127,0.022361797632516195,0.4726799627744545,118.69424888003675,15.368544495415073,0.0,1.0,0.0,0.0,1.0,Taxi
20.5,0.1082477358428081,-0.38426591013902583,20.34334160246117,0.0775852974288298,-0.2554748577231511,118.95988794959987,15.438107047565765,0.0,1.0,0.0,0.0,1.0,Taxi
20.6,-0.07551364744988025,27.504682190235048,21.474719558339647,0.5384618691084608,-0.186050910714867,118.75082085007296,14.370256712996255,0.0,1.0,0.0,0.0,1.0,Taxi
20.700000000000003,0.06535150913744645,-18.788245038679943,20.831609850867885,-0.21946945344306712,0.4266768280633506,118.86644910800175,14.80767995090786,0.0,1.0,0.0,0.0,1.0,Taxi
20.8,0.014306510649408584,2.6806017982596537,21.276101776340994,-0.09248770556996938,0.28801840903183673,118.95801438927913,14.45238337457817,0.0,1.0,0.0,0.0,1.0,Taxi
20.900000000000002,-0.06211063845858176,-9.808880054767355,21.70795656833335,0.02203956670622781,0.8082289200068805,118.87835589826551,15.013130000578963,0.0,1.0,0.0,0.0,1.0,Taxi
21.0,0.016307108863609875,-8.75834041767265,21.53499583608533,-0.35477633386332363,0.5320650673056253,118.79156510226142,16.043833616632618,0.0,1.0,0.0,0.0,1.0,Taxi
21.1,-0.029485191438954474,16.385673307811487,20.342490907814657,-0.03315816570594346,-1.2036563271458072,118.77006884796867,14.866152215712479,0.0,1.0,0.0,0.0,1.0,Taxi
21.200000000000003,0.01981772808047587,5.833612674833778,20.633378713180498,-0.2543529317687725,0.2982262515688544,118.8625053661118,15.569195323910042,0.0,1.0,0.0,0.0,1.0,Taxi
21.3,0.04547517223777895,-16.927174773875397,20.52906348299929,-0.3728194396944513,0.6034405216002833,118.93798020856718,15.620096883429603,0.0,1.0,0.0,0.0,1.0,Taxi
21.400000000000002,-0.11412106530833128,15.29140631235878,20.98349054077356,-0.19332300177107611,0.7959206052415293,118.74216752990208,15.424372649039585,0.0,1.0,0.0,0.0,1.0,Taxi
21.5,0.09627475964226995,-18.452507333053862,21.285790115872413,0.027846100226824655,0.44949075680841355,118.95815688128334,14.333267999845985,0.0,1.0,0.0,0.0,1.0,Taxi
21.6,-0.04678736442749019,-5.513530702619441,20.464433281669397,0.03655001067076721,0.6812128099921234,118.84741884925876,15.370029120692204,0.0,1.0,0.0,0.0,1.0,Taxi
21.700000000000003,-0.1416887188214283,-20.17303561838372,20.28511082466954,-0.08567112220222195,-0.37644554045021583,118.94091138077613,15.552386130680377,0.0,1.0,0.0,0.0,1.0,Taxi
21.8,-0.004590418449648445,-3.0210306796066795,20.204126229851486,-0.08599991103676365,-0.1944731198860278,118.87239666687225,14.989604088357739,0.0,1.0,0.0,0.0,1.0,Taxi
21.900000000000002,-0.06189251782552339,34.69064208820245,21.388951342457617,-0.07175472548560921,0.019795778658592743,118.78581203613743,14.458929888135216,0.0,1.0,0.0,0.0,1.0,Taxi
22.0,0.03176449161958417,-44.01320003269248,20.488348229307885,-0.2166905086434603,0.6066535027896883,118.77973932749353,15.879508036333133,0.0,1.0,0.0,0.0,1.0,Taxi
22.1,-0.22465641861311064,40.5325809665465,20.32214807767112,-0.07786546108503428,-0.3066001085780636,118.93520178906402,14.580388870634545,0.0,1.0,0.0,0.0,1.0,Taxi
22.200000000000003,0.14077038700720929,-25.90786843638414,20.720150423487183,-0.11041752904126859,0.352553924044601,118.75355620083019,15.116849942384388,0.0,1.0,0.0,0.0,1.0,Taxi
22.3,-0.09777485056233637,37.55336984008397,20.687464603133694,-0.0997048860735311,0.4346682467994739,118.81351987140522,15.866684304272752,0.0,1.0,0.0,0.0,1.0,Taxi
22.400000000000002,-0.03688956941269068,-28.776269131950148,19.77797287559688,-0.03292348348200419,0.345579934707186,118.8065198098617,14.795485076066605,0.0,1.0,0.0,0.0,1.0,Taxi
22.5,-0.003110958652541297,13.80510757389687,20.90750957522075,-0.3582065923345051,-0.2977143297430975,118.75037328427595,15.29533283614991,0.0,1.0,0.0,0.0,1.0,Taxi
22.6,-0.02874931269285183,-28.833107448377792,20.88543225082858,-0.47647458475858806,0.3880869105992384,118.86259045072859,15.486415532713936,0.0,1.0,0.0,0.0,1.0,Taxi
22.700000000000003,-0.18105510665457947,3.1767461211364036,20.56975800639235,0.1086798490913401,-0.023075160025556665,119.1516994514318,14.96368166704324,0.0,1.0,0.0,0.0,1.0,Taxi
22.8,0.012772771953140891,-31.947599882458277,21.45594918765223,-0.3283724777210144,-0.5858558280662849,118.970367974689,15.624103101356395,0.0,1.0,0.0,0.0,1.0,Taxi
22.900000000000002,-0.18848731210514302,73.3640193512242,20.8716639245969,-0.19121539748852281,0.6681877107212496,118.7541072208137,15.140362192630166,0.0,1.0,0.0,0.0,1.0,Taxi
23.0,0.18576499010154174,0.5262015268083786,20.671947043455095,-0.43697491593694,-0.33415482209264463,118.97881905566561,14.732569556903547,0.0,1.0,0.0,0.0,1.0,Taxi
23.1,0.015403779587182968,19.206909591452686,19.382469810211827,-0.16919880847883606,-0.7665548301851499,119.10815946107556,14.087921320796445,0.0,1.0,0.0,0.0,1.0,Taxi
23.200000000000003,-0.09245276414787944,-34.25891096523325,21.819868187504362,0.16971975515748666,-0.37206183618807714,119.00613092141657,15.393730338843659,0.0,1.0,0.0,0.0,1.0,Taxi
23.3,0.014470435275375629,2.073825377357336,20.504265164119225,-0.4191446073422046,-0.12051062040634988,118.84506773991211,15.098922019268503,0.0,1.0,0.0,0.0,1.0,Taxi
23.400000000000002,0.025772906473969834,-6.2130364788387835,19.680599665705945,-0.18825578546913824,0.06420843643422543,118.81948852160173,15.12933026881963,0.0,1.0,0.0,0.0,1.0,Taxi
23.5,-0.12351794654207315,-22.841153623039876,19.62979328325515,0.04856385463408938,0.12742306808990908,119.03456689758201,14.642076298716576,0.0,1.0,0.0,0.0,1.0,Taxi
23.6,-0.09973533283982355,-7.726169464261983,21.537169102608086,-0.14169523376500415,0.3214150704599612,118.70303852479185,15.563051709506079,0.0,1.0,0.0,0.0,1.0,Taxi
23.700000000000003,-0.012857940847339867,1.8923486533126141,21.273315202961463,-0.24169899162040245,-0.19361015481382002,118.9340600886635,15.096531237275785,0.0,1.0,0.0,0.0,1.0,Taxi
23.8,-0.11405620327550986,3.0843820639080026,20.329045572976252,-0.16046659045490974,0.5589682320116236,118.8267473560619,15.012036458864507,0.0,1.0,0.0,0.0,1.0,Taxi
23.900000000000002,-0.08431342252028334,20.060665546028346,20.187138855865648,-0.013758370553191124,0.7793508982294083,118.84448674727963,15.311482917900788,0.0,1.0,0.0,0.0,1.0,Taxi
24.0,0.08744538688280207,14.39539626753087,20.71052535180216,-0.3788185978227262,0.34857537132950267,118.90490608897517,15.890047368198342,0.0,1.0,0.0,0.0,1.0,Taxi
24.1,-0.04207922193785532,35.45342075285775,20.785995317623147,-0.014926478772005591,0.6533091460378354,119.00697872388912,15.586332564086645,0.0,1.0,0.0,0.0,1.0,Taxi
24.200000000000003,0.09295368124400562,2.528305479071045,20.42002494944399,-0.1863718965689592,-0.31684452815499065,118.90270671389658,15.213898204461938,0.0,1.0,0.0,0.0,1.0,Taxi
24.3,0.10008691427815748,32.801685365152885,20.518823383212563,-0.1795558794904706,0.47236573144492644,118.8988436998946,14.711739389923993,0.0,1.0,0.0,0.0,1.0,Taxi
24.400000000000002,0.12192920488790929,-47.45967294602224,20.07358691423558,-0.38001378081617365,0.4696966043190497,119.0103364590176,15.85966234547107,0.0,1.0,0.0,0.0,1.0,Taxi
24.5,-0.1443446834861054,-21.584852104287233,21.280570635230205,-0.4916969864157638,-0.13370715426931332,118.72041175371805,14.061565896307346,0.0,1.0,0.0,0.0,1.0,Taxi
24.6,-0.007837346243278538,27.458421588572165,21.88519450232568,0.008538684924179668,0.3204664485984421,118.69569759581964,15.556510276644145,0.0,1.0,0.0,0.0,1.0,Taxi
24.700000000000003,0.25922131283077027,28.970487732704868,21.9366547377276,-0.04712077794814387,0.5109655307191615,118.89050189064722,15.823577726490502,0.0,1.0,0.0,0.0,1.0,Taxi
24.8,0.0005077551774191023,-39.426078587169016,21.42282115205496,-0.1932767113659278,9.465988581653371e-05,118.98457902908797,15.136280513699191,0.0,1.0,0.0,0.0,1.0,Taxi
24.900000000000002,-0.20496773917912342,-39.52103222377692,20.324747269144464,-0.18391822244201148,0.2549782624856047,118.81945428810013,15.310578832406074,0.0,1.0,0.0,0.0,1.0,Taxi
25.0,0.061616151711885885,4.743865036903334,19.649597673306463,-0.3798293083780515,-0.05942416144364416,118.9377604641432,16.00742506825848,0.0,1.0,0.0,0.0,1.0,Taxi
25.1,0.02422708036193595,67.7023198909775,20.58802478427535,-0.21818050986276874,-0.6490647528673306,118.86263656796712,15.44872024287973,0.0,1.0,0.0,0.0,1.0,Taxi
25.200000000000003,0.13354386027576431,-20.204819757747003,21.303606565694405,-0.035185336472005196,-0.5777601536098773,118.63318753101976,14.706630374619168,0.0,1.0,0.0,0.0,1.0,Taxi
25.3,-0.03940794707684894,13.117101827309137,21.600614393083482,-0.2679911207844676,-0.10681837640480318,118.8569595444194,15.898872846515683,0.0,1.0,0.0,0.0,1.0,Taxi
25.400000000000002,0.08981258949848184,-56.47672081929778,20.750478745219237,-0.45673109885597585,0.10327972981032917,118.88085298385658,15.086574351558616,0.0,1.0,0.0,0.0,1.0,Taxi
25.5,-0.14883974382072435,38.188123305565206,20.870754491664318,-0.5450297587350075,-0.43700464303350295,118.82316486337209,15.006875650812308,0.0,1.0,0.0,0.0,1.0,Taxi
25.6,0.1515326694509774,1.4082580335139454,19.935818748257997,-0.20696052637016107,-0.4738002286381429,118.65970897746001,15.756412023719031,0.0,1.0,0.0,0.0,1.0,Taxi
25.700000000000003,0.09685387966605186,11.186916489678234,20.93103948312362,0.14018839816390405,-0.21472919604861743,118.94019666991392,14.11143339717857,0.0,1.0,0.0,0.0,1.0,Taxi
25.8,-0.0929051613723329,-17.811981038069003,20.414255867698717,-0.43798446579306766,0.5887048172948127,118.86753265757034,15.841309827172692,0.0,1.0,0.0,0.0,1.0,Taxi
25.900000000000002,0.06247276426063262,-1.3754833773688364,20.276804853138568,-0.09127550739533259,0.754981912476826,118.94137801116767,15.276240454199655,0.0,1.0,0.0,0.0,1.0,Taxi
26.0,0.0899764627792079,3.479265689748876,21.362671745284207,-0.7177714347652796,0.36412285181350595,118.88651139752773,15.41163126764934,0.0,1.0,0.0,0.0,1.0,Taxi
26.1,-0.0755088329235883,-17.848979719854558,21.806046148908198,-0.2523068234114292,1.1186456220230585,118.92269259482714,14.89867750000566,0.0,1.0,0.0,0.0,1.0,Taxi
26.200000000000003,-0.026772134338639966,2.5957102320572147,20.929265701394417,-0.054930367574187455,0.38561496757058217,119.03453737812538,14.759988788014244,0.0,1.0,0.0,0.0,1.0,Taxi
26.3,0.10295501393949419,35.226305723918294,20.060897366358244,-0.1190060360657609,-0.14334831511019835,118.75438888100228,14.601883503320439,0.0,1.0,0.0,0.0,1.0,Taxi
26.400000000000002,0.10062269569600342,-10.704384599819994,20.03844703726957,-0.0007789102755350052,-0.5503913546522727,118.83279347540542,15.909562759053205,0.0,1.0,0.0,0.0,1.0,Taxi
26.5,-0.0802940573377397,-13.696806721885318,21.409423533761455,-0.16854234118940176,-0.2379634504163089,118.7343088345595,14.52947214731244,0.0,1.0,0.0,0.0,1.0,Taxi
26.6,0.03447098033006783,-49.0132170607449,20.68417312607996,-0.04176554057078902,0.3280334759631308,118.68714121925058,14.737785873046766,0.0,1.0,0.0,0.0,1.0,Taxi
26.700000000000003,-0.14444338960772088,42.047846259612534,20.396484946800715,-0.3232089039368281,0.6787214522911929,118.88862502295103,15.051370404480686,0.0,1.0,0.0,0.0,1.0,Taxi
26.8,0.12994517396032323,-3.3486313820222287,20.57494134592394,0.20546207242741304,-0.36796672746181525,118.87693978432202,15.424418679051374,0.0,1.0,0.0,0.0,1.0,Taxi
26.900000000000002,0.01772782341995693,11.504224784077314,21.316259910436017,-0.07204696446929357,-0.5843694281625191,118.79948652509859,15.510408122550851,0.0,1.0,0.0,0.0,1.0,Taxi
27.0,-0.08692226568733404,2.5850029187708876,21.003059391316917,-0.19255446466722045,0.40625205594707836,118.78432480231913,15.17211405308093,0.0,1.0,0.0,0.0,1.0,Taxi
27.1,0.1428701885541779,36.592107124374046,21.373082184272075,0.003435361657497721,-1.134088786679408,118.97692999578288,15.053183520187169,0.0,1.0,0.0,0.0,1.0,Taxi
27.200000000000003,0.20068835904182733,-2.941815041063961,20.135417275706484,0.004178353008206237,0.5422487008725815,118.9157010066242,15.121613431358783,0.0,1.0,0.0,0.0,1.0,Taxi
27.3,-0.10163134089265365,-15.86536102107596,21.08896116035537,-0.33772675722266765,-0.42017855325688536,118.7926244459519,15.193563081461939,0.0,1.0,0.0,0.0,1.0,Taxi
27.400000000000002,0.06354338344879833,-60.75666786809645,20.947525885398914,-0.13604275892164272,0.7835520165812591,118.79096076724966,15.458647412876916,0.0,1.0,0.0,0.0,1.0,Taxi
27.5,-0.10309498029865467,39.319749361007844,19.431208394421056,-0.5247429634115277,-0.04140555769941005,118.77955992521726,16.020407606069558,0.0,1.0,0.0,0.0,1.0,Taxi
27.6,0.09496740591238578,-2.7345550196018586,19.60838419496858,-0.24537523220221996,0.8176716056306066,118.78122282490256,15.678403919443218,0.0,1.0,0.0,0.0,1.0,Taxi
27.700000000000003,0.049870608350789256,23.564677494259936,21.304934439116874,-0.3749780898304783,0.6466478479819912,118.68866931232697,15.631705285070385,0.0,1.0,0.0,0.0,1.0,Taxi
27.8,0.014728407172645239,-20.006844330336406,20.903126194321825,-0.12830372383904154,0.1691248317445398,118.75357649947864,15.08104606233809,0.0,1.0,0.0,0.0,1.0,Taxi
27.900000000000002,-0.0050668157392960555,-16.320542010847973,21.576692114088658,-0.04974864725163891,0.9551368927945669,118.89237321477373,15.152839784804314,0.0,1.0,0.0,0.0,1.0,Taxi
28.0,-0.031732101703450415,-13.583406182728675,21.044340036513724,-0.11677897094064685,0.5538903706082018,118.93180550434101,14.15064901590251,0.0,1.0,0.0,0.0,1.0,Taxi
28.1,-0.05318862374099795,27.086541542497176,20.932793873196946,-0.272827579841592,0.07454047649262334,118.79555257344498,14.977177893862871,0.0,1.0,0.0,0.0,1.0,Taxi
28.200000000000003,0.13036589197319,-17.937141347352668,20.979432898877022,0.09052000362526724,-0.2864897184057555,119.10806891928127,14.62211744781666,0.0,1.0,0.0,0.0,1.0,Taxi
28.3,-0.12141780844021355,13.47335658225675,19.387163871080404,-0.21062617347447055,0.08099634913039734,118.85517269542243,15.28292646700042,0.0,1.0,0.0,0.0,1.0,Taxi
28.400000000000002,0.014178159170285996,-30.59161640277092,21.25605238621544,-0.21194278838040817,-0.04645642209390318,118.88841334648117,14.94705844589137,0.0,1.0,0.0,0.0,1.0,Taxi
28.5,-0.02259219004066438,44.1414953513357,20.375181371245557,-0.020821173281342892,-0.152865822297798,118.98361057093541,14.10267032511548,0.0,1.0,0.0,0.0,1.0,Taxi
28.6,0.09928966831646513,7.007343435256221,21.223291546209236,-0.6277120898369729,-0.6629959561712107,118.88894762224663,14.542050103047098,0.0,1.0,0.0,0.0,1.0,Taxi
28.700000000000003,0.0492148763465673,-35.48372655649609,20.8198604587743,-0.2502669040565494,-0.9305890470122307,118.98447598702899,15.269390252819417,0.0,1.0,0.0,0.0,1.0,Taxi
28.8,-0.20001082282314459,-31.80504252064939,21.690715816511602,-0.30585530628498636,0.8093003941257397,118.84501480520657,15.273629910338446,0.0,1.0,0.0,0.0,1.0,Taxi
28.900000000000002,-0.05973554428678164,0.4587930597612247,20.371615341850795,-0.48792889598393335,-0.04492460649264429,118.96486346947171,15.51401423121788,0.0,1.0,0.0,0.0,1.0,Taxi
29.0,0.051508841645373615,50.14713389022677,21.567297243755743,-0.3866809859432426,0.3941064648387854,118.8554510924821,15.367870573911004,0.0,1.0,0.0,0.0,1.0,Taxi
29.1,0.05072484662798942,42.69910837626281,21.408032321780475,-0.41516253487581223,0.36005580885999405,118.87594353237557,15.173796239637149,0.0,1.0,0.0,0.0,1.0,Taxi
29.200000000000003,0.1537599975945326,-14.931330858593142,21.385048519074232,-0.4413510121505459,-0.445513274470007,118.90257672175431,15.31808459543961,0.0,1.0,0.0,0.0,1.0,Taxi
29.3,-0.02314781264759188,-3.473867420349677,20.518590126721282,-0.01818754186720209,0.6681990563645497,118.75268387653841,14.231628871814701,0.0,1.0,0.0,0.0,1.0,Taxi
29.400000000000002,0.033355509526241243,-1.1033240353240028,21.52830503220608,-0.43597458890602464,0.25302651725522723,118.80460630439092,15.145473867950708,0.0,1.0,0.0,0.0,1.0,Taxi
29.5,0.1482433774179128,-0.5345595459367113,21.707979819628427,-0.1473086938043798,0.05151053016202522,118.93018699762939,15.955201143016113,0.0,1.0,0.0,0.0,1.0,Taxi
29.6,-0.025820610377275247,13.327188253171286,20.715882846701703,0.09637558216901482,0.013160272828472057,119.10930813099077,15.268802858600218,0.0,1.0,0.0,0.0,1.0,Taxi
29.700000000000003,0.09999145079209784,-44.192752734446564,20.536774892259018,-0.48149800012479305,-0.8640188861283977,118.91824501657487,15.56239184130404,0.0,1.0,0.0,0.0,1.0,Taxi
29.8,-0.07272038625431984,-12.231111621675337,19.921294903830713,-0.4529574211108922,-1.24145293934853,119.01319031185318,15.610069741487901,0.0,1.0,0.0,0.0,1.0,Taxi
29.900000000000002,-0.08697616848565176,5.247451380742196,20.373204060879686,-0.3477895442272434,-0.3229046239892625,118.93700455478177,14.266986108122907,0.0,1.0,0.0,0.0,1.0,Taxi
30.0,0.12622870769580904,22.266389026813716,19.924434791181252,-0.24796918276685487,0.009836154157461408,118.68627555869483,15.840838410139977,0.0,1.0,0.0,0.0,1.0,Taxi
30.1,0.038611558879748924,35.15247581727807,21.111116709231826,-0.06291472756993782,0.4088100973882158,118.71839922604073,14.070002883168574,0.0,1.0,0.0,0.0,1.0,Taxi
30.200000000000003,0.08878621060073877,-49.12710754433445,22.450932621612417,0.05133046011707909,-0.046506748826804396,118.80372338119946,15.256444918619978,0.0,1.0,0.0,0.0,1.0,Taxi
30.3,-0.11940683002586304,7.588035015054274,20.888366029237638,-0.07897540160155674,-0.45492815661211755,118.88238818857951,14.394860912369289,0.0,1.0,0.0,0.0,1.0,Taxi
30.400000000000002,0.07655173395502048,-25.52113340533992,21.594090894666678,-0.23471291515148035,-0.606658009114776,118.975088742639,15.660917300838275,0.0,1.0,0.0,0.0,1.0,Taxi
30.5,-0.03881945642596063,33.851833353797396,20.944074846892807,-0.22929304171885828,-0.17636582944309817,118.8599514483953,15.39301047610918,0.0,1.0,0.0,0.0,1.0,Taxi
30.6,0.04985233674312414,-24.909650145084118,20.761079177574047,-0.493739050725331,0.19886147197382564,119.02514561589237,14.393827704572484,0.0,1.0,0.0,0.0,1.0,Taxi
30.700000000000003,-0.04799651677039994,20.077109114930398,20.19630914929678,-0.22467812643324284,-0.6719555080341275,118.82959982132502,15.112639691380362,0.0,1.0,0.0,0.0,1.0,Taxi
30.8,0.06156608914869153,19.606457888897676,21.060325048447773,-0.01668544932237581,-0.3063426349626925,118.82950051829334,15.52501543594126,0.0,1.0,0.0,0.0,1.0,Taxi
30.900000000000002,0.1478846261876127,-11.027049202473194,20.861995056656855,-0.4306950848324847,0.020587587731136617,118.78387290874628,15.598509600194943,0.0,1.0,0.0,0.0,1.0,Taxi
31.0,-0.10313176278276573,-11.308160146191932,20.679086040792704,0.20339268068555505,-0.05503655656365375,118.94183831418115,15.756882365760134,0.0,1.0,0.0,0.0,1.0,Taxi
31.1,0.005025288417732035,27.59968135981374,20.49507027884051,0.00134374134601975,-0.0779922153116633,118.97588649381765,15.374893238356725,0.0,1.0,0.0,0.0,1.0,Taxi
31.200000000000003,0.28588303298668155,39.63106647650459,20.779530245267367,-0.19452241639973836,0.17652839389897804,118.80168710420952,15.44900295587502,0.0,1.0,0.0,0.0,1.0,Taxi
31.3,0.09502356959975737,-26.1602407618979,19.409955128056993,0.10022229375160746,0.37755206753706155,118.9548857942512,15.848637075240076,0.0,1.0,0.0,0.0,1.0,Taxi
31.400000000000002,-0.12577591539175734,-32.42605517831083,21.103638662539566,-0.05046975360878528,0.26490995133347184,118.71318821782421,14.79068524373744,0.0,1.0,0.0,0.0,1.0,Taxi
31.5,0.12375275709512751,-29.135454464831014,19.139901735912353,-0.1945382063875305,-0.30674462956721293,118.59663096472525,15.254995468140079,0.0,1.0,0.0,0.0,1.0,Taxi
31.6,-0.050653702724397565,15.592907147153042,21.830304084436463,-0.09898997464148293,0.27314159590283743,118.90526242725144,15.401575905910693,0.0,1.0,0.0,0.0,1.0,Taxi
31.700000000000003,-0.047811379655991984,9.64850563114029,21.396900407456016,-0.39541605352507314,0.3096270928297898,118.62210079918282,14.860241740387623,0.0,1.0,0.0,0.0,1.0,Taxi
31.8,0.17199528525082913,-3.131708736383615,21.537459502882353,-0.5589712738577619,0.13512840168824278,118.86720226236031,14.92967542858717,0.0,1.0,0.0,0.0,1.0,Taxi
31.900000000000002,-0.0663122464063155,7.7904659087488755,20.83886199473774,-0.2169822218155557,-0.48459626174770015,119.01908707072874,14.666092998811546,0.0,1.0,0.0,0.0,1.0,Taxi
32.0,-0.00885905011224747,-44.88855016401168,21.323825650420606,-0.3672409578748044,-0.3644595547319868,118.6899920819194,14.560844471050043,0.0,1.0,0.0,0.0,1.0,Taxi
32.1,-0.052447465569229135,43.14531180758183,20.42648017202674,-0.38644057333473236,-0.4028888921178191,118.65661133317849,14.426750373723907,0.0,1.0,0.0,0.0,1.0,Taxi
32.2,0.14941431263159377,2.7144397321305953,20.888660389159345,-0.04469534714874837,-0.5663221931681399,118.85618262490163,15.376434099877393,0.0,1.0,0.0,0.0,1.0,Taxi
32.300000000000004,0.004713148548405665,-17.16686260839045,20.439857770648086,-0.24904854441422541,-0.36465473010823524,119.13219750093464,15.111041641241668,0.0,1.0,0.0,0.0,1.0,Taxi
32.4,-0.13828177861118124,-45.90810301157766,20.423546746644035,-0.1977153579059047,-0.5898905292818061,118.70420405461874,14.796903604048099,0.0,1.0,0.0,0.0,1.0,Taxi
32.5,-0.08012620242629438,14.19443735599568,20.420962688966718,-0.6337361060412543,0.8753110257457641,118.94698386848484,15.08120347271162,0.0,1.0,0.0,0.0,1.0,Taxi
32.6,0.07568533532838424,53.5608210811828,20.795072822675046,0.05252241986794581,0.8708818129281528,118.84317122822296,15.653535501195677,0.0,1.0,0.0,0.0,1.0,Taxi
32.7,0.129522326794733,-17.4202582011411,20.76881731818838,-0.6520208221110881,0.13303259852902202,118.85779738304399,15.721295447269913,0.0,1.0,0.0,0.0,1.0,Taxi
32.800000000000004,-0.16722749343199966,-3.9231861198402194,21.761093197638814,-0.21354561779597608,0.31681821743254385,118.88803675775569,15.524217476577531,0.0,1.0,0.0,0.0,1.0,Taxi
32.9,0.056069404729183404,-49.22156862802708,20.060934414484123,-0.42643054334613156,0.4975120110317568,118.9722439109737,14.61132235892814,0.0,1.0,0.0,0.0,1.0,Taxi
33.0,-0.11658551634540215,9.798589439271744,20.291916928962817,0.2241806298535154,-0.03297300472978134,118.67693434151079,15.374475009957882,0.0,1.0,0.0,0.0,1.0,Taxi
33.1,-0.1182345462356407,-5.9794030314454005,20.554976969623514,-0.2167242024680912,-0.6951709884762456,118.88294299064319,14.555348645373092,0.0,1.0,0.0,0.0,1.0,Taxi
33.2,0.026172389571956625,25.359533463410923,20.446991240789544,-0.14961891168766842,0.13313520957909922,118.80845140959894,15.006288857648903,0.0,1.0,0.0,0.0,1.0,Taxi
33.300000000000004,0.010212150971652685,-29.851456268152727,20.284620667810994,-0.36072351012436854,-0.32044419758875087,118.99728922213455,15.91986362168997,0.0,1.0,0.0,0.0,1.0,Taxi
33.4,-0.2674918275764041,-17.805748313852757,19.954648429747458,-0.515026411331772,0.18211360208660707,118.81627102903053,15.01614518085054,0.0,1.0,0.0,0.0,1.0,Taxi
33.5,-0.06285635199730695,20.330383833532316,20.78333602252841,-0.3460536340403224,-0.9898818976706004,118.79553393975442,15.49302594520053,0.0,1.0,0.0,0.0,1.0,Taxi
33.6,0.1118640701393145,62.349122615582154,19.323400067548654,0.031772576641818845,-0.240416085990866,119.04566150524715,14.75322477090466,0.0,1.0,0.0,0.0,1.0,Taxi
33.7,0.0442537855015069,-8.639771714505656,20.948293850598795,-0.12380628877714236,0.006018935687517952,118.79619619272427,14.878528238124115,0.0,1.0,0.0,0.0,1.0,Taxi
33.800000000000004,-0.10605521056983498,-57.15187616025247,20.694633680050245,-0.09325350536798153,-0.25546874067846886,118.79097166021012,14.728867210402951,0.0,1.0,0.0,0.0,1.0,Taxi
33.9,-0.17389531066194758,-5.483799820113252,20.931049707262197,-0.28635383325660585,-0.24130539469215082,118.88344000643656,15.316201142194274,0.0,1.0,0.0,0.0,1.0,Taxi
34.0,0.016834786400940892,32.32536839577772,20.017126975789147,-0.45365309610393084,0.1690544073299972,118.74202170230535,15.437763735232481,0.0,1.0,0.0,0.0,1.0,Taxi
34.1,0.055571631409053884,70.13837790294231,20.088416365369902,-0.09975909389145493,-0.13833082183234102,119.06097998703842,15.152967325648982,0.0,1.0,0.0,0.0,1.0,Taxi
34.2,0.17679657885276423,-13.753971321454676,20.961366519700345,-0.06994390080351787,0.7550330375059056,118.88462073517167,15.102231246318786,0.0,1.0,0.0,0.0,1.0,Taxi
34.300000000000004,-0.05193507020633225,-23.14475863511379,21.36051085411092,-0.31011802601616356,-0.4171474250262965,118.94934884914261,14.996865114319672,0.0,1.0,0.0,0.0,1.0,Taxi
34.4,-0.06015216176651483,-63.09293562114228,20.353194158073098,-0.28377983952371777,0.06702933363221902,118.98992088569901,15.56823236847022,0.0,1.0,0.0,0.0,1.0,Taxi
34.5,-0.13866809925294696,14.975917934302435,21.31701271315972,-0.7029718576976363,-0.2474162317662053,118.88552061775965,14.624585535997278,0.0,1.0,0.0,0.0,1.0,Taxi
34.6,0.02294451946518017,7.707572800398218,20.780735821277478,-0.16165058733194024,0.3195466014483428,118.8836875547999,15.615755288063184,0.0,1.0,0.0,0.0,1.0,Taxi
34.7,-0.021614297764523498,23.106725452966682,20.671307081801398,-0.1512338683833707,-0.12267510577234254,118.82414442282214,15.22987899258907,0.0,1.0,0.0,0.0,1.0,Taxi
34.800000000000004,-0.02313447198811333,2.6602756426864147,20.500012576277594,0.23930861789783497,-0.465723377169115,118.96522602053477,14.748269299752875,0.0,1.0,0.0,0.0,1.0,Taxi
