time_s,altitude_ft,vertical_speed_fpm,ias_kt,pitch_deg,roll_deg,heading_deg,throttle_pct,afterburner_on,gear_down,flaps_deg,speedbrake_pct,weight_on_wheels,label
0.0,-1.5814709950344972,-467.650548489675,184.44382135593312,2.69547554886858,-0.7059750852266397,300.7049300816799,37.00400034016019,0.0,1.0,19.98162321372883,13.41806668095267,0.0,Landing
0.1,-3.140306156666747,-636.2683544174762,185.35668427694299,2.5686164727966956,-0.7499229528069568,300.74166510083046,36.79509750879008,0.0,1.0,19.98162321372883,13.41806668095267,0.0,Landing
0.2,-4.762812767121878,-971.1433034915776,184.07684387649292,2.782952173825618,-0.3893797209814396,300.619818364057,37.221353153615915,0.0,1.0,19.98162321372883,13.41806668095267,0.0,Landing
0.30000000000000004,-6.437187512492385,-968.1062322753563,182.50539039119016,2.887999092140187,-0.4564644296185485,300.76596570363427,37.19764207096004,0.0,1.0,19.98162321372883,13.41806668095267,0.0,Landing
0.4,-7.980837318043529,-951.1124303908127,184.2567534463733,2.6140331775444334,-0.7177295009766504,300.6532126649156,37.10483251892317,0.0,1.0,19.98162321372883,13.41806668095267,0.0,Landing
0.5,-9.518374919075942,-916.0634219125401,184.23586786596144,2.446520275960331,-0.29830164033737405,300.56893121164376,36.95303904600262,0.0,1.0,19.98162321372883,13.41806668095267,0.0,Landing
0.6000000000000001,-11.017504622055085,-921.2092087208106,184.40395056907016,2.9989922910054503,-0.48084616538281194,300.5950523306876,37.44690710919339,0.0,1.0,19.98162321372883,13.41806668095267,0.0,Landing
0.7000000000000001,-12.586883361647581,-912.9602038097399,183.27182371568736,2.7406155428340533,-0.6019427910829093,300.6005212009975,37.60492780641984,0.0,1.0,19.98162321372883,13.41806668095267,0.0,Landing
0.8,-14.083175938124642,-918.3289600988434,185.7258777969244,2.4691142753490576,-0.3166378905749382,300.55489617904493,37.59320183128628,0.0,1.0,19.98162321372883,13.41806668095267,0.0,Landing
0.9,-15.609149422549303,-904.0787815019225,185.76828375681293,2.769032396916835,-0.5405887904842508,300.6952548811529,36.80983872918367,0.0,1.0,19.98162321372883,13.41806668095267,0.0,Landing
1.0,-17.107277269157194,-925.477685199677,186.59264407085755,2.852820744792175,-0.6935811787584302,300.8816463848734,36.774407274758495,0.0,1.0,19.98162321372883,13.41806668095267,0.0,Landing
1.1,-18.710564364123027,-948.9849326338526,182.5417637182935,2.631986750687137,-0.7162420119580679,300.61780770743803,37.46119721788416,0.0,1.0,19.98162321372883,13.41806668095267,0.0,Landing
1.2000000000000002,-20.354074085718565,-970.1096633430785,183.17771881746398,2.719015098676613,-0.3525157881979488,300.77965939995556,37.0994303820299,0.0,1.0,19.98162321372883,13.41806668095267,0.0,Landing
1.3,-21.957825585872587,-965.7973791278231,185.31287779252347,3.2396677895680286,-0.4577102441990776,300.82790859353804,36.914982406975135,0.0,1.0,19.98162321372883,13.41806668095267,0.0,Landing
1.4000000000000001,-23.539551259762142,-955.6871868264352,183.5013972780569,2.6391188739916336,-0.7531033868168011,300.9063931618399,37.34382172769216,0.0,1.0,19.98162321372883,13.41806668095267,0.0,Landing
1.5,-25.13251001985074,-943.6827463459935,185.11586559719382,2.678517288975608,-0.47739691168009274,300.7439754754755,36.95464499522607,0.0,1.0,19.98162321372883,13.41806668095267,0.0,Landing
1.6,-26.676239317602555,-921.6839282859866,183.80089242155492,2.515412337611773,-0.5029276100602623,300.47674244211635,37.116102649007495,0.0,1.0,19.98162321372883,13.41806668095267,0.0,Landing
1.7000000000000002,-28.147970901192075,-921.8569146748763,184.25348988560827,2.3800354897801115,-0.6359995504057839,300.41420659413893,36.48104399005231,0.0,1.0,19.98162321372883,13.41806668095267,0.0,Landing
1.8,-29.741794593225123,-919.992612115317,184.8628282310215,2.6555193295348816,-0.8315680424616098,300.45375339395343,37.286739609030434,0.0,1.0,19.98162321372883,13.41806668095267,0.0,Landing
1.9000000000000001,-31.27620237817914,-950.1354975743667,185.4336394061158,2.5692183525728107,-0.48485930967694274,300.4647800379598,36.94484511992568,0.0,1.0,19.98162321372883,13.41806668095267,0.0,Landing
2.0,-32.89864838906391,-943.0277997854631,184.5982740536123,2.779196802083163,-0.367888173548231,300.5642483250149,37.03303144659475,0.0,1.0,19.98162321372883,13.41806668095267,0.0,Landing
2.1,-34.45693359215244,-942.1895972996048,184.46275362638298,2.993286399249463,-0.5982493719786846,300.56719729227825,37.29114435568607,0.0,1.0,19.98162321372883,13.41806668095267,0.0,Landing
2.2,-35.98715036467716,-921.3411073504403,184.65779930673258,2.727351443247765,-0.4964672688429449,300.72539199726475,36.53019926412595,0.0,1.0,19.98162321372883,13.41806668095267,0.0,Landing
2.3000000000000003,-37.50535392581611,-918.8356482487308,183.43478820719213,3.0481837653586794,-0.6596503513593117,300.7510368445801,36.723798272808374,0.0,1.0,19.98162321372883,13.41806668095267,0.0,Landing
2.4000000000000004,-39.05111183339609,-921.9142908634552,185.2826368708867,2.2435566924409187,-0.8014665677463726,300.314373226567,37.01834257882995,0.0,1.0,19.98162321372883,13.41806668095267,0.0,Landing
2.5,-40.59672181899444,-927.5752767134435,185.01388940231962,2.548647978189644,-0.3104635534563275,300.46426771919846,36.715812588401924,0.0,1.0,19.98162321372883,13.41806668095267,0.0,Landing
2.6,-42.14323030938333,-929.4795910714525,184.97786867325496,2.883928302984141,-0.4558340821642041,300.5693151345065,37.581898666935125,0.0,1.0,19.98162321372883,13.41806668095267,0.0,Landing
2.7,-43.698509788753356,-938.1613159977619,183.36157034276206,2.653358875421743,-0.20769766840923048,300.58259332463206,37.17640948645952,0.0,1.0,19.98162321372883,13.41806668095267,0.0,Landing
2.8000000000000003,-45.28752839898325,-953.9219656218137,185.364513526698,3.0710438099877573,-0.734818741433671,300.7003146576134,37.055871421314514,0.0,1.0,19.98162321372883,13.41806668095267,0.0,Landing
2.9000000000000004,-46.912840137492395,-956.648231759138,184.19952951557053,3.033930463467187,-0.43319546650242874,300.83695147735034,36.72646678791342,0.0,1.0,19.98162321372883,13.41806668095267,0.0,Landing
3.0,-48.481750947549045,-943.7274709758909,183.5543643541911,3.188187071522244,-0.627261975022579,300.47177344888814,37.53510832354191,0.0,1.0,19.98162321372883,13.41806668095267,0.0,Landing
3.1,-50.0061657538627,-917.8849490573825,185.07427762889486,2.8808903564083144,-0.2757767890462926,301.13698264808045,36.89408559313762,0.0,1.0,19.98162321372883,13.41806668095267,0.0,Landing
3.2,-51.50226488277931,-913.5607280593249,184.6825337930423,2.673111183503167,-0.9508452766067259,300.7170248663033,37.55503553851894,0.0,1.0,19.98162321372883,13.41806668095267,0.0,Landing
3.3000000000000003,-53.04955458784567,-914.4465643835289,184.9203093782953,3.0251546485739285,-0.7341493784494939,300.4219588565911,37.3494731187435,0.0,1.0,19.98162321372883,13.41806668095267,0.0,Landing
3.4000000000000004,-54.57839857578035,-921.8707499244061,183.55724100097436,2.923212055778948,-0.6668320200672173,300.6385015570561,37.52973413291829,0.0,1.0,19.98162321372883,13.41806668095267,0.0,Landing
3.5,-56.11161863240134,-919.1535531916742,184.5396540132959,2.7971824371046785,-0.8198040642327866,300.5558717043177,36.738515422963864,0.0,1.0,19.98162321372883,13.41806668095267,0.0,Landing
3.6,-57.64532235380404,-926.9605424343198,185.21315187946723,2.6948535311669053,-1.0652716098450088,300.3215840364461,37.630683263211644,0.0,1.0,19.98162321372883,13.41806668095267,0.0,Landing
3.7,-59.21320128795195,-930.3494612804158,185.14806103538822,2.6214565483397436,-0.7581130157115745,300.60343093016377,36.635313157362845,0.0,1.0,19.98162321372883,13.41806668095267,0.0,Landing
3.8000000000000003,-60.76336593880342,-914.5830580750641,183.0957414605674,2.920979331624944,-0.5510523942532124,300.7600177126578,37.0572947723535,0.0,1.0,19.98162321372883,13.41806668095267,0.0,Landing
3.9000000000000004,-62.21823764417936,-908.1814054566408,185.67978106893142,2.8717203734361196,-0.8354571842464911,300.62384125264975,37.23108976140563,0.0,1.0,19.98162321372883,13.41806668095267,0.0,Landing
4.0,-63.75410831523515,-910.8209427117599,184.70497735670813,2.258741599471393,-0.03858734122735841,300.77794069861807,37.211162468251146,0.0,1.0,19.98162321372883,13.41806668095267,0.0,Landing
4.1000000000000005,-65.31747065236222,-938.9012388802839,183.87230098149237,2.6358794079955548,-0.30106060295441883,300.4715609327699,37.01702239530196,0.0,1.0,19.98162321372883,13.41806668095267,0.0,Landing
4.2,-66.91274383858078,-939.503487600966,184.19821014020116,2.739176820930289,-0.5162775921312939,300.86377517761525,37.4862911491398,0.0,1.0,19.98162321372883,13.41806668095267,0.0,Landing
4.3,-68.45162575323998,-927.0281982470948,182.50079753958482,3.0566508749776213,-0.3645636341716031,300.79939040971897,37.66434421430901,0.0,1.0,19.98162321372883,13.41806668095267,0.0,Landing
4.4,-69.95261164359769,-916.4552405550438,184.01792964453122,2.4450545160236827,-0.33297022044869495,300.80093822059143,37.38679714850044,0.0,1.0,19.98162321372883,13.41806668095267,0.0,Landing
4.5,-71.495020041356,-935.9498548718165,184.91819980560348,2.6719770710256,-0.47092429324089985,300.2966791022227,36.88566595812706,0.0,1.0,19.98162321372883,13.41806668095267,0.0,Landing
4.6000000000000005,-73.13137502759906,-931.1894992103986,184.45735598568214,2.8964012692688366,-0.21062830362534396,300.6972021350766,37.24258418860459,0.0,1.0,19.98162321372883,13.41806668095267,0.0,Landing
4.7,-74.60855913964969,-928.1209477912967,184.5446746805405,2.9546433683927105,-0.5054582613220655,300.732182103676,37.37737911566115,0.0,1.0,19.98162321372883,13.41806668095267,0.0,Landing
4.800000000000001,-76.13562478031248,-905.6837191386479,184.99004299695454,2.8627027770670415,-0.3968844299262517,300.8647865350439,37.25333488662113,0.0,1.0,19.98162321372883,13.41806668095267,0.0,Landing
4.9,-77.6597936232923,-911.9042300429783,184.59436498553453,2.8552043920339485,-0.7623790797050736,300.4345436903234,36.671254013456924,0.0,1.0,19.98162321372883,13.41806668095267,0.0,Landing
5.0,-79.16808028986458,-932.2130678817075,184.1710933437491,2.720867794540993,-0.27302262221881696,300.6596538543399,36.94363888916785,0.0,1.0,19.98162321372883,13.41806668095267,0.0,Landing
5.1000000000000005,-80.79669011972102,-931.3786835319178,186.56076708293838,3.0351840210163843,-0.4287085183254955,300.8942177816982,37.378120761773175,0.0,1.0,19.98162321372883,13.41806668095267,0.0,Landing
5.2,-82.31668704095189,-914.0287479820245,183.96086004424447,2.8690719563841203,-0.509056450029734,300.4935749605445,37.23456215181224,0.0,1.0,19.98162321372883,13.41806668095267,0.0,Landing
5.300000000000001,-83.7382240297747,-897.9663524550746,184.67030786296596,2.6276752582797416,-0.3305136799102807,300.93510835503116,37.22706995619539,0.0,1.0,19.98162321372883,13.41806668095267,0.0,Landing
5.4,-85.28652188199639,-890.8856474175735,186.84152733896642,2.852590526015732,-0.20420568155875563,300.3480451190328,37.01673140238235,0.0,1.0,19.98162321372883,13.41806668095267,0.0,Landing
5.5,-86.77111527803976,-921.4461990695385,185.2942424870555,2.937548755476165,-0.6149198080011844,300.71282121231957,36.84585502032089,0.0,1.0,19.98162321372883,13.41806668095267,0.0,Landing
5.6000000000000005,-88.34545502512239,-910.3713290115535,186.61666427023962,2.3907217489424015,-0.7657277604949324,300.66459995215575,36.96852484595708,0.0,1.0,19.98162321372883,13.41806668095267,0.0,Landing
5.7,-89.83837852705416,-912.8572895120641,184.1256903304279,2.8515317851763258,-0.46755167990499225,300.67440403561875,37.18667345490425,0.0,1.0,19.98162321372883,13.41806668095267,0.0,Landing
5.800000000000001,-91.33540172560008,-891.6171808834747,183.73415703722083,2.865281018889356,-0.4340591776601095,300.90138247319237,36.94592885145786,0.0,1.0,19.98162321372883,13.41806668095267,0.0,Landing
5.9,-92.80354092953976,-904.8769423766031,183.7306153947122,2.786591907942263,-0.7484114812953593,300.60035080647754,36.59219521966302,0.0,1.0,19.98162321372883,13.41806668095267,0.0,Landing
6.0,-94.36276323893718,-890.5115516681066,184.87986318241013,2.7322369401750395,-0.6599638563913257,300.7383561728302,37.0595686185108,0.0,1.0,19.98162321372883,13.41806668095267,0.0,Landing
6.1000000000000005,-95.78795948394061,-887.7357786061367,187.17716241472039,3.001695864063746,-0.17700687466419024,300.71939395124,36.90133829660215,0.0,1.0,19.98162321372883,13.41806668095267,0.0,Landing
6.2,-97.24221982257045,-876.9751506750794,184.04640443160764,2.8385231497952126,-0.7279224364494905,300.8228411653081,37.057762929083125,0.0,1.0,19.98162321372883,13.41806668095267,0.0,Landing
6.300000000000001,-98.74763899231257,-903.2206743539122,184.83625700564528,2.615746444407867,-0.5473725635230223,300.54747621023637,37.54741359857723,0.0,1.0,19.98162321372883,13.41806668095267,0.0,Landing
6.4,-100.30406285571017,-910.2698245550528,183.17379152798455,2.5399299639085475,-0.7242329832439947,300.7559128667291,37.33776960510318,0.0,1.0,19.98162321372883,13.41806668095267,0.0,Landing
6.5,-101.79356894534571,-918.2879222001247,185.41043389942726,3.182129605816954,-0.4985506447685197,300.60522789226434,37.30688585372696,0.0,1.0,19.98162321372883,13.41806668095267,0.0,Landing
6.6000000000000005,-103.3390786033132,-915.3873465518956,182.888703221697,2.9523055985977655,-0.6107445662613276,300.83571541639844,37.23212918845645,0.0,1.0,19.98162321372883,13.41806668095267,0.0,Landing
6.7,-104.88099958846965,-945.9149832216298,184.31194650201746,2.970940501758909,-1.1607092246718707,300.58595341273553,36.96895035619262,0.0,1.0,19.98162321372883,13.41806668095267,0.0,Landing
6.800000000000001,-106.52314386145386,-958.6297826649798,186.95259664148978,2.79904507174391,-0.5058391050959591,300.81347377628936,36.941665753401836,0.0,1.0,19.98162321372883,13.41806668095267,0.0,Landing
6.9,-108.1322275166381,-954.3394772215805,183.97211622464377,2.6731921397113063,-0.5049621293525559,300.56173908184144,37.41071554656035,0.0,1.0,19.98162321372883,13.41806668095267,0.0,Landing
7.0,-109.65269697457755,-921.7733764919245,182.8248827424132,2.9107341448878508,-0.7610793531985278,300.5582877050747,37.51069839926562,0.0,1.0,19.98162321372883,13.41806668095267,0.0,Landing
7.1000000000000005,-111.13201074391348,-887.0117874349148,184.7569497578325,3.22790360781183,-0.5780669340742041,300.5250397561754,37.029032291764885,0.0,1.0,19.98162321372883,13.41806668095267,0.0,Landing
7.2,-112.56728645381267,-883.3215616481936,185.13937601683648,2.7521084995893874,-0.6049124246316184,300.5842607480506,37.20270520412588,0.0,1.0,19.98162321372883,13.41806668095267,0.0,Landing
7.300000000000001,-114.06930478281852,-880.7828707345948,184.09445497399795,2.5162137995702647,-0.45996645745366094,300.60233407670955,37.45220467641564,0.0,1.0,19.98162321372883,13.41806668095267,0.0,Landing
7.4,-115.53592509758646,-875.828225846962,184.70778490509588,2.76533137957962,-0.5009584593170969,300.4024727942135,37.48573674621603,0.0,1.0,19.98162321372883,13.41806668095267,0.0,Landing
7.5,-116.94642758304748,-877.7563751328158,184.18116641985776,2.7593694854394126,-0.5748481035904927,300.71286901301164,36.45224413299459,0.0,1.0,19.98162321372883,13.41806668095267,0.0,Landing
7.6000000000000005,-118.4580866584826,-887.9812057590301,183.9655713924378,2.995388922405149,-0.585067072241822,300.73611947860377,37.83672937652414,0.0,1.0,19.98162321372883,13.41806668095267,0.0,Landing
7.7,-119.9758311263816,-887.3354151608964,183.6063381433958,2.9460886902548253,-0.6266461928628476,300.5110155330292,37.338789369912,0.0,1.0,19.98162321372883,13.41806668095267,0.0,Landing
7.800000000000001,-121.38310465885196,-875.4014214036118,184.29412928323202,2.714697216923314,-0.272271371199384,300.66318246800836,36.809222843577025,0.0,1.0,19.98162321372883,13.41806668095267,0.0,Landing
7.9,-122.83509376550066,-888.4665045939443,184.30374923893555,2.6697831424144622,-0.44327676229498925,300.49699522297885,37.18255466619912,0.0,1.0,19.98162321372883,13.41806668095267,0.0,Landing
8.0,-124.41816364935133,-911.0565078758981,183.74501188543206,2.5134266008882395,-0.2496781017180021,300.4988321545179,36.897046991624954,0.0,1.0,19.98162321372883,13.41806668095267,0.0,Landing
8.1,-125.93838719823145,-908.5409835845553,183.60261504349734,2.9078601761542044,-0.4311044877212441,300.76203218305886,37.36102345990295,0.0,1.0,19.98162321372883,13.41806668095267,0.0,Landing
8.200000000000001,-127.37779868342344,-887.0256173236498,182.67785408093394,2.653663687339264,-0.5786450063895906,300.8727598452426,37.11889723545133,0.0,1.0,19.98162321372883,13.41806668095267,0.0,Landing
8.3,-128.85329173596958,-875.8983209087319,183.28771427290738,2.768111899695599,-0.683225076586663,300.8298354808544,37.78791750019967,0.0,1.0,19.98162321372883,13.41806668095267,0.0,Landing
8.4,-130.3178788027751,-902.4869031008903,185.71949999257598,2.6755173397226653,-0.6252182528004405,300.4529670155965,36.95140902933229,0.0,1.0,19.98162321372883,13.41806668095267,0.0,Landing
8.5,-131.8902331989279,-891.898971937519,186.38436380342216,2.818685508500564,-0.5121328027387809,300.6588914174979,37.08576632885509,0.0,1.0,19.98162321372883,13.41806668095267,0.0,Landing
8.6,-133.31278659565717,-905.4463725447307,183.4810480042616,2.8863356422205424,-0.3532152191057556,300.8923360592279,37.35615642014741,0.0,1.0,19.98162321372883,13.41806668095267,0.0,Landing
8.700000000000001,-134.84511066549877,-897.033351725338,183.59551866516603,2.734867119955646,-0.6930764671102125,300.7763240261763,37.12448462519392,0.0,1.0,19.98162321372883,13.41806668095267,0.0,Landing
8.8,-136.37539995755458,-909.5679804429266,186.10905990155652,2.6074536311768335,-0.4907337712240237,300.83373020619115,37.43787332907291,0.0,1.0,19.98162321372883,13.41806668095267,0.0,Landing
8.9,-137.8606264978718,-900.4476577376181,184.9311443028592,2.9130295908263335,-0.7036183795280128,300.91287181496705,36.835358401229634,0.0,1.0,19.98162321372883,13.41806668095267,0.0,Landing
9.0,-139.34734895418686,-899.7111149289425,183.90416481610993,2.853352745461083,-0.5748919161282714,300.9772166821556,37.069885517384094,0.0,1.0,19.98162321372883,13.41806668095267,0.0,Landing
9.1,-140.8739555321993,-893.3350012516543,185.37071842257927,2.3446446547786355,-0.4183803515418607,300.566340839898,37.657160369449024,0.0,1.0,19.98162321372883,13.41806668095267,0.0,Landing
9.200000000000001,-142.32730150413008,-894.0627317252789,182.6117374284449,2.625208750710174,-0.3862025789478027,300.44877212829977,37.30009696051794,0.0,1.0,19.98162321372883,13.41806668095267,0.0,Landing
9.3,-143.81766261281325,-871.6424131316103,184.6038102425459,2.5876820093959205,-1.0089965106482373,301.17621687483324,36.970573640726904,0.0,1.0,19.98162321372883,13.41806668095267,0.0,Landing
9.4,-145.23216759785734,-873.2251150577268,182.65064312795715,2.8704089918542413,-0.5135074233559901,300.61970944687846,37.4959802120165,0.0,1.0,19.98162321372883,13.41806668095267,0.0,Landing
9.5,-146.6934270794187,-879.8998835288103,187.29031781217537,2.6858884359023776,-0.39936541703421113,300.6083656015128,37.238853686206966,0.0,1.0,19.98162321372883,13.41806668095267,0.0,Landing
9.600000000000001,-148.2171620304573,-903.4793547902382,185.84745393900232,2.905596113323925,-0.6804527276264644,300.6221664391869,36.45151737667719,0.0,1.0,19.98162321372883,13.41806668095267,0.0,Landing
9.700000000000001,-149.74956437180853,-900.3248064383741,184.55381700430732,3.2133287281753504,-0.5698197765570152,300.876047566622,37.0287702467164,0.0,1.0,19.98162321372883,13.41806668095267,0.0,Landing
9.8,-151.19505111161058,-902.6237257322863,184.22836615406317,2.8784254139450867,-0.426647541391006,300.63862630195035,37.90115088873468,0.0,1.0,19.98162321372883,13.41806668095267,0.0,Landing
9.9,-152.73028065911873,-895.5018159451753,184.60920215610955,2.6200468329300572,-0.5972540216888125,300.8241727863033,36.71730455375156,0.0,1.0,19.98162321372883,13.41806668095267,0.0,Landing
10.0,-154.2270734515344,-900.9609570064754,184.7038652767363,2.782712892410038,-0.7665615796134344,300.8108495688316,37.411045225763864,0.0,1.0,19.98162321372883,13.41806668095267,0.0,Landing
10.100000000000001,-155.69985589664296,-873.2456736156165,184.39941624222973,2.5824969753050895,-0.5125733049677176,300.60024012704775,37.18128434923981,0.0,1.0,19.98162321372883,13.41806668095267,0.0,Landing
10.200000000000001,-157.09650902719682,-886.0775035774681,183.814107883029,3.0027397376543896,-0.49226549854964297,300.6967591255873,37.38088943187215,0.0,1.0,19.98162321372883,13.41806668095267,0.0,Landing
10.3,-158.65746096942175,-898.5129205590738,184.0583637007702,2.7320036595069683,-0.5498041699444416,300.52987107873264,37.561486756998484,0.0,1.0,19.98162321372883,13.41806668095267,0.0,Landing
10.4,-160.19242049943833,-901.3094511268663,185.25752139056863,2.5620517800258407,-0.6488761252909749,300.8040151380849,37.24568656866007,0.0,1.0,19.98162321372883,13.41806668095267,0.0,Landing
10.5,-161.60305628283115,-870.9345106870842,184.31647430983793,2.860816002677608,-0.6890032305510472,300.36164239170023,37.43083429627016,0.0,1.0,19.98162321372883,13.41806668095267,0.0,Landing
10.600000000000001,-163.01213352285717,-840.8392686170373,184.95091915816568,2.7280599225955213,-0.6913236591546045,300.6343107229584,37.46035184452125,0.0,1.0,19.98162321372883,13.41806668095267,0.0,Landing
10.700000000000001,-164.3966168425235,-850.8446455744092,185.07733115993537,3.0281638893996092,-0.9624317223015582,300.63274786238503,36.64364812719259,0.0,1.0,19.98162321372883,13.41806668095267,0.0,Landing
10.8,-165.8572795107032,-877.5177735998909,183.8559496374444,2.885038350564604,-0.5366494906568233,300.75076696244696,37.53360960497801,0.0,1.0,19.98162321372883,13.41806668095267,0.0,Landing
10.9,-167.39972239085662,-875.9385364667706,184.7196841075569,2.750236607709113,-0.6497292953553802,300.6819691882773,37.00608042082473,0.0,1.0,19.98162321372883,13.41806668095267,0.0,Landing
11.0,-168.77630952485737,-882.1665260785209,185.81360498341363,2.9659189889747157,-0.3797980391126847,300.6060950939195,37.12689700441897,0.0,1.0,19.98162321372883,13.41806668095267,0.0,Landing
11.100000000000001,-170.2681121410958,-876.315001541434,184.94144689426037,2.994169166714909,-0.4860515890888459,300.6122921811725,37.31871504423609,0.0,1.0,19.98162321372883,13.41806668095267,0.0,Landing
11.200000000000001,-171.7812973985638,-880.1380381950366,184.15870322071746,2.7261718283564513,-0.5656020932430662,300.6260018457856,36.77202708321116,0.0,1.0,19.98162321372883,13.41806668095267,0.0,Landing
11.3,-173.17699971583255,-871.5707149732624,184.16445972962987,2.942838840254637,-0.714385685015591,300.7883093722389,37.20358049467132,0.0,1.0,19.98162321372883,13.41806668095267,0.0,Landing
11.4,-174.6259657159621,-860.354302244923,183.5802611857394,2.9874167754715444,-0.612415054504982,300.68423172176495,36.996956800280685,0.0,1.0,19.98162321372883,13.41806668095267,0.0,Landing
11.5,-176.0830689097884,-867.2111263607576,185.33820988509348,2.5625604167695033,-0.5117704949936304,300.66422705486843,36.792222475259955,0.0,1.0,19.98162321372883,13.41806668095267,0.0,Landing
11.600000000000001,-177.51305534763634,-892.1417184118183,184.41290044074316,2.725775680725855,-0.4629559642090321,300.6149393406415,37.5757319572536,0.0,1.0,19.98162321372883,13.41806668095267,0.0,Landing
11.700000000000001,-179.0866743080212,-892.638619259145,184.8576165326242,2.589514923428284,-0.5144480845567077,300.70566395615833,36.843010074689694,0.0,1.0,19.98162321372883,13.41806668095267,0.0,Landing
11.8,-180.54626200608413,-893.4506709634037,184.66357479394276,3.1504518333977987,-0.7891920104812181,301.04271919416124,37.24157960370751,0.0,1.0,19.98162321372883,13.41806668095267,0.0,Landing
11.9,-181.98030870245336,-863.6755734120015,186.26351885227513,2.95635189450954,-0.37676373175200717,300.7614383660832,37.1700156540614,0.0,1.0,19.98162321372883,13.41806668095267,0.0,Landing
12.0,-183.4050521750812,-859.2764292310052,184.05407880372343,2.8877683192038752,-0.9519404754698436,300.6080452476041,37.371464502928966,0.0,1.0,19.98162321372883,13.41806668095267,0.0,Landing
12.100000000000001,-184.84264415223916,-876.0811459861599,184.517326507564,2.7059925471149415,-0.6011400723781106,300.5408189705413,36.7257670002422,0.0,1.0,19.98162321372883,13.41806668095267,0.0,Landing
12.200000000000001,-186.36071443238416,-891.733779624667,184.7660312083237,2.691965341001829,-0.8178995504757454,300.68769439991775,36.76078099430708,0.0,1.0,19.98162321372883,13.41806668095267,0.0,Landing
12.3,-187.86372107320454,-885.3449905291768,185.39846225294485,2.3942638975659114,-0.6087055783863577,300.7445993963704,37.53345263871928,0.0,1.0,19.98162321372883,13.41806668095267,0.0,Landing
12.4,-189.26936910488504,-879.9069965181843,184.09419596869964,2.790691726729496,-0.45202812892762795,300.6732252948825,36.92854897448557,0.0,1.0,19.98162321372883,13.41806668095267,0.0,Landing
12.5,-190.76024941497508,-883.3015913291036,183.48700571422455,2.6381603077437603,-0.649192656483663,300.6130070162801,37.0151723435861,0.0,1.0,19.98162321372883,13.41806668095267,0.0,Landing
12.600000000000001,-192.28022902985006,-895.247037382876,183.2518102150771,2.9193444492736873,-0.47007741342937087,300.535067343347,37.30114733978761,0.0,1.0,19.98162321372883,13.41806668095267,0.0,Landing
12.700000000000001,-193.74560429179942,-879.2044187190926,185.05870264289356,2.9402074348549774,-0.5611326519612256,300.6863010798893,36.84130510254,0.0,1.0,19.98162321372883,13.41806668095267,0.0,Landing
12.8,-195.15627150857054,-863.5647472606138,184.79721522107897,2.8981980103284353,-0.6789961078159304,300.8396906238911,36.79032359640221,0.0,1.0,19.98162321372883,13.41806668095267,0.0,Landing
12.9,-196.59805276615313,-869.7336176621944,185.15622511919392,2.7369976325385643,-0.39308674474172933,300.4750771939821,37.624272070319456,0.0,1.0,19.98162321372883,13.41806668095267,0.0,Landing
13.0,-198.0942723801104,-881.0512704965219,184.8069652720102,2.836297114342461,-0.6381371860006193,300.6432337643828,37.337772436466786,0.0,1.0,19.98162321372883,13.41806668095267,0.0,Landing
13.100000000000001,-199.56152786105315,-898.8707688086776,185.27028776569753,3.0299797139556617,-0.5461040301565037,300.72135911422765,37.60724576939929,0.0,1.0,19.98162321372883,13.41806668095267,0.0,Landing
13.200000000000001,-201.09240661019652,-882.8460622931516,185.13990217033398,2.834104269307339,-0.40985227054630935,300.54460857089236,37.29384447561394,0.0,1.0,19.98162321372883,13.41806668095267,0.0,Landing
13.3,-202.50850269157615,-881.4842931691659,184.9242868515543,3.107211106486112,-0.6499629762343406,300.82742375748796,36.89329208174577,0.0,1.0,19.98162321372883,13.41806668095267,0.0,Landing
13.4,-203.96894932689898,-845.8025374541934,184.46180703256815,2.702451402361924,-0.28800223484103504,300.5096621366731,36.9576822284659,0.0,1.0,19.98162321372883,13.41806668095267,0.0,Landing
13.5,-205.3214192974675,-865.361345202291,184.73071354411564,2.735183812284049,-0.6190176966780265,300.62164656531786,36.88130780773677,0.0,1.0,19.98162321372883,13.41806668095267,0.0,Landing
13.600000000000001,-206.8353094175876,-881.4185054273253,185.35953007752866,2.6712524927429047,-0.20513121737609813,300.7664603232038,36.866766406216925,0.0,1.0,19.98162321372883,13.41806668095267,0.0,Landing
13.700000000000001,-208.3760418540356,-894.0519712746323,185.2683926832892,2.7355988286721353,-0.17761484192236127,301.00218596897196,37.416827474674044,0.0,1.0,19.98162321372883,13.41806668095267,0.0,Landing
13.8,-209.79167915384065,-876.0915198048906,185.2396876024829,2.4532849453105494,-0.429006354440929,300.67278300962596,37.116314852724365,0.0,1.0,19.98162321372883,13.41806668095267,0.0,Landing
13.9,-211.21576701661206,-855.8615078169737,184.67267853744818,2.981117693617208,-0.669565464278131,300.54493251282213,37.162120724788444,0.0,1.0,19.98162321372883,13.41806668095267,0.0,Landing
14.0,-212.65534939312047,-873.2256959284028,184.2395419203656,2.763292020725943,-0.3716630229820618,300.7945359955879,37.26564797484264,0.0,1.0,19.98162321372883,13.41806668095267,0.0,Landing
14.100000000000001,-214.15780763348266,-894.6600582179371,185.60072455069735,2.401888817633559,-0.8348480351625205,300.5937613535507,37.02376601887411,0.0,1.0,19.98162321372883,13.41806668095267,0.0,Landing
14.200000000000001,-215.68906730770175,-899.5679817795632,183.6632065828196,2.5309474292948497,-0.6169710709285792,300.6503937116531,37.32253421403146,0.0,1.0,19.98162321372883,13.41806668095267,0.0,Landing
14.3,-217.1531893020183,-893.1612193739,185.20069455914617,2.6993322649903133,-0.7269921390648909,300.73569286619863,36.68444272812536,0.0,1.0,19.98162321372883,13.41806668095267,0.0,Landing
14.4,-218.62361373035216,-875.4280732337179,184.4541998410683,2.923579664704965,-0.7716398921973502,300.53126812780044,36.83298439491655,0.0,1.0,19.98162321372883,13.41806668095267,0.0,Landing
14.5,-220.06620767387034,-881.5729436270148,184.56538985250543,2.8848041762535237,-0.8313909793552747,300.48540087887227,36.94867565727047,0.0,1.0,19.98162321372883,13.41806668095267,0.0,Landing
14.600000000000001,-221.56105402015336,-883.0139491753471,183.75466298360215,2.747376513406357,-0.6347121722722615,300.6763044995895,37.27599046901751,0.0,1.0,19.98162321372883,13.41806668095267,0.0,Landing
14.700000000000001,-223.0386834762289,-888.6503155410765,185.2134338325937,2.8923227811459813,-0.7713955402192437,300.89345641949285,37.88162773346901,0.0,1.0,19.98162321372883,13.41806668095267,0.0,Landing
14.8,-224.50945925157572,-905.268417701177,185.53690063743073,2.7573154102830233,-0.6065274136134142,301.0636085780553,36.60021057350418,0.0,1.0,19.98162321372883,13.41806668095267,0.0,Landing
14.9,-226.08739610865925,-894.0123215258382,182.131398161303,2.699329656142615,-0.6595675401328654,300.6930690784161,37.02053094684112,0.0,1.0,19.98162321372883,13.41806668095267,0.0,Landing
15.0,-227.5087450838581,-879.1860656634299,184.5848005395278,3.1591088174706345,-0.3926405817232216,300.58893059576644,37.01169112753654,0.0,1.0,19.98162321372883,13.41806668095267,0.0,Landing
15.100000000000001,-228.90538957989287,-843.6006875795556,183.2980308284262,2.7146052230930304,-0.31584262600662294,300.6739332082593,37.37136038668258,0.0,1.0,19.98162321372883,13.41806668095267,0.0,Landing
15.200000000000001,-230.30539954655703,-853.4094645996844,183.43198584379303,2.7342261718570287,-0.39998310588723124,300.73146379636,37.31381315962605,0.0,1.0,19.98162321372883,13.41806668095267,0.0,Landing
15.3,-231.7757924068565,-866.8277756532461,184.2760424783392,2.970218133422977,-0.2638292149041416,300.6808538024852,37.62620977874471,0.0,1.0,19.98162321372883,13.41806668095267,0.0,Landing
15.4,-233.2395284581591,-883.9504317532657,183.958264499478,2.9870903827025184,-0.7070157868500311,300.8043853985339,37.00743716796246,0.0,1.0,19.98162321372883,13.41806668095267,0.0,Landing
15.5,-234.72515170532336,-883.7991585771874,185.46813162578107,2.9123978552054584,-0.4390682595880928,300.60000142222304,37.25230165082835,0.0,1.0,19.98162321372883,13.41806668095267,0.0,Landing
15.600000000000001,-236.19478819974245,-888.2441810523973,186.44158679237518,2.73156899966202,-0.5405662021187598,300.6450824030567,37.17107452642854,0.0,1.0,19.98162321372883,13.41806668095267,0.0,Landing
15.700000000000001,-237.68074936342109,-877.5251010574437,185.54079033079077,2.8328192608443907,-0.6955530870516871,300.65157542409656,36.93752284074497,0.0,1.0,19.98162321372883,13.41806668095267,0.0,Landing
15.8,-239.11277721061057,-883.8209746267125,186.66404210373062,2.693469847175186,-0.806072661749866,300.59830725220456,37.34938444562492,0.0,1.0,19.98162321372883,13.41806668095267,0.0,Landing
15.9,-240.613893072876,-870.6172225393971,184.69442973322018,2.804912457399525,-0.5963735226032363,300.9128127313161,36.6844592192693,0.0,1.0,19.98162321372883,13.41806668095267,0.0,Landing
16.0,-242.03383547611807,-880.9736040415884,184.558535510981,2.6176828074106098,-0.6842670393387108,300.5354096092956,37.0914320016016,0.0,1.0,19.98162321372883,13.41806668095267,0.0,Landing
16.1,-243.51764523081852,-848.6997630602958,183.43762278048794,2.4776546530915526,-0.5851288532256907,300.8662245031725,37.775401336851814,0.0,1.0,19.98162321372883,13.41806668095267,0.0,Landing
16.2,-244.8573918881775,-868.6290691598629,184.17620461088973,2.2469865281351433,-0.6690817834053755,300.66973377559475,36.811300304150535,0.0,1.0,19.98162321372883,13.41806668095267,0.0,Landing
16.3,-246.37698082191739,-838.7267768300775,182.86611552324405,2.408132301998166,-0.7241159727578268,300.5012927173002,37.371433618596356,0.0,1.0,19.98162321372883,13.41806668095267,0.0,Landing
16.400000000000002,-247.7112791149689,-852.7823154978023,185.37262052331107,2.7073060459232567,-0.5454955844536572,300.5578326306089,38.063844024258124,0.0,1.0,19.98162321372883,13.41806668095267,0.0,Landing
16.5,-249.1213034656665,-819.0003016283468,183.31538575555564,2.83143753746148,-0.8499977090518374,300.4619414316144,36.59951628418498,0.0,1.0,19.98162321372883,13.41806668095267,0.0,Landing
16.6,-250.47198233005912,-829.8787213511446,184.10874934079516,2.934631501275834,-0.37312583902346674,300.64304001827054,36.93551603807699,0.0,1.0,19.98162321372883,13.41806668095267,0.0,Landing
16.7,-251.86067272172463,-823.9523608374667,183.78594720176676,2.788376174987559,-0.8424500395149729,300.66412967477754,37.349051397766345,0.0,1.0,19.98162321372883,13.41806668095267,0.0,Landing
16.8,-253.24106526985383,-834.1726610476258,184.87435183835495,2.803535697040116,-0.5331976151270331,300.7732690185567,36.89894030741219,0.0,1.0,19.98162321372883,13.41806668095267,0.0,Landing
16.900000000000002,-254.64284563529725,-860.870440673176,183.59935966756436,2.98812252641104,-0.5021167043445712,301.029459732576,37.274972441610615,0.0,1.0,19.98162321372883,13.41806668095267,0.0,Landing
17.0,-256.1650249250905,-867.0821422997847,183.5995402322683,2.7153126883824514,-0.5398838172572733,300.68281792282687,37.33642671891631,0.0,1.0,19.98162321372883,13.41806668095267,0.0,Landing
17.1,-257.57647598135276,-854.882787175643,184.92063883285886,3.0744448976530308,-0.42576311431521013,300.6409777890649,36.719256176977765,0.0,1.0,19.98162321372883,13.41806668095267,0.0,Landing
17.2,-258.91725957117546,-850.9836657351116,183.44060320030317,2.820387776112435,-0.4623951712550515,300.7219142016727,36.998033675712065,0.0,1.0,19.98162321372883,13.41806668095267,0.0,Landing
17.3,-260.41994325376606,-855.2693068525627,185.17431808067198,2.588440044171827,-0.3510674127392093,300.85586658664647,37.3461403349556,0.0,1.0,19.98162321372883,13.41806668095267,0.0,Landing
17.400000000000002,-261.85282251561557,-863.2463144365602,185.44038568116892,2.3777060176744853,-0.35650070395202643,300.7029915375799,36.659333412052575,0.0,1.0,19.98162321372883,13.41806668095267,0.0,Landing
17.5,-263.23349114335826,-841.6900866890614,182.5523788977003,2.6471459390560073,-0.47820166057662405,300.6551204610089,37.72991130376244,0.0,1.0,19.98162321372883,13.41806668095267,0.0,Landing
17.6,-264.62839368721137,-836.805416712582,186.71465340728474,3.070321314004075,-0.5726921249777865,300.58552288923374,37.37627526380308,0.0,1.0,19.98162321372883,13.41806668095267,0.0,Landing
17.7,-266.0368495991785,-835.8420246125434,183.93526822160925,2.357969980312358,-0.6050461096237635,300.8513502826272,36.6555838190912,0.0,1.0,19.98162321372883,13.41806668095267,0.0,Landing
17.8,-267.412701266421,-828.4127209459939,184.8122513826204,2.684854871479721,-0.39860479390866616,300.6873140832547,37.228526010456356,0.0,1.0,19.98162321372883,13.41806668095267,0.0,Landing
17.900000000000002,-268.77045729194134,-827.5889680521686,183.5063061078976,2.7097658388005943,-0.6400594745505221,300.59348305814956,37.51923893855467,0.0,1.0,19.98162321372883,13.41806668095267,0.0,Landing
18.0,-270.1747944394393,-829.8024430230839,185.12780660429593,2.3463560358741447,-0.4960261800043452,300.6706932768109,37.007174288791084,0.0,1.0,19.98162321372883,13.41806668095267,0.0,Landing
18.1,-271.5617134815364,-841.3310341374427,185.90742908870638,2.6542877141319052,-0.6408954136676663,300.59343092083714,37.21466291116489,0.0,1.0,19.98162321372883,13.41806668095267,0.0,Landing
18.2,-272.97711246262855,-843.5200575273257,184.23846156365843,2.6855796932966283,-0.6248951573701462,300.58759565034495,37.033077665732925,0.0,1.0,19.98162321372883,13.41806668095267,0.0,Landing
18.3,-274.39239472707595,-858.6156519506972,184.96606359405675,2.582784316046318,-0.23931872397507098,300.72578223980065,37.186385425550526,0.0,1.0,19.98162321372883,13.41806668095267,0.0,Landing
18.400000000000002,-275.8547917412899,-845.8260800158769,185.48822584882157,2.8527086343237147,-0.406050715289459,300.8748762696134,37.273509326843815,0.0,1.0,19.98162321372883,13.41806668095267,0.0,Landing
18.5,-277.20624286270794,-846.3991548552713,184.25784415091024,3.5186703157083357,-0.37975198480059735,300.59144368789066,37.49664491016373,0.0,1.0,19.98162321372883,13.41806668095267,0.0,Landing
18.6,-278.6243905013523,-834.7465823772609,185.7809269740927,2.91570593765344,-0.3255212393006317,300.6637928062024,37.85992874249178,0.0,1.0,19.98162321372883,13.41806668095267,0.0,Landing
18.7,-280.0285246531762,-840.0075937118686,183.52147270896927,2.837611688313968,-0.5767751651795662,300.6458025153278,37.220055369169174,0.0,1.0,19.98162321372883,13.41806668095267,0.0,Landing
18.8,-281.4062808312673,-844.3901138204183,184.56122994178884,2.6690602340435907,-0.6117011817894945,300.69004976560984,36.413813881444916,0.0,1.0,19.98162321372883,13.41806668095267,0.0,Landing
18.900000000000002,-282.8463410704544,-839.1505733811414,184.70000367283203,2.728110809725684,-0.5230801894894714,300.71733135214936,37.37629279479264,0.0,1.0,19.98162321372883,13.41806668095267,0.0,Landing
19.0,-284.2242775200819,-835.7262863737333,184.04426490241417,3.1472774108203,-0.8523991761865317,301.0242564182081,37.29309429275197,0.0,1.0,19.98162321372883,13.41806668095267,0.0,Landing
19.1,-285.58491226313595,-823.5971591748466,185.6832821118689,3.0187370435729797,-0.3878715624520298,300.8677077252678,37.28906241457269,0.0,1.0,19.98162321372883,13.41806668095267,0.0,Landing
19.200000000000003,-286.96432686632863,-822.9401206963644,184.62640188451655,2.6864540138303696,-0.7967732017395733,300.507469496177,37.61970600820334,0.0,1.0,19.98162321372883,13.41806668095267,0.0,Landing
19.3,-288.3389781235637,-844.6758216735589,186.05800415539483,2.8637153815090537,-0.4273234024947222,300.6522100473335,37.2410060868521,0.0,1.0,19.98162321372883,13.41806668095267,0.0,Landing
19.400000000000002,-289.80829137150374,-851.1431906135499,182.98246004656878,2.69761129995556,-0.3636193938674248,300.56408727251153,37.733893398040514,0.0,1.0,19.98162321372883,13.41806668095267,0.0,Landing
19.5,-291.2200428193964,-842.7399756259092,184.01300267034776,2.9318595782404717,-0.25994193100661633,300.8685241329372,36.99239607073384,0.0,1.0,19.98162321372883,13.41806668095267,0.0,Landing
19.6,-292.55267800169327,-812.86645013314,183.4312813882479,2.709813423166311,-0.7348519051092608,300.69806781127534,37.13752198684328,0.0,1.0,19.98162321372883,13.41806668095267,0.0,Landing
19.700000000000003,-293.87262362216944,-789.3847478461907,183.10611716638525,2.845083926554866,-0.5717035749090478,300.9784181468974,36.92718317915421,0.0,1.0,19.98162321372883,13.41806668095267,0.0,Landing
19.8,-295.16696655862734,-804.5239173651225,186.10892118250914,3.140133578059498,-0.5835288492286294,300.61689358592434,37.09824771751901,0.0,1.0,19.98162321372883,13.41806668095267,0.0,Landing
19.900000000000002,-296.5752975885189,-835.336338667139,185.77538186444502,2.928683257604885,-0.5404428824010638,300.44457337257563,37.112402309337774,0.0,1.0,19.98162321372883,13.41806668095267,0.0,Landing
20.0,-298.04930531550514,-861.3583885352909,185.3837896003132,2.998244627931422,-0.5731804588219069,300.747133542699,36.937006450829735,0.0,1.0,19.98162321372883,13.41806668095267,0.0,Landing
20.1,-299.4737585013038,-872.7618629830431,184.44092763481285,2.7300246078234043,-0.7700602775022419,300.9544919690459,36.69531932903889,0.0,1.0,19.98162321372883,13.41806668095267,0.0,Landing
20.200000000000003,-300.9391069034341,-864.1921533713457,182.73051147686755,2.7210484808872293,-0.7584439257762561,300.56164831361787,36.851500687227734,0.0,1.0,19.98162321372883,13.41806668095267,0.0,Landing
20.3,-302.37026608236187,-859.7560492621483,184.33166700376782,2.2943626062100915,-0.31341493489499794,300.7382127208334,37.45445162680751,0.0,1.0,19.98162321372883,13.41806668095267,0.0,Landing
20.400000000000002,-303.77253874761453,-862.1676140173577,182.52953778513074,2.9511665192077117,-0.4221674029877909,300.65115642681224,37.28258190681801,0.0,1.0,19.98162321372883,13.41806668095267,0.0,Landing
20.5,-305.2499449735209,-860.48811908978,184.80510141925373,2.603762256037173,-0.6599285180788986,300.50077945081796,37.01673649978905,0.0,1.0,19.98162321372883,13.41806668095267,0.0,Landing
20.6,-306.67270667781077,-861.8086239882246,185.9275965387432,2.6830912977992005,-0.3260292139310134,300.75977238871997,37.2381546525983,0.0,1.0,19.98162321372883,13.41806668095267,0.0,Landing
20.700000000000003,-308.08158186755566,-839.9957550775753,185.9284726418901,2.785259038606918,-0.7650517224114218,300.6159393545295,37.19050941255766,0.0,1.0,19.98162321372883,13.41806668095267,0.0,Landing
20.8,-309.44992374890876,-823.9560004208784,185.23940981009744,3.0400679561408146,-0.5630163597966126,300.7111525037749,37.81846705819111,0.0,1.0,19.98162321372883,13.41806668095267,0.0,Landing
20.900000000000002,-310.79248667991516,-819.794457334956,182.39088064888875,2.8373772564821067,-0.19882077638082996,300.4277490541052,37.82888680154043,0.0,1.0,19.98162321372883,13.41806668095267,0.0,Landing
21.0,-312.18055415423044,-825.0248906093816,185.61217227254033,2.5392148881749304,-0.7228035353512221,300.4893588887097,37.29308087713965,0.0,1.0,19.98162321372883,13.41806668095267,0.0,Landing
21.1,-313.57504820195567,-843.5929515571956,184.80363924885287,2.817675049961195,-0.2437377298422232,300.65701889155116,37.09002472784415,0.0,1.0,19.98162321372883,13.41806668095267,0.0,Landing
21.200000000000003,-315.01045143770114,-860.8776050875917,184.1618851639329,2.617671905828836,-0.8522035006377596,300.75269116182176,37.54071744187032,0.0,1.0,19.98162321372883,13.41806668095267,0.0,Landing
21.3,-316.4849421796684,-861.3019613154165,184.29720425693918,2.8328680720106147,-0.41149776055377474,300.5167195240201,37.25062972278926,0.0,1.0,19.98162321372883,13.41806668095267,0.0,Landing
21.400000000000002,-317.88155800853275,-870.2881102546485,185.04972466524325,2.6351101750034736,-0.8697294540355109,300.7461509407243,37.188468322483736,0.0,1.0,19.98162321372883,13.41806668095267,0.0,Landing
21.5,-319.3618919889744,-836.5809929974944,185.00459233443706,2.9978360034990312,-0.1708971409761298,300.4433982389386,37.07564948067825,0.0,1.0,19.98162321372883,13.41806668095267,0.0,Landing
21.6,-320.66784714465587,-836.8688358090708,183.98499365270015,3.402536283490557,-0.5734749759640791,300.5926447425178,37.28264239623449,0.0,1.0,19.98162321372883,13.41806668095267,0.0,Landing
21.700000000000003,-322.0659021875781,-821.2889417482188,184.05623472441857,3.151776967991405,-0.5841929111795889,300.7314162311345,37.130125994171586,0.0,1.0,19.98162321372883,13.41806668095267,0.0,Landing
21.8,-323.4683366977155,-833.3990011016567,184.7121476536693,2.9674634171078647,-0.4645241101117764,300.4914810716655,37.36264392246474,0.0,1.0,19.98162321372883,13.41806668095267,0.0,Landing
21.900000000000002,-324.83484215016415,-821.7653074187638,184.68343876426152,3.069006703492923,-0.5823198451950466,300.6620337624621,37.35806716150829,0.0,1.0,19.98162321372883,13.41806668095267,0.0,Landing
22.0,-326.1747287246719,-812.6505056079395,184.12816866435864,3.320144521531266,-0.5000398201696225,300.5725955118146,37.0288744932011,0.0,1.0,19.98162321372883,13.41806668095267,0.0,Landing
22.1,-327.53158922575517,-824.8191766891068,184.87955866080785,2.8356420993435494,-0.4872687841566902,300.5363922496731,36.91457146820055,0.0,1.0,19.98162321372883,13.41806668095267,0.0,Landing
22.200000000000003,-328.9589380336097,-826.7470418902349,185.38897192811206,2.944066915958123,-0.73162002449546,300.6204231695774,36.86920360231938,0.0,1.0,19.98162321372883,13.41806668095267,0.0,Landing
22.3,-330.3084639341231,-837.9160263048448,185.2297110544876,2.8605214783924375,-0.592765698315874,300.5719104812248,37.50044504814789,0.0,1.0,19.98162321372883,13.41806668095267,0.0,Landing
22.400000000000002,-331.7211693572794,-845.734341931734,184.93292597195028,2.5602978679758683,-0.13016367385237354,300.7794154513647,37.23915469376546,0.0,1.0,19.98162321372883,13.41806668095267,0.0,Landing
22.5,-333.18760974326835,-852.7909439844279,184.94423581528744,2.6640940515175573,-0.49884816289556844,300.7147456426608,36.974122500429196,0.0,1.0,19.98162321372883,13.41806668095267,0.0,Landing
22.6,-334.57241865404524,-841.2294530502209,184.37914145426873,2.765734970760708,-0.6151170140700354,300.61995848557353,36.64429677482854,0.0,1.0,19.98162321372883,13.41806668095267,0.0,Landing
22.700000000000003,-335.9273166225305,-831.3064269426263,184.69776892312694,2.5911957250388404,-0.4501971379554976,300.4906416876686,37.15428645862883,0.0,1.0,19.98162321372883,13.41806668095267,0.0,Landing
22.8,-337.3441418779815,-827.974662735653,183.5126698509237,2.4704344465525576,-0.4246315665582031,300.74673540961464,37.26734036474897,0.0,1.0,19.98162321372883,13.41806668095267,0.0,Landing
22.900000000000002,-338.7122919677235,-842.2295037362574,183.02794161421158,2.6030576094102855,-0.3665887327172428,300.7209876948086,37.847234297746496,0.0,1.0,19.98162321372883,13.41806668095267,0.0,Landing
23.0,-340.1384641412118,-828.9110137135594,185.60055305391285,2.8156676490963495,-0.6785680618714592,300.5095905873235,37.31797678130941,0.0,1.0,19.98162321372883,13.41806668095267,0.0,Landing
23.1,-341.4886969465493,-837.2596462842466,183.8794548889563,2.692340918463115,-0.295693307336947,300.84272493498213,37.072418298674314,0.0,1.0,19.98162321372883,13.41806668095267,0.0,Landing
23.200000000000003,-342.89859019914473,-805.6450072436974,183.2930144424547,2.9375347137768606,-0.4610846108716947,300.6744309830053,36.92699084705474,0.0,1.0,19.98162321372883,13.41806668095267,0.0,Landing
23.3,-344.16668917743027,-809.1626507122442,185.75694739991408,3.192220343657188,-0.5052935238041374,300.64568395763285,36.80164449653107,0.0,1.0,19.98162321372883,13.41806668095267,0.0,Landing
23.400000000000002,-345.5345102001105,-806.6979744451942,183.60647643414663,2.954549335323725,-0.7042547651739934,300.90214374736024,36.89984878880848,0.0,1.0,19.98162321372883,13.41806668095267,0.0,Landing
23.5,-346.9320800713707,-833.8351018290268,183.1741264191119,2.504166422827512,-0.44250957707512806,300.67721644914445,36.77809505006606,0.0,1.0,19.98162321372883,13.41806668095267,0.0,Landing
23.6,-348.3358646865754,-831.1802259759929,185.40980989777916,2.520302771878534,-0.6753329529574172,300.5538246164484,37.66039516310466,0.0,1.0,19.98162321372883,13.41806668095267,0.0,Landing
23.700000000000003,-349.69041132999047,-841.612363681827,184.10585869350425,2.422876852039207,-0.756445904205156,300.5657767887561,37.40548989485224,0.0,1.0,19.98162321372883,13.41806668095267,0.0,Landing
23.8,-351.14014188977984,-837.1097922226681,184.90867802477817,2.7458009719245253,-0.4534729474718013,300.66690551503325,37.14038548853112,0.0,1.0,19.98162321372883,13.41806668095267,0.0,Landing
23.900000000000002,-352.52141364768875,-844.64258208003,183.9181052705197,2.8312729146806057,-0.6321361420124912,300.6459028081681,36.86899319093663,0.0,1.0,19.98162321372883,13.41806668095267,0.0,Landing
24.0,-353.9136242403906,-806.3904549581139,184.2225152941297,2.578651373548031,-0.6917291928903678,300.61009477355515,37.21746088494446,0.0,1.0,19.98162321372883,13.41806668095267,0.0,Landing
24.1,-355.1720941645704,-796.036660574407,184.99945964736625,3.0018158866948443,-0.9476432772200735,300.8696533528348,36.980305015459905,0.0,1.0,19.98162321372883,13.41806668095267,0.0,Landing
24.200000000000003,-356.5015969505608,-802.2056578149432,183.89074456118698,2.667682389833744,-0.5330384914865577,300.5283265185942,37.62775635174957,0.0,1.0,19.98162321372883,13.41806668095267,0.0,Landing
24.3,-357.92465252946533,-819.8327918115979,183.88401312913797,3.1161355127470527,-0.7279586096788994,300.78330912107276,37.076536012082315,0.0,1.0,19.98162321372883,13.41806668095267,0.0,Landing
24.400000000000002,-359.2712581236284,-835.0861394243452,183.91456484820463,3.0331816965917184,-0.6166490270516265,300.68070117273305,36.925763168376356,0.0,1.0,19.98162321372883,13.41806668095267,0.0,Landing
24.5,-360.6770276476825,-805.209784680892,182.63325979203242,2.6350462634261875,-0.46516889400895645,300.7053161486241,36.97467016664264,0.0,1.0,19.98162321372883,13.41806668095267,0.0,Landing
24.6,-361.9507014528698,-816.3148537513507,185.2865139646299,2.560888647744766,-0.6970003733126818,300.74596114069413,37.566665939790994,0.0,1.0,19.98162321372883,13.41806668095267,0.0,Landing
24.700000000000003,-363.35283239238515,-811.539927435058,184.66798202557217,2.7346525738421787,-0.59685838929397,301.01856363287334,37.3749464579496,0.0,1.0,19.98162321372883,13.41806668095267,0.0,Landing
24.8,-364.7347272848578,-833.3762573756417,185.18640794606267,2.754681290383508,-0.4588254983463603,300.79554304306805,37.07802171514208,0.0,1.0,19.98162321372883,13.41806668095267,0.0,Landing
24.900000000000002,-366.117582739748,-806.6741494600024,185.79972781556074,3.0686075784320805,-0.52829492881814,300.5270869840649,36.89363516635659,0.0,1.0,19.98162321372883,13.41806668095267,0.0,Landing
25.0,-367.38620313968516,-803.3099267742159,183.32738121791425,2.564733845415682,-0.5886014191443031,300.5096808358883,37.065539798592475,0.0,1.0,19.98162321372883,13.41806668095267,0.0,Landing
25.1,-368.7512769187289,-791.8659750217557,185.0897232948137,2.8436086595264274,-0.4205437194166217,300.7154453639007,37.46139510698623,0.0,1.0,19.98162321372883,13.41806668095267,0.0,Landing
25.200000000000003,-370.0769126148568,-798.9329221324056,184.63142082344729,2.9844209111642765,-0.7085214415516684,300.79931703010425,37.9010435185702,0.0,1.0,19.98162321372883,13.41806668095267,0.0,Landing
25.3,-371.3808677503472,-793.3341422876651,185.63874360365273,2.6972422216158303,-1.1743474221211463,300.7451336544011,37.076449960284826,0.0,1.0,19.98162321372883,13.41806668095267,0.0,Landing
25.400000000000002,-372.7179476301672,-797.1091602981801,184.3101847699655,3.135192575192206,-0.8225503979607731,300.30854580216214,37.122518662205785,0.0,1.0,19.98162321372883,13.41806668095267,0.0,Landing
25.5,-374.0624584163477,-799.1051468954652,184.0656129187012,2.4920806243257267,-0.347160308979633,300.81284556350647,37.60486369716009,0.0,1.0,19.98162321372883,13.41806668095267,0.0,Landing
25.6,-375.3763934848245,-810.2574802321897,184.13593501980117,2.7719298279994224,-0.3732687320982726,300.95228296946243,37.43086304216786,0.0,1.0,19.98162321372883,13.41806668095267,0.0,Landing
25.700000000000003,-376.76923503132815,-804.8044860813093,184.3439141579629,2.4969881451113527,-0.3751133948259344,300.79386777712875,37.44260681925301,0.0,1.0,19.98162321372883,13.41806668095267,0.0,Landing
25.8,-378.0864808467542,-813.9392393114463,187.20481189611996,2.7665468971162452,-0.6084171015540525,300.7567184749398,37.29271729900956,0.0,1.0,19.98162321372883,13.41806668095267,0.0,Landing
25.900000000000002,-379.44608968138175,-795.0068745643193,184.3259099464658,3.020409445278125,-1.051069658148013,300.6370154128614,36.681798693167664,0.0,1.0,19.98162321372883,13.41806668095267,0.0,Landing
26.0,-380.74426940414975,-797.6918328370402,184.14669006367328,2.4936747244737822,-0.5071897077326702,300.7092076378392,37.36428830746803,0.0,1.0,19.98162321372883,13.41806668095267,0.0,Landing
26.1,-382.07494001093943,-809.3217081054604,185.62059778227555,2.7647749030081346,-0.29126424285663566,300.4673435667311,36.740013753869185,0.0,1.0,19.98162321372883,13.41806668095267,0.0,Landing
26.200000000000003,-383.49269822190905,-812.713192087574,185.17316249330577,3.126657420420631,-0.7065125833581224,300.3828836811581,37.18054180880111,0.0,1.0,19.98162321372883,13.41806668095267,0.0,Landing
26.3,-384.8078353645876,-816.7351554453489,184.7483554167686,2.9419411421267854,-0.5882924427869013,300.61329313668557,36.95443142552824,0.0,1.0,19.98162321372883,13.41806668095267,0.0,Landing
26.400000000000002,-386.1586157881662,-812.6496830287351,184.41453489671014,2.744792638685176,-0.24181989273416626,300.87533703948543,37.24898317916151,0.0,1.0,19.98162321372883,13.41806668095267,0.0,Landing
26.5,-387.5559466370527,-802.822756865362,182.8435994070761,2.562898654193536,-0.5111730167294881,301.0055907124813,37.330118119768194,0.0,1.0,19.98162321372883,13.41806668095267,0.0,Landing
26.6,-388.8219491489144,-793.4025566684227,184.20081735317672,2.5822611957471717,-0.6554851513806145,300.6487791561449,37.28891441105461,0.0,1.0,19.98162321372883,13.41806668095267,0.0,Landing
26.700000000000003,-390.1256285715083,-791.5561908485188,184.10706432298124,2.8435728965133182,-1.0278852161895882,300.46274860933613,37.39475187310075,0.0,1.0,19.98162321372883,13.41806668095267,0.0,Landing
26.8,-391.5137275912953,-793.8021788727724,184.16260221391698,2.9005208495039514,-0.9285036915292304,300.5231881033469,37.42034236171743,0.0,1.0,19.98162321372883,13.41806668095267,0.0,Landing
26.900000000000002,-392.7909600432783,-809.928372113859,184.40786552062363,2.6367241356850077,-0.40456757277647737,300.6918361092328,36.72121950371099,0.0,1.0,19.98162321372883,13.41806668095267,0.0,Landing
27.0,-394.1752704320776,-783.9415925180219,184.28366925516247,2.829381488621709,-0.3908629626838461,300.80050996791476,36.8639996190822,0.0,1.0,19.98162321372883,13.41806668095267,0.0,Landing
27.1,-395.43343555388543,-803.350091648042,184.1498707053878,2.678923806395811,-0.3243112440639898,300.36822042060317,37.336034038228966,0.0,1.0,19.98162321372883,13.41806668095267,0.0,Landing
27.200000000000003,-396.8077105015185,-794.5150208969949,184.03504127061657,2.6818553166050725,-0.4512782906735058,300.5437188493486,37.119820612184235,0.0,1.0,19.98162321372883,13.41806668095267,0.0,Landing
27.3,-398.14784553656256,-811.8001769420516,185.92195633980597,2.7668566105427486,-0.3659703011651422,300.6539652048109,37.166358009924636,0.0,1.0,19.98162321372883,13.41806668095267,0.0,Landing
27.400000000000002,-399.4924364385957,-817.1801683864032,183.46663990584452,2.8804842150255836,-0.20028055700306863,300.50006058015765,37.40133243158797,0.0,1.0,19.98162321372883,13.41806668095267,0.0,Landing
27.5,-400.8936113434505,-826.4255155040473,186.73937932332578,2.8807779945367153,-0.6231732086216333,300.53065705411996,37.366236539312666,0.0,1.0,19.98162321372883,13.41806668095267,0.0,Landing
27.6,-402.2799731140828,-819.0705772603224,183.28281928409626,3.1518973409368027,-0.4947894080202954,300.65707285423014,37.105019398212804,0.0,1.0,19.98162321372883,13.41806668095267,0.0,Landing
27.700000000000003,-403.5877893248973,-803.3135946224661,183.28684223634096,2.396431203082603,-0.6772658771298057,300.61972045891866,36.91047576793347,0.0,1.0,19.98162321372883,13.41806668095267,0.0,Landing
27.8,-404.91017931656285,-780.7499098417907,183.544808109466,2.4062643965953323,-0.36581060442309205,300.6525578314728,37.02609208245774,0.0,1.0,19.98162321372883,13.41806668095267,0.0,Landing
27.900000000000002,-406.18372266329175,-781.2716956983991,184.05183780198612,2.2911534608290327,-0.43665414271488556,300.5143833022057,37.08287925014433,0.0,1.0,19.98162321372883,13.41806668095267,0.0,Landing
28.0,-407.4941478033893,-788.7087589417661,185.15262675183487,2.57043143962382,-0.6377333209369619,300.57967729734173,37.12958652320365,0.0,1.0,19.98162321372883,13.41806668095267,0.0,Landing
28.1,-408.8537231112717,-783.6402089667899,184.8320036301285,2.876897799456639,-0.6745559204339595,300.49502281840967,37.05920003775887,0.0,1.0,19.98162321372883,13.41806668095267,0.0,Landing
28.200000000000003,-410.1019237081257,-775.213018810507,183.94701389996249,2.634658195390586,-0.27228374954429035,300.63902973283143,37.804475909656475,0.0,1.0,19.98162321372883,13.41806668095267,0.0,Landing
28.3,-411.37021289744183,-775.3543519993968,184.97970853593893,2.549274534057348,-0.5576482583487139,300.80024490630876,36.61594545774669,0.0,1.0,19.98162321372883,13.41806668095267,0.0,Landing
28.400000000000002,-412.73049487126866,-778.2988724785696,187.82797374407858,2.734875066306722,-0.47055858379772453,300.6809537713614,37.74135675691891,0.0,1.0,19.98162321372883,13.41806668095267,0.0,Landing
28.5,-413.99341807051854,-769.2231970697776,183.63796451920223,2.9710502587411836,-0.519365191986099,300.6420296438413,37.21680844005066,0.0,1.0,19.98162321372883,13.41806668095267,0.0,Landing
28.6,-415.2163288827907,-765.1556095498677,183.56701437219002,2.94735204716701,-0.43006885402686945,300.74808373703024,37.14866253569698,0.0,1.0,19.98162321372883,13.41806668095267,0.0,Landing
28.700000000000003,-416.556272919018,-778.9564681693946,185.3222226690761,2.9142918789939563,-0.5372327293804495,300.69393877124924,37.259874426749114,0.0,1.0,19.98162321372883,13.41806668095267,0.0,Landing
28.8,-417.8882004113655,-797.1181810292364,186.23511007481886,2.84926592857111,-0.5722914168577962,300.5087598059515,37.79004181843184,0.0,1.0,19.98162321372883,13.41806668095267,0.0,Landing
28.900000000000002,-419.2019197879369,-798.7209877843725,183.82707142031637,2.4363477641866442,-0.7099750130210054,300.84008507405224,37.09781825015135,0.0,1.0,19.98162321372883,13.41806668095267,0.0,Landing
29.0,-420.54987785793986,-792.9889233421022,184.54910002576653,3.0648129892529385,-0.5480743820163604,300.6168564629337,37.62631184962018,0.0,1.0,19.98162321372883,13.41806668095267,0.0,Landing
29.1,-421.853145028076,-807.6820126376106,183.32907186048854,2.8963619366237277,-0.5201625174962011,300.6686126125087,37.25698171986792,0.0,1.0,19.98162321372883,13.41806668095267,0.0,Landing
29.200000000000003,-423.24032985112495,-790.4901778164458,183.6426896249195,2.717637678028389,-0.6154262203451258,300.7974513127484,36.960812368637725,0.0,1.0,19.98162321372883,13.41806668095267,0.0,Landing
29.3,-424.5023287470221,-790.780469672336,184.95566081982892,2.8570422407932705,-0.41925445163964004,300.8777908317451,36.80887012566037,0.0,1.0,19.98162321372883,13.41806668095267,0.0,Landing
29.400000000000002,-425.8070473764377,-763.8509847101773,182.73266266241026,2.6383686343072252,-0.5893744368819515,300.8367902699581,37.315028236850836,0.0,1.0,19.98162321372883,13.41806668095267,0.0,Landing
29.5,-427.05958477467584,-776.8578103641516,184.5007236908154,3.2364080191236506,-1.3705776390611688,300.83045778051417,37.34990956683937,0.0,1.0,19.98162321372883,13.41806668095267,0.0,Landing
29.6,-428.38661779884285,-794.1294851943212,183.87052606661894,2.8287910716687947,-0.4466292529714192,300.83111231433077,37.494057502617785,0.0,1.0,19.98162321372883,13.41806668095267,0.0,Landing
29.700000000000003,-429.7776948024093,-814.3019825787178,183.9309946659334,2.664577381724037,-0.41530406582906826,300.43683897945516,37.238375530919505,0.0,1.0,19.98162321372883,13.41806668095267,0.0,Landing
29.8,-431.13109468756943,-826.026472764454,181.63887587354955,2.844579307962466,-0.38170300812639496,300.6450123502125,36.90588038289077,0.0,1.0,19.98162321372883,13.41806668095267,0.0,Landing
29.900000000000002,-432.5167501626651,-805.7611364650711,185.45579898181634,2.6842162266081067,-0.2114082320871627,300.6924270126199,37.39196064526988,0.0,1.0,19.98162321372883,13.41806668095267,0.0,Landing
30.0,-433.80650048473467,-797.357817002262,186.93632498266547,2.9222818051634847,-0.24881627325919758,300.713691701667,37.067348160270456,0.0,1.0,19.98162321372883,13.41806668095267,0.0,Landing
30.1,-435.11788377258074,-762.4891444842433,184.28310818045173,2.650489299379035,-0.4302337325533566,300.8012957550412,37.3134740096493,0.0,1.0,19.98162321372883,13.41806668095267,0.0,Landing
