time_s,altitude_ft,vertical_speed_fpm,ias_kt,pitch_deg,roll_deg,heading_deg,throttle_pct,afterburner_on,gear_down,flaps_deg,speedbrake_pct,weight_on_wheels,label
0.0,0.04348167427666368,8.019252922798039,10.849994888491487,-0.7110611840236682,-0.3411780323261248,302.49691830665563,19.147190649887243,0.0,1.0,0.0,0.0,1.0,Taxi
0.1,0.07021251735265714,24.238235479697863,10.114918585512651,-0.752733979430052,-0.2698005017539314,302.32823030375505,19.100044372667902,0.0,1.0,0.0,0.0,1.0,Taxi
0.2,0.164672851675153,17.630152777352198,9.375147270823975,-0.867286942373605,0.6680012935792332,302.2337502653611,18.98391417214883,0.0,1.0,0.0,0.0,1.0,Taxi
0.30000000000000004,0.13163243816342468,-11.464373505585366,10.186842052060458,-1.0510325164346574,-0.8244259077554039,302.2151600535583,19.35297466305743,0.0,1.0,0.0,0.0,1.0,Taxi
0.4,0.01289064982473031,-13.285383737376655,11.11612846560865,-0.8289170605001643,-0.23602709747983483,302.39349740406715,19.440227018779993,0.0,1.0,0.0,0.0,1.0,Taxi
0.5,0.09824593298826972,-83.84187932550505,10.615662634956735,-0.9647004312337777,-0.17733422297413673,302.18911614067724,18.403020118910632,0.0,1.0,0.0,0.0,1.0,Taxi
0.6000000000000001,-0.2875769584641006,-18.970571563066486,12.315433693131823,-0.6785649585365853,0.09950042117945587,302.35704512382154,19.146989850509904,0.0,1.0,0.0,0.0,1.0,Taxi
0.7000000000000001,-0.0819622079906021,-9.363195379396197,10.661234926628264,-0.6905535969980515,-0.4323632879126257,302.1289502660138,18.53917950257936,0.0,1.0,0.0,0.0,1.0,Taxi
0.8,0.05142995609128873,61.83340961606959,10.871397286006363,-1.1361227163395125,0.3259693898857689,302.25470687670713,19.630942940149755,0.0,1.0,0.0,0.0,1.0,Taxi
0.9,0.021590089616247345,38.50460669643197,11.073441764124967,-0.7611749640596528,0.49361245687473115,302.42181517095037,19.36315429914102,0.0,1.0,0.0,0.0,1.0,Taxi
1.0,0.11056082549155771,-15.712305476852142,9.961020965622168,-0.4134792501598705,-0.29903293953409066,302.30158206602096,19.04613289427043,0.0,1.0,0.0,0.0,1.0,Taxi
1.1,-0.027131571292972008,16.726516350076718,10.316817913709642,-0.9832809822845412,-0.06796497997138305,302.2246455563421,18.95792462007478,0.0,1.0,0.0,0.0,1.0,Taxi
1.2000000000000002,0.10522267136663087,-6.34820052239441,10.264842476475028,-0.616627783150066,-0.5431581063748178,302.40664537531995,18.366418431296456,0.0,1.0,0.0,0.0,1.0,Taxi
1.3,0.07881982287958561,-4.368380497234419,9.946121104646991,-0.7320598294449661,-0.1660253104703106,302.28531992173237,19.06672731547516,0.0,1.0,0.0,0.0,1.0,Taxi
1.4000000000000001,-0.04897347377914415,14.905106830452942,11.373642602097645,-0.7475255036912507,-0.3894147836848621,302.2881846874084,20.21440734666103,0.0,1.0,0.0,0.0,1.0,Taxi
1.5,0.1797482055188955,26.457451945050675,10.390813481517265,-1.1957546228147626,0.10779038975927434,302.35154397857536,19.603378627460568,0.0,1.0,0.0,0.0,1.0,Taxi
1.6,0.2111070826048389,14.991861083121586,10.943037503767913,-1.0735367142093724,-0.4179439069063912,302.33954407883175,19.138467525752915,0.0,1.0,0.0,0.0,1.0,Taxi
1.7000000000000002,0.02598583163646369,-52.06434307610626,10.974565594244678,-0.5530593071504701,-0.5223501722978144,302.1379903727243,19.936015153898715,0.0,1.0,0.0,0.0,1.0,Taxi
1.8,-0.08057350986163585,-17.49653778260813,10.465186131322039,-0.9444004866202456,0.876920382820111,302.28652073477315,19.021331233638346,0.0,1.0,0.0,0.0,1.0,Taxi
1.9000000000000001,0.12362439369179817,-61.869445378626686,10.674737149833435,-0.8968758515979133,-0.8961041208472772,302.3150394515528,19.30551982513606,0.0,1.0,0.0,0.0,1.0,Taxi
2.0,-0.2833613952566698,32.99110427660567,10.010559347770746,-0.918644719331422,0.35133287314979994,302.3497281405563,19.52642037325505,0.0,1.0,0.0,0.0,1.0,Taxi
2.1,0.08438201152139241,-9.692950720792345,10.57750695790981,-0.6916865445168461,-0.08070855791005101,302.1873403678994,19.172382007364305,0.0,1.0,0.0,0.0,1.0,Taxi
2.2,0.07515964008783639,59.4662439416223,10.703809271331355,-0.9440970340653745,0.30073525884575425,302.51978056618714,19.45772097665702,0.0,1.0,0.0,0.0,1.0,Taxi
2.3000000000000003,0.013969824451441626,-23.99703039858849,9.446107693558346,-0.9433815982175504,-0.7785541750659389,302.377607452916,18.29986310326793,0.0,1.0,0.0,0.0,1.0,Taxi
2.4000000000000004,-0.035603140471550075,-3.8973056550382807,10.180450052662707,-0.7603779510698209,0.20661928330531204,302.3456665829317,19.69443983362182,0.0,1.0,0.0,0.0,1.0,Taxi
2.5,0.05567311181264494,2.9399046782170486,11.200849901655422,-1.1153020572870196,0.0938522688488667,302.40787330526643,19.456366742196636,0.0,1.0,0.0,0.0,1.0,Taxi
2.6,0.028669347842526824,21.319113488476162,11.408511450692664,-0.9030453673842752,0.17924737102000632,302.4402945054543,18.840759842447582,0.0,1.0,0.0,0.0,1.0,Taxi
2.7,0.07099242697083069,-12.83351279262537,10.42195724038902,-0.9014870881241266,-0.384987522924138,302.45202454201103,19.77659989400028,0.0,1.0,0.0,0.0,1.0,Taxi
2.8000000000000003,-0.008494452150481958,-26.17949174459775,10.663743605391838,-0.9167977493694301,-0.5992868739201316,302.4593083159808,18.998848477972125,0.0,1.0,0.0,0.0,1.0,Taxi
2.9000000000000004,-0.10222811088046196,-13.271991948490657,10.234070174936505,-0.802506165048651,-0.8826610578258636,302.23596550400725,20.080233279586388,0.0,1.0,0.0,0.0,1.0,Taxi
3.0,0.004632467228377379,-14.820057309913544,10.25880119098652,-0.40901992952231436,-0.3963830525830715,302.4551023819447,18.263788151217476,0.0,1.0,0.0,0.0,1.0,Taxi
3.1,-0.08259473870004971,0.058344033284015495,10.342504383070331,-0.6881747215509609,0.9287037305747546,302.3363244238549,19.273191249503114,0.0,1.0,0.0,0.0,1.0,Taxi
3.2,-0.10193639071404192,-2.224883570086149,10.882338802607727,-0.8101993488648566,-0.5383630702437457,302.2421079957659,18.96463114420701,0.0,1.0,0.0,0.0,1.0,Taxi
3.3000000000000003,-0.006491950622053418,16.93112974271858,11.269697949188705,-0.5977623289420744,0.22117236879111915,302.167727997007,19.459527525210746,0.0,1.0,0.0,0.0,1.0,Taxi
3.4000000000000004,0.0020609100135431206,62.28202390597315,10.063952314217548,-0.7906156245742666,0.6485430858247428,302.2994613711113,19.09210864150178,0.0,1.0,0.0,0.0,1.0,Taxi
3.5,0.2094737288158237,-23.505209823188995,9.198664231979752,-1.0445618722894103,0.6811388503027757,302.3360189670183,19.319358378707125,0.0,1.0,0.0,0.0,1.0,Taxi
3.6,-0.12401799973799857,-3.8647931395107995,10.96318961519024,-0.7185435343253146,-0.6025275150826891,302.0967657399875,19.394789889745606,0.0,1.0,0.0,0.0,1.0,Taxi
3.7,-0.017263055684011052,-64.65725935474167,10.629936736053072,-0.9966296534297644,-0.07563513718749955,302.2396213966862,17.629641828133973,0.0,1.0,0.0,0.0,1.0,Taxi
3.8000000000000003,-0.1138125679578848,20.076981684359165,10.739101744521594,-1.0542507890039177,-0.16710491929087562,302.3907223047813,19.50987938182624,0.0,1.0,0.0,0.0,1.0,Taxi
3.9000000000000004,-0.023633091316202844,29.055111537940363,11.357595758727735,-0.9766923284677121,0.37414931088238773,302.33778195333025,19.48011612941269,0.0,1.0,0.0,0.0,1.0,Taxi
4.0,0.12801250200569067,13.062770791204125,10.755594110972298,-0.8725907582449721,-0.959259385845843,302.2201666952526,19.365792277013007,0.0,1.0,0.0,0.0,1.0,Taxi
4.1000000000000005,-0.048498714001864264,-29.189157309672964,11.218148373765581,-0.6816063201786738,0.019351135363509502,302.3736718489854,18.58982013089629,0.0,1.0,0.0,0.0,1.0,Taxi
4.2,-0.16957887786456777,-65.85002070004764,11.357691248577028,-0.7049919368497555,0.5521035880622807,302.42921752697384,19.587252796299943,0.0,1.0,0.0,0.0,1.0,Taxi
4.3,-0.20123760149454759,-0.7568592483014243,10.72006500371666,-0.5801075853357622,0.010107100635376546,302.2286740809743,19.973695755866284,0.0,1.0,0.0,0.0,1.0,Taxi
4.4,-0.05228301024337147,47.92264114441638,11.025959546750942,-0.8525110942540765,0.1797515554553225,302.375903745748,19.11243664080383,0.0,1.0,0.0,0.0,1.0,Taxi
4.5,0.07003432785751405,40.086075436549116,11.470335465890763,-0.7474122676090924,-0.4476571707244071,302.17039812944586,19.531198461734377,0.0,1.0,0.0,0.0,1.0,Taxi
4.6000000000000005,-0.0008072243118021037,20.33038469479652,10.863517123614791,-1.0113006117595962,0.29582442321203184,302.4422698163737,19.728245917820548,0.0,1.0,0.0,0.0,1.0,Taxi
4.7,0.049368913230611045,-10.129913235680629,10.186596611547168,-0.7881112935942126,1.2942344433405304,302.28151467642886,18.995343199706177,0.0,1.0,0.0,0.0,1.0,Taxi
4.800000000000001,0.019384761679110813,-33.582830762496485,9.932940632856617,-0.7004306489367967,0.007266245379762056,302.34596381999984,20.4417274777892,0.0,1.0,0.0,0.0,1.0,Taxi
4.9,-0.16872137812428462,-30.449606281837987,11.12558406898349,-0.8140286025950625,-1.006831182035827,302.3314611118574,19.526632474019227,0.0,1.0,0.0,0.0,1.0,Taxi
5.0,-0.10287911817857896,-51.81492409495888,10.12867528088907,-1.427501503550637,0.14148749777311032,302.10114224624476,19.063855207577813,0.0,1.0,0.0,0.0,1.0,Taxi
5.1000000000000005,-0.23968985879568372,43.99980967641801,10.361505224399474,-1.1502211103364972,0.5341568879186934,302.30538699125157,20.559248929804916,0.0,1.0,0.0,0.0,1.0,Taxi
5.2,0.05127767025780531,9.40347839906265,10.008842032937391,-0.8806033177667261,-0.3479974685616586,302.46414806203074,19.12555286604669,0.0,1.0,0.0,0.0,1.0,Taxi
5.300000000000001,-0.05586172618326584,61.057023305244705,10.909892319683314,-0.8772338123473896,0.3008594658468593,302.60997226331983,18.78076721582655,0.0,1.0,0.0,0.0,1.0,Taxi
5.4,0.06559525773053973,-24.749489737737633,10.79382775323655,-1.0332675833418439,-0.5322475334163317,302.4894947127476,19.54127312391884,0.0,1.0,0.0,0.0,1.0,Taxi
5.5,-0.07246977843088297,-34.96251057856273,10.88262227312728,-0.8890633457606059,0.36929546344068925,302.2455322998212,17.464890171440175,0.0,1.0,0.0,0.0,1.0,Taxi
5.6000000000000005,-0.2306742790760796,-67.78947583610085,10.553237907799186,-0.6040033123627339,0.029160933666595844,302.31389217672813,19.172869122891058,0.0,1.0,0.0,0.0,1.0,Taxi
5.7,-0.2733521214499646,1.2030356585564401,11.15550798288665,-1.0346506037182344,0.18243462980526615,302.2862598078551,19.358827520637224,0.0,1.0,0.0,0.0,1.0,Taxi
5.800000000000001,-0.06645460013810083,42.56982291117091,10.880035946547864,-0.9093713788359334,-0.1314390485683124,302.33558656174716,19.390184469277685,0.0,1.0,0.0,0.0,1.0,Taxi
5.9,-0.01782516452022515,45.81604828368671,11.332276801584921,-0.8396483668357816,0.032748089606148154,302.34066403101554,19.186766440166384,0.0,1.0,0.0,0.0,1.0,Taxi
6.0,-0.04427188003153111,0.9674423554975172,10.469490910526847,-0.6373390050896113,-0.6507252632200413,302.19388969050783,19.817287697720985,0.0,1.0,0.0,0.0,1.0,Taxi
6.1000000000000005,-0.06161738836061334,21.410962420102596,9.596027070580783,-0.6607101367627384,0.5462820896976557,302.32091645846594,19.18961214219651,0.0,1.0,0.0,0.0,1.0,Taxi
6.2,0.08922964758028773,9.193261175695199,10.543728480344626,-0.7676105670499265,0.010779010812226517,302.30234115457256,18.752011339159335,0.0,1.0,0.0,0.0,1.0,Taxi
6.300000000000001,0.0016944258469447624,1.9169759022592388,11.157462266022792,-0.7173958041800734,-0.5589107143858024,302.4681708814717,18.67469336719804,0.0,1.0,0.0,0.0,1.0,Taxi
6.4,-0.052032508849317254,-40.81578602961682,11.152358842177113,-0.8075027795839955,0.05480648156722099,302.4668002484153,20.314530659582953,0.0,1.0,0.0,0.0,1.0,Taxi
6.5,-0.11484928256779646,-29.59342894141209,11.064567331543476,-1.1704699959990141,-0.5269751915078199,302.29808861643096,20.08412126245771,0.0,1.0,0.0,0.0,1.0,Taxi
6.6000000000000005,-0.14627271886011578,0.37813253378619294,10.097279584305127,-0.7238953458715894,0.4366427569935104,302.2664617902258,19.41597564938203,0.0,1.0,0.0,0.0,1.0,Taxi
6.7,-0.0501418461803864,24.013004207642908,10.555887936923693,-0.6413139835585874,-0.5446199169763333,302.23292235784083,18.60294457748131,0.0,1.0,0.0,0.0,1.0,Taxi
6.800000000000001,0.005215738470417976,43.48527358590335,10.32252007811274,-1.0088884924604227,0.5221037327386711,302.3363871836849,18.58451821056281,0.0,1.0,0.0,0.0,1.0,Taxi
6.9,0.07115364906940087,41.004788695268935,10.85662648407842,-1.0267682571574532,-0.9107879236975627,302.448990979492,19.235778155772472,0.0,1.0,0.0,0.0,1.0,Taxi
7.0,0.15488209729595823,9.435020957397567,10.724161453832481,-0.584485060759526,0.09655967055059336,302.31719036226605,18.982037331558367,0.0,1.0,0.0,0.0,1.0,Taxi
7.1000000000000005,0.05239084325740572,-60.249319916178735,11.83953879634374,-0.689719133641964,0.2949969236930847,302.31485738061156,18.977545082319715,0.0,1.0,0.0,0.0,1.0,Taxi
7.2,-0.23009295051149287,-7.9361210395370465,11.018665834477122,-1.4056820722538972,0.2730997877282634,302.2757911185628,19.325727163321645,0.0,1.0,0.0,0.0,1.0,Taxi
7.300000000000001,0.11520149209827296,-25.715501113843903,9.314710761692501,-0.7099013688485658,0.15385528612121746,302.50432132690105,19.62570722092721,0.0,1.0,0.0,0.0,1.0,Taxi
7.4,-0.07618666231181381,83.53323045549949,10.600841587974285,-0.8911693412194127,0.14399724037205414,302.3277808724331,19.077545991809803,0.0,1.0,0.0,0.0,1.0,Taxi
7.5,0.1875732017660046,-50.855848698670314,10.359952010182488,-0.9001625972197365,0.33957270719040716,302.27208973089296,20.36958101407172,0.0,1.0,0.0,0.0,1.0,Taxi
7.6000000000000005,-0.13907775139507866,10.435344038818736,11.079949696371074,-0.6222742253998841,0.3044117344412002,302.3521048905202,18.722088291284493,0.0,1.0,0.0,0.0,1.0,Taxi
7.7,-0.024009942117720187,-16.18182410508862,10.209834552313529,-0.6981459747473069,0.626004466434733,302.41432698450103,19.121915997125495,0.0,1.0,0.0,0.0,1.0,Taxi
7.800000000000001,0.10666408124056143,52.884712816031225,10.17394379775255,-1.1556078829148344,-0.21020755191562135,302.33484261941885,19.939270304111858,0.0,1.0,0.0,0.0,1.0,Taxi
7.9,0.12534581268507736,26.600387712928892,9.890969778716885,-0.7771560314476778,0.4014974353156807,302.4611240606491,19.085423536422894,0.0,1.0,0.0,0.0,1.0,Taxi
8.0,0.10899199644692417,-37.721738165579694,10.350286686307602,-0.8007368721810694,0.463203157046263,302.27739196343,19.494430081849018,0.0,1.0,0.0,0.0,1.0,Taxi
8.1,-0.08194460958733715,4.918922190303998,11.715384163762318,-1.1982093433635224,0.2332596711821985,302.3060478899955,19.43116519187176,0.0,1.0,0.0,0.0,1.0,Taxi
8.200000000000001,0.14994042363659724,-12.294610150862555,9.72084969992673,-0.9438046931840531,-0.17072602652751664,302.19018631606707,19.424042971049538,0.0,1.0,0.0,0.0,1.0,Taxi
8.3,0.04751894569261129,32.51562808449467,10.373109830857715,-0.8209994323228548,-0.018553492396626417,302.53591591910026,20.05056689940789,0.0,1.0,0.0,0.0,1.0,Taxi
8.4,0.08063353083513614,-73.26549215816065,10.420900810663396,-1.0906275656764413,0.5678825750494824,302.143247325787,18.833696551303944,0.0,1.0,0.0,0.0,1.0,Taxi
8.5,-0.21638703715420618,-8.583399620057302,10.300690670782519,-0.7939133288761266,-0.15519033523905337,302.5490890738258,19.566318289245128,0.0,1.0,0.0,0.0,1.0,Taxi
8.6,0.00460194759232456,-4.55311701060251,11.396363511849964,-0.8287205170910792,0.24645983421263298,302.1212106525543,19.337568324718205,0.0,1.0,0.0,0.0,1.0,Taxi
8.700000000000001,0.057867945782123356,55.53138392529322,9.7127635023711,-0.8084307848324196,-0.2846502199487645,302.38915305455293,18.23034340807095,0.0,1.0,0.0,0.0,1.0,Taxi
8.8,0.06126988247225972,28.27713513426359,9.558211013438425,-0.3288806944390039,0.10088080486469113,302.31998437695165,18.894896988360543,0.0,1.0,0.0,0.0,1.0,Taxi
8.9,0.14598762326364242,-14.130943383563833,9.97972560065083,-1.0822581513544378,0.03647250342586205,302.3539425622488,19.27827558144095,0.0,1.0,0.0,0.0,1.0,Taxi
9.0,-0.012786771135695927,-29.737412346755452,11.277560856316153,-0.4861485825458771,0.3747438958791399,302.51078267308594,18.66370433501634,0.0,1.0,0.0,0.0,1.0,Taxi
9.1,-0.08741717926151765,-47.66038417524252,10.857521021843372,-0.8720323816054846,0.06030469680274153,302.271866214737,18.789539893117595,0.0,1.0,0.0,0.0,1.0,Taxi
9.200000000000001,-0.09231429761257028,33.37415911601687,10.639755619830495,-0.9168262120725859,0.27223143238900055,302.47433651898064,18.45665397787905,0.0,1.0,0.0,0.0,1.0,Taxi
9.3,0.15408402444438832,32.10107610823324,11.428922164674525,-0.7410813548103823,0.20809817730505414,302.2666125963949,19.006179472775322,0.0,1.0,0.0,0.0,1.0,Taxi
9.4,0.07308820127964842,-12.409785229741852,9.929831465894088,-0.8842348494944077,0.48434878688146715,302.32218647544266,18.553811997700695,0.0,1.0,0.0,0.0,1.0,Taxi
9.5,-0.15436322376127967,-9.040327761095702,9.493657191203583,-0.5915905585235779,0.2277706940200817,302.32995734384303,19.730558695716482,0.0,1.0,0.0,0.0,1.0,Taxi
9.600000000000001,0.10888238563890969,0.9150405058940869,11.092496798224483,-0.9690436330627027,0.1358854648724734,302.2867368750692,18.093518898230503,0.0,1.0,0.0,0.0,1.0,Taxi
9.700000000000001,0.07766340380911868,-17.967347478022702,10.192859156400363,-0.8402089913048032,0.14232422574610853,302.21892830108504,19.704614303043584,0.0,1.0,0.0,0.0,1.0,Taxi
9.8,-0.2441999611513934,10.905704418419,9.741821948702812,-0.3334893298672199,-1.037575932017036,302.3631372651673,19.95719375709549,0.0,1.0,0.0,0.0,1.0,Taxi
9.9,0.16341090773100445,-16.89672269422815,10.813890067873931,-0.8917573145514024,-0.1533555701486046,302.24117983447877,18.79282452091897,0.0,1.0,0.0,0.0,1.0,Taxi
10.0,-0.006820209662022333,51.30125278112224,10.447958414914163,-0.9681388953013539,0.34314339196140053,302.26020548135466,19.7337769337808,0.0,1.0,0.0,0.0,1.0,Taxi
10.100000000000001,0.012306302754217638,-14.50131703462865,11.399030789996175,-1.0078723365293607,0.2547115597762739,302.2532929178435,18.420093726368396,0.0,1.0,0.0,0.0,1.0,Taxi
10.200000000000001,0.09090432255786104,7.864609892881383,11.321338920384171,-0.8357253789500975,0.34280305398361993,302.2723957869887,19.789569596615323,0.0,1.0,0.0,0.0,1.0,Taxi
10.3,0.032502839802384456,17.79313297668234,10.263518860057522,-0.6506198361313633,-0.018773012992929584,302.07018198867786,18.815170118652258,0.0,1.0,0.0,0.0,1.0,Taxi
10.4,0.1012719676376292,2.2834011308010838,10.414763314893099,-1.0488716792971597,0.6063977360759072,302.5683391958662,19.749771466005676,0.0,1.0,0.0,0.0,1.0,Taxi
10.5,0.10232132821186633,-22.38443204278164,10.486684172032234,-0.9631908903739974,0.3275807723473772,302.2877852225288,18.644981676580635,0.0,1.0,0.0,0.0,1.0,Taxi
10.600000000000001,-0.07941932041152387,-17.89720969995789,11.666751542792554,-0.8761588804822693,0.6298426457552679,302.3677394929364,19.379409864686522,0.0,1.0,0.0,0.0,1.0,Taxi
10.700000000000001,0.011785919137839614,-44.17744446383932,11.57753323068847,-1.0918844861226105,0.7137853321082792,302.3728447412336,20.146015702000593,0.0,1.0,0.0,0.0,1.0,Taxi
10.8,-0.11856589410733041,22.665871522460538,11.375698567593584,-0.9976486635724597,-0.2851248305319887,302.169959380675,19.05052498795593,0.0,1.0,0.0,0.0,1.0,Taxi
10.9,0.033910037200778675,-19.399485421032022,10.508391658845365,-1.0017635181604545,-0.2771235424468911,302.14471658707873,19.29579363094149,0.0,1.0,0.0,0.0,1.0,Taxi
11.0,-0.08521150796732063,44.59707036770825,10.77171432465705,-0.9288975710958136,0.8528009224881538,302.3919065121006,18.229582886868656,0.0,1.0,0.0,0.0,1.0,Taxi
11.100000000000001,0.10441945773121067,-1.4452638405588516,11.002344784509065,-0.6626730833710905,-0.03977522316073447,302.34334737474524,19.301101402839848,0.0,1.0,0.0,0.0,1.0,Taxi
11.200000000000001,0.026683717997984288,35.34566953453531,11.78305395875078,-0.8923180493215643,-0.5634208885465782,302.37302278500715,18.953689501135276,0.0,1.0,0.0,0.0,1.0,Taxi
11.3,0.09151683970535579,-35.68490300043943,10.559759470081381,-0.6971533752925048,-0.30640908153789115,302.460882463648,19.521731237846105,0.0,1.0,0.0,0.0,1.0,Taxi
11.4,-0.0740050572709866,-21.628117911316295,10.6210533989955,-0.8320466545547942,-0.36340228358372456,302.45474900497675,19.517709313485458,0.0,1.0,0.0,0.0,1.0,Taxi
11.5,-0.08145687155859734,-45.094415689536824,11.086498350376187,-1.03346290581863,0.2012255804481298,302.45020750552635,18.73654565960888,0.0,1.0,0.0,0.0,1.0,Taxi
11.600000000000001,-0.13395523874232848,11.834986203314571,11.910544500790763,-0.8186425431188981,-0.26734626706362147,302.35442910406186,19.218636132175774,0.0,1.0,0.0,0.0,1.0,Taxi
11.700000000000001,-0.014830126254413871,47.809701511634216,11.324077744743313,-1.124292384813315,-0.2589094974046218,302.329749291584,19.482904359986517,0.0,1.0,0.0,0.0,1.0,Taxi
11.8,0.1575916359995736,22.287257991827442,11.813831968072558,-1.0524573188937814,-0.1374245825380742,302.38564800440156,19.917125602718002,0.0,1.0,0.0,0.0,1.0,Taxi
11.9,-0.022518948783191398,16.552794367764022,11.220545400807055,-1.0679133611753158,0.4152366406578685,302.4261519077713,18.61256265862365,0.0,1.0,0.0,0.0,1.0,Taxi
12.0,0.06793384558440611,-22.4842625501322,9.893595918260615,-0.8474816896245858,-0.08717898838019138,302.5178913608545,19.150937917911353,0.0,1.0,0.0,0.0,1.0,Taxi
12.100000000000001,0.045170323248912465,6.147104982823106,11.019241699866514,-0.8334067264947724,0.6365447928741393,302.2671560768565,18.87234564560539,0.0,1.0,0.0,0.0,1.0,Taxi
12.200000000000001,0.00821657613092401,4.309098478499249,10.347404002144428,-0.9854587711776959,0.3978880166679025,302.1590097181545,18.557909812570795,0.0,1.0,0.0,0.0,1.0,Taxi
12.3,0.08947933797690223,10.355715250963577,11.199038357458729,-0.8410758817720828,0.4631496606527311,302.3390632092296,19.308845098687417,0.0,1.0,0.0,0.0,1.0,Taxi
12.4,0.09694889950373023,2.999062797180571,9.984199610035786,-0.7310557648678406,-0.9633331171744656,302.2597284333922,19.398319061616398,0.0,1.0,0.0,0.0,1.0,Taxi
12.5,0.023211890116826745,-37.7695143278284,10.771907572484412,-1.061801220322326,0.42747975789189213,302.37971846351,18.946838562831232,0.0,1.0,0.0,0.0,1.0,Taxi
12.600000000000001,-0.09936823366223987,-17.53331323950566,11.014740245511764,-1.1426334365399078,-1.3523738452788259,302.44944444053453,18.7003626964798,0.0,1.0,0.0,0.0,1.0,Taxi
12.700000000000001,0.009282333306201821,-28.682397209329725,9.59599765193263,-1.0156591623883373,-0.42247193297121255,302.2975926051862,20.167893911041247,0.0,1.0,0.0,0.0,1.0,Taxi
12.8,-0.120200095929822,-6.962615384164036,9.857965532868288,-1.0864005861073063,0.21725596158089638,302.1776666886551,18.486607619884257,0.0,1.0,0.0,0.0,1.0,Taxi
12.9,-0.13418131058306015,-23.878255532523095,10.751962432439727,-0.9583680203674116,-0.019878526372955334,302.11320681745633,18.94961850440461,0.0,1.0,0.0,0.0,1.0,Taxi
13.0,-0.11010894435641377,33.67357859745344,10.994925919648576,-0.9593180383638363,-0.09456726205233267,302.2465422315104,18.16267560788107,0.0,1.0,0.0,0.0,1.0,Taxi
13.100000000000001,0.04816779705744508,61.81954774203865,11.025071367721058,-0.7863047761090719,0.4344704992919709,302.2883562997363,18.789167027966286,0.0,1.0,0.0,0.0,1.0,Taxi
13.200000000000001,0.17491642812713296,-3.9525611622538954,10.637536718222922,-0.9294370455441101,-0.17657464462294686,302.2872767987906,18.68797090377309,0.0,1.0,0.0,0.0,1.0,Taxi
13.3,-0.12987175016768332,16.999894273197402,10.690510259706572,-0.85683484695796,-0.3885787742815904,302.40952293722637,19.170903626739868,0.0,1.0,0.0,0.0,1.0,Taxi
13.4,0.13316726842343204,-46.39134449025804,10.802387865662814,-0.8561910527163396,-0.2574533986059613,302.27130225042856,18.88057714623652,0.0,1.0,0.0,0.0,1.0,Taxi
13.5,-0.05704029432415728,25.628156827275756,10.62836309739124,-0.9364556371790916,-0.10996855925486657,302.49905332296225,18.923779967001717,0.0,1.0,0.0,0.0,1.0,Taxi
13.600000000000001,-0.0017309660313046434,-51.46463803296311,10.037843618144233,-1.0837724427963191,-0.24107962687684262,302.25027721427,19.82318030652147,0.0,1.0,0.0,0.0,1.0,Taxi
13.700000000000001,-0.1241559217413836,-1.2300727069504636,10.18562963257417,-1.0898580727035057,-0.16467268312588998,302.5000847165684,18.785084214543446,0.0,1.0,0.0,0.0,1.0,Taxi
13.8,-0.0631906578589097,-20.62596450320841,11.215380555068311,-0.7395166435274856,0.23042449654281072,302.3891275935265,17.91408141407726,0.0,1.0,0.0,0.0,1.0,Taxi
13.9,-0.10486078854734682,31.20080745374624,9.870593947193113,-1.1438118561637092,0.30186967114761715,302.2977857092138,19.1867358528504,0.0,1.0,0.0,0.0,1.0,Taxi
14.0,0.0318481155273475,36.25316938666596,9.717649227033176,-0.8818800177386097,0.40536944179419016,302.20693750762996,19.51983033462876,0.0,1.0,0.0,0.0,1.0,Taxi
14.100000000000001,0.11807518907442,4.514402580130347,11.655092348115165,-1.0324154150559428,-0.17573865099747996,302.2421927543262,19.319294055793783,0.0,1.0,0.0,0.0,1.0,Taxi
14.200000000000001,-0.0822887756466952,-3.2353664997467675,10.418755090267632,-0.9047589862315432,0.10009092698116127,302.45058653622846,18.24958385633421,0.0,1.0,0.0,0.0,1.0,Taxi
14.3,0.01567128302861356,-37.73861531958695,9.68323724194869,-0.8897924482486483,-0.2974804413438653,302.32137447069067,19.455923879650626,0.0,1.0,0.0,0.0,1.0,Taxi
14.4,-0.07061788752351487,-1.9416342610877575,9.984254130958963,-0.9483007964039649,0.9977731117870575,302.3027588895877,19.66912856727512,0.0,1.0,0.0,0.0,1.0,Taxi
14.5,-0.0919969469521341,-1.5879579471179899,9.955845827782014,-0.7135497229878469,0.8568111046621789,302.41235514209734,18.845125148887888,0.0,1.0,0.0,0.0,1.0,Taxi
14.600000000000001,0.007731493293023514,29.64474872181948,11.38623224988736,-1.0538817958309574,1.2747925880658653,302.3246294403532,19.33908003879585,0.0,1.0,0.0,0.0,1.0,Taxi
14.700000000000001,0.0776058560855824,18.944251314063713,11.342608385951022,-0.9579726949814018,-0.0154897490185004,302.45710767333594,18.827672444555287,0.0,1.0,0.0,0.0,1.0,Taxi
14.8,0.0027243096181843777,9.920845528535637,11.274550158640396,-1.0228360622602894,0.08085269897076372,302.31165227545057,19.958009270761885,0.0,1.0,0.0,0.0,1.0,Taxi
14.9,0.057335720935701606,32.519400869789315,10.911634004948242,-0.9146231713292957,0.5748755370281116,302.2386501023391,18.421192470943314,0.0,1.0,0.0,0.0,1.0,Taxi
15.0,0.24020286043452888,6.53785470755264,10.051700306574435,-0.7812934292313675,-0.037277352430660625,302.3065486545079,19.303284991411804,0.0,1.0,0.0,0.0,1.0,Taxi
15.100000000000001,0.035413583155947434,8.975567494407692,10.21507694460239,-0.9941516509900592,-0.8893829524532141,302.22497995781737,18.474350965099642,0.0,1.0,0.0,0.0,1.0,Taxi
15.200000000000001,0.10221355840773992,-38.47728154365825,10.727120661041466,-0.9206799102988172,0.4280269368304636,302.29583174707477,19.34124241918948,0.0,1.0,0.0,0.0,1.0,Taxi
15.3,0.04781645271623748,-47.78903469963495,11.219637699591486,-0.9315188257176967,0.7130849630796681,302.44736123726557,19.25924559057744,0.0,1.0,0.0,0.0,1.0,Taxi
15.4,-0.20353159034222743,-25.92159729948098,10.180208417093581,-0.9227783027088851,-0.05241793577338895,302.23654561202966,19.21155383820418,0.0,1.0,0.0,0.0,1.0,Taxi
15.5,-0.02739442808966506,-8.227118785118408,10.587460755307212,-0.8001038860513758,0.38129398262739694,302.4505144997529,19.311850135372072,0.0,1.0,0.0,0.0,1.0,Taxi
15.600000000000001,0.006680858790645324,29.84126289518423,10.421910099681604,-0.948211418230847,0.47549239749754946,302.3519481849661,19.673463479785255,0.0,1.0,0.0,0.0,1.0,Taxi
15.700000000000001,-0.05432527586630638,-15.668837493093562,10.740085382995092,-0.7992798960381959,0.3360258811123245,302.1159933602901,19.71913677690858,0.0,1.0,0.0,0.0,1.0,Taxi
15.8,-0.10573861555513296,14.992669707329322,11.609985330047886,-1.147563922818881,0.29581150523941124,302.3738070129177,18.116258955189615,0.0,1.0,0.0,0.0,1.0,Taxi
15.9,0.08164420732729186,-0.01040521270855758,10.554682016893887,-1.0684070744341476,0.582876588589599,302.26796594287043,18.89657888069734,0.0,1.0,0.0,0.0,1.0,Taxi
16.0,-0.05437730192984927,18.326194065514713,10.02976851395326,-0.8365694513491313,0.7500320712465608,302.3043471331704,19.27567584125113,0.0,1.0,0.0,0.0,1.0,Taxi
16.1,-0.014107645227559496,9.178078360927353,12.342978319114817,-0.6418393811451737,-0.17161249063889805,302.3711964395292,17.840388090436072,0.0,1.0,0.0,0.0,1.0,Taxi
16.2,0.1275345991319285,13.906666419055341,11.86414668236653,-0.7713064641323479,0.17843442509785584,302.4160456087959,19.208343160743272,0.0,1.0,0.0,0.0,1.0,Taxi
16.3,0.015156030165427312,8.42738353477436,11.02313786803219,-1.0392306550429606,0.14366307237684478,302.5209525120056,19.47030603242515,0.0,1.0,0.0,0.0,1.0,Taxi
16.400000000000002,0.028029272446312183,-5.81076800695908,9.114284387534111,-1.2813356021189446,-0.6402141742597071,302.42848314258686,19.91450017962036,0.0,1.0,0.0,0.0,1.0,Taxi
16.5,0.098480759097133,-28.624616839958232,11.218984450313561,-0.711154509578409,-0.5982317113386295,302.1409271520081,18.763785116664838,0.0,1.0,0.0,0.0,1.0,Taxi
16.6,-0.1279670540343639,14.075449251077353,11.048424340472682,-0.8426626714553865,0.1317674382935502,302.3149193360557,18.50991805501666,0.0,1.0,0.0,0.0,1.0,Taxi
16.7,0.09840651870169886,-36.00453703404654,10.983676608818191,-0.7256575006968105,-0.05226746126144656,302.51741323001306,19.174726230020365,0.0,1.0,0.0,0.0,1.0,Taxi
16.8,-0.08154192607309982,18.032246556227037,10.991457201459063,-0.9426777193213943,-0.882091387426475,302.28800974258684,19.828630391219665,0.0,1.0,0.0,0.0,1.0,Taxi
16.900000000000002,-0.037805821253228844,-16.93691247887823,11.320669293720567,-0.6972317488692021,0.3158874634197429,302.3768789307078,19.354727937289244,0.0,1.0,0.0,0.0,1.0,Taxi
17.0,0.01372195630730761,11.470538181358853,10.539599901800951,-0.8602203874858588,-0.005063376025429574,302.2506532215684,19.35164282666255,0.0,1.0,0.0,0.0,1.0,Taxi
17.1,-0.024189235166305653,-40.565007488006195,10.66721821710602,-0.7551528611478034,0.51394703735021,302.31188102273086,19.82638527029218,0.0,1.0,0.0,0.0,1.0,Taxi
17.2,-0.24063085869325992,-15.512648925177402,10.778202860836693,-0.6900746949986372,-0.009888826459130614,302.29493537959365,19.6200865925227,0.0,1.0,0.0,0.0,1.0,Taxi
17.3,-0.06384128831857948,-39.43883342047917,10.87454755046128,-0.9504667718197541,-0.12537273168450086,302.07935414210465,18.976844177799624,0.0,1.0,0.0,0.0,1.0,Taxi
17.400000000000002,-0.22138340226870162,47.83745929977348,11.250705116449476,-0.9437407247619471,-0.06259790462386629,302.3262135727764,19.208410462824126,0.0,1.0,0.0,0.0,1.0,Taxi
17.5,-0.0014435621943926498,22.77173384736869,10.277865040984697,-0.8086891833739789,-0.5110120818960153,302.1747218201838,18.94920327511999,0.0,1.0,0.0,0.0,1.0,Taxi
17.6,0.05001738091826387,41.466087129064775,11.384768644620689,-0.7296282171436096,0.41110467218512653,302.3185814876115,19.10076352472367,0.0,1.0,0.0,0.0,1.0,Taxi
17.7,-0.014052966623377829,-15.03289130226914,10.209552941826933,-1.1544658773063663,0.01756732608397074,302.2418069694636,18.330750055897294,0.0,1.0,0.0,0.0,1.0,Taxi
17.8,-0.07660801870573845,-14.673586972319663,10.709943143897279,-0.3925803137115075,-0.22825078497397155,302.3752968879569,18.626895701898025,0.0,1.0,0.0,0.0,1.0,Taxi
17.900000000000002,-0.023350553943334545,-1.3553969480463917,9.953472565438464,-0.5824814455029672,0.15475831502184637,302.193846312922,19.06900987424747,0.0,1.0,0.0,0.0,1.0,Taxi
18.0,-0.02082995136360989,-14.409141694758494,10.498483359807995,-1.206426728410123,-0.43844136576848125,302.36785593087325,19.046422300892008,0.0,1.0,0.0,0.0,1.0,Taxi
18.1,-0.14865372717953104,43.578357370941035,10.960611199753908,-1.0534442432768034,0.9620503856988667,302.4010021960829,19.573560268367768,0.0,1.0,0.0,0.0,1.0,Taxi
18.2,0.19454123291137052,23.50395814250358,9.742634367883479,-0.5483791792729504,0.2658614841368362,302.35949163829105,19.366072291771477,0.0,1.0,0.0,0.0,1.0,Taxi
18.3,0.0966898393489079,58.49006756939371,10.90873663226201,-1.0128854083770191,0.2321601772693655,302.2997939716116,19.231148858358665,0.0,1.0,0.0,0.0,1.0,Taxi
18.400000000000002,0.1437966106674374,-24.146455599308002,10.098165772962618,-0.6880911622254632,0.40020845226660257,302.46460699528257,20.037003031329675,0.0,1.0,0.0,0.0,1.0,Taxi
18.5,0.07380895491483042,-9.877626053669593,10.145756738753942,-0.8139250399873165,0.17658377598160252,302.30397589054667,19.599358091690164,0.0,1.0,0.0,0.0,1.0,Taxi
18.6,0.047301709080559855,-25.173946834756006,9.483552587456272,-0.9685624862958263,0.03296214322866929,302.43159222298254,19.320007569730553,0.0,1.0,0.0,0.0,1.0,Taxi
18.7,0.017926876493657283,-46.812693935383834,11.67888011638915,-0.7967237237683643,0.894292678422996,302.3707802491441,18.837141527206107,0.0,1.0,0.0,0.0,1.0,Taxi
18.8,-0.16025451476208885,-18.027912486640517,10.619276238044431,-0.9980518719297271,0.5504357939122227,302.30638733813726,19.423864580548507,0.0,1.0,0.0,0.0,1.0,Taxi
18.900000000000002,-0.04283785335264282,-36.39514733613625,11.161389318392,-0.6080390867362953,-0.15203335265815052,302.138295760579,19.549227893077184,0.0,1.0,0.0,0.0,1.0,Taxi
19.0,-0.16404886018702403,49.91196769521389,11.367895349138713,-0.8796934874073747,0.6120442882415017,302.2721967449447,18.91270078845794,0.0,1.0,0.0,0.0,1.0,Taxi
19.1,0.08930532371398052,47.619935186605495,10.195229520528832,-0.43759493160480295,0.5777885503815338,302.1747684813016,19.41508640025088,0.0,1.0,0.0,0.0,1.0,Taxi
19.200000000000003,0.1952618225803846,5.535286933652344,10.51661732809133,-0.6511050155568434,0.05070356019494243,302.6450857085231,19.255395861153627,0.0,1.0,0.0,0.0,1.0,Taxi
19.3,-0.1363724255187624,-6.613504624148253,11.116610482703841,-0.789218688183929,-0.19407757371192907,302.34400754218063,19.693061152871266,0.0,1.0,0.0,0.0,1.0,Taxi
19.400000000000002,0.05623780059323912,-69.38691557671915,10.612518467054821,-0.3258402424230942,0.1363159681371465,302.258797752453,19.30476993676682,0.0,1.0,0.0,0.0,1.0,Taxi
19.5,-0.15167275530321123,23.85334103168935,10.575914675968386,-1.3983645026189606,-0.1506201955712718,302.27862584819025,19.963470973004213,0.0,1.0,0.0,0.0,1.0,Taxi
19.6,-0.017105720360315765,-0.0861683014421099,10.983044766038974,-0.6589104352215762,0.06362532496513205,302.4750215456668,18.552627026144282,0.0,1.0,0.0,0.0,1.0,Taxi
19.700000000000003,0.05580695908602848,19.585477692565178,10.754720517704811,-0.6493236810743177,0.6640969519466127,302.445317810912,18.998029130807147,0.0,1.0,0.0,0.0,1.0,Taxi
19.8,-0.053745366840385424,-7.063965905512975,10.464081824169467,-0.7578656218524631,0.10697808070588509,302.2220804871406,19.091401973130463,0.0,1.0,0.0,0.0,1.0,Taxi
19.900000000000002,-0.05242554988788072,-31.04355811758212,10.560961647920688,-0.7146169491142029,-0.38481759902377904,302.37439696457136,19.102769140194834,0.0,1.0,0.0,0.0,1.0,Taxi
20.0,-0.0994108315018822,26.59172839227244,10.493386891380338,-0.8866688857716875,1.2922135183278451,302.2628665340062,18.98158341306202,0.0,1.0,0.0,0.0,1.0,Taxi
20.1,0.07921327512097667,58.335422614140555,10.445460371793454,-0.7742642793728103,0.03532446828478977,302.4492250322513,18.64766734014178,0.0,1.0,0.0,0.0,1.0,Taxi
20.200000000000003,0.23925156318282195,33.91294630085573,10.230057143558508,-0.8285111171123699,0.0151456159136144,302.39011638138993,18.185415547228175,0.0,1.0,0.0,0.0,1.0,Taxi
20.3,0.07015390000239634,-2.7161983571934414,10.857548719822615,-0.6682257722625676,-0.03584958131317055,302.17621886865527,19.03244114830012,0.0,1.0,0.0,0.0,1.0,Taxi
20.400000000000002,0.06563228333500941,-41.093678892208295,10.411362031681152,-1.0279099177957907,-0.2752685967407692,302.36307727298527,18.97922010550503,0.0,1.0,0.0,0.0,1.0,Taxi
20.5,0.03378316872178041,-61.52940285107582,11.596994926509026,-0.765217799083709,-0.63498529734593,302.51194985422603,19.07022489629959,0.0,1.0,0.0,0.0,1.0,Taxi
20.6,-0.23749311425298286,-16.748169503242774,10.68039629709053,-0.9498940742526845,-0.24900023750636516,302.1482328684242,19.58086333164492,0.0,1.0,0.0,0.0,1.0,Taxi
20.700000000000003,-0.018108564181204538,20.265523479519953,10.227212899195173,-0.8424662076597835,0.8816801339156962,302.1428829813992,19.624528974711772,0.0,1.0,0.0,0.0,1.0,Taxi
20.8,0.1351107861193801,15.954018109501126,10.451398703901736,-0.7803966504696902,0.4207236670190843,302.44134995487104,19.929564859434088,0.0,1.0,0.0,0.0,1.0,Taxi
20.900000000000002,-0.1577230237054773,6.453179914305982,10.489238592257816,-0.690805978462459,0.37088382709739487,302.3635841422674,19.59876461357293,0.0,1.0,0.0,0.0,1.0,Taxi
21.0,0.014157335390325305,-31.076488588029562,12.019115720445871,-0.5056523955971803,-0.22401470922592398,302.4631196283508,19.659771117027518,0.0,1.0,0.0,0.0,1.0,Taxi
21.1,-0.020271656820767762,22.070297150769544,10.415138514902043,-1.0799360240403257,-0.6159434248184263,302.37805777629774,19.460387569866555,0.0,1.0,0.0,0.0,1.0,Taxi
21.200000000000003,-0.04737153795162963,3.069330908323027,10.247605991855787,-0.7675021742211005,0.9062685620754485,302.42665961262094,20.201722151274677,0.0,1.0,0.0,0.0,1.0,Taxi
21.3,0.02950398993194039,17.109176850924005,11.007937611308424,-0.8430585455417265,0.07471305309408859,302.07789975429705,18.55423504606481,0.0,1.0,0.0,0.0,1.0,Taxi
21.400000000000002,0.06527422743385222,26.677903569793685,11.092452751529747,-0.9728220895176125,-0.0446284350299341,302.2837147697837,19.12932779514548,0.0,1.0,0.0,0.0,1.0,Taxi
21.5,0.08601797989733875,-15.771450174750072,10.41174058091136,-0.33289076483769575,0.46656328668448194,302.2618970792571,19.376169780180085,0.0,1.0,0.0,0.0,1.0,Taxi
21.6,-0.04935326094181002,-4.4196724368761595,10.814437433590895,-0.9411843487086625,-0.07865454241376929,302.40034729545755,19.663950461083942,0.0,1.0,0.0,0.0,1.0,Taxi
21.700000000000003,0.04317586524947137,-4.145987122502311,9.245343401202128,-0.7227396764089704,-1.023788548593814,302.3589324088857,19.38927729692662,0.0,1.0,0.0,0.0,1.0,Taxi
21.8,0.06528804428482714,-19.715671574651875,10.265099742716576,-0.4805251543192889,-0.3016994992234677,302.32739960637616,19.293902726979407,0.0,1.0,0.0,0.0,1.0,Taxi
21.900000000000002,-0.14793161881506944,-8.975542822396529,10.36799352127889,-0.9643170554660808,-0.47536590914556076,302.34129967152626,18.40060738125781,0.0,1.0,0.0,0.0,1.0,Taxi
22.0,-0.0017018488625113286,-24.249754889538423,10.67716322427182,-0.6109656974924718,0.46926572614694234,302.3908563579939,18.986805561776865,0.0,1.0,0.0,0.0,1.0,Taxi
22.1,-0.05596073016286504,61.31387468636226,11.313350040691205,-0.7917637009602663,0.02695347224195723,302.33517228912115,19.11882992388437,0.0,1.0,0.0,0.0,1.0,Taxi
22.200000000000003,0.1586377546167418,-0.703287736801561,9.19517422714621,-0.8353234280086286,-0.6675682720778152,302.49896160438993,19.542416198049033,0.0,1.0,0.0,0.0,1.0,Taxi
22.3,-0.0052182875465192225,-15.533712912497641,10.793807926281081,-0.8711901868535581,0.6105299667462497,302.35301551624946,19.32643571346084,0.0,1.0,0.0,0.0,1.0,Taxi
22.400000000000002,-0.13362929472535334,-41.26512251183476,11.274133446110456,-0.769746137332963,-1.1330559315201472,302.31746011919086,18.364761403572167,0.0,1.0,0.0,0.0,1.0,Taxi
22.5,-0.04768785794243212,28.987119884154936,11.132894735471968,-0.8172504824464654,0.1759046692627519,302.31400166056255,19.366390060424862,0.0,1.0,0.0,0.0,1.0,Taxi
22.6,0.13971731187425537,13.551490068846633,10.894377218065783,-0.7125717626292754,0.660714746391512,302.4004347187506,19.726178043590817,0.0,1.0,0.0,0.0,1.0,Taxi
22.700000000000003,-0.06587184438112029,27.156771289302494,9.312322229222781,-1.0339838199696474,-0.8425404438442633,302.39149122244567,19.013859454360585,0.0,1.0,0.0,0.0,1.0,Taxi
22.8,0.08809599850408024,-0.4490466238589323,11.29657955938753,-0.7818022809595357,-0.8231895762307347,302.39268550358656,18.896211251477908,0.0,1.0,0.0,0.0,1.0,Taxi
22.900000000000002,0.1374720787549606,10.309357591894942,10.145049669508474,-0.5205212750870869,-0.11573860749429105,302.2221002670808,18.73119670779902,0.0,1.0,0.0,0.0,1.0,Taxi
23.0,-0.014325056421645655,-5.865546451304863,10.495533714555684,-1.07699807911321,-0.05958348396941107,302.3877347568998,19.68292708414617,0.0,1.0,0.0,0.0,1.0,Taxi
23.1,0.05876826624755585,-26.05269407728753,9.78307099460828,-1.0434824313638387,-0.547353627103456,302.28343098951564,18.3098969020491,0.0,1.0,0.0,0.0,1.0,Taxi
23.200000000000003,0.00720860836852287,3.190493398634756,10.18182841171013,-1.1027376844671484,0.017925349136514186,302.2763069659576,18.831074567089008,0.0,1.0,0.0,0.0,1.0,Taxi
23.3,0.0016274105715280481,-15.491286662247754,10.625375444614836,-0.7704433362041195,-0.009535224326889503,302.3148724107192,19.671603832870776,0.0,1.0,0.0,0.0,1.0,Taxi
23.400000000000002,-0.018688167063683,-3.7697964404413606,11.003015910377776,-0.7461917374849366,-0.40079180747672477,302.3808276286554,19.05237641891561,0.0,1.0,0.0,0.0,1.0,Taxi
23.5,-0.011640373833684022,-17.934044747011647,10.574658170033961,-1.313582171280152,-0.42824827984402825,302.2033769326506,19.558974766913657,0.0,1.0,0.0,0.0,1.0,Taxi
23.6,-0.08804281316353028,-4.323324735778152,10.825424915596312,-0.9167582582580446,0.3897492928400506,302.14249917745155,19.09753225389203,0.0,1.0,0.0,0.0,1.0,Taxi
23.700000000000003,-0.04030479074257386,-1.9859731754369918,10.334757573789597,-0.9158923032149078,0.12902270228556773,302.3122271346575,18.645182279141874,0.0,1.0,0.0,0.0,1.0,Taxi
23.8,-0.021570239710869077,31.605147702268578,10.977274725448934,-0.7756769397359762,-1.2603501758941649,302.19151263931985,19.25257244302009,0.0,1.0,0.0,0.0,1.0,Taxi
23.900000000000002,0.0699829253478125,27.77413170735993,10.165792406093605,-0.8572595789920118,-0.28527110542558026,302.36696716756967,20.27681227627793,0.0,1.0,0.0,0.0,1.0,Taxi
24.0,0.09856586779422571,6.799952183519902,9.283331397002272,-0.7637879938023294,-0.6941010682266129,302.38462716621484,18.38292560242112,0.0,1.0,0.0,0.0,1.0,Taxi
24.1,0.012429521206730338,-23.522185278194296,11.071325737582711,-1.0078930799679364,0.00467964405570924,302.4575813856218,19.38784087849269,0.0,1.0,0.0,0.0,1.0,Taxi
24.200000000000003,-0.047628001043159056,-16.496334459590056,9.633709731044593,-0.8150461249894543,-0.19910235590267078,302.2935908469111,18.874312614561855,0.0,1.0,0.0,0.0,1.0,Taxi
24.3,0.016084195496275364,-16.727965361954887,9.923644710535712,-1.069431441073351,0.49718107439397424,302.52170925239125,19.36347580976681,0.0,1.0,0.0,0.0,1.0,Taxi
24.400000000000002,-0.07121030560304417,20.500495571978963,10.772024685864691,-0.91011283522183,-1.0799472001513153,302.387411364894,20.076223991286962,0.0,1.0,0.0,0.0,1.0,Taxi
24.5,0.05487447681673568,-27.115557070584785,9.983657991512791,-0.8061487980370118,0.47508474257579053,302.2083563796657,19.999606561508035,0.0,1.0,0.0,0.0,1.0,Taxi
24.6,-0.11949358985664867,27.56177854158761,11.748266140409337,-0.94892244348594,0.6539032871635856,302.1076843960384,19.80407762960842,0.0,1.0,0.0,0.0,1.0,Taxi
24.700000000000003,0.06659858710489376,-16.75002785359319,11.30189320610193,-0.8367953062985596,-0.37396402472285156,302.4349777243642,18.736371974836736,0.0,1.0,0.0,0.0,1.0,Taxi
24.8,-0.028875662451230383,38.985518850242215,10.414565158074515,-0.9969880512714433,-0.00934635522434237,302.22732311989387,19.317594883527818,0.0,1.0,0.0,0.0,1.0,Taxi
24.900000000000002,0.07543400439456233,-21.126895116752078,11.33807596748038,-0.7728752026661219,0.23791703613653573,302.2971703391752,18.801359735568774,0.0,1.0,0.0,0.0,1.0,Taxi
25.0,-0.03903588847886672,12.297438263531886,11.152876248951069,-0.6485342736211773,-1.178638887753679,302.386147003191,19.16700328666503,0.0,1.0,0.0,0.0,1.0,Taxi
25.1,0.032611528866428936,-6.8806947595113614,11.11620559091711,-0.6143242576361869,0.19749389330853637,302.1782671930323,18.76304417413738,0.0,1.0,0.0,0.0,1.0,Taxi
25.200000000000003,0.041030530597005406,4.2197919654643075,10.550791037297124,-1.1539994376193472,0.002986269601251623,302.3416778638832,18.68918539532641,0.0,1.0,0.0,0.0,1.0,Taxi
25.3,-0.01793692865154529,-8.012757805010622,10.665273581208169,-0.6919811085006718,0.6634913399222696,302.2627431324246,19.40289400090825,0.0,1.0,0.0,0.0,1.0,Taxi
25.400000000000002,-0.007452260158624282,-15.729822223597841,10.061631347296515,-0.8601563466749096,0.0998314799757898,302.4485877868708,19.610798001986243,0.0,1.0,0.0,0.0,1.0,Taxi
25.5,-0.03761858052098391,-13.091767759779101,10.772244877253748,-1.1291022947959015,0.32558185221187536,302.18182784652845,19.758028774291844,0.0,1.0,0.0,0.0,1.0,Taxi
25.6,-0.0833957674504409,10.45152603963819,11.42233453309367,-0.7624367168531344,0.22275296706857795,302.2664780231561,20.09767371004689,0.0,1.0,0.0,0.0,1.0,Taxi
25.700000000000003,0.04480537003956657,20.836070837954072,10.94946652572319,-1.0301553764006524,-0.19999547704710274,302.2974604790635,19.884330157889686,0.0,1.0,0.0,0.0,1.0,Taxi
25.8,0.06656177366878634,-1.3429140666691097,9.76689647062488,-1.0205676172643317,-1.0439483016202242,302.4243746805803,19.278681456150547,0.0,1.0,0.0,0.0,1.0,Taxi
25.900000000000002,-0.09011033778378658,-14.012035456020007,10.435005938996868,-0.7913691432240993,0.46929677782198553,302.35854768070067,19.458154229212894,0.0,1.0,0.0,0.0,1.0,Taxi
26.0,-0.025254807240533562,-43.33520669783735,10.244194056128002,-0.415352335963488,-0.5258981188924844,302.36010895553204,19.657174026485094,0.0,1.0,0.0,0.0,1.0,Taxi
26.1,-0.15011425982040047,-0.8185976315157172,10.933952896001186,-1.1862994972052074,-0.00487986557962562,302.34317346648436,18.702662447501776,0.0,1.0,0.0,0.0,1.0,Taxi
26.200000000000003,-0.09420332594136524,15.216400497833844,10.467962569457852,-1.0142419058546857,0.33919832958790946,302.25626591281093,18.722804979337866,0.0,1.0,0.0,0.0,1.0,Taxi
26.3,0.05082719524863556,46.95077591243102,9.909794188214374,-0.6185420968187594,0.5149374276316031,302.3074055593378,19.5046658827499,0.0,1.0,0.0,0.0,1.0,Taxi
26.400000000000002,0.0846396197417545,15.78171977248939,10.979990351200245,-0.7262931342507584,-2.2179327005225984,302.3168460477448,18.91231911414302,0.0,1.0,0.0,0.0,1.0,Taxi
26.5,-0.015294727078918347,-3.5762792921712845,10.581825273289281,-0.8702894770495354,-0.5432899589328832,302.4780410033752,19.042984081356146,0.0,1.0,0.0,0.0,1.0,Taxi
26.6,0.03294579878777906,-2.584925441474226,11.420809744518222,-0.6135802109004469,-0.2681906825130782,302.33896641833167,19.141248416605247,0.0,1.0,0.0,0.0,1.0,Taxi
26.700000000000003,0.07171499253438329,4.787642085756414,10.369263282297844,-0.8976181388597421,0.0865594974920821,302.19763636939297,18.832542706828374,0.0,1.0,0.0,0.0,1.0,Taxi
26.8,0.008643483349863632,-6.290956324204491,9.981149372688575,-0.4560943644442468,0.19217247002596854,302.4885805496492,19.201144915371486,0.0,1.0,0.0,0.0,1.0,Taxi
26.900000000000002,0.001491017166756509,-26.769747376135218,11.213928628231514,-0.7105014104883282,-0.024949624359945976,302.29879281751414,19.511313153342844,0.0,1.0,0.0,0.0,1.0,Taxi
27.0,-0.06213374434629291,-28.46481167858674,10.523785816519078,-0.7923222662212773,-0.46829818699157505,302.32331064885193,19.325556236931426,0.0,1.0,0.0,0.0,1.0,Taxi
27.1,-0.13368057504307015,47.64362949361999,10.811731885444663,-0.9084450371783834,0.030939636569173555,302.47217598361203,19.435635264726404,0.0,1.0,0.0,0.0,1.0,Taxi
27.200000000000003,0.23970916463485642,30.876270167093576,10.533441336601395,-0.44968315254151053,0.6430218827231462,302.274831124442,19.251212968317322,0.0,1.0,0.0,0.0,1.0,Taxi
27.3,0.0922476064891749,43.758553424564674,10.907427166232079,-0.6860558084747402,-1.2597311302753575,302.4739832912196,19.139330127086126,0.0,1.0,0.0,0.0,1.0,Taxi
27.400000000000002,0.08511219207975315,-90.52817662660385,10.554303750241264,-0.7985731106542692,-0.9437449240710667,302.34500165854956,19.474660575555177,0.0,1.0,0.0,0.0,1.0,Taxi
27.5,-0.212931718498163,4.180372516862178,10.893630887946358,-0.9134293214180619,-0.6205152328126665,302.329996245757,19.449251399765974,0.0,1.0,0.0,0.0,1.0,Taxi
27.6,0.11314946907348561,-29.149793627037848,11.104608885357289,-1.007937600723737,0.5897785967794158,302.25623663102465,19.113546530862056,0.0,1.0,0.0,0.0,1.0,Taxi
27.700000000000003,-0.060636776055436284,32.38908184939544,10.512813196820858,-0.7975042809813597,-0.2650510955287779,302.44302958575656,19.4042068347778,0.0,1.0,0.0,0.0,1.0,Taxi
27.8,-0.05098630925118595,-56.58908229581723,11.418461673239864,-0.8009311062800878,-0.365249883501766,302.47257210672,19.53781996929372,0.0,1.0,0.0,0.0,1.0,Taxi
27.900000000000002,-0.16979594240560064,8.7473096154406,10.201802475730753,-0.8867846291926036,0.7741814794059175,302.21917410015635,19.314377065461905,0.0,1.0,0.0,0.0,1.0,Taxi
28.0,-0.01690022797823337,12.31888074524967,10.57954467371864,-1.238376958865486,0.4457080622583745,302.3203925030157,19.185616573807593,0.0,1.0,0.0,0.0,1.0,Taxi
28.1,0.010608094475062314,5.027061312925507,10.407863818319292,-0.6536162429562036,0.1300221042744645,302.3493548314732,19.46153952423199,0.0,1.0,0.0,0.0,1.0,Taxi
28.200000000000003,-0.14466063584097322,-9.249104773520948,11.137323678472763,-0.9542101381012631,0.04877929619322167,302.37399781095996,18.69536943033309,0.0,1.0,0.0,0.0,1.0,Taxi
28.3,-0.06314575184583819,14.248310788839737,9.898994108557785,-1.0459003843163952,0.008111532071155413,302.45566194204093,18.931030625069237,0.0,1.0,0.0,0.0,1.0,Taxi
28.400000000000002,0.08184964841926093,45.91934198977854,11.152666564409783,-0.6483260131819939,0.2669728620143697,302.3005681791485,19.281816115141844,0.0,1.0,0.0,0.0,1.0,Taxi
28.5,0.08493607410791942,-3.0485842973877575,10.46789581496568,-0.8003081600338005,1.177813000362928,302.16454793459695,18.89663121550041,0.0,1.0,0.0,0.0,1.0,Taxi
28.6,-0.07838867333277703,-34.99583501228359,10.766589568548124,-1.04972310406154,-0.17904904037472663,302.1262126001176,19.493761868522558,0.0,1.0,0.0,0.0,1.0,Taxi
28.700000000000003,-0.09312952664215711,-19.403484984300068,10.265555407466579,-0.6551205498759207,-0.513006688626751,302.4175857367436,19.700915198739487,0.0,1.0,0.0,0.0,1.0,Taxi
28.8,-0.012081350813580994,11.31774684284425,11.469818979941588,-1.0301100258652602,-1.0380181652557607,302.30371072541925,18.635715909387486,0.0,1.0,0.0,0.0,1.0,Taxi
28.900000000000002,-0.021799939118555878,17.970742049789312,11.015956769523886,-0.48126330813527707,-0.3964205349521942,302.0786691203657,19.07171744123206,0.0,1.0,0.0,0.0,1.0,Taxi
29.0,-0.003275816393210651,4.0950176237453775,11.279759070770742,-0.8996874497708807,0.08924230831103874,302.22435014588007,18.622990063513015,0.0,1.0,0.0,0.0,1.0,Taxi
29.1,0.008393737305145798,6.260661361225313,10.169944377999123,-0.7481301555840799,-0.249125154688877,302.3294149790527,19.456304780401815,0.0,1.0,0.0,0.0,1.0,Taxi
29.200000000000003,0.009503367687570584,-11.828451827169959,10.434672866901431,-1.047923388909106,-0.15165559687362998,302.46454111506273,18.865988800089546,0.0,1.0,0.0,0.0,1.0,Taxi
29.3,-0.062418075529060535,2.6407615163196234,10.450150608880627,-0.6758378849470074,0.7682358334549008,302.269198839354,19.24416025982701,0.0,1.0,0.0,0.0,1.0,Taxi
29.400000000000002,0.021597544886743824,-13.883769795682552,11.357154591154789,-0.7042175186193353,-0.19396260861579293,302.3743528618835,18.410890882810943,0.0,1.0,0.0,0.0,1.0,Taxi
29.5,-0.05991548129084227,23.150458444038645,11.083499261801629,-0.6424678221543241,-0.2873198175734102,302.40191408344594,18.528383372847465,0.0,1.0,0.0,0.0,1.0,Taxi
29.6,0.05333421669113258,-18.710104455032432,10.050567790984488,-0.8845736122218502,-0.20078789105278588,302.1457396353626,18.972463857524907,0.0,1.0,0.0,0.0,1.0,Taxi
29.700000000000003,-0.07195297738841842,38.48329878076026,11.384055722991238,-0.8502943574856207,0.7432547602287413,302.46710920571775,18.250044815645154,0.0,1.0,0.0,0.0,1.0,Taxi
29.8,0.13250101261295896,-28.87787916123564,11.133999452102616,-0.7508163699829933,-0.19062080285705424,302.16284216259237,19.176695953462406,0.0,1.0,0.0,0.0,1.0,Taxi
29.900000000000002,-0.09105517911504568,44.77825415759575,10.991877266444792,-0.8658276014150601,0.3613897199217852,302.29757323777835,18.884233063946105,0.0,1.0,0.0,0.0,1.0,Taxi
30.0,0.15193829339956033,-21.59152744795203,10.276210309371535,-1.2513203096647145,-0.3389536028501961,302.1496814706943,19.37942904272594,0.0,1.0,0.0,0.0,1.0,Taxi
30.1,0.024543375373198766,18.368186673359247,10.196743113818158,-0.6144955625603322,0.23826687105477906,302.4278070255274,19.062308402098516,0.0,1.0,0.0,0.0,1.0,Taxi
30.200000000000003,0.0007857542517505011,-17.034452495185032,10.709554363877409,-0.9422855872208413,-0.08245693962489128,302.2372130609681,20.257331590546272,0.0,1.0,0.0,0.0,1.0,Taxi
30.3,0.06676603092363508,-0.7807227440661251,10.026872901414752,-0.7523745401523496,-0.6567002925155022,302.22617006435485,18.736880593756062,0.0,1.0,0.0,0.0,1.0,Taxi
30.400000000000002,0.020639761652868044,14.586729402749766,11.156222740281494,-0.7712232696507212,0.8229934568703896,302.3991210558514,19.257974881947522,0.0,1.0,0.0,0.0,1.0,Taxi
30.5,0.07371940126549924,0.8802868918611981,10.916982089722252,-0.8378854877657204,0.06192191536726692,302.27451629717507,20.414010870312573,0.0,1.0,0.0,0.0,1.0,Taxi
30.6,0.07116746538294097,-3.731112169384351,10.327563062729178,-0.955212745710529,0.00754448708235592,302.3108222146242,18.461267292141308,0.0,1.0,0.0,0.0,1.0,Taxi
30.700000000000003,0.0019842008059461945,0.5327668303312976,11.429998346027421,-0.8248825032060305,-0.33760086896948627,302.4548445207374,19.664917505195838,0.0,1.0,0.0,0.0,1.0,Taxi
30.8,0.07638323541715562,-23.62873261716531,10.418730092820429,-0.2904986061849524,0.08297210259178807,302.2072311132696,18.61348793131587,0.0,1.0,0.0,0.0,1.0,Taxi
30.900000000000002,-0.04697619770288569,2.14646930158815,10.580699481994658,-0.6137702945250191,0.3886589360761397,302.49130496214957,18.627826734278738,0.0,1.0,0.0,0.0,1.0,Taxi
31.0,0.012716547313886817,-2.080663884461702,10.63670801634417,-0.7692592121282587,0.2813104638499525,302.26405341595546,18.92044939829396,0.0,1.0,0.0,0.0,1.0,Taxi
31.1,0.065979915994847,15.547622931488645,10.515476514259477,-0.6083598796922953,0.1623575676058632,302.3680254707681,19.98747399862102,0.0,1.0,0.0,0.0,1.0,Taxi
31.200000000000003,0.03076191695455743,14.615886316671977,10.94867745263593,-0.6832457032883426,0.35966460102644277,302.1871223280066,19.38542874323563,0.0,1.0,0.0,0.0,1.0,Taxi
31.3,0.08579597889724659,8.385957090578822,10.886972161134855,-0.8056589658060745,-0.3575529182610468,302.5126601668903,18.81356080213315,0.0,1.0,0.0,0.0,1.0,Taxi
31.400000000000002,0.107909701447741,21.703368531023433,10.486161302442786,-0.8510506883377361,-0.3451526913115114,302.4040369811646,19.54817098780055,0.0,1.0,0.0,0.0,1.0,Taxi
31.5,0.13927875960967448,-0.3210942717725989,10.65274067813816,-0.4664605406878095,-0.3528894498077772,302.24148012326464,18.888488318651273,0.0,1.0,0.0,0.0,1.0,Taxi
31.6,0.08419050753838347,-19.442492487605254,10.129901399004074,-0.4409153379587793,0.1909358633105376,302.3663327272534,18.915467364577633,0.0,1.0,0.0,0.0,1.0,Taxi
31.700000000000003,0.010697239009714605,-28.080379062040475,10.502459994781514,-1.0269294309552366,-0.08194583335102837,302.3637018762811,18.878565752147868,0.0,1.0,0.0,0.0,1.0,Taxi
31.8,-0.0011231357005280025,12.756035984261837,9.855412229448689,-0.9528500899780357,0.01949336753406162,302.4631904242967,18.865026809618655,0.0,1.0,0.0,0.0,1.0,Taxi
31.900000000000002,0.14797068745969255,-16.611143849929903,9.991951794678249,-0.8253357702505274,0.40487229556233,302.2490428304776,19.28257449380744,0.0,1.0,0.0,0.0,1.0,Taxi
32.0,-0.072358480239935,51.987738646439595,10.80654845883933,-0.8189215814568823,0.4153159771848305,302.3286919250527,18.41539172576123,0.0,1.0,0.0,0.0,1.0,Taxi
32.1,0.2588155575316699,-6.269804450194428,9.464957884938823,-0.8785632708309637,0.2536178175981345,302.2896951115953,19.553947089296887,0.0,1.0,0.0,0.0,1.0,Taxi
32.2,0.11662166520872033,-5.502469494515078,10.310575075298779,-0.6170987691977291,-0.13621534094072113,302.10904742193134,19.680426644135103,0.0,1.0,0.0,0.0,1.0,Taxi
32.300000000000004,-0.09987082771251052,-52.147785289933125,9.83593515734817,-0.6948149356029881,0.7824259905958119,302.3138361509343,18.85595437878872,0.0,1.0,0.0,0.0,1.0,Taxi
32.4,-0.0019233689179958418,7.452167223336095,11.606063693986885,-0.8498756172129094,0.714403345530865,302.2448860917135,19.574638589389597,0.0,1.0,0.0,0.0,1.0,Taxi
32.5,0.1538825013254007,-25.994224572261782,10.949741662465376,-0.9300780495193313,-0.33918359647794666,302.2574037869276,20.02177632158481,0.0,1.0,0.0,0.0,1.0,Taxi
32.6,-0.2298419505738195,-9.613565241362883,10.145235170446158,-0.9448079741153604,-0.013343285624208504,302.2342359813282,19.264553024175257,0.0,1.0,0.0,0.0,1.0,Taxi
32.7,-0.04999119512481034,-44.183866259522375,10.320359492899179,-0.7200490690900393,-0.18900506566587044,302.1144406752819,18.75933524645977,0.0,1.0,0.0,0.0,1.0,Taxi
32.800000000000004,-0.06703682997221123,42.275251482508885,10.728070747152127,-0.8235985918344663,0.1989485478841701,302.25298484778546,19.309264277800427,0.0,1.0,0.0,0.0,1.0,Taxi
32.9,-0.018465693161275165,5.463450826503426,11.275740727103177,-1.0608687922841158,0.09443115905769639,302.3268660782601,18.510332882805024,0.0,1.0,0.0,0.0,1.0,Taxi
33.0,-0.022673940992293293,-20.815842154030697,10.083966226120747,-1.238586270007656,0.33693132870153736,302.29330017371,18.650750949359505,0.0,1.0,0.0,0.0,1.0,Taxi
33.1,-0.17111604074236478,-4.798554134268481,10.34815336770668,-1.0511725860023131,-0.5483962339701586,302.2186756752012,19.23105545250095,0.0,1.0,0.0,0.0,1.0,Taxi
33.2,-0.04245846383261764,8.520385820756564,11.132182713006008,-1.004542996153515,-0.8708036651642653,302.07840747272417,18.59928630006315,0.0,1.0,0.0,0.0,1.0,Taxi
33.300000000000004,0.019927988111489468,41.34293735051045,11.103683335450619,-0.7915545001631205,-0.18666716606944966,302.2379941539401,18.697249584536248,0.0,1.0,0.0,0.0,1.0,Taxi
33.4,0.035598646010187356,16.161221762182524,10.320491410493542,-0.9851660630436091,0.6543174682060839,302.32418148629176,19.088070817598574,0.0,1.0,0.0,0.0,1.0,Taxi
33.5,0.03834764497829488,-9.315713326673155,10.236946775851596,-1.042180977673555,0.7033708939868354,302.1998879706118,19.499812760989446,0.0,1.0,0.0,0.0,1.0,Taxi
33.6,-0.02665057852187641,-9.86005208144997,10.529550346775727,-0.9945235694315849,-0.21389213763024714,302.28087600119875,19.247599371770317,0.0,1.0,0.0,0.0,1.0,Taxi
33.7,-0.013701614397062604,29.361298579701895,10.999543107276972,-0.6445950789251089,0.5208229688453715,302.42751419917363,19.297772636748174,0.0,1.0,0.0,0.0,1.0,Taxi
33.800000000000004,0.18515413787680424,20.52893562004734,10.18152935306705,-0.9880396933188522,-0.23133580903903037,302.3040417321373,19.770009533085137,0.0,1.0,0.0,0.0,1.0,Taxi
33.9,0.07599409957836017,11.84247621916571,10.787289219917048,-0.49814184448634874,-0.8007091963705418,302.24215511467037,20.050112317245173,0.0,1.0,0.0,0.0,1.0,Taxi
34.0,0.045510766698765824,-40.76836952779175,10.943716199012366,-1.0263821649696214,-0.9781012867802732,302.3955666777607,19.356984729923518,0.0,1.0,0.0,0.0,1.0,Taxi
34.1,-0.018687709762154586,-8.418056379063556,10.316811762796341,-0.6266117727975036,-0.4968410546137607,302.513552308063,18.803487252220275,0.0,1.0,0.0,0.0,1.0,Taxi
34.2,0.03390381768304231,2.5932805825979397,10.12523981699047,-0.9648584237538848,-0.2873599156618187,302.37298637560616,18.874326196612465,0.0,1.0,0.0,0.0,1.0,Taxi
34.300000000000004,0.05847716961175545,-1.5952927831448704,10.152554872961609,-1.1380577697657372,-0.46761649644082814,302.3644400841961,20.33247915508816,0.0,1.0,0.0,0.0,1.0,Taxi
34.4,-0.02666417367787903,-14.79250930047059,10.321319083509495,-0.9335272643218124,-0.3520208777062161,302.21060487170973,18.359085222490908,0.0,1.0,0.0,0.0,1.0,Taxi
34.5,-0.04005872881931073,-6.075661953555302,11.701164393069856,-0.8090594063167245,-0.5521208157641933,302.2300853633549,18.78321172629565,0.0,1.0,0.0,0.0,1.0,Taxi
34.6,0.028098859843978835,-20.748090757435182,10.77164108309297,-1.3444543383703678,-0.3144053800112694,302.4888485877825,19.173139711320484,0.0,1.0,0.0,0.0,1.0,Taxi
34.7,-0.13040462746505505,13.487701827570875,10.92781554378611,-1.3938785831833551,0.3008712302665626,302.36596774306906,19.576153050410923,0.0,1.0,0.0,0.0,1.0,Taxi
34.800000000000004,0.027379780318543535,12.6290553970319,10.664918792888114,-0.470393675214789,0.2024301912116376,302.20161252699586,19.10958090082805,0.0,1.0,0.0,0.0,1.0,Taxi
34.9,0.09124413682913823,-5.572560186881257,10.464827708669874,-0.9188552956304532,0.035982088979351345,302.43394393181916,18.975846140095772,0.0,1.0,0.0,0.0,1.0,Taxi
35.0,-0.15826742839946142,-8.156356580540935,10.26558552686077,-0.8479248008936066,-0.3457269088611842,302.25789445634587,19.405366366014732,0.0,1.0,0.0,0.0,1.0,Taxi
35.1,-0.013402002584161224,-13.117249343889247,10.797298471975564,-0.9802881465194259,0.4661888895406203,302.43180480908177,18.52533054770885,0.0,1.0,0.0,0.0,1.0,Taxi
