time_s,altitude_ft,vertical_speed_fpm,ias_kt,pitch_deg,roll_deg,heading_deg,throttle_pct,afterburner_on,gear_down,flaps_deg,speedbrake_pct,weight_on_wheels,label
0.0,-2.1310207135212313,-634.9981866112734,167.69487386478335,-0.681185478267446,2.1111933899598396,337.2666776914689,42.52012951444091,0.0,1.0,13.519280199884966,0.24705262111566206,0.0,Landing
0.1,-4.247681335558809,-851.8148915315209,166.32850283635915,-0.4865860367424398,1.8726922675385314,337.4272084298077,42.87227305351617,0.0,1.0,13.519280199884966,0.24705262111566206,0.0,Landing
0.2,-6.390095171178835,-1284.9575276019855,168.03068594778864,-0.6165655168954258,1.881366775581556,337.10044399089884,42.987427321469774,0.0,1.0,13.519280199884966,0.24705262111566206,0.0,Landing
0.30000000000000004,-8.555808351531159,-1314.670203765698,167.33725305091116,-0.7825894514040412,1.8626338822175557,337.25678034357543,41.94655493025142,0.0,1.0,13.519280199884966,0.24705262111566206,0.0,Landing
0.4,-10.821032354387299,-1308.7063500168317,166.39222548662428,-0.19586318755852142,1.9430160344257426,337.21009626666046,43.26078157357531,0.0,1.0,13.519280199884966,0.24705262111566206,0.0,Landing
0.5,-12.933626921262993,-1295.9145822447101,168.0289952424636,-0.755778737339464,1.6083601692466254,337.29195629657704,42.6973374920757,0.0,1.0,13.519280199884966,0.24705262111566206,0.0,Landing
0.6000000000000001,-15.03538126275471,-1254.5187299246968,167.4740301515935,0.14119375206875173,1.8927370100992844,337.181972326659,42.80733642149222,0.0,1.0,13.519280199884966,0.24705262111566206,0.0,Landing
0.7000000000000001,-17.093626004010783,-1248.473562399762,167.16284879962456,-0.4857928596375117,2.1413596862588204,337.03950721975605,42.59212983368571,0.0,1.0,13.519280199884966,0.24705262111566206,0.0,Landing
0.8,-19.175994733261803,-1251.1014601827103,168.94063148574844,-0.42295627176057793,1.8316446425808945,337.1616926888313,42.968713733212695,0.0,1.0,13.519280199884966,0.24705262111566206,0.0,Landing
0.9,-21.29088856366826,-1253.4576962235158,169.2811106028259,-0.3141615399313323,1.9776013207347087,336.9849225521041,42.648134379200826,0.0,1.0,13.519280199884966,0.24705262111566206,0.0,Landing
1.0,-23.36091448512836,-1263.181761309552,168.7075656295102,-0.23737302271363594,1.6128631362124857,337.20541772203774,42.807258686162626,0.0,1.0,13.519280199884966,0.24705262111566206,0.0,Landing
1.1,-25.491903539809563,-1231.2109876394359,167.3401143957797,-0.5433130518516354,2.1894958725023916,337.33271536731445,42.388657559525925,0.0,1.0,13.519280199884966,0.24705262111566206,0.0,Landing
1.2000000000000002,-27.44694350186544,-1226.0331734142612,166.71144069292134,-0.9466117574391063,1.9151825272700085,337.0895509925974,42.6014890707227,0.0,1.0,13.519280199884966,0.24705262111566206,0.0,Landing
1.3,-29.491080352199667,-1207.6861429089718,167.84174102709963,-0.06580122157694945,1.8963734505136745,337.2089613832129,42.75096221868943,0.0,1.0,13.519280199884966,0.24705262111566206,0.0,Landing
1.4000000000000001,-31.530334254354422,-1242.144498111614,167.0012881568086,-0.32237605967437777,1.8175125084136305,337.22067656066383,42.36290432004228,0.0,1.0,13.519280199884966,0.24705262111566206,0.0,Landing
1.5,-33.65766599242351,-1244.5492229446145,168.74476242873183,-0.4373252556925108,1.7502369385062233,337.30095967233956,42.872732984880784,0.0,1.0,13.519280199884966,0.24705262111566206,0.0,Landing
1.6,-35.71382646692274,-1259.441812871353,169.2936970102659,-0.5410089318921819,1.6105723365464473,337.34213035534935,42.95534568187034,0.0,1.0,13.519280199884966,0.24705262111566206,0.0,Landing
1.7000000000000002,-37.827543318711186,-1251.8759322545266,169.04198181759892,-0.26691524995886384,1.9398023200804742,336.95517543756966,42.49803875494231,0.0,1.0,13.519280199884966,0.24705262111566206,0.0,Landing
1.8,-39.91704565369614,-1242.223121253426,168.5250480022072,-0.3950182424222838,1.7942561311367766,337.051361955272,42.47474224806567,0.0,1.0,13.519280199884966,0.24705262111566206,0.0,Landing
1.9000000000000001,-41.92494207318987,-1231.981709659867,166.94751298655643,-0.5852863506124536,1.7984704278420454,337.30675676038504,42.66422141315202,0.0,1.0,13.519280199884966,0.24705262111566206,0.0,Landing
2.0,-43.98745186701052,-1238.7649332156896,167.77767425458927,-0.32076904001181417,1.5408669091199885,337.389157336298,42.8324649987387,0.0,1.0,13.519280199884966,0.24705262111566206,0.0,Landing
2.1,-46.11087031977459,-1260.7545120238542,167.80859162109127,-0.4688828109319738,1.7627108557534383,337.156891483344,42.97081013901866,0.0,1.0,13.519280199884966,0.24705262111566206,0.0,Landing
2.2,-48.22871463330914,-1257.5063029465512,168.98959797191958,-0.3891807244607252,1.8233688332945173,337.1601367091614,42.7081889451092,0.0,1.0,13.519280199884966,0.24705262111566206,0.0,Landing
2.3000000000000003,-50.274983381743276,-1257.906504125009,166.64227339236655,-0.21166146831874624,1.7843579813703294,337.2506109133269,43.160076551809674,0.0,1.0,13.519280199884966,0.24705262111566206,0.0,Landing
2.4000000000000004,-52.400402840399636,-1259.480731082715,167.58954523033185,-0.3626208860601293,1.5640805889072564,336.86514754358996,42.89089639493159,0.0,1.0,13.519280199884966,0.24705262111566206,0.0,Landing
2.5,-54.526118288722714,-1260.8428939165492,168.29030793647252,-0.3915189059429491,1.5192737227838418,336.97823546337304,42.42780788584835,0.0,1.0,13.519280199884966,0.24705262111566206,0.0,Landing
2.6,-56.57919785132602,-1260.4920558752754,167.95414486449351,-0.5064889960011019,1.4828059257756678,337.3843784356202,42.42215380316953,0.0,1.0,13.519280199884966,0.24705262111566206,0.0,Landing
2.7,-58.70286311977601,-1243.1658956347349,167.59623710889394,-0.3106796268578949,1.63955903778011,337.19585597775426,42.02313630889009,0.0,1.0,13.519280199884966,0.24705262111566206,0.0,Landing
2.8000000000000003,-60.74194776689639,-1238.292397846665,168.76492655137,-0.1470533602938482,1.6823990662961321,337.3479494497569,42.5617765628453,0.0,1.0,13.519280199884966,0.24705262111566206,0.0,Landing
2.9000000000000004,-62.77065984055935,-1206.6860628927798,167.33409298346197,-0.37190276723590904,1.6381961074955171,337.1807045196375,42.490243491583854,0.0,1.0,13.519280199884966,0.24705262111566206,0.0,Landing
3.0,-64.73629343423991,-1196.3280982925764,168.41185329054,-0.3101109060194207,1.8236610060526068,337.5848919695957,43.05704955933589,0.0,1.0,13.519280199884966,0.24705262111566206,0.0,Landing
3.1,-66.72358825835927,-1209.1548116924457,166.13072531529068,-0.20560861549191325,1.658935113145768,337.51045857864005,42.73583092634616,0.0,1.0,13.519280199884966,0.24705262111566206,0.0,Landing
3.2,-68.81643389902158,-1226.2136909215542,167.60761275404317,-0.2576425755476684,1.6041256355338835,337.45812239791917,42.146188464499595,0.0,1.0,13.519280199884966,0.24705262111566206,0.0,Landing
3.3000000000000003,-70.86736188884768,-1242.7998074773684,167.4277391846294,-0.6461159773057219,1.6628942592893692,337.1057823926153,42.82411421579931,0.0,1.0,13.519280199884966,0.24705262111566206,0.0,Landing
3.4000000000000004,-72.93758729574611,-1233.665557380951,168.9348884077657,-0.5911258405620963,1.7717290054962669,337.1177998129349,42.1849264187583,0.0,1.0,13.519280199884966,0.24705262111566206,0.0,Landing
3.5,-74.98476168592633,-1240.649046866028,168.09244156210258,-0.4248311859694383,1.7321575997398655,337.1785424929318,42.40384551696918,0.0,1.0,13.519280199884966,0.24705262111566206,0.0,Landing
3.6,-77.07060712317782,-1239.0232638922387,168.47868500867918,-0.06827645896879686,1.8446988879526254,337.1206877867355,42.26903251840879,0.0,1.0,13.519280199884966,0.24705262111566206,0.0,Landing
3.7,-79.1327036152073,-1234.6972409877596,166.9911330891972,-0.24411369495625115,2.0703299242455535,337.4198832937225,42.459197716978764,0.0,1.0,13.519280199884966,0.24705262111566206,0.0,Landing
3.8000000000000003,-81.15824789086513,-1217.4917112245964,167.9372751571685,-0.5616918640349533,1.8130457473701482,337.19657755216406,42.31448530582234,0.0,1.0,13.519280199884966,0.24705262111566206,0.0,Landing
3.9000000000000004,-83.1580656793008,-1236.8647735844122,166.98436714096948,-0.36136008603996933,1.7716584564525415,337.19834445638276,42.62868639312453,0.0,1.0,13.519280199884966,0.24705262111566206,0.0,Landing
4.0,-85.31702748312937,-1241.333438154882,168.5889138413299,-0.05898782894748822,1.6939907347620453,337.2564638251238,42.90533602437516,0.0,1.0,13.519280199884966,0.24705262111566206,0.0,Landing
4.1000000000000005,-87.36491508163954,-1249.4876005245346,169.4118313346211,-0.41234221390364295,1.8759252363196093,337.3472898320483,42.88263216083184,0.0,1.0,13.519280199884966,0.24705262111566206,0.0,Landing
4.2,-89.40550368192348,-1225.5994495302587,168.06773643001296,-0.5902168356015524,1.628301749098128,337.15606536743053,43.29109019391324,0.0,1.0,13.519280199884966,0.24705262111566206,0.0,Landing
4.3,-91.44502473078066,-1235.8450921597694,167.9247605546344,-0.3823692281090634,1.6682027780882862,337.21150386059776,42.697167308481234,0.0,1.0,13.519280199884966,0.24705262111566206,0.0,Landing
4.4,-93.54414054243838,-1229.0287961233532,166.7753461457398,-0.15194258655335346,1.5866889526481585,337.06335068590386,43.19669588989541,0.0,1.0,13.519280199884966,0.24705262111566206,0.0,Landing
4.5,-95.55064766254024,-1235.632819135708,168.01549849178812,-0.619997616879856,1.444594061156417,337.2648181063423,42.53467285418952,0.0,1.0,13.519280199884966,0.24705262111566206,0.0,Landing
4.6000000000000005,-97.6231888264592,-1235.0645679993306,168.1445381214907,-0.04212533873399771,1.9348704853636207,337.0047633687617,42.450678752483824,0.0,1.0,13.519280199884966,0.24705262111566206,0.0,Landing
4.7,-99.71946338243504,-1234.9307454533002,169.44861515695564,-0.21885398669355574,1.9505693874583172,337.126767361273,42.63961144845279,0.0,1.0,13.519280199884966,0.24705262111566206,0.0,Landing
4.800000000000001,-101.72530138980675,-1250.4070328120008,168.42297400710152,-0.3968654639210411,2.0180952619281225,336.8692798881963,42.2071731318102,0.0,1.0,13.519280199884966,0.24705262111566206,0.0,Landing
4.9,-103.8752239905192,-1247.4601457287235,167.89960552452914,-0.2310330442676016,1.8216760830097751,337.2785160844635,42.70683212084461,0.0,1.0,13.519280199884966,0.24705262111566206,0.0,Landing
5.0,-105.95676411107866,-1252.5749408955535,168.1595665608156,-0.12732067777008738,2.0950795920491627,337.18328385246355,43.219288818788336,0.0,1.0,13.519280199884966,0.24705262111566206,0.0,Landing
5.1000000000000005,-107.98817609428451,-1239.4378031407057,165.02840121281125,-0.5401616477909588,2.1095285276445614,337.17068930255584,42.64096391705191,0.0,1.0,13.519280199884966,0.24705262111566206,0.0,Landing
5.2,-110.07241300622273,-1230.0341654882375,168.45470336246262,-0.4946439579319978,1.6066588935244317,337.07627053074077,42.63402175971596,0.0,1.0,13.519280199884966,0.24705262111566206,0.0,Landing
5.300000000000001,-112.10693493851984,-1234.0329756672306,167.2051692326622,-0.22665782763256692,1.7515563563497039,337.2736722583187,42.72811448482746,0.0,1.0,13.519280199884966,0.24705262111566206,0.0,Landing
5.4,-114.15834097262066,-1228.383800651375,167.9754348225106,-0.3339758536334556,1.8508110145240735,337.51413319640506,42.98481219527281,0.0,1.0,13.519280199884966,0.24705262111566206,0.0,Landing
5.5,-116.2143320094796,-1217.5965337009957,166.10024595756477,-0.21178049121415776,1.6805612210922805,337.176285532438,42.35816382271942,0.0,1.0,13.519280199884966,0.24705262111566206,0.0,Landing
5.6000000000000005,-118.19491760702482,-1217.2489674868673,169.14747552904464,-0.40533190821890847,1.817167725496068,337.1850363210176,42.82453156809001,0.0,1.0,13.519280199884966,0.24705262111566206,0.0,Landing
5.7,-120.244585810055,-1209.627691522718,168.18794750074608,-0.3682575229179398,1.8030746224375063,337.49068325320513,42.2188219512474,0.0,1.0,13.519280199884966,0.24705262111566206,0.0,Landing
5.800000000000001,-122.2624704670932,-1213.8483715134441,168.78029567913006,-0.38286648976578486,1.8675169260627844,336.8236321604803,43.11616154653123,0.0,1.0,13.519280199884966,0.24705262111566206,0.0,Landing
5.9,-124.26415946459204,-1213.568934668615,168.97559236328354,-0.3451550906372734,2.085842167148557,337.31163202875996,41.83759799909595,0.0,1.0,13.519280199884966,0.24705262111566206,0.0,Landing
6.0,-126.31243048339807,-1220.774031167045,168.29459459189223,0.006295231415406499,1.6672719962257019,337.13023049634864,42.640177569109234,0.0,1.0,13.519280199884966,0.24705262111566206,0.0,Landing
6.1000000000000005,-128.36634062292842,-1240.0936023955526,167.94096666328306,-0.28738824301571697,1.6476724805901029,337.42123640097316,42.844708923092774,0.0,1.0,13.519280199884966,0.24705262111566206,0.0,Landing
6.2,-130.4646274765698,-1243.4568066347567,167.97657889250277,-0.19635085517138376,1.970059207420806,337.3396767354294,42.26339040243452,0.0,1.0,13.519280199884966,0.24705262111566206,0.0,Landing
6.300000000000001,-132.52971451657186,-1248.3634273754149,167.65338730441658,-0.5511083518391853,1.75571510728977,337.24996131409785,43.1399305112806,0.0,1.0,13.519280199884966,0.24705262111566206,0.0,Landing
6.4,-134.6081577598055,-1229.3431376122044,166.94952221369707,-0.44807410991905655,1.8754472012714332,337.21434805312254,42.86775853189652,0.0,1.0,13.519280199884966,0.24705262111566206,0.0,Landing
6.5,-136.61134316463082,-1236.6444334806943,167.94624473728618,-0.06408295969135586,1.7591929909525441,337.18314209213213,42.76288262562716,0.0,1.0,13.519280199884966,0.24705262111566206,0.0,Landing
6.6000000000000005,-138.71293668397533,-1222.711451778423,166.48954073963972,-0.15174862037173442,1.8259390354045835,337.3214205577906,42.181784912292585,0.0,1.0,13.519280199884966,0.24705262111566206,0.0,Landing
6.7,-140.7217150186976,-1241.212228169394,168.80650289131611,-0.3825166069845313,1.8313707041316076,337.1053943693589,42.81708994087447,0.0,1.0,13.519280199884966,0.24705262111566206,0.0,Landing
6.800000000000001,-142.8174043054778,-1221.2298950451668,168.59567772450714,-0.26014836732108104,2.019179594537783,337.3500924233241,42.793969766362736,0.0,1.0,13.519280199884966,0.24705262111566206,0.0,Landing
6.9,-144.81908615920116,-1217.3328574398167,168.7773992878073,-0.5939364319953769,2.0201788938366954,337.0979043109468,42.6799619551067,0.0,1.0,13.519280199884966,0.24705262111566206,0.0,Landing
7.0,-146.8083793058967,-1214.7100362726007,167.5994182858315,-0.005116427313862193,1.6854507111964754,337.1524019006541,42.21327291351776,0.0,1.0,13.519280199884966,0.24705262111566206,0.0,Landing
7.1000000000000005,-148.8909544868408,-1230.8092875380453,167.53653169295563,-0.41418905425361197,2.27046454977058,337.1169242049202,42.87987904134786,0.0,1.0,13.519280199884966,0.24705262111566206,0.0,Landing
7.2,-150.9731325968914,-1254.4022238048572,168.6192091769627,-0.4757052931066559,2.057626543040922,337.4977092811523,42.6565189916658,0.0,1.0,13.519280199884966,0.24705262111566206,0.0,Landing
7.300000000000001,-153.08039042492098,-1247.8174613875242,168.88494549822855,-0.5253682766989942,1.8580459038611188,337.0339639453722,43.088341473810395,0.0,1.0,13.519280199884966,0.24705262111566206,0.0,Landing
7.4,-155.13004179377842,-1228.9100124431343,168.0129034535585,-0.23603171304814896,1.5555769527777763,337.15131265961486,42.10871597807209,0.0,1.0,13.519280199884966,0.24705262111566206,0.0,Landing
7.5,-157.11768265910706,-1222.6566835184428,169.43253213214587,-0.3489887064929187,1.5185418882648405,337.1947446343602,42.94394081445505,0.0,1.0,13.519280199884966,0.24705262111566206,0.0,Landing
7.6000000000000005,-159.1936738425132,-1227.7107835678805,169.85455078920504,-0.2105910047830658,2.035492851229222,337.2259821629657,42.54734484273209,0.0,1.0,13.519280199884966,0.24705262111566206,0.0,Landing
7.7,-161.26859571161782,-1241.317139342118,168.57260317420045,-0.41317020117675674,1.9375339675770316,337.3050891505088,42.67571033084414,0.0,1.0,13.519280199884966,0.24705262111566206,0.0,Landing
7.800000000000001,-163.32426835581765,-1241.6423862495662,167.9876779300379,-0.15007775555090722,1.7986158491738038,337.2295045850524,42.5201403693697,0.0,1.0,13.519280199884966,0.24705262111566206,0.0,Landing
7.9,-165.40188577376102,-1229.7113274736944,168.1190781101662,-0.03641805984740937,1.8341488993461341,337.34404874837253,43.01937609112581,0.0,1.0,13.519280199884966,0.24705262111566206,0.0,Landing
8.0,-167.4171523489863,-1210.7176144900336,166.98924766682129,-0.4237186630928643,1.6667129854563107,337.12690329910015,42.29019097132451,0.0,1.0,13.519280199884966,0.24705262111566206,0.0,Landing
8.1,-169.37785642826782,-1200.0423102998866,170.64689836145695,-0.5604711137616964,1.8565146036861144,337.0664036171803,41.826006673082134,0.0,1.0,13.519280199884966,0.24705262111566206,0.0,Landing
8.200000000000001,-171.40209732526046,-1199.1334399368498,168.6473471720809,-0.4053939317552362,1.9655880131486274,337.0369603231468,43.151770798492095,0.0,1.0,13.519280199884966,0.24705262111566206,0.0,Landing
8.3,-173.41281954867054,-1196.5151977072765,167.88667268911766,-0.11703306169173106,1.9937203377784751,337.17022473805696,42.81688793280303,0.0,1.0,13.519280199884966,0.24705262111566206,0.0,Landing
8.4,-175.3604324168042,-1178.4573391975698,168.32219609860388,-0.29129187021154446,1.6101083086402512,337.23391476726795,42.53920965288273,0.0,1.0,13.519280199884966,0.24705262111566206,0.0,Landing
8.5,-177.2943840212483,-1172.7338011299253,168.17726300940794,-0.5161887147254147,1.7675076176015003,337.1059927381857,42.774074646916574,0.0,1.0,13.519280199884966,0.24705262111566206,0.0,Landing
8.6,-179.27648855432017,-1180.9167697904627,169.35926028791667,-0.3078163031453446,1.9714814674511445,337.2111319675405,42.59053703243846,0.0,1.0,13.519280199884966,0.24705262111566206,0.0,Landing
8.700000000000001,-181.26501626575651,-1213.3465943501617,167.5984006498432,-0.3188083320329266,2.2269683975076844,337.1787249395645,42.47210483483297,0.0,1.0,13.519280199884966,0.24705262111566206,0.0,Landing
8.8,-183.36111699299911,-1215.04907973802,167.74125850212852,-0.37559770422634564,1.0601102158228897,337.2248698695073,42.58288552922118,0.0,1.0,13.519280199884966,0.24705262111566206,0.0,Landing
8.9,-185.35173395301027,-1207.0991878391567,167.1347967782265,-0.26467833209966435,1.8152144603396934,337.1206356846192,42.509626479076275,0.0,1.0,13.519280199884966,0.24705262111566206,0.0,Landing
9.0,-187.3005122049523,-1183.8874199351383,167.75963493866922,-0.42935776255067526,1.7152965937641393,336.98595053761187,42.55423545885173,0.0,1.0,13.519280199884966,0.24705262111566206,0.0,Landing
9.1,-189.2805540926748,-1181.5923376168996,166.32283921220014,-0.1809716052207575,2.00920454853499,337.18184700373627,42.70803989734618,0.0,1.0,13.519280199884966,0.24705262111566206,0.0,Landing
9.200000000000001,-191.25969564109477,-1192.1389333721152,167.048029461786,-0.24681446138100704,1.6429105794606307,337.35801072685103,42.80041895276964,0.0,1.0,13.519280199884966,0.24705262111566206,0.0,Landing
9.3,-193.26120687181287,-1203.3245978249852,168.29698946157998,-0.6466746590382964,1.817511678470422,337.1867531751253,42.691893164739135,0.0,1.0,13.519280199884966,0.24705262111566206,0.0,Landing
9.4,-195.29717708179973,-1210.2784690345686,167.7770896717965,-0.4372041301597832,2.1694099650311864,337.32681938840824,43.213252185155866,0.0,1.0,13.519280199884966,0.24705262111566206,0.0,Landing
9.5,-197.3110879862676,-1229.013470288902,168.07618483019084,-0.7173677540747587,1.6911384991188214,337.077763194965,42.571240017468774,0.0,1.0,13.519280199884966,0.24705262111566206,0.0,Landing
9.600000000000001,-199.40627422325738,-1203.9180746366244,167.9958596912187,-0.5946958760866233,2.38401743038661,337.20625132625844,42.542043089742684,0.0,1.0,13.519280199884966,0.24705262111566206,0.0,Landing
9.700000000000001,-201.31676745498285,-1198.1169419126843,169.86801095389933,-0.5408109030976529,1.8667772015111426,337.1597340535328,42.360434190705874,0.0,1.0,13.519280199884966,0.24705262111566206,0.0,Landing
9.8,-203.30167269583103,-1182.9567360552062,166.92436626071168,-0.3622939632024592,2.321226621328542,337.1204943096211,43.085763472501704,0.0,1.0,13.519280199884966,0.24705262111566206,0.0,Landing
9.9,-205.32105790353341,-1201.6510422813326,167.81496025468414,-0.36531325725753455,1.83148160028014,337.1207794596206,42.377151825053154,0.0,1.0,13.519280199884966,0.24705262111566206,0.0,Landing
10.0,-207.32502266638951,-1208.171407282282,168.20894541009937,-0.4930539906418716,1.9866754492106014,337.3358292710625,42.64683172134095,0.0,1.0,13.519280199884966,0.24705262111566206,0.0,Landing
10.100000000000001,-209.34252973224244,-1199.4005142153014,169.7282010252463,-0.19738034926478693,1.8384512975810026,337.1051484081994,42.9623928831137,0.0,1.0,13.519280199884966,0.24705262111566206,0.0,Landing
10.200000000000001,-211.31806047460992,-1200.0290987447215,168.46587868559234,0.020634147617737186,1.6163417321829512,337.0332992897718,42.56513804672541,0.0,1.0,13.519280199884966,0.24705262111566206,0.0,Landing
10.3,-213.32516816011312,-1199.088406950716,167.61935457661212,-0.12680466819989009,2.2129075990752183,337.0982909906638,42.59954249294052,0.0,1.0,13.519280199884966,0.24705262111566206,0.0,Landing
10.4,-215.33797176699602,-1197.6704269795675,166.72856260545964,-0.007432627367863098,1.9282161743928354,337.33002159923046,42.40396118135923,0.0,1.0,13.519280199884966,0.24705262111566206,0.0,Landing
10.5,-217.30641260950776,-1172.8763363367761,166.6509141879662,-0.4507946769664285,1.7254444344021698,337.2960933680886,42.57779870255969,0.0,1.0,13.519280199884966,0.24705262111566206,0.0,Landing
10.600000000000001,-219.189549841797,-1161.7824163680382,167.67983026846477,-0.14032670416891366,1.8764573516145322,337.01289251558046,43.2669372175984,0.0,1.0,13.519280199884966,0.24705262111566206,0.0,Landing
10.700000000000001,-221.1468838488362,-1165.6232308231438,168.54209056628903,-0.6118112545491591,1.8926662932288942,337.27190583165066,42.16046947992453,0.0,1.0,13.519280199884966,0.24705262111566206,0.0,Landing
10.8,-223.13452876362348,-1183.5234343136901,167.53642817564906,-0.08120887681321914,1.9521462192266417,337.29476479151344,42.691274252559346,0.0,1.0,13.519280199884966,0.24705262111566206,0.0,Landing
10.9,-225.10716701336545,-1184.6666886662035,166.1869024046709,-0.33781481019933307,1.6673343782298986,337.37673302825704,43.17898220635346,0.0,1.0,13.519280199884966,0.24705262111566206,0.0,Landing
11.0,-227.07021729216723,-1182.0385399006739,168.70938795297175,-0.5948387483986624,1.7332187151562803,337.02654314744996,42.5468326805114,0.0,1.0,13.519280199884966,0.24705262111566206,0.0,Landing
11.100000000000001,-229.04472146312685,-1174.8420882698954,168.89979093512926,-0.2882167415787288,2.0589179824683876,336.9777244956016,42.86230671246765,0.0,1.0,13.519280199884966,0.24705262111566206,0.0,Landing
11.200000000000001,-230.98137745471493,-1181.17373468599,168.19228253425356,-0.43962214949951506,1.8305499467502464,337.2023152056497,42.19919010573666,0.0,1.0,13.519280199884966,0.24705262111566206,0.0,Landing
11.3,-232.97608596559718,-1195.02501609241,169.9356093087766,-0.28503026016698996,2.13190530190133,336.75237125557464,42.45980437665729,0.0,1.0,13.519280199884966,0.24705262111566206,0.0,Landing
11.4,-235.0198465435889,-1192.1991874033722,168.06380349341165,-0.40344855031691546,1.7913427119643182,337.2509312508248,42.39208886743927,0.0,1.0,13.519280199884966,0.24705262111566206,0.0,Landing
11.5,-236.9423733917318,-1193.3305639107346,169.88250524464223,-0.4345390887302305,1.9620150785206258,337.14180915538964,42.979368598268366,0.0,1.0,13.519280199884966,0.24705262111566206,0.0,Landing
11.600000000000001,-238.94273878515085,-1180.64980251267,168.21733125772664,-0.5252438334870605,1.6250859838917746,337.0706278075238,42.21039322724654,0.0,1.0,13.519280199884966,0.24705262111566206,0.0,Landing
11.700000000000001,-240.92309555615225,-1201.5990549818184,167.3689540821769,-0.3365391201380824,1.7984627185732265,337.0869409925832,42.55073868144903,0.0,1.0,13.519280199884966,0.24705262111566206,0.0,Landing
11.8,-242.95036866664088,-1199.5754767238734,166.1742751961245,-0.315291563126163,1.6858265161682555,337.28652305547234,42.81766356200475,0.0,1.0,13.519280199884966,0.24705262111566206,0.0,Landing
11.9,-244.94061616877022,-1212.7156176803226,168.26522198353584,-0.41321444217850123,1.8528138954422764,337.15279367554217,43.06382856394807,0.0,1.0,13.519280199884966,0.24705262111566206,0.0,Landing
12.0,-246.98667364455386,-1190.8159953084635,167.04924850360464,-0.5552364117154811,1.7062316746203006,336.913567327113,43.02593363770094,0.0,1.0,13.519280199884966,0.24705262111566206,0.0,Landing
12.100000000000001,-248.9044486431832,-1182.563335249148,167.5680132176387,-0.07862708486774139,1.7300156116200818,337.35164018830335,42.28183207396028,0.0,1.0,13.519280199884966,0.24705262111566206,0.0,Landing
12.200000000000001,-250.85343284501596,-1175.4757420959666,169.89690982099305,-0.6990952754170401,1.924567139105863,337.10060033790455,42.54863221354859,0.0,1.0,13.519280199884966,0.24705262111566206,0.0,Landing
12.3,-252.8640523550337,-1213.9701240958345,168.48200826824072,-0.5043728744349356,2.186568083311251,337.1007835873736,42.58270239136339,0.0,1.0,13.519280199884966,0.24705262111566206,0.0,Landing
12.4,-254.97429926366237,-1210.1921315957497,168.17519843787522,-0.18608575356103008,1.926564727107093,337.04698519643557,43.00850222426026,0.0,1.0,13.519280199884966,0.24705262111566206,0.0,Landing
12.5,-256.9043935029947,-1205.7215861400152,169.07683595445866,-0.4229631517264544,1.6642171072810046,337.03521126512214,42.22554983572106,0.0,1.0,13.519280199884966,0.24705262111566206,0.0,Landing
12.600000000000001,-258.89266028573377,-1177.7760358574824,167.57108676581504,-0.4148130930432238,2.075037663718699,337.27162177627747,42.85024022138975,0.0,1.0,13.519280199884966,0.24705262111566206,0.0,Landing
12.700000000000001,-260.8631794429498,-1175.1558006251685,167.930364141584,-0.46862018014588475,1.4794419834493953,337.1424341835691,42.4270527164009,0.0,1.0,13.519280199884966,0.24705262111566206,0.0,Landing
12.8,-262.78017250612055,-1173.6957692139185,167.21746632649166,-0.33582762308337466,1.5650920338500727,337.24347016785214,41.823813221309685,0.0,1.0,13.519280199884966,0.24705262111566206,0.0,Landing
12.9,-264.76113913180336,-1177.5148242330147,167.69617180779645,-0.5689078577009345,1.6211199299031156,337.4164203027774,42.4761347715583,0.0,1.0,13.519280199884966,0.24705262111566206,0.0,Landing
13.0,-266.75075356411486,-1183.8083472232938,168.08769517643947,-0.13387031428439536,1.9081344142054726,337.0907739704312,42.32873732460958,0.0,1.0,13.519280199884966,0.24705262111566206,0.0,Landing
13.100000000000001,-268.699214242237,-1170.639485261097,168.06852309181545,-0.2520201299533094,1.7606169425566753,337.23843590455704,42.60580479454354,0.0,1.0,13.519280199884966,0.24705262111566206,0.0,Landing
13.200000000000001,-270.61433655810885,-1173.8227967498801,168.16561634809096,-0.46408075607168636,1.678358994817912,337.00666600259524,42.396690028998634,0.0,1.0,13.519280199884966,0.24705262111566206,0.0,Landing
13.3,-272.61986754786426,-1176.6626777753686,166.2838188565251,-0.40058177694538416,2.7012907329443543,337.0592402761338,42.87939132482674,0.0,1.0,13.519280199884966,0.24705262111566206,0.0,Landing
13.4,-274.58252763111386,-1179.2778839134712,168.38632724475642,-0.6251998479739236,1.7670420950917753,337.0155568047526,42.46086844656723,0.0,1.0,13.519280199884966,0.24705262111566206,0.0,Landing
13.5,-276.5107259776762,-1185.188236369936,168.64491101466325,-0.50193331481838,1.924211078187418,337.1414181461795,42.65276681985839,0.0,1.0,13.519280199884966,0.24705262111566206,0.0,Landing
13.600000000000001,-278.54580872971394,-1178.862161054633,166.52985579508928,-0.37219939894414733,1.770038517112656,337.3064691807749,42.249920569436945,0.0,1.0,13.519280199884966,0.24705262111566206,0.0,Landing
13.700000000000001,-280.476838436387,-1168.4504059527626,168.8812301623238,-0.29147985866219533,1.7538676619905373,337.0500490016756,42.08275876299437,0.0,1.0,13.519280199884966,0.24705262111566206,0.0,Landing
13.8,-282.35297800744,-1166.2642634740223,168.36046589111723,-0.589498614094502,1.8601193237179516,337.3398375253903,43.14205237171663,0.0,1.0,13.519280199884966,0.24705262111566206,0.0,Landing
13.9,-284.37713004708405,-1168.900400155485,166.4768913041421,-0.24096005868079443,1.5159604487291827,337.11006336432445,42.83963141869379,0.0,1.0,13.519280199884966,0.24705262111566206,0.0,Landing
14.0,-286.32134043716445,-1198.871204672605,170.5331303964082,-0.4863637979822244,1.5044062591213871,336.89277199086996,42.834810300576464,0.0,1.0,13.519280199884966,0.24705262111566206,0.0,Landing
14.100000000000001,-288.34733403080304,-1184.0904154817622,167.70037499658224,-0.21614091801012272,1.6095497076742065,337.26914576385957,42.812537341330454,0.0,1.0,13.519280199884966,0.24705262111566206,0.0,Landing
14.200000000000001,-290.29758212449286,-1187.1316254969315,168.60260190763515,-0.19635383943775497,2.039590801491562,337.055951217748,42.38442009189727,0.0,1.0,13.519280199884966,0.24705262111566206,0.0,Landing
14.3,-292.2569985646491,-1176.6613368539652,167.52270700519554,-0.43646078981311465,1.842426515071671,337.17420358845504,42.95534913759724,0.0,1.0,13.519280199884966,0.24705262111566206,0.0,Landing
14.4,-294.23064071507287,-1178.2022949500515,168.3409216278033,-0.24304662616495318,1.6999265892199271,337.0639115138508,43.08080405378582,0.0,1.0,13.519280199884966,0.24705262111566206,0.0,Landing
14.5,-296.1885935992431,-1174.846668489954,169.04464471212802,-0.1439107036541165,2.0847976733807836,337.18012401458327,42.77863068366191,0.0,1.0,13.519280199884966,0.24705262111566206,0.0,Landing
14.600000000000001,-298.1312319070989,-1172.0102073561293,169.7058356097869,-0.39094982988669763,1.9595582375760583,337.32513218951203,42.689084503304926,0.0,1.0,13.519280199884966,0.24705262111566206,0.0,Landing
14.700000000000001,-300.0906917518535,-1167.5055527994232,166.66219007655602,-0.0842309443867717,1.6712505940564308,337.0415357068209,43.00958942057812,0.0,1.0,13.519280199884966,0.24705262111566206,0.0,Landing
14.8,-302.02612136324024,-1175.4801823157436,168.29312086609943,-0.6989107404704938,1.7403951514743579,337.2222653535532,43.02904631534498,0.0,1.0,13.519280199884966,0.24705262111566206,0.0,Landing
14.9,-304.0086328186776,-1178.0350250776678,168.82174973254453,-0.43148732123156763,1.831730170173815,336.85330030656735,42.82639911182395,0.0,1.0,13.519280199884966,0.24705262111566206,0.0,Landing
15.0,-305.98086687724185,-1169.8655302164866,167.3941104089645,-0.5606423329363074,2.0293226031144185,337.0082304391592,42.20143082669952,0.0,1.0,13.519280199884966,0.24705262111566206,0.0,Landing
15.100000000000001,-307.87544901432267,-1161.8727183293572,165.7322688353056,-0.26955791639534354,1.7872997998981743,337.1737941102891,42.88827520452908,0.0,1.0,13.519280199884966,0.24705262111566206,0.0,Landing
15.200000000000001,-309.8179964103244,-1172.921251165178,169.09136811974375,-0.6447814048239462,1.6820665409475444,337.39118604544024,42.675250129215215,0.0,1.0,13.519280199884966,0.24705262111566206,0.0,Landing
15.3,-311.84547313306774,-1176.9492207497933,168.98038380382798,-0.35703076332434636,1.7506130516815488,337.34128247322496,42.06007245948607,0.0,1.0,13.519280199884966,0.24705262111566206,0.0,Landing
15.4,-313.76019511807164,-1178.5682800912696,167.5076550953103,-0.006241696265975039,1.575320765345953,337.1033065775498,42.27192733085902,0.0,1.0,13.519280199884966,0.24705262111566206,0.0,Landing
15.5,-315.71083781078073,-1185.1040834199125,166.33969072379307,-0.2765973973727027,2.048299087853768,337.28521020633775,42.344051280819066,0.0,1.0,13.519280199884966,0.24705262111566206,0.0,Landing
15.600000000000001,-317.7709935501673,-1206.9306967682678,167.9074572078169,-0.4567525972425409,2.0819211398246913,337.0140273825068,43.24269590419579,0.0,1.0,13.519280199884966,0.24705262111566206,0.0,Landing
15.700000000000001,-319.794848601913,-1228.0933006139435,167.1783841981851,-0.669837462558463,1.9379184511078351,337.33818923033664,42.52781987248153,0.0,1.0,13.519280199884966,0.24705262111566206,0.0,Landing
15.8,-321.85130431385045,-1203.2639958956565,168.15013649349666,0.02284549055903662,1.7775871120903974,337.1675455372317,42.53173028301301,0.0,1.0,13.519280199884966,0.24705262111566206,0.0,Landing
15.9,-323.7873135296456,-1181.4875951748718,167.63846811366008,-0.3141393899794171,1.6576735633313804,336.97744958824285,42.6984950373712,0.0,1.0,13.519280199884966,0.24705262111566206,0.0,Landing
16.0,-325.70228657778733,-1148.8281069290451,168.2815007385261,-0.48343862223127465,1.8496822083086253,337.43375554325416,43.1316047959569,0.0,1.0,13.519280199884966,0.24705262111566206,0.0,Landing
16.1,-327.5954448484957,-1148.761206418726,169.65387988270868,-0.49824925499224637,1.4770674157544224,337.0793720687534,42.212076455450564,0.0,1.0,13.519280199884966,0.24705262111566206,0.0,Landing
16.2,-329.5311195617392,-1149.0440463845175,167.71802842363192,-0.5448327429234433,1.7626266692646662,336.82068163687984,42.95242964293044,0.0,1.0,13.519280199884966,0.24705262111566206,0.0,Landing
16.3,-331.4475068097099,-1150.1869511244422,167.32441281008255,-0.09143882454788699,1.9178216051293377,337.1121697531487,42.6382180955115,0.0,1.0,13.519280199884966,0.24705262111566206,0.0,Landing
16.400000000000002,-333.3463796041179,-1144.197739058825,167.27501725057135,-0.11677513121902511,2.1007469966010635,337.06705951533536,41.8022440721818,0.0,1.0,13.519280199884966,0.24705262111566206,0.0,Landing
16.5,-335.25210825703334,-1141.8331909412927,168.9910384300257,-0.40623274830885225,1.9396262999802745,337.117824402663,42.40352689104897,0.0,1.0,13.519280199884966,0.24705262111566206,0.0,Landing
16.6,-337.1566727644164,-1135.5885370157353,168.25802130651869,-0.27223077101038407,2.177056850579997,337.27444346615835,43.07457931271805,0.0,1.0,13.519280199884966,0.24705262111566206,0.0,Landing
16.7,-339.02432228919656,-1129.0754068696515,169.3551792470833,-0.1543541360018043,2.1179672151058453,337.1683986278665,42.207345550347014,0.0,1.0,13.519280199884966,0.24705262111566206,0.0,Landing
16.8,-340.8974852913816,-1131.6892636538796,168.65078106239454,-0.5891951459397424,1.8323418069288115,337.2751319523387,43.12695843507961,0.0,1.0,13.519280199884966,0.24705262111566206,0.0,Landing
16.900000000000002,-342.8151190826858,-1159.4011952677647,167.08647163400659,0.10615471444529045,1.4799166134880084,337.1475738580252,42.55332594602429,0.0,1.0,13.519280199884966,0.24705262111566206,0.0,Landing
17.0,-344.8213282655354,-1164.960178051524,170.64741008707608,-0.5771165418837241,2.0151788954127707,337.35828745687877,42.51962296760107,0.0,1.0,13.519280199884966,0.24705262111566206,0.0,Landing
17.1,-346.7222861816392,-1180.3865708657213,167.46873120288677,-0.43217090168539346,2.0751970646466718,337.2928457070079,42.86664855880765,0.0,1.0,13.519280199884966,0.24705262111566206,0.0,Landing
17.2,-348.7170519370144,-1186.08575612717,165.6444197631004,-0.26953017714781846,1.8420106359061716,337.21762985123735,42.948710043560894,0.0,1.0,13.519280199884966,0.24705262111566206,0.0,Landing
17.3,-350.75175704617124,-1185.912304924807,167.8209714934686,-0.24636449488114018,1.7077651559666363,337.008076737191,42.19985875884034,0.0,1.0,13.519280199884966,0.24705262111566206,0.0,Landing
17.400000000000002,-352.65184770626325,-1166.8551771155421,168.37461183431353,-0.4063651665035843,1.8640397339615375,337.0422211033904,42.526586589899686,0.0,1.0,13.519280199884966,0.24705262111566206,0.0,Landing
17.5,-354.5513278225921,-1154.5562814179334,167.53472800074647,-0.3101616636730124,2.127322442048462,337.5497517689182,42.73815255328446,0.0,1.0,13.519280199884966,0.24705262111566206,0.0,Landing
17.6,-356.5245384532609,-1156.584182654285,165.7631948108583,-0.5449050247638028,1.5326749306574088,336.9528665577011,42.41549889209797,0.0,1.0,13.519280199884966,0.24705262111566206,0.0,Landing
17.7,-358.4347686195347,-1160.2704863966665,169.62888726067288,-0.3144264227072624,1.8545431176752107,337.2668632563243,42.703749043115,0.0,1.0,13.519280199884966,0.24705262111566206,0.0,Landing
17.8,-360.35268025457543,-1130.1809971614375,170.2700014054366,-0.1544235172528253,1.6861452123790608,337.28242278440086,43.43623467230894,0.0,1.0,13.519280199884966,0.24705262111566206,0.0,Landing
17.900000000000002,-362.1754434390681,-1123.2514441925446,168.46766001808933,-0.7464057526993351,2.0156481528682235,337.20449072931274,42.24905345850691,0.0,1.0,13.519280199884966,0.24705262111566206,0.0,Landing
18.0,-364.0510258404974,-1102.4096152232573,166.83895509761126,-0.22282750828433687,1.5859852341583927,337.12577992549836,42.592172097545095,0.0,1.0,13.519280199884966,0.24705262111566206,0.0,Landing
18.1,-365.8647283306917,-1122.816315918078,168.34674203129828,-0.37875172157824216,1.860951894745939,337.14014039117706,42.24395561276183,0.0,1.0,13.519280199884966,0.24705262111566206,0.0,Landing
18.2,-367.7895250186585,-1144.1001012887,169.96658955026052,-0.44127529020108175,2.0100128786466382,337.19329561309064,42.770635573036216,0.0,1.0,13.519280199884966,0.24705262111566206,0.0,Landing
18.3,-369.7715263469409,-1168.651120687241,166.37006125452757,-0.3379640640748533,1.9830916972463215,337.0350011329731,43.1021421057809,0.0,1.0,13.519280199884966,0.24705262111566206,0.0,Landing
18.400000000000002,-371.7079839341279,-1178.2927556408936,167.9089236490713,-0.20508182799809563,2.020699800396302,337.02511557378784,42.90402878149393,0.0,1.0,13.519280199884966,0.24705262111566206,0.0,Landing
18.5,-373.68098879686295,-1149.6168149969549,169.03080119777286,-0.6698608846865344,1.8560539921005534,337.1255940275953,42.61686461548336,0.0,1.0,13.519280199884966,0.24705262111566206,0.0,Landing
18.6,-375.5196104219257,-1164.8818675936127,166.20378768478608,-0.3762335164698427,1.999359247213694,337.4696817069025,42.84066526755601,0.0,1.0,13.519280199884966,0.24705262111566206,0.0,Landing
18.7,-377.532393272096,-1165.0366926860443,169.62295000641063,-0.28193060116073615,1.65536361574481,337.1955815385095,42.75214240384987,0.0,1.0,13.519280199884966,0.24705262111566206,0.0,Landing
18.8,-379.50617226029317,-1178.3289832326773,167.7953413289293,-0.04295071030020836,2.1608214182448613,337.1634477072623,42.539727635714854,0.0,1.0,13.519280199884966,0.24705262111566206,0.0,Landing
18.900000000000002,-381.41125533808906,-1168.4609708706716,167.66898986183293,-0.7083584572692911,1.8752500856468328,337.19380013405623,42.59187201994842,0.0,1.0,13.519280199884966,0.24705262111566206,0.0,Landing
19.0,-383.37469812644935,-1147.3806920468974,168.676649205271,-0.19985573501969145,1.9536798350311344,337.09761427289936,42.37189973117861,0.0,1.0,13.519280199884966,0.24705262111566206,0.0,Landing
19.1,-385.24307572052766,-1143.6614490247166,169.21325697900062,-0.38520299150705445,2.157248812109822,336.9751910320565,42.95885864822987,0.0,1.0,13.519280199884966,0.24705262111566206,0.0,Landing
19.200000000000003,-387.12956258321265,-1133.4969477469258,166.72623352736377,-0.49408432355107856,1.8380558505244422,337.3045124313272,42.18233840188582,0.0,1.0,13.519280199884966,0.24705262111566206,0.0,Landing
19.3,-389.042182865184,-1151.6821098333821,168.45586090513856,-0.26704986584090834,1.7081983133703487,337.1046178035523,42.47492744138678,0.0,1.0,13.519280199884966,0.24705262111566206,0.0,Landing
19.400000000000002,-391.00148626969457,-1160.9369431954406,168.76831687383415,-0.1659081048489995,1.3461779657999031,337.351064489872,43.18647265541546,0.0,1.0,13.519280199884966,0.24705262111566206,0.0,Landing
19.5,-392.93424729918985,-1144.9355280732334,167.7885153294253,-0.20828437545733638,1.875093096436757,337.3031466060405,42.72827526012079,0.0,1.0,13.519280199884966,0.24705262111566206,0.0,Landing
19.6,-394.76686050555014,-1125.35276342702,167.69313199691985,-0.5678216205172322,1.9713117536231979,337.29426611741974,43.07611241399343,0.0,1.0,13.519280199884966,0.24705262111566206,0.0,Landing
19.700000000000003,-396.62825008682967,-1135.871366502056,170.08263302883367,0.17752541504238317,1.749275725286698,337.0607793625902,42.78683438486951,0.0,1.0,13.519280199884966,0.24705262111566206,0.0,Landing
19.8,-398.61360413170013,-1163.0669400103557,168.08262299974052,-0.6070157062013057,1.4395104608643832,337.1034343830313,43.03481789089554,0.0,1.0,13.519280199884966,0.24705262111566206,0.0,Landing
19.900000000000002,-400.5821952056019,-1164.9329921428603,169.73656931018098,-0.5792591147373507,1.3266102474800254,337.1007624975816,42.68317832945558,0.0,1.0,13.519280199884966,0.24705262111566206,0.0,Landing
20.0,-402.45291504754397,-1162.390215704113,168.94915727218324,-0.5596554775033995,2.0120205236728905,336.9332000298291,42.16795829886974,0.0,1.0,13.519280199884966,0.24705262111566206,0.0,Landing
20.1,-404.4255552102207,-1152.2259006934746,168.15987525401871,-0.3715144491000241,1.5874740204014235,337.12728526858257,43.229674854851865,0.0,1.0,13.519280199884966,0.24705262111566206,0.0,Landing
20.200000000000003,-406.3433247090693,-1167.9310234567083,168.49580759111697,-0.569644960670531,1.8713196597472295,337.2323847281267,42.6453788466273,0.0,1.0,13.519280199884966,0.24705262111566206,0.0,Landing
20.3,-408.2925701648275,-1143.9791420653137,166.58447590415358,-0.4144231456110195,1.8770125706178349,337.0222547484817,42.76602014149336,0.0,1.0,13.519280199884966,0.24705262111566206,0.0,Landing
20.400000000000002,-410.14545092054726,-1137.386188313883,166.70325355849985,-0.34211952929427486,1.935930764240299,337.18555579285703,42.14806292479952,0.0,1.0,13.519280199884966,0.24705262111566206,0.0,Landing
20.5,-412.0302556506387,-1127.5620809325574,166.9762435502216,0.1046876714921578,1.6166627658818595,337.25197963434175,42.75357170390969,0.0,1.0,13.519280199884966,0.24705262111566206,0.0,Landing
20.6,-413.9303805694903,-1129.9006520708417,167.26096825651166,-0.2073823007701461,2.098982163592743,337.3175826205056,42.82362393181523,0.0,1.0,13.519280199884966,0.24705262111566206,0.0,Landing
20.700000000000003,-415.79495418090147,-1127.271570262451,168.15479546256083,-0.17118892172587696,1.709287271854268,337.2658527761166,42.81411122882172,0.0,1.0,13.519280199884966,0.24705262111566206,0.0,Landing
20.8,-417.66661350195096,-1130.322213554507,166.93453762887702,-0.2722065717848065,1.9962288888845747,337.1433738129051,41.85860029297149,0.0,1.0,13.519280199884966,0.24705262111566206,0.0,Landing
20.900000000000002,-419.58199163726283,-1146.2926422085047,165.77734294824543,-0.5183190523671395,2.0173746754291613,337.0227947132346,42.85751154631889,0.0,1.0,13.519280199884966,0.24705262111566206,0.0,Landing
21.0,-421.526417391944,-1151.8004244025178,166.73298623127152,-0.34346805611368986,1.8658960760130177,337.3436667447929,42.707037793398285,0.0,1.0,13.519280199884966,0.24705262111566206,0.0,Landing
21.1,-423.42561562396355,-1137.7652150897234,169.50172653721867,-0.449179952046088,1.8673172189471934,337.3239515364331,42.72037926459926,0.0,1.0,13.519280199884966,0.24705262111566206,0.0,Landing
21.200000000000003,-425.27081771271145,-1139.0042305574866,168.27062070992932,-0.3510631729183301,2.1024367657424667,336.9573244042342,43.35201313414987,0.0,1.0,13.519280199884966,0.24705262111566206,0.0,Landing
21.3,-427.2214385447314,-1140.659090245606,166.4441081022201,-0.41043581071917007,1.7147608593637802,337.20478009465194,42.494195071334495,0.0,1.0,13.519280199884966,0.24705262111566206,0.0,Landing
21.400000000000002,-429.1289110751916,-1154.0120280672568,168.09630663374125,-0.510556369633064,1.8253509215486228,337.16979684680837,42.63862388836892,0.0,1.0,13.519280199884966,0.24705262111566206,0.0,Landing
21.5,-431.04087785304773,-1151.1846859386992,167.55712296281365,-0.30603478517150756,1.8923397642508537,337.0789497120404,42.81016168270662,0.0,1.0,13.519280199884966,0.24705262111566206,0.0,Landing
21.6,-432.9773619744249,-1143.144942895708,166.14072875478683,-0.3075651385954157,2.046865419233612,337.2982762860697,42.73746160044391,0.0,1.0,13.519280199884966,0.24705262111566206,0.0,Landing
21.700000000000003,-434.8446357896701,-1122.8308197800857,168.47115807459127,-0.8129091269987097,2.019805595666111,337.05182905355673,42.244363714184374,0.0,1.0,13.519280199884966,0.24705262111566206,0.0,Landing
21.8,-436.65503195194816,-1122.5588313792286,167.44038326497233,-0.4267099419862397,2.116797670821456,337.33831262690273,42.57725899149546,0.0,1.0,13.519280199884966,0.24705262111566206,0.0,Landing
21.900000000000002,-438.59015613132107,-1130.9186775733338,168.03307460198525,-0.5831540869240932,1.653177762328951,337.1722320227036,42.693256745183014,0.0,1.0,13.519280199884966,0.24705262111566206,0.0,Landing
22.0,-440.4992291775368,-1140.4025732614627,167.87160282255252,-0.20912439283547002,1.7683007712149836,337.12464705007744,42.647719645525,0.0,1.0,13.519280199884966,0.24705262111566206,0.0,Landing
22.1,-442.3570448182555,-1134.3918765366766,165.88718383266772,-0.48207862570200644,2.0354300933705933,337.06162290652173,42.721965122571,0.0,1.0,13.519280199884966,0.24705262111566206,0.0,Landing
22.200000000000003,-444.26211551400445,-1111.8921670887858,167.9821240468187,-0.30817154968736893,1.7374754240952612,337.2608402726445,42.794664546500925,0.0,1.0,13.519280199884966,0.24705262111566206,0.0,Landing
22.3,-446.0586900129807,-1118.5101530571274,167.5373660222649,-0.5622861789589321,1.61635902037416,336.99285227461814,42.49529588790843,0.0,1.0,13.519280199884966,0.24705262111566206,0.0,Landing
22.400000000000002,-447.9495955835411,-1105.2283713906945,165.05920889261392,-0.5701191984236473,2.217405618702144,337.1255138738029,42.882126465419674,0.0,1.0,13.519280199884966,0.24705262111566206,0.0,Landing
22.5,-449.7882573709579,-1144.8361214092756,166.9728101451554,0.031178469501253137,1.510379270801295,337.06802042469917,43.06780309720048,0.0,1.0,13.519280199884966,0.24705262111566206,0.0,Landing
22.6,-451.7828706200271,-1143.8183656052274,166.213656920826,-0.7406116926475161,2.0499677987001914,337.13900739480687,42.625949574220144,0.0,1.0,13.519280199884966,0.24705262111566206,0.0,Landing
22.700000000000003,-453.66868741156725,-1136.7784456694949,165.80183891701694,-0.330623240696074,1.8307176415020185,337.3116640630152,43.02169821817961,0.0,1.0,13.519280199884966,0.24705262111566206,0.0,Landing
22.8,-455.4721495993054,-1103.9223476003826,167.3019309859862,-0.12697019147368466,1.7704949292515682,337.0934829802302,42.657777500383936,0.0,1.0,13.519280199884966,0.24705262111566206,0.0,Landing
22.900000000000002,-457.302482358029,-1110.5454400352642,167.88593288727915,-0.5714194325750681,1.862068334733672,337.1558030682512,42.48450778621381,0.0,1.0,13.519280199884966,0.24705262111566206,0.0,Landing
23.0,-459.22141461174357,-1120.2229194516235,166.60589990363187,-0.07739625257571403,2.011523620601427,337.02895035906806,43.38993781686943,0.0,1.0,13.519280199884966,0.24705262111566206,0.0,Landing
23.1,-461.0732641965635,-1126.9744945245293,169.17809988513682,-0.05956313297971061,2.0513131314384796,337.50488762410487,42.580561243298,0.0,1.0,13.519280199884966,0.24705262111566206,0.0,Landing
23.200000000000003,-462.93735483065166,-1131.1223021971387,169.1021313237832,-0.5387325747494635,2.032922515743557,337.03438910235525,42.630065710699185,0.0,1.0,13.519280199884966,0.24705262111566206,0.0,Landing
23.3,-464.87702612272926,-1137.9371443094442,169.17002656601264,-0.4402092374523651,1.756788884588514,336.7515984545913,42.779359141224184,0.0,1.0,13.519280199884966,0.24705262111566206,0.0,Landing
23.400000000000002,-466.76294991811073,-1132.0194178259612,169.45386389109018,-0.27508002745275517,1.6493812957588654,337.2875042955154,42.76896701142177,0.0,1.0,13.519280199884966,0.24705262111566206,0.0,Landing
23.5,-468.59745191978146,-1121.0182243360691,169.09855158168304,-0.44929217925470044,1.7304158987828209,337.228879192822,43.03541993396651,0.0,1.0,13.519280199884966,0.24705262111566206,0.0,Landing
23.6,-470.4821172444096,-1120.2561342741433,168.51662748413676,-0.699080994274579,1.8659840137060184,337.2606311335312,42.58570013829822,0.0,1.0,13.519280199884966,0.24705262111566206,0.0,Landing
23.700000000000003,-472.36423058948145,-1117.463551337994,168.54627929863022,-0.4707126494935893,1.6694447228945324,337.19729109465493,42.80045019277835,0.0,1.0,13.519280199884966,0.24705262111566206,0.0,Landing
23.8,-474.18476967647143,-1122.067721113774,168.49638728828074,-0.3098196850500716,1.4490664215455062,337.142225893646,42.7644974629934,0.0,1.0,13.519280199884966,0.24705262111566206,0.0,Landing
23.900000000000002,-476.0924558499785,-1127.0073973565331,169.7686179635978,-0.45419493579948733,1.6164247622417025,337.14796552446126,42.84524361842169,0.0,1.0,13.519280199884966,0.24705262111566206,0.0,Landing
24.0,-477.9992675762641,-1141.8978200004744,169.73911574114223,-0.39853880791295127,1.7118751948445952,337.1362217712617,42.99917250698727,0.0,1.0,13.519280199884966,0.24705262111566206,0.0,Landing
24.1,-479.8942587764738,-1141.699080453725,167.889360638905,-0.14725093699215466,1.490521532367504,337.08531595308466,42.23064901970532,0.0,1.0,13.519280199884966,0.24705262111566206,0.0,Landing
24.200000000000003,-481.8009512522471,-1141.8096446501409,165.93419016186405,-0.016156552708503025,1.631520310922118,336.7913556416793,42.362972123326436,0.0,1.0,13.519280199884966,0.24705262111566206,0.0,Landing
24.3,-483.7083157995148,-1128.1394999737017,168.34649838138617,-0.5518160479602243,1.9219457786398109,337.18073017070344,42.441397170595465,0.0,1.0,13.519280199884966,0.24705262111566206,0.0,Landing
24.400000000000002,-485.5349562763423,-1106.7139992999273,168.062738340653,-0.5602484073035309,2.2967109682811007,337.08060633942114,42.32026584669352,0.0,1.0,13.519280199884966,0.24705262111566206,0.0,Landing
24.5,-487.33452124874674,-1105.4954903103749,168.60364899014792,-0.2556742859402227,1.9141528434785526,337.2644051072243,42.54267273996218,0.0,1.0,13.519280199884966,0.24705262111566206,0.0,Landing
24.6,-489.2357932510667,-1112.6661103118522,168.94140424791442,-0.7125199591348269,1.5784481502983345,337.26097738074327,42.12485083811292,0.0,1.0,13.519280199884966,0.24705262111566206,0.0,Landing
24.700000000000003,-491.0982868279016,-1126.0569153975212,167.89128749377412,-0.43452638146279454,1.337632542293016,337.24085580283827,42.40990923894342,0.0,1.0,13.519280199884966,0.24705262111566206,0.0,Landing
24.8,-492.96480582573435,-1120.3590463386377,169.15175000047856,-0.30325216466772303,2.201693017666882,337.2811335894239,42.51362943248164,0.0,1.0,13.519280199884966,0.24705262111566206,0.0,Landing
24.900000000000002,-494.8375884827599,-1120.0732095209332,169.32804627421675,-0.2524069166980456,1.884837504260126,336.88525194608746,42.28056478733098,0.0,1.0,13.519280199884966,0.24705262111566206,0.0,Landing
25.0,-496.69865287550624,-1098.9802174488545,166.885033294574,-0.35497645967188746,1.9343619839206059,337.35133387100905,42.84097813990188,0.0,1.0,13.519280199884966,0.24705262111566206,0.0,Landing
25.1,-498.4597069129786,-1087.4204667978802,168.65965432448814,-0.07424173821901198,1.7468768150564238,337.0051994232184,42.525906803507525,0.0,1.0,13.519280199884966,0.24705262111566206,0.0,Landing
25.200000000000003,-500.2746908167493,-1075.347197188512,169.52926421771593,-0.7017276493271956,1.8044528490144824,337.15069572393816,42.96658087460694,0.0,1.0,13.519280199884966,0.24705262111566206,0.0,Landing
25.3,-502.0753888614488,-1088.1956605169648,168.56061338022667,-0.5377519314014619,1.6792052854354431,336.87906983278094,42.14782394956269,0.0,1.0,13.519280199884966,0.24705262111566206,0.0,Landing
25.400000000000002,-503.90068521556344,-1086.271757648467,168.49289081705408,-0.10414596501342543,1.6090593894332668,337.24147883340663,43.1620413483865,0.0,1.0,13.519280199884966,0.24705262111566206,0.0,Landing
25.5,-505.7060496049916,-1084.9201924143586,169.44427985386733,-0.6112325809136679,1.943630667204066,337.1171131626884,42.16070473983058,0.0,1.0,13.519280199884966,0.24705262111566206,0.0,Landing
25.6,-507.4999898235206,-1100.9837667731517,168.00241066746977,0.003850477108203021,1.7576040646253388,337.00279353849123,42.47566409361449,0.0,1.0,13.519280199884966,0.24705262111566206,0.0,Landing
25.700000000000003,-509.4056040494292,-1130.0267382664742,167.43957701564955,-0.5706077310837189,1.942503528646107,337.1801242680441,42.89258811571641,0.0,1.0,13.519280199884966,0.24705262111566206,0.0,Landing
25.8,-511.356183296324,-1144.4154559119283,167.22813295137854,-0.7276482821731942,1.8384793132900297,337.15371726630406,42.691952203897216,0.0,1.0,13.519280199884966,0.24705262111566206,0.0,Landing
25.900000000000002,-513.2220671030802,-1105.3140638176387,168.01778585722693,-0.41862853494546043,2.349299770567048,337.231009087609,42.49087612955255,0.0,1.0,13.519280199884966,0.24705262111566206,0.0,Landing
26.0,-514.9321743685174,-1084.9474033750425,170.51685226240852,-0.4317647554554328,1.9769966774419487,337.1857535721167,42.85387252297556,0.0,1.0,13.519280199884966,0.24705262111566206,0.0,Landing
26.1,-516.7809203131992,-1082.033545880995,168.76116662425582,-0.4866933570063562,1.4968025240486451,337.2181615149375,43.047326121034594,0.0,1.0,13.519280199884966,0.24705262111566206,0.0,Landing
26.200000000000003,-518.6322348324852,-1101.4728638293263,167.18927132716325,-0.2977703947588728,1.9974380513810284,337.27392645578857,42.19210027869225,0.0,1.0,13.519280199884966,0.24705262111566206,0.0,Landing
26.3,-520.439538687664,-1081.8968076249803,167.71226481734735,-0.06520851411502676,1.5882412812200946,337.0394069510228,42.85569421247717,0.0,1.0,13.519280199884966,0.24705262111566206,0.0,Landing
26.400000000000002,-522.1904043513241,-1089.4601033764502,166.98473450585362,0.15433254133938268,1.9055125601171186,337.01723764719964,42.57818615326514,0.0,1.0,13.519280199884966,0.24705262111566206,0.0,Landing
26.5,-524.0795353493675,-1089.3455566147622,167.25694662803284,-0.3040077676172671,1.8683282685211577,337.2608787566612,42.21574521253369,0.0,1.0,13.519280199884966,0.24705262111566206,0.0,Landing
26.6,-525.8862664707378,-1093.6219160354085,168.62133096474406,-0.23469571112821863,1.7809741956624325,337.1950688715194,42.5634032394224,0.0,1.0,13.519280199884966,0.24705262111566206,0.0,Landing
26.700000000000003,-527.6585139315011,-1077.7407593745465,167.25194940205608,-0.2537964195918875,2.053599592130425,337.0835278558684,43.04701993363198,0.0,1.0,13.519280199884966,0.24705262111566206,0.0,Landing
26.8,-529.4682391462402,-1075.4074648708183,167.94382680959083,-0.40240225351940145,1.7337994667828869,337.5179660857243,42.40310972656061,0.0,1.0,13.519280199884966,0.24705262111566206,0.0,Landing
26.900000000000002,-531.2633037950919,-1096.0187529370842,168.26554405477188,-0.3114590655525463,1.6598831537298115,337.0192328355639,42.741810267943976,0.0,1.0,13.519280199884966,0.24705262111566206,0.0,Landing
27.0,-533.1386076961866,-1099.6757427958983,167.5014439737096,-0.2847511258255084,1.8609503766598408,336.92025181443637,43.03798239924199,0.0,1.0,13.519280199884966,0.24705262111566206,0.0,Landing
27.1,-534.9666178602197,-1113.2812376941956,167.27052096341424,-0.3982350225747422,2.059516035391613,337.27140975020484,42.37779426777727,0.0,1.0,13.519280199884966,0.24705262111566206,0.0,Landing
27.200000000000003,-536.8297099835629,-1099.2149288402516,168.45825601148385,-0.32118150511672916,1.8909657024117221,337.3168182676252,42.678609354201754,0.0,1.0,13.519280199884966,0.24705262111566206,0.0,Landing
27.3,-538.6346823403878,-1104.080280397011,169.38323498748196,-0.3575946015721244,1.9233257921181952,337.18964758436505,42.870605848983104,0.0,1.0,13.519280199884966,0.24705262111566206,0.0,Landing
27.400000000000002,-540.4870192622047,-1095.6811050169108,167.85443785559895,-0.4215959241850405,1.767604778662167,337.3509556265651,42.829482380721,0.0,1.0,13.519280199884966,0.24705262111566206,0.0,Landing
27.5,-542.3081155086475,-1103.0180771859705,166.18770532716252,-0.5374322609557174,1.657995007188551,336.8622624472516,42.762815472478216,0.0,1.0,13.519280199884966,0.24705262111566206,0.0,Landing
27.6,-544.1497727263177,-1108.6655923702438,167.86035555162024,-0.27317562947671115,1.736898528187365,337.33177665853134,42.822061675036046,0.0,1.0,13.519280199884966,0.24705262111566206,0.0,Landing
27.700000000000003,-546.030347224056,-1092.9056842051068,167.14680203281748,-0.47491426130901326,1.7084976203750901,337.19977649636394,42.35788227993466,0.0,1.0,13.519280199884966,0.24705262111566206,0.0,Landing
27.8,-547.772643929673,-1094.8663387281613,169.1088935729018,-0.513496195319268,1.8757175128803814,337.1179567380841,42.301222017755414,0.0,1.0,13.519280199884966,0.24705262111566206,0.0,Landing
27.900000000000002,-549.6241044199585,-1090.6971765774188,167.98568152262894,-0.5668078929410459,1.605722755193348,337.160581549875,42.45221941742098,0.0,1.0,13.519280199884966,0.24705262111566206,0.0,Landing
28.0,-551.483833106943,-1099.406443302587,169.09634684324368,-0.4621688849927367,1.8974255951996735,337.1092293605882,42.345896003292,0.0,1.0,13.519280199884966,0.24705262111566206,0.0,Landing
28.1,-553.2696761461859,-1088.7915152733285,167.7274436649533,-0.9000869958105279,1.6967115783690594,337.13199151329763,42.692624166689754,0.0,1.0,13.519280199884966,0.24705262111566206,0.0,Landing
28.200000000000003,-555.0680619963251,-1078.3881266512253,168.73770777371928,-0.7591061005086384,1.907120246323106,337.21010275676326,42.57674347185086,0.0,1.0,13.519280199884966,0.24705262111566206,0.0,Landing
28.3,-556.8757737401992,-1075.6387071959807,167.92066383684607,-0.09648592065069445,1.916113780258698,337.1562132171716,42.84996070168843,0.0,1.0,13.519280199884966,0.24705262111566206,0.0,Landing
28.400000000000002,-558.6478696821658,-1055.8094338990486,170.66853294945886,-0.6118233770851467,1.6087781228215516,337.0612733577941,42.98170939206243,0.0,1.0,13.519280199884966,0.24705262111566206,0.0,Landing
28.5,-560.3471091658204,-1065.2451517548798,167.693092812461,-0.18964688840795638,1.9211487380631518,337.29604690493795,42.75120635724482,0.0,1.0,13.519280199884966,0.24705262111566206,0.0,Landing
28.6,-562.2019994989736,-1087.5726869476011,166.4176878188054,-0.23687431559271485,1.6517810443665526,337.0314832199547,42.697408933453566,0.0,1.0,13.519280199884966,0.24705262111566206,0.0,Landing
28.700000000000003,-564.0857331169038,-1110.2132508831346,168.0233851007115,-0.2729857749730904,1.7781306998360913,337.10910425725365,42.53500125499709,0.0,1.0,13.519280199884966,0.24705262111566206,0.0,Landing
28.8,-565.898175420236,-1108.9208202871987,167.53756481073037,-0.3164763093177472,1.7753318933041815,337.122152888174,42.748287082030195,0.0,1.0,13.519280199884966,0.24705262111566206,0.0,Landing
28.900000000000002,-567.7466036004096,-1077.7975131331232,169.5554140485478,-0.34538637621823914,2.146101582496176,337.1710560109343,42.349630176868196,0.0,1.0,13.519280199884966,0.24705262111566206,0.0,Landing
29.0,-569.4747206825695,-1081.2678350709348,170.1749296239878,-0.4722573816464866,1.8236003770513955,337.1771278380188,42.63240163342415,0.0,1.0,13.519280199884966,0.24705262111566206,0.0,Landing
29.1,-571.3045145955907,-1065.1892982257777,168.49814240455763,-0.5475601497036027,2.0296623670541494,337.3855395144002,43.06355764893614,0.0,1.0,13.519280199884966,0.24705262111566206,0.0,Landing
29.200000000000003,-573.0725500915385,-1083.9059830914039,167.10423156192178,-0.7422839970190009,1.8208655960901492,337.2948247719744,43.14500303908804,0.0,1.0,13.519280199884966,0.24705262111566206,0.0,Landing
29.3,-574.8942505980265,-1070.05913842047,167.43905421251029,-0.4190071325898951,2.0906587372308705,336.82230554563375,42.96504283994408,0.0,1.0,13.519280199884966,0.24705262111566206,0.0,Landing
29.400000000000002,-576.6548102876931,-1067.5160206109467,166.44814264839624,-0.5091788331692639,1.7692138976219272,337.09695930397163,42.68531010953726,0.0,1.0,13.519280199884966,0.24705262111566206,0.0,Landing
