time_s,altitude_ft,vertical_speed_fpm,ias_kt,pitch_deg,roll_deg,heading_deg,throttle_pct,afterburner_on,gear_down,flaps_deg,speedbrake_pct,weight_on_wheels,label
0.0,0.16720310630734836,-26.389011154077462,17.664796663199535,1.819921117354589,0.29502261254598655,166.01943984659738,24.17112279577535,0.0,1.0,0.0,0.0,1.0,Taxi
0.1,0.07923973579375682,-26.654431689895038,18.34274636264077,1.9039411650406544,0.9121257785875385,166.01778348286894,24.716714396627978,0.0,1.0,0.0,0.0,1.0,Taxi
0.2,0.03393094785787316,-26.024994105534933,18.927057916179518,1.6065957355723959,0.6071714067968524,165.75203690462217,24.89726524139461,0.0,1.0,0.0,0.0,1.0,Taxi
0.30000000000000004,0.03707813577967368,-19.274145193641,17.590479178662484,1.5724127782804718,0.06143484472497507,165.94661073646034,24.816827391028575,0.0,1.0,0.0,0.0,1.0,Taxi
0.4,-0.017130990174448187,-9.976037022354724,19.478954630263257,1.9201387687825693,0.5320149989408895,165.79749137402837,24.54414544343651,0.0,1.0,0.0,0.0,1.0,Taxi
0.5,-0.015949237253900458,7.400097750840314,17.671638605913927,1.6180693731024736,0.30960478994782514,166.0052877209339,24.325442603262257,0.0,1.0,0.0,0.0,1.0,Taxi
0.6000000000000001,0.07407862453387526,25.00926175462862,17.390954570761075,1.5710805483801877,0.6959786006246352,165.97199613419127,24.443710178468855,0.0,1.0,0.0,0.0,1.0,Taxi
0.7000000000000001,0.10791531859869492,5.741713265365237,17.59431217956037,1.784253233506969,0.48050136228612933,165.91424951857607,25.232424394254743,0.0,1.0,0.0,0.0,1.0,Taxi
0.8,0.012759329072925738,-16.488520244249816,17.699529716927753,1.7120748340378187,-0.3674471497111235,165.89763224189608,24.60967108144501,0.0,1.0,0.0,0.0,1.0,Taxi
0.9,-0.008363976687373794,-60.9898791740487,17.07418218986424,1.976503680567339,-0.13684288837764078,165.96295241739608,24.547230559502907,0.0,1.0,0.0,0.0,1.0,Taxi
1.0,-0.19703407727154856,0.4611330903885668,17.39170655145249,1.5814897839679616,-0.0038718040501452018,166.01278992094967,24.902402263626744,0.0,1.0,0.0,0.0,1.0,Taxi
1.1,0.015064994524868612,12.994618878811764,17.71924371296295,1.383140051099163,-0.4166344569329749,165.89626308626475,24.932900994576265,0.0,1.0,0.0,0.0,1.0,Taxi
1.2000000000000002,0.056609117706685065,63.76958341546818,18.46771106013725,1.833148866767048,-0.37015814999792257,166.08566402744145,24.457603583980973,0.0,1.0,0.0,0.0,1.0,Taxi
1.3,0.12181383980579237,-9.073121035998602,18.092528288100244,2.0958695493654664,0.14696225320887044,165.89008664057542,25.033834433897972,0.0,1.0,0.0,0.0,1.0,Taxi
1.4000000000000001,-0.030300610655124377,-14.447966756689082,16.873354587640755,2.1179745268315826,0.30787625360712484,165.9350406231879,25.223320614052486,0.0,1.0,0.0,0.0,1.0,Taxi
1.5,-0.015630716076760323,-29.365090384731246,17.38906268387229,2.1659378975722263,0.1574187776775861,166.0424468396816,25.362344313948103,0.0,1.0,0.0,0.0,1.0,Taxi
1.6,-0.02501161211786382,-46.95394030139738,17.287034557409743,2.1307138582655005,0.48256287159941813,166.0013648751551,24.472234283531648,0.0,1.0,0.0,0.0,1.0,Taxi
1.7000000000000002,-0.26507031216211124,-18.347324939097007,18.530590542482553,2.035287123917523,-0.08898588094247847,165.88920112867947,25.05756481250615,0.0,1.0,0.0,0.0,1.0,Taxi
1.8,-0.10736734077224529,8.290455003983366,17.426704678434927,1.9807600043438323,0.20256387512095525,166.0584024439196,24.696114619331578,0.0,1.0,0.0,0.0,1.0,Taxi
1.9000000000000001,0.01644066290205308,54.08932594269132,16.64288073335084,1.7314975403221533,-0.9119523248515892,166.02465661487622,24.44007573797263,0.0,1.0,0.0,0.0,1.0,Taxi
2.0,0.0053763175513453524,44.004103376435545,17.645518508221528,1.8743240026607015,-0.21036547268024594,165.96072380217367,25.091429907893357,0.0,1.0,0.0,0.0,1.0,Taxi
2.1,0.11265317610993242,34.19698257526857,17.13241557365703,1.5694625765723593,-0.5538905867150931,166.21411404505943,25.20934350255497,0.0,1.0,0.0,0.0,1.0,Taxi
2.2,0.18742557577839591,14.18257729484985,18.197966132494464,1.8298314898611432,0.6030712247041206,165.95856293345923,24.68140627732073,0.0,1.0,0.0,0.0,1.0,Taxi
2.3000000000000003,0.07628920402559458,-19.586344391299644,18.9159610960297,1.8071078977859356,-0.27938345383790475,165.71611922187833,24.567726235201167,0.0,1.0,0.0,0.0,1.0,Taxi
2.4000000000000004,0.014721454153434184,-8.627618137285566,17.61446268799991,2.206813840715415,0.276804767795804,165.8023948682278,24.852800190535643,0.0,1.0,0.0,0.0,1.0,Taxi
2.5,0.14428748509196807,-25.98705993743472,17.913591865194213,1.7394512254455392,-0.4539485146312653,166.04917497934684,25.070073365185962,0.0,1.0,0.0,0.0,1.0,Taxi
2.6,-0.05364609566157902,-41.279551206286186,17.49932140704647,1.6970264092819003,0.0951773544258973,165.9994286809125,24.735619848466637,0.0,1.0,0.0,0.0,1.0,Taxi
2.7,-0.19167630187799675,0.888381214896043,17.27824448900486,2.100830422087459,-0.33888569669715984,166.1807944881905,25.316686772908497,0.0,1.0,0.0,0.0,1.0,Taxi
2.8000000000000003,0.1487293911664483,-23.85184867418373,18.156270792556203,1.8678264503450381,1.3507144709234469,165.93281411033468,25.300939172209752,0.0,1.0,0.0,0.0,1.0,Taxi
2.9000000000000004,-0.17290533903249763,70.31406766484785,18.122631723188007,2.0489797048911824,-0.4659562040083705,165.92994293517836,24.837865111571098,0.0,1.0,0.0,0.0,1.0,Taxi
3.0,0.15989403644624256,-14.542044157812827,17.6323090582088,1.8496139205304942,-0.42300738175555297,165.960364347756,24.357130381253647,0.0,1.0,0.0,0.0,1.0,Taxi
3.1,0.0760191703773842,-6.053155660956425,17.84783669778384,2.0301664955314416,0.0854306017816139,165.96686052540906,24.59063251258195,0.0,1.0,0.0,0.0,1.0,Taxi
3.2,-0.20317111733727977,-16.39158736913879,17.444848522333974,1.9593238085846874,0.4087706352756694,165.8470847963431,25.40369118897938,0.0,1.0,0.0,0.0,1.0,Taxi
3.3000000000000003,0.07793609960054856,-36.906718426965575,17.750424220553725,1.9870604095541238,0.02966961113609789,165.84258376977175,24.206223705700797,0.0,1.0,0.0,0.0,1.0,Taxi
3.4000000000000004,-0.10851442175744375,55.93108279904362,17.86207165473347,2.019495006638068,0.26099666778186803,165.91203362441593,23.9280318968666,0.0,1.0,0.0,0.0,1.0,Taxi
3.5,0.07648429665793834,-27.536350310197065,18.081135316731814,1.690187473943907,0.37243136863870735,165.97535065179022,24.554799345085478,0.0,1.0,0.0,0.0,1.0,Taxi
3.6,-0.05974565195043672,-4.940793245770611,18.327473887289035,1.900993261115375,0.408443635456344,165.86173613339815,25.33313904152514,0.0,1.0,0.0,0.0,1.0,Taxi
3.7,-0.13321838798629676,6.200553128240557,17.478540672596846,2.0152493777369913,0.7963910315810167,165.8895861811161,25.055325441026323,0.0,1.0,0.0,0.0,1.0,Taxi
3.8000000000000003,0.10748706229914112,-3.692013359302507,18.18089483086219,1.6629185051958302,0.35737970799414126,165.99849909451825,24.21169003436827,0.0,1.0,0.0,0.0,1.0,Taxi
3.9000000000000004,-0.07820571874694926,53.3031551149957,17.446796365887376,1.827675896135972,0.1179823836142981,165.8672009183258,24.34326470870216,0.0,1.0,0.0,0.0,1.0,Taxi
4.0,0.1332973875886817,-8.926642187422798,17.817178548054553,2.0470921166003357,-0.01442566585416411,165.77401942315123,24.30521795378543,0.0,1.0,0.0,0.0,1.0,Taxi
4.1000000000000005,0.06285385136202715,27.95700836939521,19.04697316074608,2.213464993930172,-0.30070998746489425,166.04068058009204,25.11901883400859,0.0,1.0,0.0,0.0,1.0,Taxi
4.2,0.0615793231000268,-25.343253574152914,17.476909833699587,2.203494478725389,1.243849723450606,165.9552360360634,24.582124275425265,0.0,1.0,0.0,0.0,1.0,Taxi
4.3,0.006581119717917136,-16.644581796784664,17.37719471629781,1.6519593047853756,-0.03618889963540214,165.86835033661032,24.296176999416332,0.0,1.0,0.0,0.0,1.0,Taxi
4.4,-0.02036905762189618,-43.55769715879901,17.27356314998449,1.5992465899971586,-0.4036820683384338,166.11463113308218,24.634406435827035,0.0,1.0,0.0,0.0,1.0,Taxi
4.5,-0.15620916269396826,39.40930261424824,17.75023421470668,2.356094262884691,-0.33489001966957027,166.0248322578159,24.383972301878014,0.0,1.0,0.0,0.0,1.0,Taxi
4.6000000000000005,0.20362763278915832,-4.5007827503774065,18.196321391507468,1.7228818594109705,0.1963907091899574,165.91891245524948,24.488557390628884,0.0,1.0,0.0,0.0,1.0,Taxi
4.7,-0.04287297137378321,56.92147071124316,18.237253377771246,1.7263005556931514,0.2471774684902808,165.93126812131595,24.174205167258496,0.0,1.0,0.0,0.0,1.0,Taxi
4.800000000000001,0.12839819086224752,-30.204050716519376,18.16421611273066,1.7020150238351435,-0.9127449285847347,165.9842347228248,24.269958073230192,0.0,1.0,0.0,0.0,1.0,Taxi
4.9,0.0526073792065614,13.402129012507478,17.56188769374898,1.6726428211314093,-1.0095612611651366,165.8239640084014,24.32648889532747,0.0,1.0,0.0,0.0,1.0,Taxi
5.0,0.024137673688754146,-32.27229109406209,17.5072869893696,1.9126229274766209,-0.7136658807604129,165.86307254144276,24.827882869773635,0.0,1.0,0.0,0.0,1.0,Taxi
5.1000000000000005,-0.03296326460806294,-4.1297157656616035,16.596861667669263,1.5753164413166023,0.2837273916999205,166.06302255826336,24.00581452220115,0.0,1.0,0.0,0.0,1.0,Taxi
5.2,0.031958800378253376,-59.973590424106305,18.017451154518326,1.7049032696727582,1.0126488964090956,166.0190283413565,24.79079618205455,0.0,1.0,0.0,0.0,1.0,Taxi
5.300000000000001,-0.2757302784317774,9.99532784345116,16.873802452362998,1.7896302082510094,-0.05642001256459617,165.99321224596247,24.14189817577109,0.0,1.0,0.0,0.0,1.0,Taxi
5.4,0.01701337460919281,20.946663457674386,17.63130186143021,1.860699034820557,0.8901648477361634,165.96397626505313,23.546025119099326,0.0,1.0,0.0,0.0,1.0,Taxi
5.5,0.13669211766662528,42.61908755015546,17.18123673610001,2.0667860415983097,-0.40774015875388364,165.9270274619056,24.90784018230679,0.0,1.0,0.0,0.0,1.0,Taxi
5.6000000000000005,-0.06263484068100014,5.420375005743509,17.929153752161586,1.7997517059005674,0.09452564289492206,165.9772997731402,25.245697082499703,0.0,1.0,0.0,0.0,1.0,Taxi
5.7,0.044115249637910275,19.031406917043228,17.757885927937277,1.833506521724055,-0.5985051067198848,165.8673702007627,25.824682094545942,0.0,1.0,0.0,0.0,1.0,Taxi
5.800000000000001,0.23184915225184133,17.072400832799016,17.76491758993493,1.9506167442158768,-0.3789838886915431,165.7465385816215,24.541546120813155,0.0,1.0,0.0,0.0,1.0,Taxi
5.9,0.022727163482994847,-33.011818505315,17.443159956536338,1.6076568742253552,0.6789926044549662,166.0364381528259,24.56127532769067,0.0,1.0,0.0,0.0,1.0,Taxi
6.0,-0.1209438428886648,-28.30041072870983,17.406891787270528,1.9459136107703738,0.09608182584282812,165.79084592249058,23.667429464041483,0.0,1.0,0.0,0.0,1.0,Taxi
6.1000000000000005,0.0903470986082921,-25.388555263412055,18.073910269490067,1.5990418115703817,0.4759182252933697,165.99568722223546,24.04819471225149,0.0,1.0,0.0,0.0,1.0,Taxi
6.2,-0.1042156128340655,25.245632270665936,18.221838819584068,1.4944166628380744,0.5111776261044333,165.98902167826043,25.00115383378358,0.0,1.0,0.0,0.0,1.0,Taxi
6.300000000000001,0.005284318464664829,-27.334027677892596,18.594172836322763,1.8466826539588506,0.6979207507972719,165.99009613740895,25.087241390154094,0.0,1.0,0.0,0.0,1.0,Taxi
6.4,-0.04632303978117092,52.330240286525715,17.40941262156377,1.7417979001779096,-0.24265362005532676,166.032524394304,25.433874959609646,0.0,1.0,0.0,0.0,1.0,Taxi
6.5,0.15743558859856302,34.4229614190378,16.656668329814757,2.2402858870674347,-0.6433979290304366,166.04550956637127,25.006924193957985,0.0,1.0,0.0,0.0,1.0,Taxi
6.6000000000000005,0.17739912555985377,7.969730633278847,18.1403009671505,1.6844661967428363,0.7214307162297093,166.07060752828227,24.76275987223094,0.0,1.0,0.0,0.0,1.0,Taxi
6.7,-0.006474386614776749,-8.210123997356254,18.712180689144752,1.7655806264803826,-0.06998902815923518,165.8603370572663,24.765896474784295,0.0,1.0,0.0,0.0,1.0,Taxi
6.800000000000001,0.11638496861178174,0.24929135802485783,18.504999614420054,1.929959563705541,0.3075459135908092,165.8512851563537,24.865947173200748,0.0,1.0,0.0,0.0,1.0,Taxi
6.9,0.17864558234997804,-17.85229040829665,17.74753333351696,2.1649414097256825,-1.2081317499355628,166.0534204890489,25.04577864415678,0.0,1.0,0.0,0.0,1.0,Taxi
7.0,-0.09573583865626006,-22.959470450424913,17.253848169433823,2.2942154552374183,-0.5607998396508519,165.97756616013714,24.43707753206708,0.0,1.0,0.0,0.0,1.0,Taxi
7.1000000000000005,0.0015876163596571056,-44.733935482796774,18.11251222335058,2.0626597421781083,-0.31741168287180593,166.0616996173511,25.186750130523283,0.0,1.0,0.0,0.0,1.0,Taxi
7.2,-0.04502409506400591,23.072798129980296,18.274370111957758,2.1015123672146534,0.058053276841626644,166.0258219668824,25.054065267111717,0.0,1.0,0.0,0.0,1.0,Taxi
7.300000000000001,0.019628151993641346,12.982653750825591,17.643234058438786,2.2279433350449054,-0.4549264314694553,165.85089477875954,24.518116728749042,0.0,1.0,0.0,0.0,1.0,Taxi
7.4,0.066500885113785,24.489289820027484,16.599231767591558,2.279529272633912,-0.028077883612029352,166.03558475769694,24.993987275522024,0.0,1.0,0.0,0.0,1.0,Taxi
7.5,0.07742235403613146,14.537244580985172,17.61181292990051,1.7264820447183966,0.182698316450242,166.07632849849176,24.740710087504922,0.0,1.0,0.0,0.0,1.0,Taxi
7.6000000000000005,0.09231437489856714,-7.519631872511602,16.21121776200864,1.8722077677671651,-1.216491548499196,165.99727627183847,24.408503691665377,0.0,1.0,0.0,0.0,1.0,Taxi
7.7,0.02890272575122695,-11.367998314731542,18.083528551221164,1.8731717921392168,-0.40946794422840144,166.111643370637,24.852981835901094,0.0,1.0,0.0,0.0,1.0,Taxi
7.800000000000001,0.020582362462473712,-51.070479222921186,17.993668781758647,1.7363706942022368,-0.06855227821112961,165.93878521711963,25.325608841116058,0.0,1.0,0.0,0.0,1.0,Taxi
7.9,-0.16303802121603883,-27.466471501050176,18.3325049786215,2.12690937656633,0.2148924952135995,165.82631650441215,25.465409642355933,0.0,1.0,0.0,0.0,1.0,Taxi
8.0,-0.10842963175402397,-6.027238036974519,17.770816520866465,1.6425956870164948,0.19312916755059054,166.0758538324759,25.35438841864331,0.0,1.0,0.0,0.0,1.0,Taxi
8.1,-0.00955382772239892,25.342233162717168,18.50360285837825,2.181433604650252,-0.4261418437592219,165.81463982336754,24.710567386347755,0.0,1.0,0.0,0.0,1.0,Taxi
8.200000000000001,-0.036326855402453034,-12.72208824995864,17.50822720019731,2.037493010229169,-0.779094189122393,165.97262555664327,24.68866687857206,0.0,1.0,0.0,0.0,1.0,Taxi
8.3,-0.1720400730038172,-3.9678625240138765,17.64442016654042,1.668740094120848,-0.6052405864756203,166.0656586891098,24.18888233560653,0.0,1.0,0.0,0.0,1.0,Taxi
8.4,-0.029393140342468333,-1.1741468485290607,17.96163014564465,1.858509491859838,-0.30767595170957973,166.1581851593187,23.59741337550876,0.0,1.0,0.0,0.0,1.0,Taxi
8.5,-0.04219758964509837,22.965422577816963,17.323122110703803,1.986008771667323,-0.1158794445794012,165.92227094932923,25.200873482006305,0.0,1.0,0.0,0.0,1.0,Taxi
8.6,-0.05721296011473244,-4.147727960932851,18.747448113775086,1.7051246974424845,-0.009812323835989284,165.89293691443368,24.602304732184944,0.0,1.0,0.0,0.0,1.0,Taxi
8.700000000000001,-0.05013178014713263,-23.734664878023988,16.379279577776042,1.732023659567636,0.839530276862368,166.1403389986524,24.80718755076435,0.0,1.0,0.0,0.0,1.0,Taxi
8.8,-0.16087091403521836,-24.371446809949614,17.531874526998376,1.7143364116812665,0.8085791274664055,165.97603188483663,24.635238857443483,0.0,1.0,0.0,0.0,1.0,Taxi
8.9,-0.17907019416448056,25.208116474333817,16.12119384831101,1.9684003805093262,-0.3390496491777519,165.87433651856918,23.734814608150756,0.0,1.0,0.0,0.0,1.0,Taxi
9.0,0.07590880222453639,26.525437437123013,18.237094766748765,1.5685266932285504,0.4487243138096839,165.9486393960549,24.841327279421332,0.0,1.0,0.0,0.0,1.0,Taxi
9.1,-0.028243726849603325,26.464350753265858,17.619355052041314,1.9112136010588208,0.37948184702370324,166.2590068950352,25.39482311974043,0.0,1.0,0.0,0.0,1.0,Taxi
9.200000000000001,-0.04674844039815132,-32.93603199874,18.858366172879634,1.61746864306222,-0.15872554444570453,165.97099698162572,25.42905133751465,0.0,1.0,0.0,0.0,1.0,Taxi
9.3,-0.08877135776916367,-15.218487175098437,18.61077581743469,2.1953348119505005,0.5750415953159456,165.9695620978132,25.838673530234136,0.0,1.0,0.0,0.0,1.0,Taxi
9.4,-0.10433616272509556,8.85046446461657,17.82146225377578,1.6835668081046107,-0.6901677838466358,165.9816002618303,24.650318241952622,0.0,1.0,0.0,0.0,1.0,Taxi
9.5,-0.00249611807506854,36.900692064278736,17.165182279135177,1.876191786513843,0.24339839260806634,165.861171592265,24.651371386587346,0.0,1.0,0.0,0.0,1.0,Taxi
9.600000000000001,0.09573210255222997,-30.51165219989281,18.70923298813446,1.6639099459456153,0.09322292372141355,165.98438996195773,24.542059594954043,0.0,1.0,0.0,0.0,1.0,Taxi
9.700000000000001,-0.2568944237245597,-1.0647367589001437,18.110105842326877,1.6919916121340344,-0.25515938003567756,166.08800983478727,24.710463997095413,0.0,1.0,0.0,0.0,1.0,Taxi
9.8,-0.007819801869569282,-30.841378086335123,18.006097145820597,1.902597948478724,-0.3489656458767489,166.05199782421641,25.823665857285043,0.0,1.0,0.0,0.0,1.0,Taxi
9.9,-0.05847478787944567,37.10764440389265,18.186933999422674,1.7137407925108432,-0.040551393167649996,165.97195991078934,24.15770499997754,0.0,1.0,0.0,0.0,1.0,Taxi
10.0,-0.07135620170509645,31.063098010259747,16.55819608572416,2.1717114808550555,-0.8066683737648834,166.0254387625978,24.17720905831109,0.0,1.0,0.0,0.0,1.0,Taxi
10.100000000000001,0.1474956881817294,25.278587678371945,17.9883953707162,1.9437455182783507,0.7266630567920499,165.95853248018886,25.499040734605206,0.0,1.0,0.0,0.0,1.0,Taxi
10.200000000000001,0.067918150512414,53.84422569294205,18.926669785658607,1.7983339574690766,-0.32590577469475424,166.0728536410486,24.022302063751432,0.0,1.0,0.0,0.0,1.0,Taxi
10.3,0.19786492675961376,-31.154887983643235,18.28189061894137,2.042098278193548,-0.7410436281120953,165.99649602204045,24.5929478316808,0.0,1.0,0.0,0.0,1.0,Taxi
10.4,-0.008278751736486817,-9.163356756479054,17.188414832289197,2.2941697601285918,-0.7009811141217543,166.12666715299906,24.906991935757137,0.0,1.0,0.0,0.0,1.0,Taxi
10.5,0.022101366730018685,-32.43763429106041,17.37299926063428,1.7016753092566963,-0.5151623705361927,165.98623176451724,23.597435723492318,0.0,1.0,0.0,0.0,1.0,Taxi
10.600000000000001,0.0356767553043116,28.918942922118575,17.954668689827507,1.9802232067533372,-0.8817462434350706,165.79814824177174,25.286410899518433,0.0,1.0,0.0,0.0,1.0,Taxi
10.700000000000001,0.13631596287410602,38.9880688838601,18.70723144543551,1.905005412997287,0.35270086905564885,165.8931628735802,24.392597928144927,0.0,1.0,0.0,0.0,1.0,Taxi
10.8,0.21704171114931914,20.33977706761598,17.80167001773898,1.8497064135353933,0.7231999786337028,165.94726491226186,24.790108959754654,0.0,1.0,0.0,0.0,1.0,Taxi
10.9,0.13737564064239147,-43.92460203780135,17.84885434166574,2.168318049306011,-0.2545112536453083,166.0359978509124,24.35607655454901,0.0,1.0,0.0,0.0,1.0,Taxi
11.0,-0.08330704731490077,-66.95604009905632,17.63738244937993,1.714816722455888,0.33159962843580193,165.8958714199997,24.762435771234642,0.0,1.0,0.0,0.0,1.0,Taxi
11.100000000000001,-0.11773848934596252,-31.40361924077078,18.3225143801939,1.9767511646054565,-1.3801297485063693,165.9371625157455,24.9607585217725,0.0,1.0,0.0,0.0,1.0,Taxi
11.200000000000001,-0.01964245556146249,4.926408858731822,18.358695004687117,2.108467790160121,-0.15645599656959452,165.9198927879503,24.82661097141151,0.0,1.0,0.0,0.0,1.0,Taxi
11.3,-0.05867500302124171,-3.0466780005616934,18.075043793583355,1.9496352738289184,-0.2363706649692024,166.04415399082188,24.495921774510304,0.0,1.0,0.0,0.0,1.0,Taxi
11.4,-0.13297187934877103,18.287949184947845,17.365361191361426,1.5830811014376833,0.33258587920248506,165.82180491496013,24.38585686760896,0.0,1.0,0.0,0.0,1.0,Taxi
11.5,0.0717972903632767,0.8051395962206366,18.420809756337796,1.4959433664077382,0.07052972705810319,165.98301361377662,25.243357194678758,0.0,1.0,0.0,0.0,1.0,Taxi
11.600000000000001,-0.054649305040138534,13.837435681737604,18.37464493768561,1.7066162469588608,-0.3149189359150246,166.02652086470312,25.91297657708521,0.0,1.0,0.0,0.0,1.0,Taxi
11.700000000000001,-0.06378470094008303,-8.392634899708122,17.70136021625573,1.967067609794529,0.38889079853635916,165.96340741799236,23.931383887968888,0.0,1.0,0.0,0.0,1.0,Taxi
11.8,0.029834115864736034,13.077872299948785,17.5170780529532,1.7952185362815405,0.1658205388470838,166.16705551424081,24.288299966777608,0.0,1.0,0.0,0.0,1.0,Taxi
11.9,0.010740056459605303,27.405693883162087,17.570913996406432,1.9127841782786923,-0.07049305558325282,166.01868666123096,24.41222556614702,0.0,1.0,0.0,0.0,1.0,Taxi
12.0,0.07324376847572735,9.845024989284743,17.022073768420373,1.8320677010260593,-0.3977969074532574,165.92616698571692,25.305433556039148,0.0,1.0,0.0,0.0,1.0,Taxi
12.100000000000001,0.0790592408111597,-15.218058891923887,18.09756081496546,2.1794994568925903,0.13888207212843426,165.7997197302377,24.597316328962414,0.0,1.0,0.0,0.0,1.0,Taxi
12.200000000000001,-0.06535023800001419,-31.995953896727425,17.842441180798307,1.9050015118159696,0.446338757670865,165.94774577097746,25.21284992450983,0.0,1.0,0.0,0.0,1.0,Taxi
12.3,-0.08673600100790982,-9.994728837769921,17.690211405464016,1.875939905978745,0.19584922885545616,165.95465691858055,24.79075198603364,0.0,1.0,0.0,0.0,1.0,Taxi
12.4,0.029085596622310025,22.806571852100763,18.569272788258193,2.200405610996227,-0.033768259388045584,166.1181944431754,24.636770509330518,0.0,1.0,0.0,0.0,1.0,Taxi
12.5,0.04868262126048957,48.059692320920554,17.65148382456203,2.0737254936797265,0.37631492829621416,165.94222432652816,25.679028626951563,0.0,1.0,0.0,0.0,1.0,Taxi
12.600000000000001,0.1535624605966929,-3.4729357025493925,17.521475979471536,2.118140248716126,-0.1087418886644369,165.98598063837414,24.99775165735252,0.0,1.0,0.0,0.0,1.0,Taxi
12.700000000000001,0.011720918109562982,-1.7354049160168519,18.443920758542713,1.8611981231615418,-0.3242527082509481,166.09058535381132,24.742659836201558,0.0,1.0,0.0,0.0,1.0,Taxi
12.8,0.04000559668040523,-27.12210915516513,18.924852637148394,1.9145733946267125,0.14557101471164155,165.87218681830677,24.97647222591388,0.0,1.0,0.0,0.0,1.0,Taxi
12.9,0.017951914820867176,-36.814745468412305,17.41681920680521,1.7858515750388204,-0.6053983048058096,166.0412779239366,24.416472201632622,0.0,1.0,0.0,0.0,1.0,Taxi
13.0,-0.17235280923249863,-42.01013223680704,17.846172394770825,2.040800997484983,-0.2791163938659416,165.99633662143947,24.289845185262127,0.0,1.0,0.0,0.0,1.0,Taxi
13.100000000000001,-0.17004506450363005,-16.113822781728903,17.39748390824735,2.0592842067111237,0.5205322590771483,166.00883712402856,24.66494758183006,0.0,1.0,0.0,0.0,1.0,Taxi
13.200000000000001,-0.06261719908777745,5.1720153973766925,19.010712673308355,2.101800117180375,0.43930052569613787,166.09483114686054,24.927130800278203,0.0,1.0,0.0,0.0,1.0,Taxi
13.3,-0.14649273224561524,36.723328887167845,17.374143129011195,1.9570643889049855,0.31639827600026776,166.01360834129582,24.627845036790884,0.0,1.0,0.0,0.0,1.0,Taxi
13.4,0.013571579932209081,53.551276355356855,16.931772107173202,1.704658437625803,0.4237362729952152,166.14349083554737,24.811645137640426,0.0,1.0,0.0,0.0,1.0,Taxi
13.5,0.20513918268900674,-3.7016888772224283,18.28556906203611,1.719578230514826,-0.48498875745656644,166.0884277886248,24.7967520626996,0.0,1.0,0.0,0.0,1.0,Taxi
13.600000000000001,-0.16500117663172742,8.282405504115266,17.147045010084152,2.032370515120108,0.8091848206325182,166.13786034576276,25.88847695277422,0.0,1.0,0.0,0.0,1.0,Taxi
13.700000000000001,0.05498360745278539,-66.91454451029463,17.257291682116225,1.6018162371453446,0.4026115119780686,165.98564363084063,25.075278050280037,0.0,1.0,0.0,0.0,1.0,Taxi
13.8,-0.12943353986246645,13.706538700084053,17.171976764828305,1.4892592760705843,-0.013284430100954156,165.97406384976296,25.059020847556386,0.0,1.0,0.0,0.0,1.0,Taxi
13.9,-0.09646848313130718,-10.13449755298656,18.697947495253292,1.6101314095451782,0.18936127621495055,166.03865168660184,24.68490674294984,0.0,1.0,0.0,0.0,1.0,Taxi
14.0,0.004311119687852515,18.282773913745814,17.698510982282755,1.9430326666999287,-0.5665576945017757,165.99460668266022,24.417131938386714,0.0,1.0,0.0,0.0,1.0,Taxi
14.100000000000001,-0.038019670293737456,-18.611192236482236,17.072392031801673,1.9137116523273758,-0.3560428646770396,166.14915717479084,24.439520186404785,0.0,1.0,0.0,0.0,1.0,Taxi
14.200000000000001,-0.18952444431371843,-38.314383893842255,18.26157307373314,2.019754531551797,0.2697398562316525,165.91158065846685,25.033211443653396,0.0,1.0,0.0,0.0,1.0,Taxi
14.3,-0.18726079978135882,22.33766085630819,17.7775764038964,2.022513926140166,-0.12674737633891986,165.98428365274071,25.10869937143854,0.0,1.0,0.0,0.0,1.0,Taxi
14.4,0.0736686339878034,33.528697094065635,18.54432947741111,1.8506641152771692,-0.6505304755279199,166.0247641697723,24.962722653076746,0.0,1.0,0.0,0.0,1.0,Taxi
14.5,-0.02188095884339035,51.733486019353705,18.359034640184735,1.6307555095327406,-0.05943539651833564,166.03225301084808,25.060442610627927,0.0,1.0,0.0,0.0,1.0,Taxi
14.600000000000001,0.07140663031540961,-18.53037600398773,17.621839714325027,1.7455399147757367,0.2775363423934182,165.9807695396437,24.96099399798209,0.0,1.0,0.0,0.0,1.0,Taxi
14.700000000000001,-0.01898324603213533,37.760905770947154,17.170866607220127,1.9463962630959581,0.3607936581967436,166.0477419439435,24.92628437103681,0.0,1.0,0.0,0.0,1.0,Taxi
14.8,0.1669235700113453,-39.96266310769783,17.746267808303024,1.8953914977374848,0.43242639985619546,165.9072817377188,24.291003917692063,0.0,1.0,0.0,0.0,1.0,Taxi
14.9,-0.12840668522307958,10.81832410065896,17.311188129813313,1.8140321018077707,-0.1280970843292152,165.9176111177768,24.705351513230276,0.0,1.0,0.0,0.0,1.0,Taxi
15.0,0.035108374471159436,-28.604174799425156,17.148380624409242,1.9550011030243766,-0.28115970253586897,165.96102469276275,25.408377127068555,0.0,1.0,0.0,0.0,1.0,Taxi
15.100000000000001,0.023902696014219495,28.404694105446822,18.549563889875877,1.6386783644782843,0.24249997964545297,165.88486826602536,25.073932843349585,0.0,1.0,0.0,0.0,1.0,Taxi
15.200000000000001,0.013616785304154465,-40.54003691195182,17.43688923487993,1.5047424815030246,0.6293212495130001,165.93550909163946,24.421220399117846,0.0,1.0,0.0,0.0,1.0,Taxi
15.3,-0.16759181008859972,9.283877955962225,18.02683077767829,1.7556499738987137,0.1215341655878483,166.05269387234284,25.17833411177374,0.0,1.0,0.0,0.0,1.0,Taxi
15.4,0.07032208579403058,-2.413397128864917,18.248522440870463,1.6932083938894529,0.37288988756340685,165.8990619183121,23.59990632846154,0.0,1.0,0.0,0.0,1.0,Taxi
15.5,0.0015497996598298374,56.034345075450496,17.995899007459386,1.6222996331331296,0.5990590892126965,166.10496726348902,24.88304865352551,0.0,1.0,0.0,0.0,1.0,Taxi
15.600000000000001,0.11257991528865274,-24.60610274176805,17.408051501122713,1.8475713760935115,0.9851133090962141,165.86173304076897,25.59522032875205,0.0,1.0,0.0,0.0,1.0,Taxi
15.700000000000001,-0.05270842791480972,24.62217980120147,17.468860940615656,1.998010539418851,-0.28254184420058576,166.07554557183414,24.93634649931869,0.0,1.0,0.0,0.0,1.0,Taxi
15.8,0.12466069866583712,-15.724180120363114,17.244310794587538,2.14052062810069,0.6003328786247167,165.9850889160449,25.554468305513222,0.0,1.0,0.0,0.0,1.0,Taxi
15.9,0.03395901468683711,19.769067268300574,17.916098727884386,1.8434212993018222,0.6295454399222609,166.09619408057438,24.280224430117237,0.0,1.0,0.0,0.0,1.0,Taxi
16.0,0.04613690842669309,-50.182060575820266,18.010388822490796,1.6552982901164683,0.019649746628574376,166.16989121032213,24.77770075257585,0.0,1.0,0.0,0.0,1.0,Taxi
16.1,-0.12624960421326425,32.14155226711943,17.939218982790475,1.866748833985539,-0.20814224811443718,165.99598939940847,25.26083383110427,0.0,1.0,0.0,0.0,1.0,Taxi
16.2,0.1946667760224342,-0.24424533460779685,18.258035165907025,2.011471880910917,0.08292477621271599,165.9033995029056,24.99653243972162,0.0,1.0,0.0,0.0,1.0,Taxi
16.3,0.04491568175365405,32.04385218477679,17.93184889480057,1.6058423812658764,0.23720293930082237,166.08887492378005,24.339982729616914,0.0,1.0,0.0,0.0,1.0,Taxi
16.400000000000002,0.03396965671061965,-50.6149819491829,18.575158348541546,1.95666137671471,-0.7594817899827507,165.8719483071585,25.163401789704306,0.0,1.0,0.0,0.0,1.0,Taxi
16.5,-0.05840813372348034,-30.409127714679858,17.810091082991747,2.0675250135872894,-0.08059321833188463,166.18695291210656,24.87691890740853,0.0,1.0,0.0,0.0,1.0,Taxi
16.6,-0.10712995681974527,15.795700227167009,18.56783472632957,1.8766125773878708,0.07159433652909958,166.0808812269686,25.049120902374817,0.0,1.0,0.0,0.0,1.0,Taxi
16.7,0.11294815784645462,7.857027875598173,18.6700123337491,1.6378897789633249,0.7895004889050418,166.0912594225581,25.241379342020767,0.0,1.0,0.0,0.0,1.0,Taxi
16.8,-0.019122994345489523,22.19520935542448,17.71933228466689,1.760239939116018,0.05599976524565822,165.93893758816796,25.31632624367493,0.0,1.0,0.0,0.0,1.0,Taxi
16.900000000000002,0.003846089957377081,-53.340234020645006,18.769314750696356,2.3391542802492107,0.27230710475783765,166.10684582242402,23.959513150535454,0.0,1.0,0.0,0.0,1.0,Taxi
17.0,-0.1537530122567704,2.963841099170267,17.475897660375956,1.6884889318957008,0.33466097937776623,166.0133444057036,24.067530120584674,0.0,1.0,0.0,0.0,1.0,Taxi
17.1,-0.004303788849638192,10.722895308877758,17.286801770969873,1.6038080847833087,-0.3272064835198618,165.9147799933878,25.041711350191353,0.0,1.0,0.0,0.0,1.0,Taxi
17.2,0.057460566501765876,44.39698871376631,17.789575081859223,1.802347890751665,0.4832932645427514,165.8853385231189,24.176423646228965,0.0,1.0,0.0,0.0,1.0,Taxi
17.3,0.06823193131206112,-4.175006387069279,17.498490288758195,1.621903004272564,-0.4992187486895162,165.935248326345,24.477549309507417,0.0,1.0,0.0,0.0,1.0,Taxi
17.400000000000002,-0.025178820784984596,-14.520115986667946,18.29277544643495,2.045875653044603,0.7771167062836501,166.12199335580226,24.440203542699876,0.0,1.0,0.0,0.0,1.0,Taxi
17.5,-0.015140013431573866,-7.1251618346463905,17.517441013066673,1.8141911543267322,0.8059832478315169,166.02805017806133,25.425745291574813,0.0,1.0,0.0,0.0,1.0,Taxi
17.6,0.03260612213882916,9.05721283365513,18.184091680526166,1.6921056604748324,0.1621390871481818,165.77103950965875,25.04333057251905,0.0,1.0,0.0,0.0,1.0,Taxi
17.7,0.02010724338329105,-3.3362284685471173,17.185865285110577,1.8868523708419653,0.2169501675456785,166.047538772116,24.268473845695013,0.0,1.0,0.0,0.0,1.0,Taxi
17.8,-0.03182115577430946,-12.467406564259065,18.053759494072658,1.6217097870102495,-0.5565069812106874,165.8836968845568,24.38827031590901,0.0,1.0,0.0,0.0,1.0,Taxi
17.900000000000002,-0.029730910682466166,19.54254012564423,18.456190851981308,2.0382633500595126,0.07382382646626151,166.080119361372,25.363873410000583,0.0,1.0,0.0,0.0,1.0,Taxi
18.0,0.11781994401151219,0.35674921480649857,17.64500725527066,2.002238479359112,-0.33298929725741566,166.0080173828046,25.886111249804046,0.0,1.0,0.0,0.0,1.0,Taxi
18.1,-0.030037409700276987,31.93798021566379,17.59834965813779,1.9634345611944897,-0.10849980884061536,165.88720582019164,23.964116145297982,0.0,1.0,0.0,0.0,1.0,Taxi
18.2,0.12995899039585276,-18.481194715290517,17.98010601142884,1.9816422014665616,-0.5262416400622997,166.0503489999778,24.028748071385472,0.0,1.0,0.0,0.0,1.0,Taxi
18.3,0.025413970435059587,11.416364544903635,18.143523776557817,1.669666328269417,-0.1445565283094559,165.89203744131942,24.86280194661175,0.0,1.0,0.0,0.0,1.0,Taxi
18.400000000000002,0.02704441302424116,-22.086009472950327,18.60670972840559,1.4242647488404316,-0.5872867007879936,165.99287707393682,24.899497778892957,0.0,1.0,0.0,0.0,1.0,Taxi
18.5,0.01952894303110113,-17.482951792663304,18.622584103185467,1.9465742895621148,-0.342831391784754,165.73420412259907,24.014972949693977,0.0,1.0,0.0,0.0,1.0,Taxi
18.6,-0.06200078852825694,-2.180990217649461,17.19456973132553,2.0807746164849563,0.25038702084653747,165.9781254636399,24.511099614325854,0.0,1.0,0.0,0.0,1.0,Taxi
18.7,0.016139461935993867,-13.937964135717552,17.400854369303516,2.1455618335088387,-0.5746439162116708,166.08832227419725,24.896235070185877,0.0,1.0,0.0,0.0,1.0,Taxi
18.8,-0.05016087764748664,-14.767601059233714,17.02507887822399,1.4403066434157825,0.30892468316358407,165.97200744729923,24.65906543115237,0.0,1.0,0.0,0.0,1.0,Taxi
18.900000000000002,-0.1358387938244255,-21.568591752154315,18.883776131532297,2.011651086588958,0.8204449246759006,166.03911397783781,24.401451458717474,0.0,1.0,0.0,0.0,1.0,Taxi
19.0,-0.09170349682477771,-0.7422765906026404,17.111040084778807,2.151787557631989,-0.525740921539952,166.05621010399955,25.01928309628074,0.0,1.0,0.0,0.0,1.0,Taxi
19.1,-0.053872260600499836,43.27267096006967,17.706727402941464,1.6899883489920646,0.3730473253175259,165.9815344091977,25.53225080641775,0.0,1.0,0.0,0.0,1.0,Taxi
19.200000000000003,0.08052456097592285,38.98408921997256,18.340723345942294,2.3017929502992356,0.4871666116652423,165.78836823305323,25.479494662791495,0.0,1.0,0.0,0.0,1.0,Taxi
19.3,0.1032169492750851,-6.219626124035803,18.264742532232116,2.003510806816966,0.10305820362343314,166.07660997502592,25.460201435451324,0.0,1.0,0.0,0.0,1.0,Taxi
19.400000000000002,-0.08497039122067883,-4.311690863111309,18.46547240635532,1.6309501568854519,0.8217427246753126,165.90387262941022,24.247565488572395,0.0,1.0,0.0,0.0,1.0,Taxi
19.5,0.05896610666036633,-35.854190017392845,18.084848507133206,2.1075325204532485,0.5840403894951729,166.01374068049688,24.368989246939332,0.0,1.0,0.0,0.0,1.0,Taxi
19.6,-0.0760540008118791,35.151363068140796,18.04163497527423,1.9215651183742475,-0.4404167508370754,165.83521708633168,25.404714508009874,0.0,1.0,0.0,0.0,1.0,Taxi
19.700000000000003,0.09078642412002519,-8.679152558282807,17.76521758150216,1.6007074746152212,0.2492737282321954,166.20021322541436,24.820616782961036,0.0,1.0,0.0,0.0,1.0,Taxi
19.8,0.015570343868952313,11.220069905059757,19.36175663077643,2.0749068806979474,-0.43374736041954304,166.1087257795714,24.821522485773954,0.0,1.0,0.0,0.0,1.0,Taxi
19.900000000000002,-0.019953651286580307,-20.997499664600074,18.070166529079813,1.7193812905339565,-0.37757720168643544,165.9784469426155,25.174806867931462,0.0,1.0,0.0,0.0,1.0,Taxi
20.0,-0.014201074202975185,27.203089761026348,16.958848359775473,2.117421123376234,-0.3619328416729275,165.94356043006712,24.52516504554589,0.0,1.0,0.0,0.0,1.0,Taxi
20.1,0.15158579267408412,-23.330853148469885,17.417104494700705,2.0128251919686964,-0.5466817425727429,165.88704213780545,24.965533652205643,0.0,1.0,0.0,0.0,1.0,Taxi
20.200000000000003,-0.13660791702892966,28.62218872186278,17.216353941203515,1.8688497139324518,0.53468033184807,166.05258253050147,24.510846861887067,0.0,1.0,0.0,0.0,1.0,Taxi
20.3,0.12890986940633883,-60.275632960813915,17.32087393745281,1.739025200480753,0.7196703659461147,166.02117942419488,23.97512659200723,0.0,1.0,0.0,0.0,1.0,Taxi
20.400000000000002,-0.1497923721299853,6.22044103678271,18.134984357745775,1.4759457718493023,-0.5111770421523524,166.12973877509842,24.783095078495165,0.0,1.0,0.0,0.0,1.0,Taxi
20.5,-0.10550571184501595,-30.51450790030333,17.932999793582404,2.0664150616267287,1.0241151642539847,166.0110730362244,25.220400635334748,0.0,1.0,0.0,0.0,1.0,Taxi
20.6,-0.02366267009517766,20.51038386371553,18.9954189541324,1.7765648881346368,-0.4775114560050298,166.1758337564048,24.48199053866189,0.0,1.0,0.0,0.0,1.0,Taxi
20.700000000000003,-0.047240452811407596,4.547676571793706,17.95895461398152,2.2056709038277553,0.3797030977558696,165.99293520453352,25.086293557224316,0.0,1.0,0.0,0.0,1.0,Taxi
20.8,-0.08276732898604733,18.13257704000226,18.290071351774696,2.510707431296894,-0.25454828194640244,166.11343394449716,25.050554898036115,0.0,1.0,0.0,0.0,1.0,Taxi
20.900000000000002,0.06700021510483371,17.784564067522563,17.47596984749876,1.6407945508741446,1.0314714736057355,166.04904474988075,24.824435654810973,0.0,1.0,0.0,0.0,1.0,Taxi
21.0,0.041682367526205286,6.130243971462207,18.208387423132763,2.1806017074122597,-0.6926395779965209,165.97213636017977,24.7991345474059,0.0,1.0,0.0,0.0,1.0,Taxi
21.1,-0.05211610912873624,-41.66822648197645,18.91190561039606,1.6022180127979135,-0.28883646958573866,166.0859653157462,25.340306709845876,0.0,1.0,0.0,0.0,1.0,Taxi
21.200000000000003,-0.14134091730504847,-30.196370426110178,18.344394964199427,1.8722958373675345,-0.04598091374042879,165.79155086178662,24.422507057038988,0.0,1.0,0.0,0.0,1.0,Taxi
21.3,-0.10929948460434556,27.87870021737746,17.650423046012882,1.9550974906940597,-0.7020434084340996,165.70208431881997,24.960839116897066,0.0,1.0,0.0,0.0,1.0,Taxi
21.400000000000002,0.08727739195815111,10.825830103039669,16.910376276706852,1.7363894366379053,-1.2220446649510432,165.989073651961,24.507731092676593,0.0,1.0,0.0,0.0,1.0,Taxi
21.5,-0.0872117667898501,17.425840150291176,17.74224245475578,1.9633346097439985,0.231181901643382,166.00556519209306,25.059788213558676,0.0,1.0,0.0,0.0,1.0,Taxi
21.6,-0.022170283852889626,-52.009388530746314,17.463059275648824,2.0852587298299783,-0.17041770860367078,165.87973746405282,24.317711109199724,0.0,1.0,0.0,0.0,1.0,Taxi
21.700000000000003,-0.1727695506955804,32.834704089327396,17.923566852010755,2.137745604012605,0.09228014621200632,165.9629277988255,24.174000117053325,0.0,1.0,0.0,0.0,1.0,Taxi
21.8,0.07696175365678698,-24.810988448730416,16.427343024657034,1.432995682026356,0.17551016222611981,165.98514494947517,25.155363018456622,0.0,1.0,0.0,0.0,1.0,Taxi
21.900000000000002,-0.14622522609654165,48.832452683736214,18.739235247111527,1.8184718475753245,0.1454700243442982,166.00390647035772,24.781111270554035,0.0,1.0,0.0,0.0,1.0,Taxi
22.0,0.0713927127231007,8.743311590044067,18.20323429941108,2.059887953624804,-0.18511906002266512,166.14552228169202,24.95119155484061,0.0,1.0,0.0,0.0,1.0,Taxi
22.1,0.12067831160700733,42.15177884427175,17.55916666349898,1.638237203961849,-0.24545189919660168,165.92065103904793,25.020531464154125,0.0,1.0,0.0,0.0,1.0,Taxi
22.200000000000003,0.06453366812481715,-15.74042640065843,17.76167506935033,2.0021361983153203,0.21095412932101915,165.96493867541312,24.78602027434778,0.0,1.0,0.0,0.0,1.0,Taxi
22.3,-0.007309419280191376,18.666315615510154,18.3313077324353,1.8870678491081587,-0.579561608020364,166.02497743436948,25.20996167037984,0.0,1.0,0.0,0.0,1.0,Taxi
22.400000000000002,0.2140098896845582,13.920077461556959,17.876724888956016,1.8867565287278887,0.5100322441649383,165.83437439898216,25.299734098670633,0.0,1.0,0.0,0.0,1.0,Taxi
22.5,0.13413405543260204,-17.142245016538094,17.723944896059624,1.8478639133465016,0.3882895844831953,165.90732450159658,24.95453363151082,0.0,1.0,0.0,0.0,1.0,Taxi
22.6,-0.09302064436288174,-61.375956907360376,17.752008989413067,2.0534880500027617,-0.5698817510230261,165.98453766039563,25.590841362377773,0.0,1.0,0.0,0.0,1.0,Taxi
22.700000000000003,-0.09286989485224362,-27.92746947132603,18.41429923538644,1.9444050469311538,0.36963634714332755,165.9120112196298,24.91167430474394,0.0,1.0,0.0,0.0,1.0,Taxi
22.8,-0.005503291924027996,-4.490497244745522,18.523423721458794,1.9135798271493574,-0.2698567201496856,166.09987585206773,24.43325549174902,0.0,1.0,0.0,0.0,1.0,Taxi
22.900000000000002,-0.11547313058660924,14.077704019046344,18.21532149806719,2.065303747015546,0.5625403380336311,166.02325820623628,24.839006527639363,0.0,1.0,0.0,0.0,1.0,Taxi
23.0,-0.0224813747570118,-31.676284717558122,16.519892785751384,1.6060828086514283,-0.5617555538166311,165.93728748277977,25.884893245811366,0.0,1.0,0.0,0.0,1.0,Taxi
23.1,-0.1638847155118185,0.3217141921595103,16.967129390116764,1.8708585686733503,0.009268213044103297,166.07397161049687,24.580181713860036,0.0,1.0,0.0,0.0,1.0,Taxi
23.200000000000003,-0.11386455962581157,-19.10731017262802,17.997570578748896,2.022166836141673,0.11429363310162785,165.9041327068195,24.6992874635342,0.0,1.0,0.0,0.0,1.0,Taxi
23.3,-0.11801792562015177,32.39474780815042,18.244624689929402,1.9611530023813168,0.5713539860978456,165.9604530018796,24.315408866513486,0.0,1.0,0.0,0.0,1.0,Taxi
23.400000000000002,-0.0019109764710662576,35.04280165672872,17.88430963542598,1.8848853457366652,-0.5677658995423847,166.0315981520872,25.611247561514624,0.0,1.0,0.0,0.0,1.0,Taxi
23.5,0.06134944865783213,7.826624233342078,17.164582352043052,1.964615813872478,0.9234999910027566,165.90059760052452,25.049419497361917,0.0,1.0,0.0,0.0,1.0,Taxi
23.6,-0.07888480445344126,6.2345036747604565,18.354519561374598,1.6597990086263317,0.21409091925554488,166.1093262293905,25.660079738175885,0.0,1.0,0.0,0.0,1.0,Taxi
23.700000000000003,0.029261541902736145,-17.671102274896203,18.073415558327216,1.8742337796830435,-0.37241238745453575,165.9875763661796,25.664941847042247,0.0,1.0,0.0,0.0,1.0,Taxi
23.8,-0.02700606271664875,25.943656070666133,18.646671986604357,2.0475538955113866,0.08269506147114927,165.725067369773,24.6063245356226,0.0,1.0,0.0,0.0,1.0,Taxi
23.900000000000002,0.05083347589988953,-20.18490413435218,18.040440431084,2.064752545755601,-0.2071343867251603,165.98784769209374,24.937536161804424,0.0,1.0,0.0,0.0,1.0,Taxi
24.0,-0.07166297876902465,24.4204763997251,18.020028236739577,2.085101018323554,-0.498030590036894,166.04388560648522,25.647210727817814,0.0,1.0,0.0,0.0,1.0,Taxi
24.1,0.09509631928197686,-12.084214865543467,17.16489127432363,2.2167858826612306,-0.6268196516204718,165.93211005985518,24.682059740105114,0.0,1.0,0.0,0.0,1.0,Taxi
24.200000000000003,-0.009587598427827733,11.939707524264527,17.67051729111947,1.903451821288713,0.055286749625370966,165.9699405936194,24.644500827369185,0.0,1.0,0.0,0.0,1.0,Taxi
24.3,-0.01196444114770194,-66.69043065361357,16.40502190700139,1.7292773831347894,-0.11454054575833006,165.98447751699575,24.347730962517176,0.0,1.0,0.0,0.0,1.0,Taxi
24.400000000000002,-0.23835583398609092,38.87928942529043,18.642567193749553,1.7404368236671786,-0.011193737746155912,166.05408085583565,24.71504093873051,0.0,1.0,0.0,0.0,1.0,Taxi
24.5,0.1848088486986245,-33.105232574455115,18.05860669531858,1.7997480301837512,-1.374151683358104,166.00998360232177,24.93220750261013,0.0,1.0,0.0,0.0,1.0,Taxi
24.6,-0.17749060401997752,39.65747484969032,17.397112267332,1.3672648367515552,-0.20222594108078823,165.82224560022746,24.824179669804884,0.0,1.0,0.0,0.0,1.0,Taxi
24.700000000000003,-0.04006845973763932,-37.43131881689214,18.358470023255837,1.45037172978431,-0.41276013729467714,165.9415747318053,24.470254117704044,0.0,1.0,0.0,0.0,1.0,Taxi
24.8,-0.002347745385836206,51.69254406304419,16.680771142173324,1.8835553501470803,-0.9149064752061099,165.8623299544323,25.53991496236071,0.0,1.0,0.0,0.0,1.0,Taxi
24.900000000000002,0.08097211629524351,-15.451919362404334,17.412959354459428,2.1407554472800263,-0.2422519933812111,165.98531457644094,24.3439951781253,0.0,1.0,0.0,0.0,1.0,Taxi
25.0,-0.11732805654966093,-12.935753219715119,17.679671228122793,2.1374999621542385,-0.22524337974457312,166.03309120231836,25.29125834223158,0.0,1.0,0.0,0.0,1.0,Taxi
25.1,-0.06702651148441174,-25.48609742271917,18.414106961312726,2.0122520806220825,0.8430273930366863,165.91600735836357,24.45466430597067,0.0,1.0,0.0,0.0,1.0,Taxi
25.200000000000003,-0.04645837081835228,32.32414295350582,17.970031587808766,1.8048652699209542,0.4147989444305304,166.0805979420029,24.999822144239925,0.0,1.0,0.0,0.0,1.0,Taxi
25.3,0.044292658217868236,12.212514427274064,17.326330144916902,1.7888873063294153,-0.672510778449985,165.93728094341122,25.437337181273257,0.0,1.0,0.0,0.0,1.0,Taxi
25.400000000000002,-0.00596393934804137,19.4921000689806,17.31334119826938,1.7470353319048768,-0.36910337462759507,166.01824185832788,24.62481559096923,0.0,1.0,0.0,0.0,1.0,Taxi
25.5,0.05100212952655079,20.270780227234724,18.57866088783703,1.8187161609185707,-0.45091140950156366,165.9564401758288,24.52907444516986,0.0,1.0,0.0,0.0,1.0,Taxi
25.6,0.14564655935404192,-26.572482105602756,17.124026305737747,1.992912478611811,0.17527523785153445,165.87606858779714,25.2499343818288,0.0,1.0,0.0,0.0,1.0,Taxi
25.700000000000003,-0.13882634987605505,5.124196401034017,18.125950723252313,1.905982406871681,0.15334626135485158,166.03979002591063,25.080981619891148,0.0,1.0,0.0,0.0,1.0,Taxi
25.8,0.076623111531721,-33.629421838263234,17.942480284680048,2.139889782799036,-0.2745695943929704,166.09463238855255,24.616597315954472,0.0,1.0,0.0,0.0,1.0,Taxi
25.900000000000002,-0.02250054983727416,41.303660034886356,17.76005672407403,2.0431757380436375,0.029925285175599656,165.94491471825097,24.820346454662452,0.0,1.0,0.0,0.0,1.0,Taxi
26.0,0.06769195029837684,-45.439097815962874,18.26805014108253,1.953472988619326,-0.2102324434579021,165.73019518871797,24.583391213625077,0.0,1.0,0.0,0.0,1.0,Taxi
26.1,-0.15057237754809333,14.144534832809413,17.348198568282523,1.5908012909437714,0.33967007607346317,166.16754349872906,25.152210588519246,0.0,1.0,0.0,0.0,1.0,Taxi
26.200000000000003,0.048222124326772954,-12.622307335539807,17.805790490380467,1.8016287212747006,0.21197923968227797,165.91476922786194,24.37650736769703,0.0,1.0,0.0,0.0,1.0,Taxi
26.3,0.00458041362067787,8.410045550607743,17.790350502094995,2.273734262406531,-0.6095176235402198,165.93471236069,23.951290848268368,0.0,1.0,0.0,0.0,1.0,Taxi
26.400000000000002,-0.10852214979505455,-20.141581844645014,18.794996758057238,1.8290329904632343,0.1847722826023119,166.0549960360529,25.589762278489783,0.0,1.0,0.0,0.0,1.0,Taxi
26.5,-0.05248578489645206,17.335312745072635,18.507320712358887,1.7244865382804728,0.11870788395082103,165.98630243342325,25.367672695339582,0.0,1.0,0.0,0.0,1.0,Taxi
26.6,0.09125697734604112,24.651102494372918,18.60553141335525,2.178145886584093,0.015350799043282702,165.8229135162037,23.790295904466472,0.0,1.0,0.0,0.0,1.0,Taxi
26.700000000000003,0.014733362676810089,26.811797537986678,16.356764487357392,1.9469670447011604,0.2726158035678074,165.98828169327317,24.661189765177774,0.0,1.0,0.0,0.0,1.0,Taxi
26.8,0.08157320279348139,-37.70907675713121,16.094448602760735,2.0319135827947576,-0.21503632961711966,166.19247243041536,23.941240111268744,0.0,1.0,0.0,0.0,1.0,Taxi
26.900000000000002,-0.09728840643961484,-1.7611014857060117,18.320299597635383,2.0910260479552005,-0.4594152708455942,166.03146356485138,24.344680815152085,0.0,1.0,0.0,0.0,1.0,Taxi
27.0,0.0059278552482801145,-13.969038113975886,18.027629028131205,1.8723157855101196,-1.0184317339594238,165.9807307354563,24.335714370501105,0.0,1.0,0.0,0.0,1.0,Taxi
27.1,0.01172801222360203,49.93387443799988,17.93597148072251,1.9475975914409276,-0.02299501564560775,165.91099633858562,24.19869947004086,0.0,1.0,0.0,0.0,1.0,Taxi
27.200000000000003,0.15238096575038462,32.674486187647354,18.011554450157227,2.0300179573602932,-0.37938147833099684,166.06394989336172,24.337692198565435,0.0,1.0,0.0,0.0,1.0,Taxi
27.3,0.16930028618651694,-10.866513870011042,18.144368670319484,2.1165728430930306,-0.38418819835256723,165.95805968923037,25.66153620109568,0.0,1.0,0.0,0.0,1.0,Taxi
27.400000000000002,-0.042604557126453085,-50.8653751053165,17.733701838301556,1.6062824652939407,-0.14969803981206842,166.02299543356537,24.46698449776176,0.0,1.0,0.0,0.0,1.0,Taxi
27.5,-0.10194590977619777,-22.709018454469064,17.37232296175664,1.6624139896573082,0.792451789119213,166.09204200988165,24.240453359810605,0.0,1.0,0.0,0.0,1.0,Taxi
27.6,0.05575519391417171,21.112985010046096,17.976410781985116,1.8174993966188633,-0.616125966727561,165.95871788566456,24.874615891842666,0.0,1.0,0.0,0.0,1.0,Taxi
27.700000000000003,0.06296036792377746,24.18309971914101,18.627079508817403,1.599539174822227,-0.6730940530603556,165.91037653152398,24.875703351820484,0.0,1.0,0.0,0.0,1.0,Taxi
27.8,0.018969588819507346,-15.609286925424877,17.356523758674932,2.07047153150706,-0.20689638403403926,165.91871138779265,24.892555773484425,0.0,1.0,0.0,0.0,1.0,Taxi
27.900000000000002,-0.02229124071295262,-2.0952607799741565,17.92881613512655,2.049115656695142,1.2774415972644466,166.0302069768686,24.51009698598209,0.0,1.0,0.0,0.0,1.0,Taxi
28.0,0.05248406402390674,9.799879760255285,17.580194532741544,1.9011511254667002,0.0031034154926304815,165.95603042542302,24.257288415779886,0.0,1.0,0.0,0.0,1.0,Taxi
28.1,0.06796898762078382,-1.3532677976183909,17.88121079908288,1.8869707901786592,-0.45637144312590466,165.93858708132984,24.790562318734427,0.0,1.0,0.0,0.0,1.0,Taxi
28.200000000000003,-0.029057579701044507,-24.699302795098493,17.289765191503854,2.1142613490427764,0.45857655250222784,165.92277094999645,24.32192360110331,0.0,1.0,0.0,0.0,1.0,Taxi
28.3,-0.07101244995158566,-10.65644692948124,17.673125761775815,1.8569149912909009,0.20425929393149553,165.71382349689952,24.67517767835744,0.0,1.0,0.0,0.0,1.0,Taxi
28.400000000000002,0.014686752973377688,-11.546198484291116,17.36226282254372,2.0694267622345897,-0.4402684995111709,166.0178538607662,25.300212562982786,0.0,1.0,0.0,0.0,1.0,Taxi
28.5,-0.08678857212250003,20.123572867571138,16.770856944754925,1.6321304803313397,-0.14229108991913994,165.9072524813521,23.87297211166279,0.0,1.0,0.0,0.0,1.0,Taxi
28.6,0.029605414386270068,-22.195177142535794,18.148555992093907,1.8576991109537975,0.8953283767149183,165.96542378313438,24.346377195911327,0.0,1.0,0.0,0.0,1.0,Taxi
28.700000000000003,-0.09628913273930124,8.857669342807526,17.99123454537865,2.0804172118518593,-0.7291053306776413,165.94192178311482,25.09903726333038,0.0,1.0,0.0,0.0,1.0,Taxi
28.8,-0.04250022540846238,-38.44533137916926,17.135949131485212,1.9881741556148127,0.061260845854754525,166.00379084064184,24.53264555007758,0.0,1.0,0.0,0.0,1.0,Taxi
28.900000000000002,-0.1626212425095762,14.630165481741145,18.895173278933733,2.066713488833176,0.38105292946150937,166.15831159099616,25.52639669987891,0.0,1.0,0.0,0.0,1.0,Taxi
29.0,-0.023138305330595466,62.912788008297476,17.97937233314551,1.9789894315314978,-0.18585245311586734,166.00305112578178,25.109008237054525,0.0,1.0,0.0,0.0,1.0,Taxi
29.1,0.2720637146330251,15.756540965585828,17.898236817593514,1.937758539605386,-0.827545011017247,166.14840426926253,24.22389724805621,0.0,1.0,0.0,0.0,1.0,Taxi
29.200000000000003,-0.08383853768164702,14.084002300530036,18.174333198144797,1.667554103544473,0.5765033742213073,166.0196067594237,24.238581469178516,0.0,1.0,0.0,0.0,1.0,Taxi
29.3,0.0472817061720548,-102.69046011869858,18.317554797043357,1.4615486159505908,0.007789049266780491,166.0383658191223,24.704975987404634,0.0,1.0,0.0,0.0,1.0,Taxi
29.400000000000002,-0.24138858596046775,-2.272439715717288,16.531202233780327,1.670001030353576,0.6974963160701257,165.91546232228598,24.247921767607227,0.0,1.0,0.0,0.0,1.0,Taxi
29.5,-0.09520073626023337,-21.802138963834228,17.198044721607157,1.9893680110550453,0.36249821960959633,165.84266213298577,24.27769512646808,0.0,1.0,0.0,0.0,1.0,Taxi
29.6,-0.06172898864711627,41.70083934931626,17.187328292420467,1.760151217258058,-0.2723377320984594,166.07442883224348,25.03967860543672,0.0,1.0,0.0,0.0,1.0,Taxi
29.700000000000003,-0.03288438921388636,18.80024241241371,18.367067655481925,1.8917619888958719,0.38794876023474273,166.1144560696406,24.501979567137706,0.0,1.0,0.0,0.0,1.0,Taxi
29.8,-0.0011995241981647775,11.613689375174195,17.024427018508717,1.8423203292885906,0.6429368826906622,166.01330438064065,24.65511417725739,0.0,1.0,0.0,0.0,1.0,Taxi
29.900000000000002,-0.0036605417712452467,6.8429050904966475,17.4843019996692,1.695258425327744,-0.21925843998672345,165.85559002691036,24.490799107232448,0.0,1.0,0.0,0.0,1.0,Taxi
30.0,0.00133013623859692,17.2591561748978,18.77852250300621,1.8950299967226323,0.0010098259277647533,166.0084400799135,25.24277678772448,0.0,1.0,0.0,0.0,1.0,Taxi
30.1,0.08509625667632426,-21.437361459945333,19.622844048461822,2.272369827157679,-0.03030595239552874,165.91261215547206,24.100631262433097,0.0,1.0,0.0,0.0,1.0,Taxi
30.200000000000003,-0.11084734907097188,17.649242618967023,17.97784708822651,1.7537185616225295,0.008045355860050193,165.84450274959704,25.313599258774822,0.0,1.0,0.0,0.0,1.0,Taxi
30.3,0.08957634933343209,-22.16389623791311,17.725548572252592,2.075114731835855,-0.0005862418551096136,166.04239809656065,23.794584103008535,0.0,1.0,0.0,0.0,1.0,Taxi
30.400000000000002,-0.02572322451324124,34.482872670853595,18.2240945304331,2.144347117447654,-0.6630491788812736,165.95540783766046,24.56724063805062,0.0,1.0,0.0,0.0,1.0,Taxi
30.5,0.06156701428329617,-16.670325624748163,17.214555151471227,1.9952696018423526,-0.36607619305747346,165.91133107057806,24.435891868145227,0.0,1.0,0.0,0.0,1.0,Taxi
30.6,0.006224721209691364,19.740910375213186,18.29643138339616,1.8871933441843878,0.10057607875379854,165.9829200493616,24.339193465517177,0.0,1.0,0.0,0.0,1.0,Taxi
30.700000000000003,0.07298132736282475,-30.100230291153384,17.05686392902563,1.5548360494273037,0.694375612624974,166.00328920877166,25.892921450757918,0.0,1.0,0.0,0.0,1.0,Taxi
30.8,-0.08893413717247067,-20.061642072145812,17.35256441060477,1.55969332902937,-0.2740323664359687,166.01673781264742,24.106739634760302,0.0,1.0,0.0,0.0,1.0,Taxi
30.900000000000002,-0.09408348915103765,-24.034310306373854,16.653829838258243,1.3132522588345439,0.07315706293724629,165.79554148441082,24.782595591951097,0.0,1.0,0.0,0.0,1.0,Taxi
31.0,-0.04719022416904446,3.441123340401294,17.708014715832896,2.055541626855047,-0.029857621894586597,166.13614294000172,24.700434551842676,0.0,1.0,0.0,0.0,1.0,Taxi
31.1,-0.07172852047046414,-16.38468257961235,17.453283688573702,1.8764708352017814,0.2505503419009618,165.9971679488766,24.96954133534666,0.0,1.0,0.0,0.0,1.0,Taxi
31.200000000000003,-0.17600690204909933,-1.8795610492735146,18.2385935339272,1.8744975039128096,-0.09697757801430579,166.13001769078085,24.53505670931079,0.0,1.0,0.0,0.0,1.0,Taxi
31.3,-0.056588029415412,10.746349036081538,17.815881502019206,1.6934749801080504,-0.27000070641100493,165.76909310247754,24.497964825854975,0.0,1.0,0.0,0.0,1.0,Taxi
31.400000000000002,-0.01799677529005641,46.22280908367042,17.814894818250917,1.75769557970897,0.4435380692114023,165.83939864418915,24.1829426367924,0.0,1.0,0.0,0.0,1.0,Taxi
31.5,0.05510714336925282,-31.567871993136205,17.145648340615256,1.6942032993166996,0.29444354244130116,165.91650945564209,24.443480225871134,0.0,1.0,0.0,0.0,1.0,Taxi
31.6,-0.21442738938109296,7.809503594378053,17.76798320693662,1.948730727262592,0.17976475105606657,166.14309367483952,24.89786017063722,0.0,1.0,0.0,0.0,1.0,Taxi
31.700000000000003,0.021050742681833937,-19.874329164212472,17.918433376664396,1.5021706333505056,0.3710493311548421,165.99028524639323,24.98391059429856,0.0,1.0,0.0,0.0,1.0,Taxi
31.8,-0.04426450245180946,72.89272645481066,17.649695557010137,1.955294314516992,0.15730176624303102,166.05590784929166,24.60548090465544,0.0,1.0,0.0,0.0,1.0,Taxi
31.900000000000002,0.1500362428929604,-10.057960159838695,18.53537139305337,1.7949347687408446,-0.9680853638083617,165.81729330077303,25.011952856544056,0.0,1.0,0.0,0.0,1.0,Taxi
32.0,-0.029239058117359457,-5.1853528352033225,17.456451101121818,1.8804107420430403,0.2572644236421697,165.90889723208704,24.897773079715993,0.0,1.0,0.0,0.0,1.0,Taxi
32.1,-0.07019126662782599,-24.81192597778111,17.802471216852222,1.7480233469843756,0.2560438037183028,165.93249331326274,24.203655414304823,0.0,1.0,0.0,0.0,1.0,Taxi
32.2,0.02597661300405495,28.464038292540533,17.898167527372895,1.7422166011605025,-0.07021439497756171,165.86568093637038,25.628103470220523,0.0,1.0,0.0,0.0,1.0,Taxi
32.300000000000004,0.11308113334534327,15.30985008542288,17.1022610818653,1.3587567408097225,0.7163027911462633,166.0608076738846,24.969388723928457,0.0,1.0,0.0,0.0,1.0,Taxi
32.4,0.006357983799288486,-16.188066670217705,17.56564802076364,2.1198391509973,-0.0623705621942812,165.9214367867711,24.789912752210725,0.0,1.0,0.0,0.0,1.0,Taxi
32.5,-0.05496372034703351,-12.100590701458094,18.918124000658818,1.9099107799646886,0.4505207084928969,165.8722152983578,25.410373870601187,0.0,1.0,0.0,0.0,1.0,Taxi
32.6,0.0525781798380529,-12.402927394893192,18.432476022185064,1.8909249740978633,0.18756801449785782,165.92470357386208,24.50996351588735,0.0,1.0,0.0,0.0,1.0,Taxi
32.7,-0.05565665317517744,15.860573710769797,19.081471355758044,1.816118983396352,-0.18017804908718418,165.98482769018995,24.72996838236282,0.0,1.0,0.0,0.0,1.0,Taxi
32.800000000000004,0.0243391482068155,-26.486730267946538,17.725363857951397,1.7359808755788608,0.1038092198543918,166.0114511954522,25.61598006786368,0.0,1.0,0.0,0.0,1.0,Taxi
32.9,-0.07985547150167976,39.4892504862706,17.49741040288773,2.0154044044519956,0.39217363165842456,166.1338297968614,24.86830523933578,0.0,1.0,0.0,0.0,1.0,Taxi
33.0,0.1417895992561756,-55.929126044358775,17.907015813607305,1.5348510378102036,-0.2524377798419571,166.0566540272714,24.433962985587474,0.0,1.0,0.0,0.0,1.0,Taxi
33.1,-0.25530648201497835,3.834032516537576,17.485568461970413,1.8321567806984214,0.6591340362272586,165.83583183498763,24.23911888858964,0.0,1.0,0.0,0.0,1.0,Taxi
33.2,-0.060685308918991876,-43.92835747801348,17.874733919783196,1.7483325739525621,0.4559648175361214,166.06625243826807,25.300001347442084,0.0,1.0,0.0,0.0,1.0,Taxi
33.300000000000004,-0.0778521881338918,128.53566181002898,17.28211033863712,1.8211226568967749,0.6912989966943897,165.87118689199337,24.15085925916441,0.0,1.0,0.0,0.0,1.0,Taxi
33.4,0.3873718270351666,18.130166873109363,17.094430510422285,1.9053343531545848,0.2164870008571726,166.05076504508781,24.10086535782553,0.0,1.0,0.0,0.0,1.0,Taxi
33.5,0.029965525446554883,13.387765595228473,17.761529596166557,2.0341734542382777,0.1409628924120774,165.89353467379738,24.724588290298108,0.0,1.0,0.0,0.0,1.0,Taxi
33.6,-0.010913360157749446,-64.09558156906108,17.035219598486435,2.0920304273448584,0.5915152564765311,166.04442493779823,24.187517656377,0.0,1.0,0.0,0.0,1.0,Taxi
33.7,0.06689391918986119,-29.57657432685265,18.700873498728846,1.519590651256728,0.830765886723967,166.0957976343784,25.068458767345746,0.0,1.0,0.0,0.0,1.0,Taxi
33.800000000000004,-0.1179173461877084,12.447650608765187,18.267030838292897,2.067526081261476,-1.1699389633384578,165.9801228759046,24.5802000157146,0.0,1.0,0.0,0.0,1.0,Taxi
33.9,0.05132489288607646,-20.818019249980594,18.985345804864018,1.7143632723595605,0.4450912411953101,166.0439031429122,24.883296946446308,0.0,1.0,0.0,0.0,1.0,Taxi
34.0,-0.0371961770600418,41.982548706153615,18.590084530502285,1.879589618413775,0.23198111465722898,165.87663840805817,23.97435432911322,0.0,1.0,0.0,0.0,1.0,Taxi
34.1,0.0919953973430597,15.222361234953604,17.469438077122252,1.9973557302549365,-0.1771384856450136,165.93491612191667,24.41461537883594,0.0,1.0,0.0,0.0,1.0,Taxi
34.2,0.12743669906084448,2.237669415777878,17.90617743693226,1.622607261949363,-0.26295865515627476,165.97199190837978,24.692701167110815,0.0,1.0,0.0,0.0,1.0,Taxi
34.300000000000004,-0.02600782998115238,-42.214991252962626,18.074846236974327,1.742332732576456,0.02286233659106598,165.84682635996296,24.334083964863584,0.0,1.0,0.0,0.0,1.0,Taxi
34.4,-0.11907955892175343,-14.839779838213701,18.882117590270386,1.9207428951016619,-0.05235218570982564,166.02966585650415,25.12819801791623,0.0,1.0,0.0,0.0,1.0,Taxi
34.5,0.053237799869776004,-32.58870907929055,17.59237607228246,1.9545642440199316,0.20539984513377152,166.0193370154459,24.821837646695222,0.0,1.0,0.0,0.0,1.0,Taxi
34.6,-0.18895137537760512,2.597352598335,16.3265733966082,1.8677231037122088,0.10371203035296694,165.98272654657058,23.896822257212484,0.0,1.0,0.0,0.0,1.0,Taxi
34.7,-0.10609279593007842,-13.218934136005627,17.79618643842046,1.807347218478831,1.0909624941830491,165.9519675723675,25.04324397044201,0.0,1.0,0.0,0.0,1.0,Taxi
34.800000000000004,-0.012856870810252101,24.597926369336466,17.61849098518412,1.7166357566730832,-0.7133463026800102,166.0939333252296,24.15122700820521,0.0,1.0,0.0,0.0,1.0,Taxi
34.9,-0.06596174353092281,-19.817449987299458,17.188768729502375,1.6885799993459905,1.1946744227429993,165.87027610372138,24.46087583633725,0.0,1.0,0.0,0.0,1.0,Taxi
35.0,-0.2051800458665757,29.25707965237702,17.1282910527383,1.8197172155318335,0.9338354836730255,166.0200292006831,24.104364779167643,0.0,1.0,0.0,0.0,1.0,Taxi
35.1,0.13342852745163303,6.409565394359244,17.725501600906483,1.5600561484722353,0.29712851981464683,166.08923288195547,24.94511772836211,0.0,1.0,0.0,0.0,1.0,Taxi
35.2,-0.033913916559126574,25.878751349725846,17.34472789355509,1.922772463003659,-0.4455794483774477,166.01653540873872,25.039585966378823,0.0,1.0,0.0,0.0,1.0,Taxi
35.300000000000004,-0.07578628911794646,-46.33134658912669,16.642740931337954,1.8963551815940318,-0.1044878299728475,165.90938623088732,25.304839063559392,0.0,1.0,0.0,0.0,1.0,Taxi
