time_s,altitude_ft,vertical_speed_fpm,ias_kt,pitch_deg,roll_deg,heading_deg,throttle_pct,afterburner_on,gear_down,flaps_deg,speedbrake_pct,weight_on_wheels,label
0.0,-2.1942117149440206,-656.2287978909129,179.74853078941422,0.08683523727729883,-3.9856728646827664,106.96680713344335,30.29669273913484,0.0,1.0,16.230203583978223,11.57195563640685,0.0,Landing
0.1,-4.381641041247064,-876.1265481723759,180.87190883725253,-0.5052161169134362,-3.605242092689233,106.87275981680727,30.54308841756154,0.0,1.0,16.230203583978223,11.57195563640685,0.0,Landing
0.2,-6.5748444558059,-1314.1200768719225,178.56719239789686,0.041417330443750844,-3.672354802067381,106.82358052294188,29.53083035830295,0.0,1.0,16.230203583978223,11.57195563640685,0.0,Landing
0.30000000000000004,-8.764812099303633,-1326.762355288339,178.80621814736236,-0.039171660869364716,-3.7602980191783995,106.87770017829052,29.984134972420858,0.0,1.0,16.230203583978223,11.57195563640685,0.0,Landing
0.4,-11.01545281768876,-1343.010939679355,180.66694837265334,0.06773477719651752,-3.717333965922043,107.04796101017666,30.07122518014627,0.0,1.0,16.230203583978223,11.57195563640685,0.0,Landing
0.5,-13.289899154202676,-1351.1910644056295,178.49435373937874,-0.5747229805299818,-3.784249932689964,106.86948710447257,30.240158918680383,0.0,1.0,16.230203583978223,11.57195563640685,0.0,Landing
0.6000000000000001,-15.520767421331781,-1338.5932589107679,179.95956945591993,-0.07492147187920778,-4.063841143300889,107.28227034784322,30.0654962659023,0.0,1.0,16.230203583978223,11.57195563640685,0.0,Landing
0.7000000000000001,-17.7084191122426,-1332.0155094770598,178.75308337728487,-0.4652929088383839,-4.065987220615463,106.87924087084559,30.01099621586981,0.0,1.0,16.230203583978223,11.57195563640685,0.0,Landing
0.8,-19.949976701587975,-1315.9727631304538,179.84115363349474,0.12690678725411314,-3.9014538235444984,106.74833718414732,29.557805917347917,0.0,1.0,16.230203583978223,11.57195563640685,0.0,Landing
0.9,-22.10063123698405,-1317.33424041509,180.39361530635648,0.00931688818704357,-4.0252416904580555,107.27985092358153,30.60036878521256,0.0,1.0,16.230203583978223,11.57195563640685,0.0,Landing
1.0,-24.29509031431805,-1326.6027250116713,179.57665813762156,-0.15719254193411467,-4.0285988226050335,107.09944394626768,31.182958048560465,0.0,1.0,16.230203583978223,11.57195563640685,0.0,Landing
1.1,-26.582990326646332,-1344.4265003536423,179.94305915159987,0.024731111029006686,-4.14651505545168,106.86707412626868,30.25918036564988,0.0,1.0,16.230203583978223,11.57195563640685,0.0,Landing
1.2000000000000002,-28.82276373875226,-1354.1786989482118,179.2588377967318,-0.1643679435976132,-3.716179569742966,107.16847923682695,30.831976624616047,0.0,1.0,16.230203583978223,11.57195563640685,0.0,Landing
1.3,-31.06598380905911,-1344.2747604487522,179.06418718425437,0.03502738030872088,-3.7422156352169553,106.99422372597667,30.116855142760528,0.0,1.0,16.230203583978223,11.57195563640685,0.0,Landing
1.4000000000000001,-33.30436412889009,-1347.9134715538912,180.97154218951488,-0.42713752431406704,-4.234336142413499,107.06327033374578,30.704269733837638,0.0,1.0,16.230203583978223,11.57195563640685,0.0,Landing
1.5,-35.56233109652172,-1340.6763946399303,180.495427838017,-0.036368389366981335,-3.8029837299413707,106.79590265270679,30.207348781011667,0.0,1.0,16.230203583978223,11.57195563640685,0.0,Landing
1.6,-37.76936578225876,-1332.37315749885,180.1824385909688,-0.3722778226726602,-3.9108028483804413,107.13378776438765,30.374465128649238,0.0,1.0,16.230203583978223,11.57195563640685,0.0,Landing
1.7000000000000002,-39.96622991638434,-1320.8882856632997,178.72355615341448,0.18802355841466245,-3.604334353100093,106.6625409853255,30.309017518244207,0.0,1.0,16.230203583978223,11.57195563640685,0.0,Landing
1.8,-42.166772524838215,-1316.1341705215207,182.01064030711436,-0.5914570259897343,-4.040710396732416,107.09763644252689,30.39429721488299,0.0,1.0,16.230203583978223,11.57195563640685,0.0,Landing
1.9000000000000001,-44.35003663486636,-1310.3084424635183,180.6222767325157,-0.005507145114594353,-3.728978523643769,106.9734289417961,29.88714527216213,0.0,1.0,16.230203583978223,11.57195563640685,0.0,Landing
2.0,-46.517772128701935,-1319.4059376828022,178.69797366597865,0.06702015195719221,-3.6877063357560034,106.75365736290456,29.92262072351418,0.0,1.0,16.230203583978223,11.57195563640685,0.0,Landing
2.1,-48.76380221325223,-1307.1055472949026,182.07301814755226,0.010496011558833257,-3.786204361135006,106.9895461301557,30.256983872555757,0.0,1.0,16.230203583978223,11.57195563640685,0.0,Landing
2.2,-50.88556437134088,-1300.1644003746749,180.43210298283276,0.16399685466581065,-3.9253307366831836,107.04074366053578,30.09035497142539,0.0,1.0,16.230203583978223,11.57195563640685,0.0,Landing
2.3000000000000003,-53.01859413057531,-1288.0993202415211,178.31436961636823,0.37892315059330994,-3.9645937356959435,107.21203810176922,30.378514680791028,0.0,1.0,16.230203583978223,11.57195563640685,0.0,Landing
2.4000000000000004,-55.20429881445983,-1303.684747043944,180.3628416463484,-0.21088391463012762,-3.8110817245850686,106.7785390955396,30.158231340323606,0.0,1.0,16.230203583978223,11.57195563640685,0.0,Landing
2.5,-57.4039881065606,-1311.756129740931,180.62303173760114,0.1768348925847299,-3.9315161391515994,106.71596877459905,30.47706169630497,0.0,1.0,16.230203583978223,11.57195563640685,0.0,Landing
2.6,-59.577374779279964,-1322.6876354786455,181.2795551249686,0.0567068752148745,-4.042916979485579,107.1292074972049,30.624489034904364,0.0,1.0,16.230203583978223,11.57195563640685,0.0,Landing
2.7,-61.81773699185306,-1296.0603818741617,179.57242625067047,-0.15167112423749698,-3.817898902025067,107.07894804055206,30.192966660046597,0.0,1.0,16.230203583978223,11.57195563640685,0.0,Landing
2.8000000000000003,-63.884290015931406,-1302.0355683814385,181.1130952800678,-0.15091901270690192,-3.595024136604171,107.03361378935074,30.771553264599927,0.0,1.0,16.230203583978223,11.57195563640685,0.0,Landing
2.9000000000000004,-66.08755262118716,-1277.7922631460156,180.03196469023968,-0.1621639269712329,-3.7044607920957837,107.01545267349172,30.219606870375358,0.0,1.0,16.230203583978223,11.57195563640685,0.0,Landing
3.0,-68.20669830758314,-1292.1828273860556,180.73265771840246,-0.14913519515126095,-4.05365777062237,106.80099349101818,29.96777010819276,0.0,1.0,16.230203583978223,11.57195563640685,0.0,Landing
3.1,-70.34520415286168,-1286.4569380412688,181.10578941063721,-0.10656691705518861,-4.205489784122769,107.0309408808377,30.167174542898476,0.0,1.0,16.230203583978223,11.57195563640685,0.0,Landing
3.2,-72.5198373113935,-1295.2409648650503,180.06127513210953,-0.12084291621736985,-3.7303325901046707,107.11464645893517,30.50013263266355,0.0,1.0,16.230203583978223,11.57195563640685,0.0,Landing
3.3000000000000003,-74.68290313190839,-1288.7136986593646,179.8483492047589,0.4188280028813228,-3.7864198575937005,106.93585705142459,30.08107541113656,0.0,1.0,16.230203583978223,11.57195563640685,0.0,Landing
3.4000000000000004,-76.7887726461585,-1273.4041333980088,180.0373845924812,-0.04950827468121266,-3.732147988951486,106.93746074073056,30.829745051398202,0.0,1.0,16.230203583978223,11.57195563640685,0.0,Landing
3.5,-78.88685797838355,-1277.65069406841,181.4842153782327,-0.10291973310597029,-3.8157432945661602,106.75975041202287,29.911898107097453,0.0,1.0,16.230203583978223,11.57195563640685,0.0,Landing
3.6,-81.07115660225044,-1285.3831250269366,178.8213136797859,-0.2902143763806671,-3.5838161242784086,106.95645294472865,30.25099314281345,0.0,1.0,16.230203583978223,11.57195563640685,0.0,Landing
3.7,-83.21568827129319,-1306.7968772514917,181.33163239254478,-0.25965002145452476,-3.77255052332444,107.04945751344911,29.85070923258928,0.0,1.0,16.230203583978223,11.57195563640685,0.0,Landing
3.8000000000000003,-85.420842364641,-1303.8570803475466,181.25916388527287,-0.04992130774900497,-3.7774269900484123,107.0923663629797,30.461756718885976,0.0,1.0,16.230203583978223,11.57195563640685,0.0,Landing
3.9000000000000004,-87.59044200398817,-1309.7017759152693,181.28689224985195,-0.061302917721991784,-3.8725717888391396,107.04375833364651,30.256859235846246,0.0,1.0,16.230203583978223,11.57195563640685,0.0,Landing
4.0,-89.76419715086953,-1297.2492467314225,178.68841212564251,0.021998425057614818,-3.9314626546636604,106.81151934421842,30.33891507880176,0.0,1.0,16.230203583978223,11.57195563640685,0.0,Landing
4.1000000000000005,-91.90708859829812,-1308.6121629931652,179.41785787408412,-0.284042871566785,-4.012012221596724,107.21927620501543,30.290538706083222,0.0,1.0,16.230203583978223,11.57195563640685,0.0,Landing
4.2,-94.133502818954,-1294.5107344578018,178.849498674565,-0.24005737897377388,-4.043862304039825,107.25256112353816,30.436646474219035,0.0,1.0,16.230203583978223,11.57195563640685,0.0,Landing
4.3,-96.23675082315854,-1289.0971601803415,180.1956225947945,-0.18313946665446737,-3.8271307338081244,107.28995224777282,29.989832267003823,0.0,1.0,16.230203583978223,11.57195563640685,0.0,Landing
4.4,-98.35257439919982,-1268.8961017195425,181.8720082675923,-0.10701170687475994,-4.293239811330564,106.94019780624484,30.521130552800216,0.0,1.0,16.230203583978223,11.57195563640685,0.0,Landing
4.5,-100.47798332755171,-1278.705588508922,180.49613532260548,-0.24142032232885408,-3.7814688307514253,107.06839891145393,30.351454720005,0.0,1.0,16.230203583978223,11.57195563640685,0.0,Landing
4.6000000000000005,-102.63027876570315,-1279.2539311863864,180.71111947086848,-0.12222417901474047,-3.248834871771238,106.7876438035226,30.183298642390486,0.0,1.0,16.230203583978223,11.57195563640685,0.0,Landing
4.7,-104.74884405513176,-1286.5196660159597,180.65884370270962,0.05943432403557375,-3.729055388952178,107.09670173482158,30.30034252986193,0.0,1.0,16.230203583978223,11.57195563640685,0.0,Landing
4.800000000000001,-106.91058165763151,-1274.6606723438929,179.75203658608248,-0.2373206741723779,-3.9142380483288925,107.12603872620366,30.33335364266142,0.0,1.0,16.230203583978223,11.57195563640685,0.0,Landing
4.9,-109.00358212742262,-1277.9133203523202,181.35520507233167,-0.0980361491272858,-3.585192089854605,107.17270106077251,30.27613051766452,0.0,1.0,16.230203583978223,11.57195563640685,0.0,Landing
5.0,-111.13841065689336,-1278.9931048790522,180.95074920071124,0.17570147284465237,-3.8965824917549816,107.16983592025849,29.705047084598363,0.0,1.0,16.230203583978223,11.57195563640685,0.0,Landing
5.1000000000000005,-113.30554718202677,-1296.964711920765,180.30274861658188,0.17576675253524,-3.882723150379228,107.07576487034822,30.31626053569719,0.0,1.0,16.230203583978223,11.57195563640685,0.0,Landing
5.2,-115.48840568702644,-1323.5868274573477,180.41394480081647,-0.18492461103797542,-3.813213646160564,106.99993839153194,29.994461508359034,0.0,1.0,16.230203583978223,11.57195563640685,0.0,Landing
5.300000000000001,-117.7563447941801,-1308.3476301733897,180.35557474237262,-0.020830969742045735,-3.8864642651530854,106.90758108747332,29.741153727265782,0.0,1.0,16.230203583978223,11.57195563640685,0.0,Landing
5.4,-119.84728533289372,-1292.9491703031288,181.8545152210785,-0.3326625539119228,-3.5087224902556144,107.04081496230793,29.948327022116604,0.0,1.0,16.230203583978223,11.57195563640685,0.0,Landing
5.5,-121.95315153854209,-1253.9887314665777,179.11558795655003,-0.2726382437883541,-3.837420213094133,107.0814462961531,29.782234300811027,0.0,1.0,16.230203583978223,11.57195563640685,0.0,Landing
5.6000000000000005,-124.02628845151298,-1264.6215648331206,181.05657448085572,-0.04061936438331057,-4.097127335085181,106.86406691466789,30.075485741292873,0.0,1.0,16.230203583978223,11.57195563640685,0.0,Landing
5.7,-126.17039315705932,-1281.8086781003587,181.3668791400407,-0.16614399511020714,-3.6627255819236586,106.93695354583042,30.21420648050859,0.0,1.0,16.230203583978223,11.57195563640685,0.0,Landing
5.800000000000001,-128.36219492904388,-1299.526137669335,180.96113295884555,-0.1667069556597686,-3.691744320987919,107.08530463549982,29.851588647950692,0.0,1.0,16.230203583978223,11.57195563640685,0.0,Landing
5.9,-130.52391913985966,-1305.1638659119249,182.17222674059911,-0.2548583898968798,-4.193611816293316,106.93528884905015,30.153056972747965,0.0,1.0,16.230203583978223,11.57195563640685,0.0,Landing
6.0,-132.69621248661895,-1273.4526286491814,181.07530069797016,-0.09175606761159436,-3.717742789657304,107.07287569824024,30.83513272818507,0.0,1.0,16.230203583978223,11.57195563640685,0.0,Landing
6.1000000000000005,-134.7294580722898,-1265.57583482421,180.47809270492152,0.03633398495294621,-3.661714235700983,106.7860416938343,30.56860196236301,0.0,1.0,16.230203583978223,11.57195563640685,0.0,Landing
6.2,-136.8517983139807,-1257.8519285869163,181.0765313634445,0.06727612897208687,-3.4837405565964543,107.0271204541719,30.520251561367974,0.0,1.0,16.230203583978223,11.57195563640685,0.0,Landing
6.300000000000001,-138.98547212955353,-1283.4823904228529,179.9982679300921,-0.34258376207558805,-3.724194528014378,106.9296663772111,30.588870073859475,0.0,1.0,16.230203583978223,11.57195563640685,0.0,Landing
6.4,-141.14687002440405,-1275.082498711248,180.3158636538704,0.006946877163024973,-3.8938349450565184,106.99813094287032,29.740647897529048,0.0,1.0,16.230203583978223,11.57195563640685,0.0,Landing
6.5,-143.22721080753695,-1274.3206165494882,179.37164174045859,0.008234285325958296,-3.846386947504764,106.98612582130079,30.20969888305268,0.0,1.0,16.230203583978223,11.57195563640685,0.0,Landing
6.6000000000000005,-145.35707521230097,-1280.216446603714,180.28219619704305,0.07033161182443881,-3.9997888352723616,106.85589108578114,30.068839382250996,0.0,1.0,16.230203583978223,11.57195563640685,0.0,Landing
6.7,-147.54795225742262,-1291.1118167455754,179.7928885308432,0.1519321377212613,-3.8600500006048266,107.03415115396598,29.810879506653787,0.0,1.0,16.230203583978223,11.57195563640685,0.0,Landing
6.800000000000001,-149.68276989126483,-1290.7045161984456,178.75433767186934,-0.33145825330623013,-3.7205111991640716,106.98132657660562,30.199027625694473,0.0,1.0,16.230203583978223,11.57195563640685,0.0,Landing
6.9,-151.8105977932932,-1280.9495626112778,180.96718186907154,-0.10254727426472571,-3.5023372128391284,107.02781957358161,30.42054440194574,0.0,1.0,16.230203583978223,11.57195563640685,0.0,Landing
7.0,-153.952700070479,-1283.8342259163028,181.66216489446572,0.08963556932030264,-3.6866371898624077,107.025625998311,30.248392220058104,0.0,1.0,16.230203583978223,11.57195563640685,0.0,Landing
7.1000000000000005,-156.10194102084634,-1273.4025033710566,180.06725136035436,-0.40338444675711993,-3.973891528202677,106.73847278520248,30.258886183128958,0.0,1.0,16.230203583978223,11.57195563640685,0.0,Landing
7.2,-158.17761031014848,-1263.4191745826172,182.0034837641259,-0.31848842462243376,-3.9019135628791326,107.13037357330023,29.920415449555406,0.0,1.0,16.230203583978223,11.57195563640685,0.0,Landing
7.300000000000001,-160.2697959433921,-1273.4659746976947,179.20603547882,-0.0022145653613534766,-3.9920810242551434,106.74915455904392,30.21187324189672,0.0,1.0,16.230203583978223,11.57195563640685,0.0,Landing
7.4,-162.4692708943348,-1291.6447642361961,181.8513824420796,-0.41425880337674376,-3.9455853330940247,107.17165089388345,30.35852153052594,0.0,1.0,16.230203583978223,11.57195563640685,0.0,Landing
7.5,-164.63583413132946,-1312.9952590115124,181.10002880870488,-0.19356749174436388,-3.527692869191586,106.88846675017624,30.542777296603017,0.0,1.0,16.230203583978223,11.57195563640685,0.0,Landing
7.6000000000000005,-166.83477223844966,-1299.7472215528717,182.46821125228894,-0.4149256717382558,-3.9536906467810597,106.98268423168332,29.88937772368552,0.0,1.0,16.230203583978223,11.57195563640685,0.0,Landing
7.7,-168.96800700209917,-1288.5298475349261,180.05190308422377,0.05674038362845435,-3.594697065147441,106.99961416583159,29.90691635194809,0.0,1.0,16.230203583978223,11.57195563640685,0.0,Landing
7.800000000000001,-171.0784833690041,-1264.1624444351237,180.8332630151249,-0.1016135970656242,-3.821060507829486,107.14622004706666,30.1268235112204,0.0,1.0,16.230203583978223,11.57195563640685,0.0,Landing
7.9,-173.15558446062528,-1252.7689448325418,178.2087022765284,-0.29597177183032913,-3.8285467608681745,107.14434441102378,29.977752959912866,0.0,1.0,16.230203583978223,11.57195563640685,0.0,Landing
8.0,-175.23185172626188,-1254.4209230115596,180.77744959936535,-0.29884302565486853,-3.612615369381521,106.93669624765295,30.24341532749037,0.0,1.0,16.230203583978223,11.57195563640685,0.0,Landing
8.1,-177.3505879840619,-1252.1699604980483,180.63162497197,-0.11291046942525927,-4.0317361983220845,106.80442203445642,29.989768761255995,0.0,1.0,16.230203583978223,11.57195563640685,0.0,Landing
8.200000000000001,-179.41643426311552,-1273.1747855142828,179.0415026204935,-0.25754322825240294,-4.207428771771097,106.91492681856562,30.58415666397331,0.0,1.0,16.230203583978223,11.57195563640685,0.0,Landing
8.3,-181.5977256538333,-1260.720407947332,181.2170183826692,0.019483409730175788,-3.8629109282653356,106.83766227800766,30.41617943552139,0.0,1.0,16.230203583978223,11.57195563640685,0.0,Landing
8.4,-183.65419002379855,-1268.202305486892,181.82401794041496,-0.21685305523310658,-3.8813723564763922,106.89368669336477,30.103829773150203,0.0,1.0,16.230203583978223,11.57195563640685,0.0,Landing
8.5,-185.75744579054998,-1259.4702408607075,180.17198701566028,-0.1610187848760413,-4.289215727515141,106.96243223298575,30.293343705105766,0.0,1.0,16.230203583978223,11.57195563640685,0.0,Landing
8.6,-187.89507685813683,-1274.073737889762,181.662805048223,-0.1936641855034684,-3.6976962204572197,106.83456242293948,30.451015220639864,0.0,1.0,16.230203583978223,11.57195563640685,0.0,Landing
8.700000000000001,-190.02455871324736,-1268.6770844529406,179.74812405213123,-0.3353408218238855,-3.492924859023102,106.7815915768241,30.23340571872374,0.0,1.0,16.230203583978223,11.57195563640685,0.0,Landing
8.8,-192.10083121281468,-1251.907353885207,180.13881932609877,-0.36190315087489533,-4.155350289157662,107.1975881973965,30.52264268447376,0.0,1.0,16.230203583978223,11.57195563640685,0.0,Landing
8.9,-194.15461362756287,-1245.9027887331558,181.03295259212388,-0.0006367785321296227,-3.992619330220845,106.94729366965583,29.961969847643957,0.0,1.0,16.230203583978223,11.57195563640685,0.0,Landing
9.0,-196.25407265691314,-1249.4014903082189,181.75274180556474,-0.2761971023050468,-3.7786656163612524,107.200566717924,29.986434283455385,0.0,1.0,16.230203583978223,11.57195563640685,0.0,Landing
9.1,-198.34783866435578,-1262.4428477103606,179.3872209064964,-0.24154499119931291,-3.7879939068277846,106.73439641242209,30.21675291235967,0.0,1.0,16.230203583978223,11.57195563640685,0.0,Landing
9.200000000000001,-200.46682786611467,-1249.6314270633036,178.34700147500794,0.009466082350849225,-4.148565398571068,107.10036396527147,30.323990479799008,0.0,1.0,16.230203583978223,11.57195563640685,0.0,Landing
9.3,-202.50222979222966,-1250.8184001483073,180.21521803633064,-0.25583516724629257,-3.983147120064107,106.91104747337369,30.450957003718194,0.0,1.0,16.230203583978223,11.57195563640685,0.0,Landing
9.4,-204.6019306650973,-1248.8911755897902,179.9354529206963,0.030251470211714843,-3.5568063993656107,106.97968351407832,29.92464324624961,0.0,1.0,16.230203583978223,11.57195563640685,0.0,Landing
9.5,-206.71128374406362,-1262.3002747864973,180.73686674632063,-0.0017086633286893804,-3.776423800296835,106.86040436319297,30.23553643887881,0.0,1.0,16.230203583978223,11.57195563640685,0.0,Landing
9.600000000000001,-208.81373116616214,-1270.3122981543004,179.9720303378666,0.36708756515912133,-3.7094393555094056,107.1113810929678,30.488835504550643,0.0,1.0,16.230203583978223,11.57195563640685,0.0,Landing
9.700000000000001,-210.95349215586882,-1273.9852011559208,181.55908662037206,0.20057631385647384,-3.870926555157647,106.86571873717776,30.434284383721604,0.0,1.0,16.230203583978223,11.57195563640685,0.0,Landing
9.8,-213.08120974984323,-1259.5309420732178,179.22362124944397,0.030266381287894273,-4.053889173485549,106.88863580357543,30.16523159845763,0.0,1.0,16.230203583978223,11.57195563640685,0.0,Landing
9.9,-215.11138587652823,-1250.1442055131974,180.92486510459116,0.1056195368508413,-3.8868512300081637,106.95007886783435,29.972326444182052,0.0,1.0,16.230203583978223,11.57195563640685,0.0,Landing
10.0,-217.2042131834348,-1251.6108499371512,179.80838000118877,0.04852712051132624,-3.698891087681249,107.12667276634312,29.943482076504484,0.0,1.0,16.230203583978223,11.57195563640685,0.0,Landing
10.100000000000001,-219.33926399952898,-1260.143053731565,180.3618264923143,-0.20827470550041646,-3.7267832757673154,107.10941147861269,30.485025224815438,0.0,1.0,16.230203583978223,11.57195563640685,0.0,Landing
10.200000000000001,-221.41210114518606,-1262.028319688244,180.82463153583603,-0.143914978145251,-4.070947897143387,107.02633428942727,29.733925844540657,0.0,1.0,16.230203583978223,11.57195563640685,0.0,Landing
10.3,-223.51435478187602,-1269.8288785692114,180.7981211646756,0.13585126639226347,-3.916272835578397,106.98954361241692,30.66605122331433,0.0,1.0,16.230203583978223,11.57195563640685,0.0,Landing
10.4,-225.68840839237504,-1268.8699223069193,180.2127001847888,-0.14530833799248366,-3.862185382899542,106.82744133753596,29.94631940043337,0.0,1.0,16.230203583978223,11.57195563640685,0.0,Landing
10.5,-227.75645075672065,-1269.1456076150246,179.76433274637984,-0.29602786881878007,-4.124626837700196,107.25097878093766,30.094544979652763,0.0,1.0,16.230203583978223,11.57195563640685,0.0,Landing
10.600000000000001,-229.86008281995115,-1240.9756211920921,179.8965527151049,-0.2228274373907847,-3.887908061088005,107.10707548212343,30.481766254326214,0.0,1.0,16.230203583978223,11.57195563640685,0.0,Landing
10.700000000000001,-231.8932864983355,-1251.869666758904,179.83831092825164,-0.37807368093841087,-3.8032589583786938,106.6528265310302,30.604463977905446,0.0,1.0,16.230203583978223,11.57195563640685,0.0,Landing
10.8,-234.01579909051517,-1249.4442367939316,179.3603125973314,-0.30688015738665225,-3.2506448977592406,107.09381715925758,30.260770895833367,0.0,1.0,16.230203583978223,11.57195563640685,0.0,Landing
10.9,-236.1073040039208,-1266.55610153868,179.48613037642355,0.24539411467452377,-3.82303030552829,107.24679888610996,29.9269708124615,0.0,1.0,16.230203583978223,11.57195563640685,0.0,Landing
11.0,-238.2260670060289,-1257.9797632679572,179.09466567027172,-0.3057942529566117,-3.813905042525585,106.8614461110119,30.311745741916045,0.0,1.0,16.230203583978223,11.57195563640685,0.0,Landing
11.100000000000001,-240.30569790685496,-1264.9142550957094,180.22551638321093,-0.30570300176969234,-4.056822293485863,107.0605721314542,29.789607233477682,0.0,1.0,16.230203583978223,11.57195563640685,0.0,Landing
11.200000000000001,-242.43187527939935,-1244.9241216199314,180.95498547191042,0.0015005250888000254,-3.874392445037536,107.0195417909099,30.259635033120166,0.0,1.0,16.230203583978223,11.57195563640685,0.0,Landing
11.3,-244.45068761412855,-1263.5107387974017,180.78144453199985,-0.6819597995652991,-3.746495158882682,106.94441789892318,30.384369366352153,0.0,1.0,16.230203583978223,11.57195563640685,0.0,Landing
11.4,-246.62325160084197,-1253.127398476329,180.07537660075852,0.07157870551445647,-3.4614677024777065,106.84423497400991,29.693776592489154,0.0,1.0,16.230203583978223,11.57195563640685,0.0,Landing
11.5,-248.697512271781,-1259.3342595424247,179.5061608730365,-0.4968110005902711,-3.718505382456141,106.68196018662013,30.6716960705743,0.0,1.0,16.230203583978223,11.57195563640685,0.0,Landing
11.600000000000001,-250.74735891184068,-1231.5045955165203,179.9807292618984,0.0340466855259548,-4.020528484181544,106.98975975196129,30.377295016442,0.0,1.0,16.230203583978223,11.57195563640685,0.0,Landing
11.700000000000001,-252.78077457842457,-1223.1603957656828,179.46983231479214,-0.40204190643621457,-3.7948574221137124,107.26617345680245,30.530979559592925,0.0,1.0,16.230203583978223,11.57195563640685,0.0,Landing
11.8,-254.8133142506094,-1231.3266558234147,180.15523951044008,-0.19823833224990256,-3.5394222587836928,107.00833104021922,30.291292840509495,0.0,1.0,16.230203583978223,11.57195563640685,0.0,Landing
11.9,-256.90399219095775,-1229.7501258848513,179.53988997166996,-0.06896943498522115,-3.8790807905838727,106.85471394625654,30.01441170149848,0.0,1.0,16.230203583978223,11.57195563640685,0.0,Landing
12.0,-258.9295252078488,-1228.48072180322,181.7534706296016,-0.45547476127877795,-4.28687205598054,107.21017726420644,30.52039939719029,0.0,1.0,16.230203583978223,11.57195563640685,0.0,Landing
12.100000000000001,-260.9557178596255,-1229.3138474233956,182.56738470717121,0.16375582296572772,-3.870856218358933,106.75851320825126,30.858002250753856,0.0,1.0,16.230203583978223,11.57195563640685,0.0,Landing
12.200000000000001,-263.05056142807473,-1232.144715205709,179.52006642073223,-0.05857698593880936,-4.28371493524938,107.011846589441,29.76436442744559,0.0,1.0,16.230203583978223,11.57195563640685,0.0,Landing
12.3,-265.09024878387737,-1243.5381414116364,181.14371941700873,-0.004011904369566555,-3.596423853939269,107.11518987576233,30.247610637203184,0.0,1.0,16.230203583978223,11.57195563640685,0.0,Landing
12.4,-267.1734085666837,-1229.9712081395796,182.1193174674405,0.009029498305519551,-3.895146006651443,106.96646234708669,30.232410492818897,0.0,1.0,16.230203583978223,11.57195563640685,0.0,Landing
12.5,-269.2004174687726,-1224.2980492272864,180.55285535199874,0.04813383708647648,-3.7558066785967474,106.87219789308142,30.327847854141698,0.0,1.0,16.230203583978223,11.57195563640685,0.0,Landing
12.600000000000001,-271.2117390300138,-1213.7700328628284,181.96760395082637,-0.32939597876872806,-3.49014391163747,107.36434730268871,30.3750453011669,0.0,1.0,16.230203583978223,11.57195563640685,0.0,Landing
12.700000000000001,-273.24225873099783,-1223.4845480289891,179.65346893621657,-0.5660610351959435,-3.7624522247262644,107.22406735281538,30.31015844706756,0.0,1.0,16.230203583978223,11.57195563640685,0.0,Landing
12.8,-275.3178402089176,-1242.5628858730192,180.60574740398252,-0.03529436263910132,-3.8763424620566607,107.07351483782327,30.44779777231255,0.0,1.0,16.230203583978223,11.57195563640685,0.0,Landing
12.9,-277.4245534593789,-1229.8390577278042,180.3033890618002,-0.25437868515983975,-4.025651615576644,107.10346958081948,30.50620907711873,0.0,1.0,16.230203583978223,11.57195563640685,0.0,Landing
13.0,-279.39145401963685,-1222.8494232577418,180.64991360625137,-0.21880293812472354,-4.1066675581479215,106.80674911523454,30.23115276419458,0.0,1.0,16.230203583978223,11.57195563640685,0.0,Landing
13.100000000000001,-281.4320873252063,-1207.2758650810783,179.64383774564885,-0.15966146400151768,-3.763703905943607,107.04872345093656,29.993354853003304,0.0,1.0,16.230203583978223,11.57195563640685,0.0,Landing
13.200000000000001,-283.4609327847843,-1211.7411324715022,179.6280754054521,0.1918994463953173,-4.257820938066655,106.87713267125974,29.94526443604191,0.0,1.0,16.230203583978223,11.57195563640685,0.0,Landing
13.3,-285.45015968199436,-1215.7283734304428,181.4841946630771,-0.3078698469697074,-4.043846872084387,106.58984580260079,30.043670787877645,0.0,1.0,16.230203583978223,11.57195563640685,0.0,Landing
13.4,-287.5107291923585,-1225.5967811045366,180.98728191645372,0.032520577873022816,-3.979541067436112,107.06531231787369,30.733740085167238,0.0,1.0,16.230203583978223,11.57195563640685,0.0,Landing
13.5,-289.588916690307,-1234.3665482705092,179.57132272101595,0.30886098947408747,-4.104099853574852,106.78091406575032,30.70126654799665,0.0,1.0,16.230203583978223,11.57195563640685,0.0,Landing
13.600000000000001,-291.6219924233469,-1222.7224145483547,179.0531593859563,-0.3579330211534115,-3.6798877774579744,106.93103248898598,29.94345420685801,0.0,1.0,16.230203583978223,11.57195563640685,0.0,Landing
13.700000000000001,-293.62434126510027,-1217.965507032784,181.21956243487244,-0.582364639384358,-3.5868692666616853,106.94174827530031,30.346216160791283,0.0,1.0,16.230203583978223,11.57195563640685,0.0,Landing
13.8,-295.6787442254709,-1210.9164585087342,180.65650692697588,0.09445362748304376,-3.7493079109711256,106.90587908681994,30.65805116329566,0.0,1.0,16.230203583978223,11.57195563640685,0.0,Landing
13.9,-297.6765747158906,-1197.5499834971174,182.75115300782218,-0.5592280671014462,-3.808529182211082,106.99763030795322,29.940378922521123,0.0,1.0,16.230203583978223,11.57195563640685,0.0,Landing
14.0,-299.61209118258586,-1174.842142439229,179.20561901851852,-0.31583206603776404,-3.8834443239140226,107.13617079377491,29.791039261149322,0.0,1.0,16.230203583978223,11.57195563640685,0.0,Landing
14.100000000000001,-301.55295493766704,-1183.5389947968224,180.855958089334,-0.38571655709478053,-3.9503902293299773,106.98838728521719,29.754602914529254,0.0,1.0,16.230203583978223,11.57195563640685,0.0,Landing
14.200000000000001,-303.5942696898747,-1201.7859801042505,177.8295407341437,-0.13202452803295345,-3.702588816954191,107.04800032860226,30.389883357845772,0.0,1.0,16.230203583978223,11.57195563640685,0.0,Landing
14.3,-305.6210210831071,-1208.3898392831202,179.74274688601096,-0.07181794922129207,-4.021384498193085,106.96266676995958,30.422090424525887,0.0,1.0,16.230203583978223,11.57195563640685,0.0,Landing
14.4,-307.59490413408264,-1212.9048034271023,181.75140326357456,0.15256411762526628,-3.7541696012497408,106.8627753982604,30.18228440790493,0.0,1.0,16.230203583978223,11.57195563640685,0.0,Landing
14.5,-309.6587937070102,-1214.4132383843043,182.36563518007276,-0.23139031867830445,-3.6730395040836044,106.76651161959006,30.454308916628165,0.0,1.0,16.230203583978223,11.57195563640685,0.0,Landing
14.600000000000001,-311.69308727502863,-1217.4053226682304,180.93025577668118,-0.20763542046796984,-3.8727068400668063,106.82871175364949,30.132249716907754,0.0,1.0,16.230203583978223,11.57195563640685,0.0,Landing
14.700000000000001,-313.6819307474238,-1220.8481289868018,179.44867054082258,-0.41033693193078585,-3.723902109471695,107.0197236458722,30.84905599068037,0.0,1.0,16.230203583978223,11.57195563640685,0.0,Landing
14.8,-315.7630343519442,-1221.5961712574995,179.21190200213627,-0.165630985044502,-3.6181417582057405,107.21942642279555,30.097000445251215,0.0,1.0,16.230203583978223,11.57195563640685,0.0,Landing
14.9,-317.80106813131613,-1230.5982852841794,179.71270122122922,-0.07389335853725362,-3.8563874399372913,106.63118022815746,30.191246994912692,0.0,1.0,16.230203583978223,11.57195563640685,0.0,Landing
15.0,-319.8349221738447,-1222.9817352094528,179.83096174875112,-0.23655041197738685,-3.7284359322206675,106.87034113147291,30.450644415255056,0.0,1.0,16.230203583978223,11.57195563640685,0.0,Landing
15.100000000000001,-321.8779430279915,-1239.4649477952498,181.5638196949785,-0.014701859656466587,-3.704725682360086,106.8533238176343,30.37001496619057,0.0,1.0,16.230203583978223,11.57195563640685,0.0,Landing
15.200000000000001,-323.9983928702924,-1239.7666867567068,180.30476274467202,-0.33916019586296703,-4.010964563506026,106.97613433290769,30.15175977166205,0.0,1.0,16.230203583978223,11.57195563640685,0.0,Landing
15.3,-326.0337556076282,-1227.476230709783,179.70517369346663,0.14443868133968796,-3.5701701426220818,107.11434809224477,30.676265764246857,0.0,1.0,16.230203583978223,11.57195563640685,0.0,Landing
15.4,-328.0153241815404,-1206.145018433574,181.10289729252935,-0.171392075530118,-4.071847381389527,107.04471995212799,29.736126130016427,0.0,1.0,16.230203583978223,11.57195563640685,0.0,Landing
15.5,-330.02911796246025,-1192.3035269423167,181.53897402125793,-0.02273797453666812,-3.7985297483836193,107.11257640391284,30.01418285231203,0.0,1.0,16.230203583978223,11.57195563640685,0.0,Landing
15.600000000000001,-331.9952732423398,-1186.542129109182,181.57869834422425,-0.035367240531631955,-3.64574396569497,107.06940981000298,30.110193594676307,0.0,1.0,16.230203583978223,11.57195563640685,0.0,Landing
15.700000000000001,-333.9480348270863,-1178.9025982857538,180.6778515627539,0.021017570235045135,-3.7943840253483097,107.30960925803771,30.499974450439986,0.0,1.0,16.230203583978223,11.57195563640685,0.0,Landing
15.8,-335.923630953889,-1205.9295341729467,181.26118870610205,-0.19321220804169068,-4.05608761858319,106.91222517720036,30.053401605619825,0.0,1.0,16.230203583978223,11.57195563640685,0.0,Landing
15.9,-338.02492091320454,-1199.693229318791,180.41222429651413,-0.20617064162463705,-3.6637807043901702,107.0110098152852,30.40997714076344,0.0,1.0,16.230203583978223,11.57195563640685,0.0,Landing
16.0,-339.94650097368026,-1218.759893730521,180.19118935247195,-0.06168089195897325,-3.821679735325945,106.85384604564683,30.078744272534138,0.0,1.0,16.230203583978223,11.57195563640685,0.0,Landing
16.1,-342.0174304225416,-1182.6967273748892,179.9468122313049,-0.5029271826690762,-3.8751406157560577,107.12618046669752,30.729121958339196,0.0,1.0,16.230203583978223,11.57195563640685,0.0,Landing
16.2,-343.938404550079,-1206.5259252704095,180.0129437646671,-0.040317495861555586,-4.059023758464583,106.8354282432183,30.405104216730187,0.0,1.0,16.230203583978223,11.57195563640685,0.0,Landing
16.3,-345.9791306000323,-1191.997916776188,178.58355394434545,-0.35833527184754066,-3.82412663844579,107.00920823321928,29.9164999622233,0.0,1.0,16.230203583978223,11.57195563640685,0.0,Landing
16.400000000000002,-347.97742000642256,-1213.9594533273907,180.4091270494557,-0.08255682656566349,-4.00662237423208,107.04613348845004,29.606800558411045,0.0,1.0,16.230203583978223,11.57195563640685,0.0,Landing
16.5,-350.00820181671594,-1201.9707613874402,181.09149525464994,-0.10962911595187594,-3.9558872842480377,106.90493502283448,29.949084108281905,0.0,1.0,16.230203583978223,11.57195563640685,0.0,Landing
16.6,-351.9889844069695,-1186.7938550424924,179.99617573142058,-0.041290405589477844,-3.9232129973664644,107.24386154881518,30.499514506018787,0.0,1.0,16.230203583978223,11.57195563640685,0.0,Landing
16.7,-353.911389281635,-1188.4278057617848,180.63895840924002,-0.20620455123758263,-4.041553461336982,106.79055833799345,30.469184529421657,0.0,1.0,16.230203583978223,11.57195563640685,0.0,Landing
16.8,-355.95034084552486,-1183.7232022172202,178.5721287995715,-0.1202202664400462,-3.9621682297371215,106.8956371532388,30.5872602282531,0.0,1.0,16.230203583978223,11.57195563640685,0.0,Landing
16.900000000000002,-357.9076004180556,-1208.411508045981,179.54409053339765,-0.5585978682551278,-4.095250185212866,106.9080472710695,30.097962031386757,0.0,1.0,16.230203583978223,11.57195563640685,0.0,Landing
17.0,-359.95344682186493,-1184.4027159461461,180.5794401491652,-0.21693103283910742,-3.8457838074397483,106.9915716542987,30.256327451381804,0.0,1.0,16.230203583978223,11.57195563640685,0.0,Landing
17.1,-361.8723544252556,-1190.8071402092219,181.20229729511777,0.1936223912629873,-3.6350373867963874,107.39635949944375,30.427153583565037,0.0,1.0,16.230203583978223,11.57195563640685,0.0,Landing
17.2,-363.8616361191017,-1184.4436940230366,179.9389274621449,-0.3591510662889519,-3.8037924800774565,106.74534335295743,29.867780052699633,0.0,1.0,16.230203583978223,11.57195563640685,0.0,Landing
17.3,-365.8756652919801,-1186.3015970595484,180.03328330819505,0.1458550461092349,-3.9308741750797864,106.6620980573258,30.043257503885084,0.0,1.0,16.230203583978223,11.57195563640685,0.0,Landing
17.400000000000002,-367.80386241055334,-1195.3293647456576,179.38859717803828,-0.06589314255964542,-3.7923051629302127,106.49020587039934,29.594919418928573,0.0,1.0,16.230203583978223,11.57195563640685,0.0,Landing
17.5,-369.83828294283,-1192.0928045355254,181.99367162959396,-0.16413629645580757,-3.8242453856494842,106.88285330270207,30.30521518411489,0.0,1.0,16.230203583978223,11.57195563640685,0.0,Landing
17.6,-371.83612931465774,-1203.395922724917,180.0258174362135,-0.13884942480205922,-3.3856228173338168,107.28586317222346,30.002907928026964,0.0,1.0,16.230203583978223,11.57195563640685,0.0,Landing
17.7,-373.8208420241779,-1207.55539926937,180.28220110197634,0.059912431380122894,-4.208530279124265,106.9801865002621,29.716955416482918,0.0,1.0,16.230203583978223,11.57195563640685,0.0,Landing
17.8,-375.87605993917686,-1198.4481415041955,179.7748369372762,-0.16004036616714484,-3.6277749553358154,107.16752566562423,30.19534007526959,0.0,1.0,16.230203583978223,11.57195563640685,0.0,Landing
17.900000000000002,-377.8283700221787,-1229.2308932027709,179.091967509875,0.09401943771269378,-3.8946317403418518,107.18390981305299,30.22405037347645,0.0,1.0,16.230203583978223,11.57195563640685,0.0,Landing
18.0,-379.9669964901918,-1207.2583117963063,179.14541691369746,-0.08122188458764645,-4.467669457542932,107.05022715831382,30.22025495358274,0.0,1.0,16.230203583978223,11.57195563640685,0.0,Landing
18.1,-381.9123514981584,-1220.0170057319951,179.7067137742215,-0.18821350787864,-3.9981916325399878,106.75421436752384,30.089795799610183,0.0,1.0,16.230203583978223,11.57195563640685,0.0,Landing
18.2,-383.9284550508387,-1185.2432739892834,180.64357441062143,-0.20304422496522215,-3.8342386405910216,107.00984249409578,30.53194863105386,0.0,1.0,16.230203583978223,11.57195563640685,0.0,Landing
18.3,-385.8932128601382,-1189.4808149150776,181.6034830796643,0.0197418396660351,-3.8945238280593437,106.97305116929755,29.4743232953536,0.0,1.0,16.230203583978223,11.57195563640685,0.0,Landing
18.400000000000002,-387.8597555727338,-1204.439606968299,179.87345512437264,-0.23869528973143955,-3.8051947169404805,107.2034827573276,30.208250211091705,0.0,1.0,16.230203583978223,11.57195563640685,0.0,Landing
18.5,-389.9506530856802,-1210.2400298316638,179.58244006090396,0.007942418082415054,-3.854122024018932,106.84177016253199,29.798040390361855,0.0,1.0,16.230203583978223,11.57195563640685,0.0,Landing
18.6,-391.9444130092965,-1197.8556967044938,180.22933824245203,0.12136560770836918,-3.7176778811792923,107.00905071080172,30.611850900837812,0.0,1.0,16.230203583978223,11.57195563640685,0.0,Landing
18.7,-393.84903405625624,-1186.723124275818,181.8071636074333,0.09747831434165155,-3.81452215575204,107.17546376173686,29.67869890014706,0.0,1.0,16.230203583978223,11.57195563640685,0.0,Landing
18.8,-395.8842687070593,-1173.3721958825981,180.13242008851483,-0.1832330674807708,-3.7755635806759646,106.80149740816478,30.144245495981508,0.0,1.0,16.230203583978223,11.57195563640685,0.0,Landing
18.900000000000002,-397.8112739887095,-1181.638839266634,180.97651537161013,-0.5115609383535202,-4.148311656897131,107.13402363782535,30.299889816975572,0.0,1.0,16.230203583978223,11.57195563640685,0.0,Landing
19.0,-399.7572282525894,-1162.4335135004685,179.86493878992718,-0.04626520028644887,-3.6291973436221574,106.89032335595567,30.245721940951878,0.0,1.0,16.230203583978223,11.57195563640685,0.0,Landing
19.1,-401.6964362745616,-1172.1757298879083,180.279951550439,-0.37441611154085913,-3.9295736868488023,107.21442440416331,30.245172392074387,0.0,1.0,16.230203583978223,11.57195563640685,0.0,Landing
19.200000000000003,-403.67215263814904,-1180.9930068756785,181.1657014233311,-0.35513470661417745,-3.8890777278329947,106.91930806698463,30.501044625371755,0.0,1.0,16.230203583978223,11.57195563640685,0.0,Landing
19.3,-405.6621932869678,-1172.9664578845927,180.26270217377396,-0.18713380917661002,-3.7884719971078846,106.98017496874434,30.1664098178419,0.0,1.0,16.230203583978223,11.57195563640685,0.0,Landing
19.400000000000002,-407.5612685639846,-1170.9039806593978,180.1114643424846,-0.21031243669982008,-3.831225517717888,106.9086490640617,29.754704874183442,0.0,1.0,16.230203583978223,11.57195563640685,0.0,Landing
19.5,-409.52667254144603,-1166.2333443735179,180.93651771868036,0.004724388793175355,-4.063477895815721,106.99202546261557,29.93378778903451,0.0,1.0,16.230203583978223,11.57195563640685,0.0,Landing
19.6,-411.4933600088354,-1160.111913061428,182.36422784103758,-0.23159187172462548,-3.9245257189400897,107.01048287526453,29.98322529656944,0.0,1.0,16.230203583978223,11.57195563640685,0.0,Landing
19.700000000000003,-413.3618281292917,-1153.216243275324,178.76685403753814,-0.23486735951870807,-3.707199458818329,106.99389060035617,30.219944668827022,0.0,1.0,16.230203583978223,11.57195563640685,0.0,Landing
19.8,-415.29275375782265,-1156.642072175896,178.52559194350374,-0.017906420267463377,-3.741887958555836,106.79799336006391,30.176017962318003,0.0,1.0,16.230203583978223,11.57195563640685,0.0,Landing
19.900000000000002,-417.2765703697149,-1168.236487517595,180.273985053618,-0.14285405602212947,-3.8156201585811567,107.15955435427378,30.586792173055137,0.0,1.0,16.230203583978223,11.57195563640685,0.0,Landing
20.0,-419.2030105668797,-1176.6479550501458,180.25497382589697,-0.02702042796603603,-3.7479517786818906,106.92240504594412,30.011262902450884,0.0,1.0,16.230203583978223,11.57195563640685,0.0,Landing
20.1,-421.1759935330734,-1166.1928244332898,179.66974706538977,-0.5255451022686217,-3.871827524291705,106.61343736377933,30.0670333477501,0.0,1.0,16.230203583978223,11.57195563640685,0.0,Landing
20.200000000000003,-423.1075344918813,-1175.3948784869976,180.03157966783195,0.07153199941603111,-3.8401402695164726,107.03093718634932,30.520617609217183,0.0,1.0,16.230203583978223,11.57195563640685,0.0,Landing
20.3,-425.0799849593147,-1196.918392823386,180.50452277360165,-0.36765197914200765,-3.6461037268740495,106.9639571505108,30.096384739500017,0.0,1.0,16.230203583978223,11.57195563640685,0.0,Landing
20.400000000000002,-427.1605854971903,-1203.6792942978877,181.19448726312706,0.10332379758245458,-3.8933073825273126,106.89430222901524,30.779342401915613,0.0,1.0,16.230203583978223,11.57195563640685,0.0,Landing
20.5,-429.12593096337076,-1203.8434542469759,180.02775531356966,-0.24954856300222844,-3.912836257647782,106.92731654128045,29.820354665229676,0.0,1.0,16.230203583978223,11.57195563640685,0.0,Landing
20.6,-431.09920223054957,-1178.312646241352,181.94203617990325,-0.19167979063639598,-3.659412117159304,107.13871812309293,30.381429123943427,0.0,1.0,16.230203583978223,11.57195563640685,0.0,Landing
20.700000000000003,-433.05214872839707,-1187.1358744044755,179.53253211666382,0.25175278783992144,-3.8249661814104616,107.0564131375993,29.653604754004512,0.0,1.0,16.230203583978223,11.57195563640685,0.0,Landing
20.8,-435.06161033539314,-1187.9843886318554,180.61462257553916,-0.3120588833738863,-3.9153441516083656,107.07828598974174,30.370778416911165,0.0,1.0,16.230203583978223,11.57195563640685,0.0,Landing
20.900000000000002,-437.03912417370884,-1189.4814098879692,182.43035972952802,-0.27301637430398884,-4.344446749802425,106.72370251521812,30.61986252394193,0.0,1.0,16.230203583978223,11.57195563640685,0.0,Landing
21.0,-438.9995557778369,-1185.3596245635913,178.14964794144572,-0.3599678467100039,-3.820372164926569,106.96061677983403,30.518197018965463,0.0,1.0,16.230203583978223,11.57195563640685,0.0,Landing
21.1,-440.9884084582111,-1180.8604628993294,180.07475447754078,-0.3130365455400582,-3.7425296182312593,107.08144313326932,30.214330298258673,0.0,1.0,16.230203583978223,11.57195563640685,0.0,Landing
21.200000000000003,-442.9434264882055,-1170.3238509147923,179.65902876540218,-0.06376609715319762,-3.883917455761843,106.94393295267565,30.7411826833036,0.0,1.0,16.230203583978223,11.57195563640685,0.0,Landing
21.3,-444.8511750324109,-1160.5103212995914,179.47988078196076,-0.3295786249567063,-3.9154585719699178,106.96378528128929,29.869666202816166,0.0,1.0,16.230203583978223,11.57195563640685,0.0,Landing
21.400000000000002,-446.79096006470905,-1157.7586157807445,180.89018060337153,-0.26531170161320927,-3.888905489492153,107.01887933759878,30.722121845826397,0.0,1.0,16.230203583978223,11.57195563640685,0.0,Landing
21.5,-448.7322195671092,-1171.079589613953,180.35154708763042,-0.2126909375306928,-3.9326283748676785,107.09616802101323,30.48526547606894,0.0,1.0,16.230203583978223,11.57195563640685,0.0,Landing
21.6,-450.70657298048064,-1158.484923266849,181.32409476407497,0.20627588228165544,-3.9355787060881298,107.02631344660927,30.65787537958241,0.0,1.0,16.230203583978223,11.57195563640685,0.0,Landing
21.700000000000003,-452.5833846810433,-1161.0562254173715,179.69406004233284,-0.014018118038179705,-4.010431236359789,107.04121317743056,30.19054188520197,0.0,1.0,16.230203583978223,11.57195563640685,0.0,Landing
21.8,-454.53750069419607,-1139.1521846021533,179.62120282503693,0.006800256680310535,-3.4506517597763553,107.14620572221986,30.311364985480406,0.0,1.0,16.230203583978223,11.57195563640685,0.0,Landing
21.900000000000002,-456.4023339034914,-1160.034795559102,181.86592069004143,-0.355200607486731,-3.9146496059411264,106.83171306233646,29.780439188202962,0.0,1.0,16.230203583978223,11.57195563640685,0.0,Landing
22.0,-458.3835586588388,-1139.029928817729,181.39301847717527,-0.230290553965537,-3.6783827756857983,107.03045658370644,29.72752410466984,0.0,1.0,16.230203583978223,11.57195563640685,0.0,Landing
22.1,-460.2326503382847,-1145.4048807504932,180.22559359870536,-0.025169837316422278,-3.5211689156181194,107.14992403173073,30.184384382659623,0.0,1.0,16.230203583978223,11.57195563640685,0.0,Landing
22.200000000000003,-462.1293583072439,-1135.4983371499543,179.10950297629623,-0.2969986833976972,-4.060553084201913,107.08578846115518,30.365646332596942,0.0,1.0,16.230203583978223,11.57195563640685,0.0,Landing
22.3,-464.0610503445886,-1136.3982898644053,180.07356194137645,0.27730042552444384,-3.6349562629614782,106.90950746312177,30.09223333334238,0.0,1.0,16.230203583978223,11.57195563640685,0.0,Landing
22.400000000000002,-465.91464178760674,-1134.6683837198611,179.89675499370955,0.13223493855065377,-3.500555874640225,106.95148559373155,30.551099552919414,0.0,1.0,16.230203583978223,11.57195563640685,0.0,Landing
22.5,-467.8027002258432,-1141.384126936589,181.27701120267264,0.1676961352640849,-4.07718486352717,107.2110018243938,30.57895636394734,0.0,1.0,16.230203583978223,11.57195563640685,0.0,Landing
22.6,-469.7679709792715,-1165.749815980189,180.2340477397362,0.244779157244628,-3.8787481674021174,107.24937025982274,30.026583276662443,0.0,1.0,16.230203583978223,11.57195563640685,0.0,Landing
22.700000000000003,-471.7433908675077,-1157.8974941181968,181.23061495946462,-0.2851453534528756,-3.839632299071483,106.95125691613032,30.495360921616328,0.0,1.0,16.230203583978223,11.57195563640685,0.0,Landing
22.8,-473.59218769643417,-1152.1110864909701,179.87369027591268,-0.22590781116000713,-3.752858230768866,106.89045523116454,30.31741163952488,0.0,1.0,16.230203583978223,11.57195563640685,0.0,Landing
22.900000000000002,-475.5285264117264,-1130.1777395310069,179.10476215259828,-0.46135656571201245,-3.8867248601670656,106.70640410674656,30.226766044767896,0.0,1.0,16.230203583978223,11.57195563640685,0.0,Landing
23.0,-477.3942795651627,-1143.3315529552942,180.52064220563054,-0.5665113622705364,-3.526651491454399,107.0818286704058,30.29192244035968,0.0,1.0,16.230203583978223,11.57195563640685,0.0,Landing
23.1,-479.30884546121064,-1142.9159197252375,176.94537913488736,-0.4820007942607076,-3.6655798815318272,107.03756625554149,30.437416242958317,0.0,1.0,16.230203583978223,11.57195563640685,0.0,Landing
23.200000000000003,-481.24310601035256,-1134.1889551654845,178.69375668873587,-0.061618246859638556,-4.0418307224738355,106.96803323105189,29.811174534239246,0.0,1.0,16.230203583978223,11.57195563640685,0.0,Landing
23.3,-483.06522434099014,-1119.5515205155289,180.03644051010073,0.16135056056119013,-4.029776309067982,106.96465749374056,30.02544093472005,0.0,1.0,16.230203583978223,11.57195563640685,0.0,Landing
23.400000000000002,-484.9066030637883,-1121.00193945422,180.49791760119658,-0.3967054195079535,-3.6970526512373922,106.90361005161122,29.670119203122614,0.0,1.0,16.230203583978223,11.57195563640685,0.0,Landing
23.5,-486.84811570762366,-1146.7462009491442,178.45690983873857,-0.3378883814241176,-3.9107829839301114,106.88296816203217,30.297940368928977,0.0,1.0,16.230203583978223,11.57195563640685,0.0,Landing
23.6,-488.79895534573586,-1177.7824173843214,178.39197289895773,-0.34417505711607455,-3.8961545712715835,107.08447901503223,30.661270795028507,0.0,1.0,16.230203583978223,11.57195563640685,0.0,Landing
23.700000000000003,-490.7955151507099,-1159.674094638433,180.2870576621872,-0.19157241495625976,-4.130206103387946,106.77966780643828,30.013048611528035,0.0,1.0,16.230203583978223,11.57195563640685,0.0,Landing
23.8,-492.6464861808158,-1168.1825364286055,182.45568847313533,-0.19312831080392787,-3.5762334484037077,107.16353164374397,30.185640742249426,0.0,1.0,16.230203583978223,11.57195563640685,0.0,Landing
23.900000000000002,-494.6398680278789,-1170.7195713365763,180.36665120229046,0.032918299964180664,-3.786959319816862,106.91742744570263,29.89229566467829,0.0,1.0,16.230203583978223,11.57195563640685,0.0,Landing
24.0,-496.64911300739277,-1161.6852906895133,181.1981637636605,-0.22214901164874062,-3.9451834041995566,107.1125706194378,30.157454555837692,0.0,1.0,16.230203583978223,11.57195563640685,0.0,Landing
24.1,-498.4549126342634,-1143.4036449921791,181.5993372347402,-0.34158688533656834,-3.8732284229287983,107.00005538992389,30.72717463502223,0.0,1.0,16.230203583978223,11.57195563640685,0.0,Landing
24.200000000000003,-500.3568862528398,-1123.5198587424065,181.7396304709374,-0.013402711899850706,-3.76269760786673,107.08896468638397,30.044301062108822,0.0,1.0,16.230203583978223,11.57195563640685,0.0,Landing
24.3,-502.2667123011048,-1149.612936342976,178.89113654150435,-0.05881561302933486,-3.771973475465235,107.07370031030604,30.069340510612896,0.0,1.0,16.230203583978223,11.57195563640685,0.0,Landing
24.400000000000002,-504.2029773159783,-1154.0811842843027,181.08964813553118,-0.44786156849275194,-3.8069618741184854,107.0320989574085,30.304854365118743,0.0,1.0,16.230203583978223,11.57195563640685,0.0,Landing
24.5,-506.1272921742613,-1164.2863731220132,180.44663642657034,-0.003988315408135185,-4.009044469574059,106.72422771542756,29.75534670923797,0.0,1.0,16.230203583978223,11.57195563640685,0.0,Landing
24.6,-508.08814416671487,-1161.6892825657146,180.25430581605383,-0.3216615665994439,-3.9137770218793113,106.78659577155219,30.296951728795367,0.0,1.0,16.230203583978223,11.57195563640685,0.0,Landing
24.700000000000003,-510.01142372880685,-1169.35684273991,179.70041647901334,-0.4102962083428423,-4.008837623065612,107.1331745958019,30.312378408072366,0.0,1.0,16.230203583978223,11.57195563640685,0.0,Landing
24.8,-511.97407638796085,-1147.9387500184885,179.57621391551996,0.09298071305431077,-3.9334672136336715,106.90888122749521,29.92205134803505,0.0,1.0,16.230203583978223,11.57195563640685,0.0,Landing
24.900000000000002,-513.8278379168073,-1144.8713144430826,177.99983980247322,0.13786252218502504,-3.567318060450713,107.01658520110317,29.94766350496801,0.0,1.0,16.230203583978223,11.57195563640685,0.0,Landing
25.0,-515.7357803010223,-1125.1554842797304,180.24878125790767,0.05039048832877796,-3.6210337347556782,106.85911043240645,30.33755024143561,0.0,1.0,16.230203583978223,11.57195563640685,0.0,Landing
25.1,-517.5998538093595,-1123.5115777261854,181.1941155228729,-0.04218592221416352,-4.069262188910997,106.79678045349476,30.423953920707955,0.0,1.0,16.230203583978223,11.57195563640685,0.0,Landing
25.200000000000003,-519.4453958054382,-1109.9912182292883,179.33444664391786,-0.5142788824583654,-3.3397925219412663,107.06286055208835,30.199213807166508,0.0,1.0,16.230203583978223,11.57195563640685,0.0,Landing
25.3,-521.2857363921687,-1117.981182319113,179.62410738531722,-0.14156515185837604,-3.62631760520589,106.87754971813257,30.420550512313003,0.0,1.0,16.230203583978223,11.57195563640685,0.0,Landing
25.400000000000002,-523.1897597209551,-1133.847049748283,180.31290491272392,-0.23008861570986713,-3.621782194403294,107.08518278441818,30.0391482428014,0.0,1.0,16.230203583978223,11.57195563640685,0.0,Landing
25.5,-525.1146310541797,-1135.5929150840211,180.52392680495137,-0.3384541889868426,-3.726209182225006,106.95993330290008,30.160785704562063,0.0,1.0,16.230203583978223,11.57195563640685,0.0,Landing
25.6,-526.9637009675888,-1135.4066319433286,180.28730292496687,-0.2593876593468715,-3.6502968925142754,107.22647405596177,29.941686801126863,0.0,1.0,16.230203583978223,11.57195563640685,0.0,Landing
25.700000000000003,-528.8667928806717,-1130.2593575810079,179.51288244024948,-0.1189976788222861,-3.9161285461678172,106.98799761599372,29.95771391626015,0.0,1.0,16.230203583978223,11.57195563640685,0.0,Landing
25.8,-530.7659278420847,-1127.9259280584938,181.03598717813767,0.05301993544265901,-3.781929546523406,107.05531146455218,31.175969573058165,0.0,1.0,16.230203583978223,11.57195563640685,0.0,Landing
25.900000000000002,-532.6033306078813,-1141.9918553690195,180.40355084268634,-0.20286892608478554,-3.8454746842844387,106.56236444715859,30.481038601216564,0.0,1.0,16.230203583978223,11.57195563640685,0.0,Landing
26.0,-534.5767521575168,-1132.8412588820356,182.50126541299096,-0.5109801258790228,-3.661320831143222,106.99815212919282,30.128037487641535,0.0,1.0,16.230203583978223,11.57195563640685,0.0,Landing
26.1,-536.4301341364949,-1129.0382976938645,178.79874720269595,-0.35109083921275985,-4.0895962774838015,106.34580906149404,30.200268339985374,0.0,1.0,16.230203583978223,11.57195563640685,0.0,Landing
26.200000000000003,-538.2485220963506,-1116.8189908796649,179.22788516599704,-0.4654091874219307,-4.003186312764343,106.85178258937242,30.337250657274957,0.0,1.0,16.230203583978223,11.57195563640685,0.0,Landing
26.3,-540.1608471119151,-1116.0884546078023,181.35919915510235,-0.4610529163186674,-3.9200577404261976,106.88697340066602,29.782489040966453,0.0,1.0,16.230203583978223,11.57195563640685,0.0,Landing
26.400000000000002,-542.0105764095339,-1136.956434591957,180.37738649448906,-0.219181013678605,-4.016294839901555,107.10238900044658,30.55361483394958,0.0,1.0,16.230203583978223,11.57195563640685,0.0,Landing
26.5,-543.9333042693104,-1115.1510384933317,179.57769750237784,-0.09932613776583044,-3.7002474526256166,107.2003004116097,30.50540474133717,0.0,1.0,16.230203583978223,11.57195563640685,0.0,Landing
26.6,-545.7366023043818,-1123.200967481921,182.32089637140172,-0.3122811092951289,-3.814114967278866,106.79731360131677,30.249550210352975,0.0,1.0,16.230203583978223,11.57195563640685,0.0,Landing
26.700000000000003,-547.6265812469435,-1106.2313864897533,178.7626406234406,-0.15763311822571546,-4.11616803506675,107.07001343137705,30.58505107580972,0.0,1.0,16.230203583978223,11.57195563640685,0.0,Landing
26.8,-549.4644612017591,-1113.6613209629786,180.48165954737786,0.0550729621746775,-3.8087983976862114,106.96557498070177,30.01949014774873,0.0,1.0,16.230203583978223,11.57195563640685,0.0,Landing
26.900000000000002,-551.3049089091967,-1105.033993287384,179.50771348290135,-0.004567069911010385,-3.721126281501716,106.97999045951553,29.953275300751145,0.0,1.0,16.230203583978223,11.57195563640685,0.0,Landing
27.0,-553.1517512133804,-1113.4136046191543,180.9303510237506,0.05501947280745892,-3.833280773636716,107.17267874828036,30.52736953053472,0.0,1.0,16.230203583978223,11.57195563640685,0.0,Landing
27.1,-555.0315292248549,-1112.6657188341142,179.674013215847,-0.012123594455508313,-4.0154751425719954,106.80592731280086,30.009228518780812,0.0,1.0,16.230203583978223,11.57195563640685,0.0,Landing
27.200000000000003,-556.8682375033673,-1103.6976752005785,179.3961509698453,-0.5342062975556319,-3.9486758390344976,106.83462020933558,30.019274950655976,0.0,1.0,16.230203583978223,11.57195563640685,0.0,Landing
27.3,-558.6702395893833,-1095.9296700828645,179.53944027931848,-0.24770552221218195,-4.09391522309469,106.98072662612702,30.653409814755523,0.0,1.0,16.230203583978223,11.57195563640685,0.0,Landing
27.400000000000002,-560.5111775752692,-1093.3670013101391,180.55871155121966,-0.3987222366423139,-3.910467112436179,106.9977047026249,30.322965362219424,0.0,1.0,16.230203583978223,11.57195563640685,0.0,Landing
27.5,-562.335072509918,-1106.3975286556115,181.0452633044891,0.046945514267712846,-3.7693752108762846,107.02452737620177,29.99833818990899,0.0,1.0,16.230203583978223,11.57195563640685,0.0,Landing
27.6,-564.2022272326614,-1097.3513507372218,181.5341788970608,-0.12357085286035847,-4.090402821909982,106.9785481082701,30.054484277786543,0.0,1.0,16.230203583978223,11.57195563640685,0.0,Landing
27.700000000000003,-565.9979343289554,-1112.0746076474234,179.22188749440255,-0.009377475499777493,-3.6686577022614446,106.806565431021,30.155828542638705,0.0,1.0,16.230203583978223,11.57195563640685,0.0,Landing
27.8,-567.8954455481551,-1113.736018444979,181.78558473650145,0.03355387329217646,-3.8534950677535966,106.84426776314189,30.197079946484035,0.0,1.0,16.230203583978223,11.57195563640685,0.0,Landing
27.900000000000002,-569.7709073248863,-1119.0000269202528,181.24384942001262,0.11534005036984646,-4.024206857738157,106.96831439754027,30.05494148581243,0.0,1.0,16.230203583978223,11.57195563640685,0.0,Landing
28.0,-571.5929344635566,-1123.7458292873725,181.52812737763696,0.005820424279208591,-3.6062438328518285,107.02638294246236,30.544753209388205,0.0,1.0,16.230203583978223,11.57195563640685,0.0,Landing
28.1,-573.5141746945919,-1125.3466642145213,180.7967991944631,-0.25649677365828555,-3.987956164638895,107.02288559797074,30.276788824455842,0.0,1.0,16.230203583978223,11.57195563640685,0.0,Landing
28.200000000000003,-575.3976406459589,-1122.7604198511472,180.42431635771675,0.03209945802645353,-3.557410271929473,107.07133989308136,29.984704789207974,0.0,1.0,16.230203583978223,11.57195563640685,0.0,Landing
28.3,-577.2067365628124,-1118.6057600715912,180.09707238903223,0.02597712478893996,-3.721192702090866,106.9573698253148,30.245232555910896,0.0,1.0,16.230203583978223,11.57195563640685,0.0,Landing
28.400000000000002,-579.1072034949499,-1118.7223843968013,179.98520152970386,0.2949611719137291,-3.590934050270742,106.89496102414017,29.764026574384147,0.0,1.0,16.230203583978223,11.57195563640685,0.0,Landing
28.5,-580.9912525679429,-1130.5799782650638,181.27227114711613,-0.3144978998744039,-3.5530240397137827,106.91020069451804,30.506525137337878,0.0,1.0,16.230203583978223,11.57195563640685,0.0,Landing
28.6,-582.8596364541377,-1132.4512222881367,179.5300535569044,0.02096083216962616,-4.058232457204029,106.83812675111267,30.594207593340172,0.0,1.0,16.230203583978223,11.57195563640685,0.0,Landing
28.700000000000003,-584.7694596063906,-1120.6897337258624,180.0737883485996,0.057662819871105525,-3.70326991573461,106.9007036768163,30.14271588916978,0.0,1.0,16.230203583978223,11.57195563640685,0.0,Landing
28.8,-586.5947012365722,-1118.7452362216845,181.44096112368962,-0.21640889951913717,-3.69680670370685,107.02899364943715,30.3610354547674,0.0,1.0,16.230203583978223,11.57195563640685,0.0,Landing
28.900000000000002,-588.4533626352461,-1121.9704129832962,181.1428002424224,0.2045240920449844,-3.679395358170033,107.31604253025102,30.108749387132335,0.0,1.0,16.230203583978223,11.57195563640685,0.0,Landing
29.0,-590.379311671307,-1120.625257347524,181.5977210620873,0.08368361511331546,-3.8605387594892178,106.841642101052,30.40273367045962,0.0,1.0,16.230203583978223,11.57195563640685,0.0,Landing
29.1,-592.1978275233098,-1126.9527401185542,180.29920026462682,-0.3715768222838255,-3.841654974914539,106.94311637242873,30.398182441623167,0.0,1.0,16.230203583978223,11.57195563640685,0.0,Landing
29.200000000000003,-594.0881263358389,-1100.8479125919166,179.97821346429822,-0.043739870713637316,-4.278047831963644,106.90048453180475,30.103866875415523,0.0,1.0,16.230203583978223,11.57195563640685,0.0,Landing
29.3,-595.8835512342666,-1091.2677435280557,180.9869804112504,-0.1775733692148739,-3.787117778549476,107.03535170760256,30.333899389726223,0.0,1.0,16.230203583978223,11.57195563640685,0.0,Landing
29.400000000000002,-597.6541662409501,-1095.5199627782804,182.19328321213706,-0.39279804284025016,-3.5076080653877515,106.99889763730965,30.62731247915238,0.0,1.0,16.230203583978223,11.57195563640685,0.0,Landing
29.5,-599.5657261497303,-1107.4945625663304,179.58705183155828,-0.14769900261259342,-3.407535265728983,107.21387706527327,29.792797497148197,0.0,1.0,16.230203583978223,11.57195563640685,0.0,Landing
