time_s,altitude_ft,vertical_speed_fpm,ias_kt,pitch_deg,roll_deg,heading_deg,throttle_pct,afterburner_on,gear_down,flaps_deg,speedbrake_pct,weight_on_wheels,label
0.0,0.04282858722844804,-41.50640623426439,7.442620074394062,-0.05366766523681757,0.0779282449419349,127.75257423013159,10.88311031893304,0.0,1.0,0.0,0.0,1.0,Taxi
0.1,-0.09552610021909991,-13.626780827576484,7.303767879137926,0.06633936073576352,0.2848212805104244,127.6662836213078,12.48892880658072,0.0,1.0,0.0,0.0,1.0,Taxi
0.2,-0.025305316909434352,-81.27562879224779,7.492817142403542,-0.2285995414487255,1.0524577016960392,127.77924488630248,11.044404941786581,0.0,1.0,0.0,0.0,1.0,Taxi
0.30000000000000004,-0.3635495567327908,29.180655027002427,7.332354996438237,-0.41370656439097026,0.0035423862163958277,127.78026048558849,11.322343386014131,0.0,1.0,0.0,0.0,1.0,Taxi
0.4,0.05037717491591226,-20.65177020028511,8.506543199380408,-0.1886570311551539,0.5162527213227035,127.66162331279168,11.346559000309291,0.0,1.0,0.0,0.0,1.0,Taxi
0.5,-0.1285641679108599,76.59841465507871,7.489163168549507,-0.2885015415682187,-0.5499108770361718,127.66217310386628,12.353874742601018,0.0,1.0,0.0,0.0,1.0,Taxi
0.6000000000000001,0.019442516542602727,0.529633771214114,8.145423004290326,-0.1606397486784293,0.16511807629087477,127.74233946207625,12.253572600787841,0.0,1.0,0.0,0.0,1.0,Taxi
0.7000000000000001,0.05302534377198281,49.62093347620257,7.632400128769293,-0.26263484107812224,-1.15114102213161,127.62825889773245,11.213186135433997,0.0,1.0,0.0,0.0,1.0,Taxi
0.8,0.11954049947015298,7.435636935782479,6.8243947318174785,-0.0920382071654598,-0.5370407548772738,127.70104886590372,11.65697653096987,0.0,1.0,0.0,0.0,1.0,Taxi
0.9,0.056620701221515114,9.407762887987234,7.579770026798352,0.07688840794447832,0.7418686904546025,127.66437226951223,11.972008933957232,0.0,1.0,0.0,0.0,1.0,Taxi
1.0,0.10006415821191897,-37.54460044016988,6.9832976654339,0.041252520013135174,0.34373014210986813,127.76494399104189,12.165130002971457,0.0,1.0,0.0,0.0,1.0,Taxi
1.1,-0.06818250273069638,-7.966121562662124,8.031468173992613,-0.2789822864755259,-0.3328128243548093,127.66924175248016,11.461062530682074,0.0,1.0,0.0,0.0,1.0,Taxi
1.2000000000000002,0.0167900934082045,-62.7642059513635,7.3433389826628295,0.1996799732678997,-0.08662757266183484,127.73808877758898,11.301790145729946,0.0,1.0,0.0,0.0,1.0,Taxi
1.3,-0.2137568715448985,14.462393426430344,7.229398656314205,-0.46388278428441826,0.6430481184991407,127.73823128962073,11.547123860348657,0.0,1.0,0.0,0.0,1.0,Taxi
1.4000000000000001,0.004129464401455365,3.41810663361221,8.28595872286205,-0.3106553888686119,0.3247864347279915,127.74468026241186,12.132948173486168,0.0,1.0,0.0,0.0,1.0,Taxi
1.5,0.03388062657626559,53.769784203083894,7.10999993630568,-0.23177234928609441,0.1983164936756869,127.75895401579169,12.238025345936128,0.0,1.0,0.0,0.0,1.0,Taxi
1.6,0.055092049470521,-15.016008736711507,6.875070825094878,-0.3170755161190799,-1.0732620406895503,127.68191054724036,11.69163484880348,0.0,1.0,0.0,0.0,1.0,Taxi
1.7000000000000002,-0.07095057928210217,16.064655438798244,7.353804714044593,-0.28655178849672835,0.13860407541439212,127.62149403593497,11.811163273454111,0.0,1.0,0.0,0.0,1.0,Taxi
1.8,0.1142039037702568,7.084938409990177,6.85410426737551,-0.32202834634632804,-0.05196309469042198,127.68681653998738,12.107753193115753,0.0,1.0,0.0,0.0,1.0,Taxi
1.9000000000000001,0.09051674152047187,-13.818873401781053,6.552847508360233,-0.4059115751116617,-0.9691852752902582,127.95044550933778,11.210613408125882,0.0,1.0,0.0,0.0,1.0,Taxi
2.0,-0.14004494629100744,-24.511076164763594,6.689692093283005,-0.5394568425072954,0.02493417039864834,127.77554762214152,11.174398028067515,0.0,1.0,0.0,0.0,1.0,Taxi
2.1,-0.008351477053561146,10.261145511787895,7.402820088748641,-0.3457813353015644,0.501367295582997,127.66032935730146,10.943145279209542,0.0,1.0,0.0,0.0,1.0,Taxi
2.2,0.14182246907941137,27.889342245008752,7.736212608064728,-0.08205299314477651,-0.32414640207902823,127.64376306604458,11.448846875591293,0.0,1.0,0.0,0.0,1.0,Taxi
2.3000000000000003,-0.0005982350659636477,-5.691758273022888,7.297004615312531,0.020660109963857337,0.10264438518132064,127.79433565652266,11.466214395148464,0.0,1.0,0.0,0.0,1.0,Taxi
2.4000000000000004,-0.03681026841867556,-47.34542078651709,7.05238265984392,-0.5739846959102406,0.016100233727767907,127.7567475914359,11.386433408906006,0.0,1.0,0.0,0.0,1.0,Taxi
2.5,-0.09490463485317406,-19.019146466768813,7.375228154401485,-0.29417904775373815,-0.25471472825927327,127.74556641642636,10.395130197519418,0.0,1.0,0.0,0.0,1.0,Taxi
2.6,-0.09569396739980768,30.904871323970557,8.262825478820924,-0.059290416535906526,0.02930376164203065,127.62874428961027,11.821356993106464,0.0,1.0,0.0,0.0,1.0,Taxi
2.7,0.11771408820117722,39.49545293003674,7.375480171589072,-0.5067101697717202,0.29747184081157124,127.551921668587,12.393245144861046,0.0,1.0,0.0,0.0,1.0,Taxi
2.8000000000000003,0.10257262979700964,50.83811309269604,7.602793586863466,-0.3621857728873733,0.23767801284441475,127.56255550486145,11.94546618719297,0.0,1.0,0.0,0.0,1.0,Taxi
2.9000000000000004,0.15849659806367256,-9.784128814959317,7.768326220271718,-0.2641254978140573,0.7548596290566644,127.58486806389988,11.806621720448376,0.0,1.0,0.0,0.0,1.0,Taxi
3.0,0.06879344412638067,6.278169908618655,9.118740563651652,-0.06537128505630224,-0.009610582780253958,127.59881284661003,12.24781651550528,0.0,1.0,0.0,0.0,1.0,Taxi
3.1,0.13396347934010294,-9.046188621613824,7.192020928091343,-0.04090617811693495,-0.23376472660263634,127.60841775855874,11.304747451245731,0.0,1.0,0.0,0.0,1.0,Taxi
3.2,0.11326565495560346,-5.024643623891652,6.514940986635281,-0.009912386809619755,0.5306996928074119,127.44899023335074,11.487760333693652,0.0,1.0,0.0,0.0,1.0,Taxi
3.3000000000000003,0.043670226006922434,-49.061168522104616,8.111742559049688,-0.44341338755283277,1.1274908541200077,127.58496198601313,12.05536028563941,0.0,1.0,0.0,0.0,1.0,Taxi
3.4000000000000004,-0.11134236327042012,-19.28033161572948,6.6394871800412405,0.17101695480685014,-0.5644342718845257,127.8149608998844,10.9832674736008,0.0,1.0,0.0,0.0,1.0,Taxi
3.5,0.01686399687695606,1.0248639693121622,6.598691663601349,-0.18610530708165382,0.6021386494718904,127.5995019237655,11.418172929656603,0.0,1.0,0.0,0.0,1.0,Taxi
3.6,0.048794545853483244,35.83356759182902,7.967970622086881,-0.17881179070535236,-0.006090033204353206,127.73093177373471,11.894786168778205,0.0,1.0,0.0,0.0,1.0,Taxi
3.7,0.06782547468872502,-15.405398589436535,7.403034353439055,-0.2655423733656719,-0.01431803984667152,127.68288315319239,12.042482691981395,0.0,1.0,0.0,0.0,1.0,Taxi
3.8000000000000003,-0.060162996070226564,10.659976096621302,7.091121743787812,0.05683896702056318,0.012663119415535213,127.6943722657868,10.949855928638149,0.0,1.0,0.0,0.0,1.0,Taxi
3.9000000000000004,0.10209442633658981,-11.25127516058302,7.487770679571717,0.14355667739785777,0.2787588748816951,127.63611637266746,10.799050002961378,0.0,1.0,0.0,0.0,1.0,Taxi
4.0,0.01156909888580996,39.459845903420586,7.1794367892672115,-0.3137799742429677,-1.4492686606170182,127.6348259555632,12.453555298134681,0.0,1.0,0.0,0.0,1.0,Taxi
4.1000000000000005,0.1371362334468764,3.6402339805968045,7.560881247977948,-0.26427275895353136,-0.3676176324278728,127.61423639301512,12.256893945766896,0.0,1.0,0.0,0.0,1.0,Taxi
4.2,0.12029559623957387,-11.70093055210235,6.99289769621733,-0.36359425854165295,0.187310190020928,127.50140125273526,11.33457546555183,0.0,1.0,0.0,0.0,1.0,Taxi
4.3,-0.04693555387470177,-22.692721746359638,7.644466057375072,-0.06689154542813713,-0.10518605473977781,127.71410597604483,12.642361983794821,0.0,1.0,0.0,0.0,1.0,Taxi
4.4,0.023672624715078246,-36.40226837154348,7.433376917076933,-0.21692757361245144,0.34821475656529577,127.64924261712758,11.61488728186271,0.0,1.0,0.0,0.0,1.0,Taxi
4.5,-0.06171574561814352,50.36607675261604,8.286209767567398,0.09209247215197591,-0.5840690791039522,127.56551543329414,12.049130513093264,0.0,1.0,0.0,0.0,1.0,Taxi
4.6000000000000005,0.20489482988837843,9.722890034679475,7.212293129469726,-0.24851236776588315,-0.972297082393263,127.50994569974353,11.841845765068014,0.0,1.0,0.0,0.0,1.0,Taxi
4.7,0.07228707488847565,-5.993507645754107,7.206706962079272,-0.07434028648260498,0.9391214783722804,127.74032762184515,11.126757396720397,0.0,1.0,0.0,0.0,1.0,Taxi
4.800000000000001,-0.09168328384691404,-31.610946964878746,7.60345554843793,-0.3902251910914124,-0.2285722699842116,127.5610043485189,11.799435834541908,0.0,1.0,0.0,0.0,1.0,Taxi
4.9,0.04684009506398472,-5.771790522896357,7.6298510257808605,-0.08184600877792673,0.4358830619669331,127.73652895764042,11.690666718949597,0.0,1.0,0.0,0.0,1.0,Taxi
5.0,0.043428122273993876,40.7749756188388,7.760499680985946,-0.40135914966242736,-0.07928607364331505,127.8486307511323,11.007474640829894,0.0,1.0,0.0,0.0,1.0,Taxi
5.1000000000000005,0.11219159424727998,-31.51974717877751,8.011716418719832,-0.061009364456403176,-0.3173620749150746,127.69056884280559,11.135650389012795,0.0,1.0,0.0,0.0,1.0,Taxi
5.2,-0.11075864082990283,4.107473679020562,7.193764441613263,-0.1795849918545216,-0.3857085330303069,127.68867743486572,10.644364565429644,0.0,1.0,0.0,0.0,1.0,Taxi
5.300000000000001,0.06396549066909667,-34.43108661997004,7.390465989387981,0.01732041666239792,0.5345011288293666,127.80030517435779,12.269222243547821,0.0,1.0,0.0,0.0,1.0,Taxi
5.4,-0.05996383885257023,14.817752948502743,6.723468922919724,-0.3702806429453686,0.6877109683476293,127.7024686822835,11.74631113012949,0.0,1.0,0.0,0.0,1.0,Taxi
5.5,-0.0366698760873891,-33.04801017315195,7.34122983175481,-0.25569761101397154,0.2624157358432883,127.70250745859283,11.574545467912754,0.0,1.0,0.0,0.0,1.0,Taxi
5.6000000000000005,-0.10127456019666306,-4.190493194024343,6.846334329822647,0.03785924168629404,0.11900922148813077,127.87347795367384,11.350174654556248,0.0,1.0,0.0,0.0,1.0,Taxi
5.7,-0.08091630482269191,-27.70887488838618,7.559950638077784,-0.11825321214473883,-0.3051405916489619,127.62093935821395,11.383627763548294,0.0,1.0,0.0,0.0,1.0,Taxi
5.800000000000001,-0.17521425052931996,6.732031736254839,8.236535333356464,-0.630071347754097,-0.11096020457976757,127.64596798957302,11.188233408813662,0.0,1.0,0.0,0.0,1.0,Taxi
5.9,-0.06761440151538882,5.070859227538379,7.34901612987383,-0.6292208522570473,0.20620379016129986,127.67368863304995,10.682355588212623,0.0,1.0,0.0,0.0,1.0,Taxi
6.0,-0.05556200868499997,19.49389289962505,7.62362736842103,-0.12109465445507493,-0.7877244556560372,127.64163626740367,11.371766492176604,0.0,1.0,0.0,0.0,1.0,Taxi
6.1000000000000005,-0.07774478603119468,-7.855908578915472,7.760220493067906,-0.19422565191443586,0.8256927953451199,127.71686922383293,12.28689971938671,0.0,1.0,0.0,0.0,1.0,Taxi
6.2,-0.10689394440996614,0.5673380344017135,7.593139842744315,-0.16674411725919527,-0.007986281398554755,127.66635134782587,11.435069223330139,0.0,1.0,0.0,0.0,1.0,Taxi
6.300000000000001,-0.052725318512991365,31.5192543357872,8.090437098098665,-0.17813965554246172,0.1549732285452073,127.59008287253431,11.527529390424863,0.0,1.0,0.0,0.0,1.0,Taxi
6.4,0.07985148564774136,24.243392971112083,7.769700880986938,0.0005126544382229592,-0.9337479109304873,127.58427699025589,11.79853652245996,0.0,1.0,0.0,0.0,1.0,Taxi
6.5,0.01432302044559432,43.87302582744878,7.4951063099678095,-0.3021113602418493,0.6301675320009421,127.67701849506608,12.219498619625139,0.0,1.0,0.0,0.0,1.0,Taxi
6.6000000000000005,0.1666398106242526,-2.684961413434749,7.0494232153916725,0.10481287445488019,-0.6559864176730974,127.70143489356656,11.177292468937226,0.0,1.0,0.0,0.0,1.0,Taxi
6.7,0.06642667858056768,-19.996620794608575,7.570155332880825,-0.20332300291087957,1.0573540980669358,127.44758205559037,12.001541748711563,0.0,1.0,0.0,0.0,1.0,Taxi
6.800000000000001,-0.08566008352744849,1.7843819751399412,7.295568504725923,-0.2049270719770964,0.24212108005419888,127.59173660643148,11.55099716329259,0.0,1.0,0.0,0.0,1.0,Taxi
6.9,0.17556172049995236,19.772614727484168,7.655594812374928,-0.0853727732490306,-0.5961577816176541,127.69977880352491,12.062620235262766,0.0,1.0,0.0,0.0,1.0,Taxi
7.0,0.16528975221798858,17.51281529454599,7.094364081787426,-0.1419076656128973,-0.8347452168983985,127.63547007744427,11.647765314264097,0.0,1.0,0.0,0.0,1.0,Taxi
7.1000000000000005,0.0019039929452814878,-24.884468305472712,7.487800619363202,-0.04981136126671784,0.6078774556965809,127.55721067791433,12.255255446424538,0.0,1.0,0.0,0.0,1.0,Taxi
7.2,0.051139378972588856,-3.4683674289802062,8.401106629888414,-0.4674580374644942,-0.08279006123411689,127.62128949476562,11.231240626206532,0.0,1.0,0.0,0.0,1.0,Taxi
7.300000000000001,0.1479479150730876,-20.85312665808659,6.621436556530369,-0.11475242103234362,0.5502312825896258,127.6274005091845,11.435467504756557,0.0,1.0,0.0,0.0,1.0,Taxi
7.4,-0.10236164034515137,5.583028221308088,7.774677386493944,-0.31957682941904314,-0.19574375592224405,127.59364082422456,11.525612117421886,0.0,1.0,0.0,0.0,1.0,Taxi
7.5,0.0790545200791294,1.4011083622508547,7.106364035240818,-0.30137454467728875,0.6673630989215813,127.77780906719192,11.70612357473841,0.0,1.0,0.0,0.0,1.0,Taxi
7.6000000000000005,0.15495345688434198,30.888577521680116,7.903581908854069,-0.14187553648280915,0.47635479101013173,127.63326209134323,11.59861750120793,0.0,1.0,0.0,0.0,1.0,Taxi
7.7,0.05208124726324929,-14.882074050442634,7.943588967863272,-0.3152105338755615,0.10279151209590799,127.63323060692204,11.450172619600062,0.0,1.0,0.0,0.0,1.0,Taxi
7.800000000000001,0.004644149826916309,26.273826071919927,8.347926736800003,-0.004073342432342364,0.01502420086771587,127.61906711234332,10.966582818565424,0.0,1.0,0.0,0.0,1.0,Taxi
7.9,0.2863225872439417,-22.234226503344484,7.9611144534123985,0.11239928721979625,0.5277232423942769,127.59444648751821,11.622564285442552,0.0,1.0,0.0,0.0,1.0,Taxi
8.0,-0.05908988525347304,19.330947840445535,7.444226519817646,-0.3178299321328043,-0.6693697904483179,127.79546495213674,11.515174341619558,0.0,1.0,0.0,0.0,1.0,Taxi
8.1,0.10129888902914407,-67.39170739840108,7.687702558546941,-0.3346696663620691,0.7775680891232428,127.74286435312035,11.786774261426833,0.0,1.0,0.0,0.0,1.0,Taxi
8.200000000000001,-0.05063594974806357,-4.581451370861348,6.630722833412997,-0.1261454949326486,-0.0726153789425838,127.69934482859213,11.559816402191474,0.0,1.0,0.0,0.0,1.0,Taxi
8.3,-0.08199714210777967,-24.922444350952187,7.765552868757203,-0.38458802798072755,-1.2761635758721517,127.76781515686008,11.611740149336613,0.0,1.0,0.0,0.0,1.0,Taxi
8.4,-0.023313332725616736,12.541362709222547,7.248167961154794,-0.36045513597427625,0.22200986142294415,127.67962272183308,11.211397772655435,0.0,1.0,0.0,0.0,1.0,Taxi
8.5,0.012070863798049272,1.9327719412952387,7.703960307446163,-0.12315440042663382,-0.229768755151798,127.64214471329666,10.989583036588431,0.0,1.0,0.0,0.0,1.0,Taxi
8.6,-0.07233328240130336,-24.467562391806883,8.111328076670915,-0.4542618609417669,0.2073030165435918,127.65653254785724,11.5223756958585,0.0,1.0,0.0,0.0,1.0,Taxi
8.700000000000001,-0.14565114468465107,27.61414733562471,7.967105349853487,-0.3431604755384937,-0.20415792037112485,127.78972251400432,11.951638477051471,0.0,1.0,0.0,0.0,1.0,Taxi
8.8,0.1501416004761729,-7.5776141525931,7.580444638016713,-0.38317338234506554,0.33427136098543675,127.70359160912903,11.260779992508915,0.0,1.0,0.0,0.0,1.0,Taxi
8.9,-0.11022135316426883,14.271049028402814,8.23551400390044,-0.106099321019194,-0.3765255522520236,127.4906491526653,11.862302195742364,0.0,1.0,0.0,0.0,1.0,Taxi
9.0,-0.07429589954263695,-47.725521992937985,7.322997786190912,-0.1309820762499762,0.4796279514971714,127.75250984580731,11.933130935323748,0.0,1.0,0.0,0.0,1.0,Taxi
9.1,-0.08848600948851697,44.77462828969465,7.479489226976632,-0.12421580274057803,-0.16921633121337276,127.69587699258216,11.691885183787797,0.0,1.0,0.0,0.0,1.0,Taxi
9.200000000000001,0.11365178828420448,0.5420650646432913,8.172208205621027,-0.13550400441486538,-0.009854719109532832,127.76423024810776,10.839932779547842,0.0,1.0,0.0,0.0,1.0,Taxi
9.3,-0.07158557421942038,2.174313950376026,7.537881898100371,-0.025896720716374333,-0.14793107324656873,127.79102712059682,12.089522411930226,0.0,1.0,0.0,0.0,1.0,Taxi
9.4,-0.07761443973663673,20.130747717198975,5.841253954427429,-0.23962658323544367,-0.16589534619946755,127.77163299213288,11.141652800644518,0.0,1.0,0.0,0.0,1.0,Taxi
9.5,0.2143055268701994,13.743873819124815,7.814070678675008,-0.36392688199745116,0.5559305297990896,127.54480719159312,11.94534530169662,0.0,1.0,0.0,0.0,1.0,Taxi
9.600000000000001,-0.0028662051237963015,22.729267648121915,6.84670225048781,-0.29938090205674694,-0.10525422117081278,127.60728673394766,10.866328676941878,0.0,1.0,0.0,0.0,1.0,Taxi
9.700000000000001,0.036031898503972856,-32.48022300719817,7.0385088804819365,0.035171908612960656,0.11456393000181674,127.54255086913429,11.162494908460546,0.0,1.0,0.0,0.0,1.0,Taxi
9.8,0.05190441183420862,29.08136330266792,6.967545790938314,-0.138373693268161,0.5884416470060125,127.40750642808405,12.701621884853541,0.0,1.0,0.0,0.0,1.0,Taxi
9.9,0.14254061138954338,4.203126980399148,7.764849691123608,-0.2728514265216006,-0.3137810986489343,127.71993019342801,11.58084070944105,0.0,1.0,0.0,0.0,1.0,Taxi
10.0,0.05704753340596869,-21.402978719881933,7.409168825594332,0.08170756088368802,0.050591744446226716,127.58638023792594,10.891532317289478,0.0,1.0,0.0,0.0,1.0,Taxi
10.100000000000001,-0.05511048176520094,-26.916489078761913,7.673753663961027,-0.5712469126358108,0.010891578538608549,127.61820368262954,11.379853245133141,0.0,1.0,0.0,0.0,1.0,Taxi
10.200000000000001,0.00795816599573392,8.908481442202245,7.617923387828056,-0.11916391892974626,-1.4171927577978802,127.71624054234746,11.358481348056308,0.0,1.0,0.0,0.0,1.0,Taxi
10.3,0.10158994061698001,28.66086342854339,7.391493417929828,-0.46013950614445226,0.0355496535277252,127.64766246167869,11.981906519624522,0.0,1.0,0.0,0.0,1.0,Taxi
10.4,0.08819383537751611,-11.141722393630403,6.990474457427416,-0.2648109340716382,0.08537051497789548,127.77060582653576,11.470694654050172,0.0,1.0,0.0,0.0,1.0,Taxi
10.5,-0.04775044597241799,9.431357216983264,7.900948043749311,-0.2207660504188989,-0.6135371929035405,127.63488551260167,10.483399566745922,0.0,1.0,0.0,0.0,1.0,Taxi
10.600000000000001,0.14874672670189645,5.733027220544552,7.757333241119266,-0.03917624742187775,0.5521709344203549,127.71348249616722,11.824973768050155,0.0,1.0,0.0,0.0,1.0,Taxi
10.700000000000001,0.116858971480239,-14.225135058360971,6.936715464911038,-0.33986879087502,0.38728046870223864,127.53342453762764,11.213078444211959,0.0,1.0,0.0,0.0,1.0,Taxi
10.8,-0.1188761212642227,-14.258473101624892,7.56629203235164,-0.32512025135826916,-0.3237263374921401,127.6527420367047,11.500793139404996,0.0,1.0,0.0,0.0,1.0,Taxi
10.9,0.07745436119377215,-38.62773842038386,7.8359219712107375,2.1872710446402266e-05,-0.5500326767903096,127.71574010339418,11.461364370335886,0.0,1.0,0.0,0.0,1.0,Taxi
11.0,-0.07627972062168013,-37.05033049152974,7.204861643681133,-0.16517891590994063,0.1407518984842205,127.58677056253532,11.486019799573645,0.0,1.0,0.0,0.0,1.0,Taxi
11.100000000000001,-0.3041277737218713,-32.444585477098855,8.17235148663698,-0.4899703716452958,-0.002926636308002103,127.75715801782195,11.79366432302097,0.0,1.0,0.0,0.0,1.0,Taxi
11.200000000000001,-0.084768566191722,53.53977938668381,7.135562875534401,-0.015576403310450182,-0.6082198965303443,127.53377624115035,9.966027884571313,0.0,1.0,0.0,0.0,1.0,Taxi
11.3,0.191419176311739,53.00955487430482,7.693691185898377,-0.2894281046021243,0.9005699260937212,127.78594060567877,12.565414456710057,0.0,1.0,0.0,0.0,1.0,Taxi
11.4,-0.03907999935034709,31.80507578211687,6.425278812978423,-0.47426550706206366,-0.07851073511697625,127.74704963277861,11.458989720308924,0.0,1.0,0.0,0.0,1.0,Taxi
11.5,0.07425681271886242,-14.252659061376553,7.03179489875761,0.06791887217792919,0.20436427058392642,127.77472463758215,12.093022478184897,0.0,1.0,0.0,0.0,1.0,Taxi
11.600000000000001,0.12015588100485633,10.924225539021228,7.559908606636767,-0.3446591583206382,-0.5228871594819762,127.59573132674109,11.740614737112425,0.0,1.0,0.0,0.0,1.0,Taxi
11.700000000000001,0.015541128344759118,14.74983394436648,7.308347853862094,-0.23554790279779553,0.028701657267725764,127.60792976796682,10.870822043490163,0.0,1.0,0.0,0.0,1.0,Taxi
11.8,0.14800598244069493,-24.002650581403724,7.9031657880076285,-0.25516489129082276,0.774750252569591,127.376701872448,12.258384159764063,0.0,1.0,0.0,0.0,1.0,Taxi
11.9,0.00014262809783781798,-4.107116855569992,7.135125407510574,-0.6239438631380619,0.6956915770947643,127.69941148066232,11.439645282047541,0.0,1.0,0.0,0.0,1.0,Taxi
12.0,-0.0049944559330907376,7.784975919710997,8.484802435619796,-0.15998142745334942,-0.4502249438766193,127.67690292090356,11.167201903195098,0.0,1.0,0.0,0.0,1.0,Taxi
12.100000000000001,0.18693086203925002,6.3502729303307035,8.50413472781703,-0.5558732676514622,1.0886031031183452,127.74971641530675,11.77916247853107,0.0,1.0,0.0,0.0,1.0,Taxi
12.200000000000001,0.03189399274949144,17.592304548771605,7.229720424579227,-0.39851881929604804,-0.6171370927651755,127.68323611019957,12.09102209859799,0.0,1.0,0.0,0.0,1.0,Taxi
12.3,0.08296706681076739,-57.178175240686926,8.326915817990724,-0.30655660195317713,-0.9646497961648001,127.75046389912285,11.033373113303035,0.0,1.0,0.0,0.0,1.0,Taxi
12.4,-0.0989600141641845,-8.589163740500007,8.136170587868234,-0.20365773426864656,0.24243973195786425,127.70767255572537,11.254126479433475,0.0,1.0,0.0,0.0,1.0,Taxi
12.5,-0.011051825953008474,20.22509431827181,8.044357882479202,-0.4606463392543795,-0.7482959120586079,127.66349708781092,10.844884535298588,0.0,1.0,0.0,0.0,1.0,Taxi
12.600000000000001,0.18409253840212658,24.043746637345752,7.857667580967004,-0.49877708901564516,-1.0194947759117154,127.5484340974196,11.703371464902656,0.0,1.0,0.0,0.0,1.0,Taxi
12.700000000000001,0.021258719022544382,10.780257983322642,7.143801729188403,-0.242545749826099,-0.012970699329291015,127.65404022214801,11.746910030862896,0.0,1.0,0.0,0.0,1.0,Taxi
12.8,0.042849463963604846,-17.21500445760922,6.85469677995392,-0.017371784561293124,0.11152087361330786,127.76337186253232,11.770505456346054,0.0,1.0,0.0,0.0,1.0,Taxi
12.9,0.09801751611408059,-20.646123582016035,7.1624621869081535,0.06616122823059578,-0.9662372589445114,127.60426787862639,10.25683083932669,0.0,1.0,0.0,0.0,1.0,Taxi
13.0,-0.08197189888753567,-18.48975808911976,7.134739867924809,-0.10079356660665048,0.46706290326450595,127.69931049107947,11.845598728004038,0.0,1.0,0.0,0.0,1.0,Taxi
13.100000000000001,-0.04959932648199384,-34.136941134600335,7.691137602526572,-0.2645128354681264,-0.9119524385288186,127.67558902148505,10.621597680665538,0.0,1.0,0.0,0.0,1.0,Taxi
13.200000000000001,-0.07266718955892099,1.1011666806153224,7.134172575740476,-0.07567714128256639,-0.3808281867216921,127.63270084577113,11.093595599733694,0.0,1.0,0.0,0.0,1.0,Taxi
13.3,-0.07646606548445894,-12.581973084686526,7.737908065356393,0.001565170009584116,0.1557953118433206,127.7429128202728,11.316987988851912,0.0,1.0,0.0,0.0,1.0,Taxi
13.4,-0.11250919190542635,32.34836205928084,7.526957763204309,-0.3665914021187733,0.16555054010026607,127.73728046635841,12.370612358322422,0.0,1.0,0.0,0.0,1.0,Taxi
13.5,0.0890746207374833,27.721738763512562,7.455273091299086,-0.010528906809408184,-0.33466218487759536,127.68151385221284,12.513233150616081,0.0,1.0,0.0,0.0,1.0,Taxi
13.600000000000001,0.062142628333103994,13.447379013135906,8.436072834555727,-0.012070917967928363,0.0017917036706820513,127.81191540423902,11.115637633143308,0.0,1.0,0.0,0.0,1.0,Taxi
13.700000000000001,-0.045272296839746706,-3.5563542747050434,7.450464095944198,-0.25607233116908235,1.4662119595790652,127.55839831634006,11.729718241381955,0.0,1.0,0.0,0.0,1.0,Taxi
13.8,0.07129284936395822,-10.495995092507439,8.089735076947017,-0.1716485155595173,0.3336928908280749,127.60772576761508,11.9603176927944,0.0,1.0,0.0,0.0,1.0,Taxi
13.9,0.009662652870566925,-11.169404258938096,8.27445469935052,-0.09764347250647046,-0.044718630243226254,127.64181602193116,11.983014355614376,0.0,1.0,0.0,0.0,1.0,Taxi
14.0,-0.10111931813443707,-19.868894976190806,6.79445820379698,0.4249172924627477,0.4326718777461695,127.77602299036704,11.084936213257913,0.0,1.0,0.0,0.0,1.0,Taxi
14.100000000000001,-0.0280516255169957,25.47372205994728,7.229249684456893,-0.25307677608505197,0.3833094060504556,127.79206490770815,12.307095102596948,0.0,1.0,0.0,0.0,1.0,Taxi
14.200000000000001,0.13703126317030348,0.9893608368659935,7.866070289213263,-0.5625058023713703,0.8186384084785264,127.67146035286362,11.9902462542493,0.0,1.0,0.0,0.0,1.0,Taxi
14.3,-0.09617251395010695,32.86363137202077,7.128575616683225,-0.23049991402186104,-0.40936121352495736,127.79784625647301,10.418494099776826,0.0,1.0,0.0,0.0,1.0,Taxi
14.4,0.13626653134310826,-36.162649997740786,8.113380984941802,-0.15144516939292185,0.15381725938403473,127.59956787432782,11.00475376046738,0.0,1.0,0.0,0.0,1.0,Taxi
14.5,-0.04378198681840038,13.515362332984205,6.784933331138506,-0.2724925206147797,-0.39367903264822446,127.61500942142806,11.826062132914402,0.0,1.0,0.0,0.0,1.0,Taxi
14.600000000000001,-0.028595702285185834,-30.349914113826994,6.984988150873024,-0.35395976025012243,0.4084558304121852,127.69997472604052,11.83005179766255,0.0,1.0,0.0,0.0,1.0,Taxi
14.700000000000001,-0.015483039226026622,-24.090452511623322,7.707363086288416,-0.017532548356542305,0.4428283929328313,127.54952482566648,10.838025620557362,0.0,1.0,0.0,0.0,1.0,Taxi
14.8,-0.16423424937651687,10.38385517818032,6.826007565221592,-0.1844362122130679,-0.29612194531152386,127.89328070021207,11.712907316750723,0.0,1.0,0.0,0.0,1.0,Taxi
14.9,0.02332357360571588,-9.55647391879629,6.996880130180677,-0.16271641351316582,0.04144998171001349,127.65329431010656,11.748584701318798,0.0,1.0,0.0,0.0,1.0,Taxi
15.0,-0.06326540882000796,71.02504097377617,8.594308849813576,-0.019614042367133905,0.30136999603539344,127.8265946991367,11.547979876339388,0.0,1.0,0.0,0.0,1.0,Taxi
15.100000000000001,0.19089095549236412,-27.139537964723967,8.147739747127101,0.12581906333607323,-0.1617411291445614,127.73034416657674,11.733907805777662,0.0,1.0,0.0,0.0,1.0,Taxi
15.200000000000001,-0.11237411621790383,31.210465009516074,7.670972591725876,0.017545504232315157,-0.08226902929033589,127.49778356256911,11.4957071716209,0.0,1.0,0.0,0.0,1.0,Taxi
15.3,0.09278691622757251,-18.654709856369976,7.517825710831737,-0.6182942894774555,-0.39434214963321534,127.59874275506036,11.330824712262926,0.0,1.0,0.0,0.0,1.0,Taxi
15.4,0.09761740621051433,45.731146391353775,7.74314469109813,-0.11369427598207817,-0.2170163283839187,127.70641518755815,10.710253890390693,0.0,1.0,0.0,0.0,1.0,Taxi
15.5,0.11628161573886514,-38.75862069200782,7.196343063549974,0.04533715140628955,0.18337557900352658,127.61818828526043,11.6314372754648,0.0,1.0,0.0,0.0,1.0,Taxi
15.600000000000001,-0.10100618723246649,-5.340061794329567,7.8562566962666125,-0.1532433076305146,0.0358009343247493,127.54770976261466,12.098440778438968,0.0,1.0,0.0,0.0,1.0,Taxi
15.700000000000001,0.0709170972388666,-33.02380979795472,6.927869404866803,-0.2664440879660044,0.8427983015741409,127.8370310343696,11.720417734112901,0.0,1.0,0.0,0.0,1.0,Taxi
15.8,-0.048837433250908356,27.958206819628675,8.223994147600493,-0.24838113176942495,0.017661668813791567,127.63867283487428,11.569056161551973,0.0,1.0,0.0,0.0,1.0,Taxi
15.9,0.038784846865677014,5.04223791592386,7.342751019039164,-0.4033907670632168,0.3678390800923764,127.64842739455997,12.062486424614285,0.0,1.0,0.0,0.0,1.0,Taxi
16.0,0.09612828681848601,24.268582628559574,6.376324139747476,0.017688066398189123,-0.4546637471876245,127.91583133702431,11.869556278989494,0.0,1.0,0.0,0.0,1.0,Taxi
16.1,0.07250547989188963,9.621579437380433,7.570122855512463,-0.030209415358122382,0.6024306258911772,127.51238182924203,12.581406301423478,0.0,1.0,0.0,0.0,1.0,Taxi
16.2,0.08689274405257928,-2.103800159308427,7.686932454185788,-0.21822484613999102,-0.19192997050828395,127.60041617064292,12.873664270212496,0.0,1.0,0.0,0.0,1.0,Taxi
16.3,0.08560928602194398,-8.622435360322664,7.726226281692194,-0.1603202453607143,-0.011862080200347517,127.80191519523555,11.734777112317206,0.0,1.0,0.0,0.0,1.0,Taxi
16.400000000000002,0.029393303090276414,13.441015723175399,7.6849459675763345,-0.25789368391917417,0.10625372933788557,127.58395975076587,11.15443512476013,0.0,1.0,0.0,0.0,1.0,Taxi
16.5,0.1540978226684564,-14.770566609718552,7.378449708722472,-0.3872079291925721,-0.4662469471285597,127.71434374988962,11.530833751128206,0.0,1.0,0.0,0.0,1.0,Taxi
16.6,0.011756452973351317,39.3546176878715,7.560681492750332,-0.23409884761275085,0.10999798780349215,127.54720327153512,11.451218706322111,0.0,1.0,0.0,0.0,1.0,Taxi
16.7,0.22616639152963405,-26.229440082460286,7.231996089307739,-0.09932661123896497,-0.12004603030586306,127.58239435844837,11.108683540399404,0.0,1.0,0.0,0.0,1.0,Taxi
16.8,0.02295062225615508,-6.825321556588391,7.11625094326064,-0.3225675410920328,0.23118024435142284,127.71609766606491,11.463254457796962,0.0,1.0,0.0,0.0,1.0,Taxi
16.900000000000002,-0.02237015480959051,-36.68708256889596,6.687673115017973,-0.13909202721340655,0.2371598068207143,127.5624831275884,12.045136497732823,0.0,1.0,0.0,0.0,1.0,Taxi
17.0,0.042730978685154374,-5.476138825969698,6.8538544807068,-0.3574624951857303,0.240204920680709,127.49970122725722,11.655918411709315,0.0,1.0,0.0,0.0,1.0,Taxi
17.1,-0.004430071873693302,2.7954802799881677,8.369443938751585,-0.09757257465397524,-0.02143606347182831,127.71315425671207,11.392400823848016,0.0,1.0,0.0,0.0,1.0,Taxi
17.2,-0.008392753409649564,-13.472390915849852,6.8493934009544,0.15324319238830802,0.017141965046952357,127.62603878871965,11.224715300848814,0.0,1.0,0.0,0.0,1.0,Taxi
17.3,-0.024630975894094766,-18.770190335925225,7.3188038264469535,0.15851189040924113,0.8099680925420588,127.7677926446753,11.600772801664732,0.0,1.0,0.0,0.0,1.0,Taxi
17.400000000000002,-0.09828102355331932,38.394210948888734,6.9407479575917135,-0.24081822860905552,-0.7456453147712226,127.55284647784868,11.678684733070009,0.0,1.0,0.0,0.0,1.0,Taxi
17.5,0.18357830133479416,-35.868027644346704,7.180825766455765,-0.07411875718601829,-0.7077534019705541,127.75702382430325,11.529422710647527,0.0,1.0,0.0,0.0,1.0,Taxi
17.6,-0.20397111411582824,1.7722149885616976,8.246729204274102,-0.02013615880273162,0.7914118789808277,127.76474949426574,11.61524546888899,0.0,1.0,0.0,0.0,1.0,Taxi
17.7,-0.0894199486105108,-33.24535879125395,7.052731305023119,-0.38972368852393513,0.20899954783416275,127.73736321002474,11.169790190834748,0.0,1.0,0.0,0.0,1.0,Taxi
17.8,0.017351507378524467,48.53644295852819,7.550687110104239,-0.3237720629435318,0.3233012414600065,127.68259623306562,11.17195676396354,0.0,1.0,0.0,0.0,1.0,Taxi
17.900000000000002,0.038711100676812764,21.080048845875925,8.144204879552964,-0.670272018913354,-0.3319067618907289,127.57966671727814,11.085298149934438,0.0,1.0,0.0,0.0,1.0,Taxi
18.0,0.015980295618868927,7.083245626048459,8.0609420753571,-0.2129374619698337,-0.47425748293010955,127.60293879967253,11.48869340879915,0.0,1.0,0.0,0.0,1.0,Taxi
18.1,0.05276773550876686,8.352717278078169,7.968710570377312,-0.2562272675057823,-0.37233105743009015,127.54062331817528,11.497978935085923,0.0,1.0,0.0,0.0,1.0,Taxi
18.2,0.0804746870672037,-27.13021305131868,7.569339751948567,-0.11869556982504376,0.09758935024819067,127.57772595523556,11.864131384145477,0.0,1.0,0.0,0.0,1.0,Taxi
18.3,-0.11967076963772434,-14.256149816792933,7.957214284932785,-0.0831407987413834,0.06664471091962015,127.67924975592365,11.726173272055311,0.0,1.0,0.0,0.0,1.0,Taxi
18.400000000000002,-0.018513013575197666,-23.382484242860773,8.733958025448308,-0.23273586928730594,-0.16871275214372627,127.7323412294935,11.214641188178334,0.0,1.0,0.0,0.0,1.0,Taxi
18.5,-0.03643773414710004,24.206400757060106,7.702305431455904,-0.13080063279903337,0.3099661506747167,127.69204980493498,12.703121617323472,0.0,1.0,0.0,0.0,1.0,Taxi
18.6,0.0013612341475762915,33.50820825893353,8.275367203979071,-0.21015694486114742,0.901587711949722,127.7360592860822,11.88597166770694,0.0,1.0,0.0,0.0,1.0,Taxi
18.7,0.1490280277194701,3.10375405822316,7.260792717458259,-0.5010875869382743,-0.9282982626862519,127.66256997749514,11.245166058416608,0.0,1.0,0.0,0.0,1.0,Taxi
18.8,-0.02091896385598409,-27.627911246506912,6.917101734458571,-0.08236575195069133,0.9537229501565861,127.69915309701543,10.822607331759382,0.0,1.0,0.0,0.0,1.0,Taxi
18.900000000000002,-0.1367783220849581,-4.638889962594949,7.445947765383108,0.0628502165977532,0.18766228067376114,127.58352694515384,11.19910770144903,0.0,1.0,0.0,0.0,1.0,Taxi
19.0,0.1258335779064955,28.746302251161236,7.718772128952198,-0.23536952106759695,0.5776375898787971,127.71100008303904,11.31331688492323,0.0,1.0,0.0,0.0,1.0,Taxi
19.1,0.12281254739982223,27.63962446956633,6.985896442939346,-0.22296580056286444,0.030066307599303694,127.76691169778303,11.708744087277543,0.0,1.0,0.0,0.0,1.0,Taxi
19.200000000000003,0.0014198002628736887,-32.01878543183386,7.316391758056566,-0.39357971992933494,0.35641075267946865,127.65616404666275,11.554237859061226,0.0,1.0,0.0,0.0,1.0,Taxi
19.3,-0.0342603492526737,-6.0434273188735785,7.643479568242462,-0.6151081555980584,-0.26376676622308715,127.59642033217523,12.077374502116887,0.0,1.0,0.0,0.0,1.0,Taxi
19.400000000000002,0.09259541080545447,18.540158624558277,8.539606461038742,0.16281442520266087,0.25111554544230824,127.77852841874511,11.362927101418157,0.0,1.0,0.0,0.0,1.0,Taxi
19.5,0.09412059338566521,30.075796686378364,6.853371101540212,-0.0006401745370026579,0.31622369960759705,127.69487046131655,10.882166881381778,0.0,1.0,0.0,0.0,1.0,Taxi
19.6,0.11611863417921826,-12.233264631464985,7.290782582930515,0.20038692420200171,-0.4591828267451031,127.80583826141424,11.62016992323684,0.0,1.0,0.0,0.0,1.0,Taxi
19.700000000000003,0.03142908764812966,-17.428910080449658,7.66649766097981,-0.5904820991266561,-0.07713920314897056,127.69649293589094,11.181189336961205,0.0,1.0,0.0,0.0,1.0,Taxi
19.8,0.006976042983417039,-25.201599274832102,6.995769973278668,-0.20339605654178106,0.8219493400516424,127.66359722591199,11.075182245227271,0.0,1.0,0.0,0.0,1.0,Taxi
19.900000000000002,-0.009889362194942112,-25.63187487194625,8.216330288455948,-0.06354308050316684,1.6090819186047434,127.6016245174435,11.553065357905293,0.0,1.0,0.0,0.0,1.0,Taxi
20.0,-0.09673028671160144,-16.92531681673239,8.392403585742496,-0.2951010877188843,0.23053967417203272,127.64953015191077,11.750480643835969,0.0,1.0,0.0,0.0,1.0,Taxi
20.1,-0.07765054110024479,3.852210172407787,6.574968976422262,-0.509393268303497,-0.17000899958287682,127.73160957537488,11.13298032621863,0.0,1.0,0.0,0.0,1.0,Taxi
20.200000000000003,0.009371688667096936,28.926983057882335,6.676165881062461,-0.24818544584997299,0.5312025269381585,127.71407859262155,12.527657139157846,0.0,1.0,0.0,0.0,1.0,Taxi
20.3,0.04790462857781033,15.552520379327794,7.860753737473185,0.07361442119032108,-0.08468727844194608,127.57447021281143,11.211449344095508,0.0,1.0,0.0,0.0,1.0,Taxi
20.400000000000002,0.00011206079639429626,36.32138293095153,8.492597798260965,-0.2464954934725323,-0.4743652506497161,127.6439179433429,12.563080039741497,0.0,1.0,0.0,0.0,1.0,Taxi
20.5,0.19097860332185473,-4.120829252158444,7.469285654446469,-0.27864373198183007,-0.0584212064806033,127.74362370901622,12.220356430467424,0.0,1.0,0.0,0.0,1.0,Taxi
20.6,0.027300482317018256,-17.23858485140015,8.034563920221728,-0.13489171123597216,0.09965305465396994,127.5933705177647,12.542636615732789,0.0,1.0,0.0,0.0,1.0,Taxi
20.700000000000003,-0.08608086346060631,-5.925257996419674,7.4609397803787845,-0.08446083872833926,0.1964510682331416,127.77008927627355,10.951884014668892,0.0,1.0,0.0,0.0,1.0,Taxi
20.8,0.1613523133397565,-19.845256513687158,7.360337564227307,-0.16553571127514521,-1.2525556509932165,127.74287376476059,11.55144269704084,0.0,1.0,0.0,0.0,1.0,Taxi
20.900000000000002,-0.07192580025141737,-4.582321774115756,7.621743527852247,-0.38328430719501105,-0.7673530361432405,127.65456490918041,11.833981512256972,0.0,1.0,0.0,0.0,1.0,Taxi
21.0,-0.10899247233118495,1.2617841677720587,6.698909620664048,0.14434398684238292,0.710580230876431,127.6657503482187,11.003026959392878,0.0,1.0,0.0,0.0,1.0,Taxi
21.1,0.167661234178617,-3.3211339120033188,6.191917987322242,-0.454996233918238,-0.6445429569056742,127.52220302787094,11.274831292890992,0.0,1.0,0.0,0.0,1.0,Taxi
21.200000000000003,-0.0885314698114338,23.790573705659146,7.363567898291189,-0.5029166586042225,-0.0305604039091324,127.57506420579921,11.48885134802031,0.0,1.0,0.0,0.0,1.0,Taxi
21.3,0.009960396197110956,-35.69007250829518,8.380486859548448,-0.30705991380877007,0.9659234110198605,127.60360006445296,10.469705459107058,0.0,1.0,0.0,0.0,1.0,Taxi
21.400000000000002,-0.010789128362858807,34.102442757980164,7.542357388438893,-0.2240208157210417,0.012622589563005559,127.84498596799767,11.367774527578712,0.0,1.0,0.0,0.0,1.0,Taxi
21.5,0.08198074397846719,-32.813223507820204,6.875972543223804,-0.5897067465904254,-0.2894925639819882,127.78171490276469,11.336589103499575,0.0,1.0,0.0,0.0,1.0,Taxi
21.6,-0.1541057213419899,17.604968127157374,6.97712880455054,-0.14076380403498837,0.11004925081629428,127.5953770315063,11.688508316496804,0.0,1.0,0.0,0.0,1.0,Taxi
21.700000000000003,0.07723571227292822,-50.782785081698876,7.511130138659187,0.08114772017435429,0.7313096618148082,127.55970776135882,12.333937177452135,0.0,1.0,0.0,0.0,1.0,Taxi
21.8,-0.171933181430027,64.59507689713945,8.050691634127428,0.06124665135343982,0.1670724272341177,127.61501420773845,11.281114973879994,0.0,1.0,0.0,0.0,1.0,Taxi
21.900000000000002,0.16886966314370744,-21.886002242084825,7.014149283918799,0.43570120204595,0.5657322598923912,127.7414120224555,11.735588446623975,0.0,1.0,0.0,0.0,1.0,Taxi
22.0,-0.032194298937495806,36.09455611830196,7.518782831254262,-0.16819016283516175,-0.24646681090128103,127.63494604790492,10.893569528589195,0.0,1.0,0.0,0.0,1.0,Taxi
22.1,0.008539599161482883,-29.21036719539771,6.371931516791051,-0.25989982592336036,-0.23732624796779325,127.79926957152719,12.310501887358889,0.0,1.0,0.0,0.0,1.0,Taxi
22.200000000000003,0.022817827166719016,21.626529027652612,6.201014333360364,-0.35506645732568864,0.6081552832443409,127.78054155134373,10.889785309738873,0.0,1.0,0.0,0.0,1.0,Taxi
22.3,0.07593834620076739,-7.4345754034343585,7.238490477833522,0.035742624163301207,-0.828979931779952,127.6077534401204,11.273649487082002,0.0,1.0,0.0,0.0,1.0,Taxi
22.400000000000002,-0.02863327785568876,-44.943983760954644,8.458238388585809,-0.3298595462295153,-0.9298990114325547,127.65092399736295,12.3485956652159,0.0,1.0,0.0,0.0,1.0,Taxi
22.5,-0.20190209163805406,23.40892621219079,6.533502433948721,-0.1199003407790355,1.1019821772608134,127.54969984239943,11.056180109733205,0.0,1.0,0.0,0.0,1.0,Taxi
22.6,0.1929829772617214,-0.442835856451012,7.524534680288295,-0.25946597754053446,0.1391844802674135,127.74964195450707,11.76097260797844,0.0,1.0,0.0,0.0,1.0,Taxi
22.700000000000003,-0.030847457137943752,35.85393444607033,7.738167604449024,-0.24193626423715558,-0.06005865322617946,127.7532395038275,10.957918957548449,0.0,1.0,0.0,0.0,1.0,Taxi
22.8,-0.02263241940770232,-41.63849811209021,7.661335538435195,-0.3923214163475097,-0.41172248918482746,127.68619331069999,11.495149962162445,0.0,1.0,0.0,0.0,1.0,Taxi
22.900000000000002,-0.015209513298729506,26.121609886949457,7.84636752310074,-0.03281928325991623,0.19944133993986488,127.72063887663603,11.797581947915933,0.0,1.0,0.0,0.0,1.0,Taxi
23.0,0.0997605922968037,33.80690052002828,6.772455155839933,-0.4670982798565471,-0.06294937386804979,127.57883220729553,10.875450317590929,0.0,1.0,0.0,0.0,1.0,Taxi
23.1,0.14640208319243925,-20.26631469651029,8.003804887249126,-0.2726383419114884,-0.4793834814287976,127.57486555939568,12.456054913340788,0.0,1.0,0.0,0.0,1.0,Taxi
23.200000000000003,-0.11654108678128075,-12.136276806695752,7.539135402194227,-0.2230187069163082,0.009518170909580754,127.71245441655833,11.793303317074715,0.0,1.0,0.0,0.0,1.0,Taxi
23.3,0.03907920826332509,-36.993492907373685,7.832833150911622,-0.738894580307234,-1.2661282930979456,127.71047382381215,11.994976685889293,0.0,1.0,0.0,0.0,1.0,Taxi
23.400000000000002,-0.03856538134442905,51.88455882305484,7.402766185727588,-0.1993804502538818,-0.44033190372125447,127.66422676520568,10.532520292169474,0.0,1.0,0.0,0.0,1.0,Taxi
23.5,0.14288170733399355,5.787059350847012,5.859252452945379,0.13857806441447484,-0.667681376708803,127.74076125712634,11.686395276964307,0.0,1.0,0.0,0.0,1.0,Taxi
23.6,0.06801450501756028,44.97012543765427,7.028160224823478,0.14061403731966315,0.07670712655879491,127.6453044430296,11.748986879302109,0.0,1.0,0.0,0.0,1.0,Taxi
23.700000000000003,0.18628524584384243,-20.73586678315222,7.411065028561011,0.032975451779701875,0.7236795512078039,127.67047559742275,11.265422894953778,0.0,1.0,0.0,0.0,1.0,Taxi
23.8,0.03920237341823263,7.156395835143869,7.326238334642238,-0.32383212992939936,0.7356048284828252,127.53240790610448,11.113569890614395,0.0,1.0,0.0,0.0,1.0,Taxi
23.900000000000002,0.10379648419327979,-70.60624031899262,6.338261967317915,-0.32423790485952314,0.04342650705315852,127.75233439188838,12.553410681715613,0.0,1.0,0.0,0.0,1.0,Taxi
24.0,-0.16674595575112053,-26.386529968323135,6.594520306257328,-0.22977326433457956,-0.5316607049660912,127.51076400198951,11.697310975774244,0.0,1.0,0.0,0.0,1.0,Taxi
24.1,-0.09273027642338294,-38.76204303728434,7.55503333672261,-0.27636553001650876,1.5961859403013992,127.67670071407849,11.39575379381114,0.0,1.0,0.0,0.0,1.0,Taxi
24.200000000000003,-0.0900137309931418,41.526718619583626,7.548157493181305,0.14962500208380575,0.2681697849678466,127.68568731639016,11.083132673436452,0.0,1.0,0.0,0.0,1.0,Taxi
24.3,0.04088763734679774,37.40079893132502,7.603403639435415,-0.04098879118465237,0.08283151467894953,127.7061776821651,10.889739779011531,0.0,1.0,0.0,0.0,1.0,Taxi
24.400000000000002,0.09427371823324232,22.605842713971175,7.487926326599761,-0.52691688903019,0.05330287463483513,127.53131998887648,12.169335015664602,0.0,1.0,0.0,0.0,1.0,Taxi
24.5,0.023015482576714236,-10.565138175997255,8.400979157681398,0.2626228699231703,0.3467111626747879,127.66677773617624,11.750498627378148,0.0,1.0,0.0,0.0,1.0,Taxi
24.6,-0.011938053533188385,15.742125837631113,7.573495955910136,-0.6181457140304794,-0.05999893355514274,127.67271565121547,10.693817486463454,0.0,1.0,0.0,0.0,1.0,Taxi
24.700000000000003,0.172984347421398,-2.51964522132333,7.770671757589194,-0.0686737701390765,-0.1927110784813319,127.573993893043,11.84970600647439,0.0,1.0,0.0,0.0,1.0,Taxi
24.8,0.01041725647009769,-37.82072763996042,8.462882106899269,-0.32749688852176545,-0.16565047370553102,127.74251240941129,11.93786760060469,0.0,1.0,0.0,0.0,1.0,Taxi
24.900000000000002,-0.20104169173299039,-13.892293816233519,7.253154723632541,-0.007744009908994015,0.8223434013743273,127.74712133321918,11.202844175511986,0.0,1.0,0.0,0.0,1.0,Taxi
25.0,0.10352287834023055,17.275550273924058,8.555159136232867,-0.27624525016790624,0.07569512575999128,127.66961340311155,11.995387717290088,0.0,1.0,0.0,0.0,1.0,Taxi
25.1,0.09679500783971813,51.46486439856053,7.55798035925474,-0.1845968283743143,-0.7494893658248393,127.72978325910213,11.43978568428118,0.0,1.0,0.0,0.0,1.0,Taxi
25.200000000000003,0.056282630259812394,-9.269606440135567,7.73656733253243,0.11554764070826606,-0.10426682999460901,127.7398759712517,11.47688366051767,0.0,1.0,0.0,0.0,1.0,Taxi
25.3,0.05717484613955284,-45.08058353947269,7.14874426262256,-0.24470746054551487,-0.2711950254854799,127.59846803493537,11.475834257585039,0.0,1.0,0.0,0.0,1.0,Taxi
25.400000000000002,-0.12860790985764523,28.534905680219783,7.533566942039774,0.32679651651412467,0.1471359846519114,127.66045124520969,11.778480507183698,0.0,1.0,0.0,0.0,1.0,Taxi
25.5,0.19895715866091143,-19.97879988158726,7.857157193188213,-0.13859614161345266,-0.09355361491291876,127.60535174759679,11.292103999013165,0.0,1.0,0.0,0.0,1.0,Taxi
25.6,-0.042719153268383304,-19.87517468096671,8.535732926954838,-0.08447549369628306,0.29925493258554503,127.65094643255918,11.80284850715121,0.0,1.0,0.0,0.0,1.0,Taxi
25.700000000000003,-0.22798378326247862,-19.767105293974822,8.888775710702234,-0.5276476940491983,0.29567861739681295,127.68406483942562,10.753140709275236,0.0,1.0,0.0,0.0,1.0,Taxi
25.8,0.10012163219103745,19.099966123930514,7.834076493482723,-0.030660586999026684,0.1298470485248806,127.55457502837737,12.240073652209572,0.0,1.0,0.0,0.0,1.0,Taxi
25.900000000000002,0.05278067735126936,21.5478138609605,7.868733830966402,-0.41497528812748874,-0.6886960421534539,127.57546939903017,11.175512446768998,0.0,1.0,0.0,0.0,1.0,Taxi
26.0,-0.12024471395767607,1.3371152766936614,7.52260697519533,-0.6899381776129695,0.42378974313675566,127.81555709888107,11.598698813573815,0.0,1.0,0.0,0.0,1.0,Taxi
26.1,0.10680720857450583,-17.007945218020122,7.243102247005353,-0.19465336353492887,0.2696148844149642,127.76437631328685,12.010680251363635,0.0,1.0,0.0,0.0,1.0,Taxi
26.200000000000003,-0.03225904873883117,15.313441745234813,6.8218474044513915,-0.6631728383608366,-0.25486090406946965,127.59213799391762,12.079210778564798,0.0,1.0,0.0,0.0,1.0,Taxi
26.3,-0.04367750523150191,-34.788134899745295,7.09883125738747,-0.2528719220543406,-0.4839927949773568,127.73155497140561,11.790980897796551,0.0,1.0,0.0,0.0,1.0,Taxi
26.400000000000002,-0.06713346592422058,37.802700464145495,7.83629329354181,-0.5103297681533038,0.11736477584052957,127.66720053322291,10.953752297616914,0.0,1.0,0.0,0.0,1.0,Taxi
26.5,0.15675445358189638,22.10677675957537,8.516440192417427,-0.39570482996030887,-0.22993541609305337,127.51825377982982,11.566689772375772,0.0,1.0,0.0,0.0,1.0,Taxi
26.6,0.06685637856637502,-19.121116263026906,7.406044630063304,0.0016132563159690638,-0.1391550915098326,127.69756415750385,11.78553238912382,0.0,1.0,0.0,0.0,1.0,Taxi
26.700000000000003,-0.16273904723935503,1.9650427324598827,6.683382314338616,-0.45128368947499725,0.07075785735092839,127.62602504310831,11.274307371974617,0.0,1.0,0.0,0.0,1.0,Taxi
26.8,0.16657966724419582,-8.845404000142244,7.608677380244227,-0.23070480343761327,-0.6647674327812645,127.52153872720896,12.248539432354656,0.0,1.0,0.0,0.0,1.0,Taxi
26.900000000000002,0.022629358565663824,49.24978322598645,7.271578442534209,-0.020292649449557776,0.17161207726508254,127.75688645353,11.778455525637053,0.0,1.0,0.0,0.0,1.0,Taxi
27.0,0.08350986889057722,-7.4158242734312525,7.498932233002232,-0.4754138734359807,-1.4465385585388604,127.62745865742653,12.161166206057539,0.0,1.0,0.0,0.0,1.0,Taxi
27.1,0.1295005458770396,-8.00334768272028,7.420480282790681,-0.41115537828744453,0.7079781998433684,127.84446701902408,11.846398709950279,0.0,1.0,0.0,0.0,1.0,Taxi
27.200000000000003,-0.017387379847937534,-12.03999376589064,7.047876492555396,0.18081500996713706,0.14539152207934294,127.77149724247465,12.562062950603439,0.0,1.0,0.0,0.0,1.0,Taxi
27.3,0.02330990006112406,-28.37914768401622,6.636565794579535,-0.024468797072463494,0.00486154303603076,127.7931522999126,11.183096953776936,0.0,1.0,0.0,0.0,1.0,Taxi
27.400000000000002,-0.012395192543041493,-3.9729778310971526,7.470453549342819,-0.4492286566119058,-0.5621817900396701,127.76290835353791,11.051844877141372,0.0,1.0,0.0,0.0,1.0,Taxi
27.5,-0.037252269003423266,10.492239001181582,7.505202741255021,0.40183409486377464,-0.10516734671931308,127.83240791357218,12.047673118327982,0.0,1.0,0.0,0.0,1.0,Taxi
27.6,0.07577109506703202,16.32181087428943,7.078733368435476,-0.11124756560186583,-0.5699554430061679,127.66786641101191,11.151032846068565,0.0,1.0,0.0,0.0,1.0,Taxi
27.700000000000003,0.06921386182840569,-2.613237706284162,7.093085173514727,0.12156442037062654,0.07918966109442246,127.70590637150389,11.614156760261928,0.0,1.0,0.0,0.0,1.0,Taxi
27.8,-0.050318457534844034,8.02427653067509,7.0844639265647755,-0.28363381310893854,1.1005312327524697,127.64760795298673,12.569151001066057,0.0,1.0,0.0,0.0,1.0,Taxi
27.900000000000002,0.11589247772040752,-48.30214541724306,8.19265174475885,0.07804576169228611,0.07968998660689845,127.76404845619129,11.452006982144432,0.0,1.0,0.0,0.0,1.0,Taxi
28.0,-0.17229686525780957,-1.8140453361125377,7.12682649577941,-0.46211708108651456,-0.6405884514609719,127.57906597155386,12.125063862963056,0.0,1.0,0.0,0.0,1.0,Taxi
28.1,-0.05938868421540666,-20.337498115065248,6.778418635529265,-0.18608975490886195,-0.5664895073139494,127.67780580219039,10.99275006684798,0.0,1.0,0.0,0.0,1.0,Taxi
28.200000000000003,0.014204987145081309,16.978977392718186,7.778055144814503,-0.3070063887690021,0.11563576444768818,127.70400380783894,11.752700695111255,0.0,1.0,0.0,0.0,1.0,Taxi
28.3,-0.08740197829421859,-12.361994258661143,7.8470289622520655,-0.27307212094685485,0.384017586367816,127.46603872084597,11.07038223998658,0.0,1.0,0.0,0.0,1.0,Taxi
28.400000000000002,-0.12119865550871234,20.232289761494496,7.673357498698679,-0.40641811056136556,-0.04865019553203347,127.70330014165717,11.304761923474926,0.0,1.0,0.0,0.0,1.0,Taxi
28.5,0.11536643595255386,3.1546514333821514,7.112663152182289,-0.06130122221506998,-0.09342806192349866,127.88089176480742,10.973486262865082,0.0,1.0,0.0,0.0,1.0,Taxi
28.6,-0.07162872112730778,42.151362889536045,8.55465888296176,-0.23745154664161586,-0.6129556429360926,127.88745492828548,12.066042453715884,0.0,1.0,0.0,0.0,1.0,Taxi
28.700000000000003,0.08955815893896796,-50.487687486397846,8.7845748220674,-0.3534369404115383,-0.6884506291832607,127.56767483854378,11.875667490054173,0.0,1.0,0.0,0.0,1.0,Taxi
28.8,-0.1370720014794353,19.770493898931033,8.133155421448373,-0.2642684051752918,-0.4477649533028865,127.71006619278148,11.67912413904201,0.0,1.0,0.0,0.0,1.0,Taxi
28.900000000000002,0.02722374836734744,6.045163317786432,7.379240576669865,-0.11556683761041169,0.13461462073019553,127.69696229923102,12.58986150253911,0.0,1.0,0.0,0.0,1.0,Taxi
29.0,0.11978397552790016,2.895112759820582,7.042562621866725,-0.22016924780231698,1.2117425458267879,127.65087536838627,11.992789019147157,0.0,1.0,0.0,0.0,1.0,Taxi
29.1,-0.12259643768033238,-3.0451436501620748,8.376133883870232,0.07149704174042254,0.4869981721896763,127.58473480940961,11.462068487716703,0.0,1.0,0.0,0.0,1.0,Taxi
29.200000000000003,0.011998030116537103,-43.143658453199635,7.2358449557650255,0.03637552577362324,0.4038238159199446,127.703450202476,11.339755576580849,0.0,1.0,0.0,0.0,1.0,Taxi
29.3,-0.09593431673809794,32.36492413480666,7.361983067713478,-0.3428298866409756,0.07054391628752414,127.42553864496392,10.587862243274738,0.0,1.0,0.0,0.0,1.0,Taxi
29.400000000000002,0.03922818299370098,42.344783332220835,7.775977052299655,0.18733717762402735,0.2734477488743684,127.64555257518555,11.073024060659542,0.0,1.0,0.0,0.0,1.0,Taxi
29.5,0.22372194677764137,9.831406397422171,7.73670662894008,-0.20406309152526148,0.6257368363911863,127.7934618395484,11.934861436638743,0.0,1.0,0.0,0.0,1.0,Taxi
29.6,-0.046777284750987046,-16.79346960387362,7.609802568204907,-0.40777653838988126,-1.0905649643816895,127.63076900988295,11.258860467019579,0.0,1.0,0.0,0.0,1.0,Taxi
29.700000000000003,-0.04473916502566708,-42.77542287956501,6.821882038824667,-0.09661706031962303,-1.333545460653932,127.84994447607352,11.647667103124643,0.0,1.0,0.0,0.0,1.0,Taxi
29.8,0.009844832379816313,14.027509093259589,7.542844474669408,-0.1483619324324122,0.36364451083957977,127.68021079277173,11.849306145082933,0.0,1.0,0.0,0.0,1.0,Taxi
29.900000000000002,0.023360260715310974,15.62987796457506,7.589730127535519,0.012014111787121973,-0.18428878909400015,127.47004119173812,12.050737619758099,0.0,1.0,0.0,0.0,1.0,Taxi
30.0,0.03341022479720831,-1.8199403452179663,7.0882060812642695,-0.10173397824648821,0.4791875924062544,127.52398275709243,12.102333173556014,0.0,1.0,0.0,0.0,1.0,Taxi
30.1,0.0007451306537265496,27.165202096586103,7.385358640899124,0.0016843576922880854,0.25968021355048204,127.68786224677638,12.040476633400933,0.0,1.0,0.0,0.0,1.0,Taxi
30.200000000000003,0.15918627119824158,-4.9607531483233345,8.201145329928579,-0.021777594837598113,0.017565389043357357,127.72142859025632,11.479746369476748,0.0,1.0,0.0,0.0,1.0,Taxi
30.3,0.00860645905559172,0.9696041595269982,7.181984122617564,0.09622804308467925,0.37426005334966833,127.72206639963451,12.072489065110776,0.0,1.0,0.0,0.0,1.0,Taxi
30.400000000000002,0.005593151451361633,-72.50251169487386,8.294470949743785,-0.4638749205125711,0.06266449630614297,127.81722760079936,11.413712556241785,0.0,1.0,0.0,0.0,1.0,Taxi
30.5,-0.20332628727612767,2.0522435506438654,8.235596772429002,-0.05764608089114234,-0.49897713191099025,127.76979107001125,12.130125652641413,0.0,1.0,0.0,0.0,1.0,Taxi
30.6,0.018867676808811074,13.153521023603558,7.816655582756716,-0.17359473849874182,-0.06384733818181335,127.71514747505978,11.734040817896172,0.0,1.0,0.0,0.0,1.0,Taxi
30.700000000000003,0.07136075656937944,22.670806690588915,7.549816260809172,-0.5576126143548363,0.018049702909829816,127.73786238815387,11.879648245532408,0.0,1.0,0.0,0.0,1.0,Taxi
30.8,-0.0899722538231831,-13.953397574266242,7.268345896656155,0.03340694529203969,0.4748648049972979,127.64703036891763,12.053655462950449,0.0,1.0,0.0,0.0,1.0,Taxi
30.900000000000002,-0.050899311062520096,-14.397552981574881,6.758199688496449,-0.233815368749707,-0.5855584991937788,127.69389052504891,11.404212371263974,0.0,1.0,0.0,0.0,1.0,Taxi
31.0,-0.0006270083384949151,14.701907142105656,7.317453301768698,-0.15573849862867487,0.773461841932166,127.65430451417478,11.043235188532744,0.0,1.0,0.0,0.0,1.0,Taxi
31.1,-0.01646271811265476,23.281978087219745,7.271627236251322,-0.06426453772736274,-0.4109770136293631,127.75038212650782,11.913387327324974,0.0,1.0,0.0,0.0,1.0,Taxi
31.200000000000003,0.06551057937357868,-13.957978308457848,7.077059301957804,-0.6150745410644429,0.3893939332552954,127.70035396758124,11.785944874601626,0.0,1.0,0.0,0.0,1.0,Taxi
31.3,-0.07041689988078408,15.079005229347983,6.976872342716055,0.08086323189277439,0.3929837024196304,127.69631475902037,11.742684102864658,0.0,1.0,0.0,0.0,1.0,Taxi
31.400000000000002,0.05893230803408524,9.232869517484104,7.0566589448823205,-0.38463971222766025,-0.09457278640418915,127.76163340344834,11.269831967808349,0.0,1.0,0.0,0.0,1.0,Taxi
31.5,0.11167492696099929,32.29223224835221,8.084215547432061,-0.10116557676406762,-0.4019531038004354,127.55964176870737,11.33835857826901,0.0,1.0,0.0,0.0,1.0,Taxi
31.6,0.09104426136097701,-10.426660786726606,7.524909179180175,-0.4189857997953894,0.12930700843292817,127.78309133034895,11.465619030410299,0.0,1.0,0.0,0.0,1.0,Taxi
31.700000000000003,0.006799004100452286,-63.8959156314069,8.938584312873127,0.09023204654043793,-0.6021430996312628,127.59312957976982,10.657313888522934,0.0,1.0,0.0,0.0,1.0,Taxi
31.8,-0.20780465119603517,-5.975649879718655,8.360857466573238,-0.2207825789046609,0.18361830478426616,127.59687885487062,11.130189025560979,0.0,1.0,0.0,0.0,1.0,Taxi
31.900000000000002,0.061166011962383776,-9.254242391332681,6.279471803084681,-0.3049089626942911,0.3160045789744377,127.75134714543282,10.765587249663383,0.0,1.0,0.0,0.0,1.0,Taxi
32.0,-0.03947220785621112,50.49088769221084,6.783921630951438,-0.11387262763924169,-0.041712768506191274,127.80833697251086,12.122198242739453,0.0,1.0,0.0,0.0,1.0,Taxi
32.1,0.044649787265019066,30.946660993166358,7.863099019603133,-0.3502795321831488,-0.03321690122147278,127.77494986855356,11.223176911218726,0.0,1.0,0.0,0.0,1.0,Taxi
32.2,0.21589931692821557,15.363636388133761,7.786680088624882,-0.3017013484525484,-0.6632988554444474,127.57427679269472,12.1340727704229,0.0,1.0,0.0,0.0,1.0,Taxi
32.300000000000004,0.03734597408445773,16.072725932270227,7.228839373142435,-0.40322446640689197,0.8470976653133556,127.73200066468263,11.666365433371185,0.0,1.0,0.0,0.0,1.0,Taxi
32.4,0.12501341692637022,-38.309500348473115,9.250217156199387,-0.19481064835000023,0.04013369573853507,127.78620274360162,11.939564686201864,0.0,1.0,0.0,0.0,1.0,Taxi
32.5,0.024351815185849994,-7.30604442319936,8.547460892768942,-0.10201290552084744,-0.27243464049858596,127.79227425831863,11.58304322333402,0.0,1.0,0.0,0.0,1.0,Taxi
32.6,0.0008157519684609408,-8.963856876979134,7.315163991891281,0.08315266167352436,-0.7493722194314296,127.64151394427438,12.512301125252671,0.0,1.0,0.0,0.0,1.0,Taxi
32.7,0.08019413254147456,-29.414709557610802,8.106261507104865,-0.15210395260729506,-0.9482360491776367,127.75885827635949,11.95336391602102,0.0,1.0,0.0,0.0,1.0,Taxi
32.800000000000004,-0.12272173260220398,-19.377986030955405,7.614743305624795,-0.23486923033066684,0.4303696954235252,127.59481722380326,11.630563602372098,0.0,1.0,0.0,0.0,1.0,Taxi
32.9,-0.09607417818631608,28.139676789661706,7.534298873551999,-0.10465929585295222,0.11605635039928834,127.8611861886369,11.60113451215592,0.0,1.0,0.0,0.0,1.0,Taxi
33.0,0.2208925164897831,44.837680003734214,7.103737976262041,-0.07448832876170665,-0.0760009391656377,127.64917621432932,11.003763531623312,0.0,1.0,0.0,0.0,1.0,Taxi
33.1,0.10146666741646715,13.21070373919487,8.101840525148532,-0.3598454132037512,0.5191482695257026,127.62740783697308,11.735316193873473,0.0,1.0,0.0,0.0,1.0,Taxi
33.2,-0.030020659490341675,-63.81506631518067,7.300884189487404,0.23756339644186325,-0.6467702684728677,127.74700351713,10.901940253269196,0.0,1.0,0.0,0.0,1.0,Taxi
33.300000000000004,-0.09818281508612017,7.196324521075482,7.311999304247529,-0.15692584359539477,-0.4457793704328409,127.58560830749491,11.921902296075942,0.0,1.0,0.0,0.0,1.0,Taxi
33.4,0.13744829002184464,7.806508142373015,7.617482066275456,0.05215116269230324,0.2417976892741889,127.73517665030977,11.786152498073383,0.0,1.0,0.0,0.0,1.0,Taxi
33.5,0.00901188122152347,39.76559304742642,7.1792335552885245,-0.2380799902897569,0.2445732245580229,127.9383663602739,11.287843446965134,0.0,1.0,0.0,0.0,1.0,Taxi
33.6,0.100645150151012,-12.154843019213127,7.320350503507686,-0.11109673246081858,-0.10762080228234258,127.80545043822747,11.832549593384194,0.0,1.0,0.0,0.0,1.0,Taxi
33.7,0.07667407492577905,9.439447670652102,9.063727958789219,-0.26754298924577546,-0.8830907632612056,127.87863305098443,12.028200997650359,0.0,1.0,0.0,0.0,1.0,Taxi
33.800000000000004,0.05620911957478402,-2.962234561261006,7.719453748597716,-0.1710066806587655,-0.8511949852010812,127.69351901283255,11.296575696507784,0.0,1.0,0.0,0.0,1.0,Taxi
33.9,0.08583397734470702,-14.56832987262691,8.032425851324279,-0.2767914681319732,-0.11916870990703021,127.75488490334345,11.32810702088407,0.0,1.0,0.0,0.0,1.0,Taxi
34.0,0.003832425562644547,-21.6684427227644,7.7571279204040176,-0.07863056067907538,-0.4685701488520856,127.690466018189,11.875496973723385,0.0,1.0,0.0,0.0,1.0,Taxi
34.1,-0.052133094039037924,-11.730922542994273,7.258944707337731,-0.19824691752105472,-1.0227507998313294,127.67332705621789,11.208387908416736,0.0,1.0,0.0,0.0,1.0,Taxi
34.2,0.0271793646297357,2.1797519477396867,7.7825496299412755,-0.2806420453268305,-0.1957820337160471,127.6041972575108,11.369554031212196,0.0,1.0,0.0,0.0,1.0,Taxi
34.300000000000004,0.014731185301343028,6.123544569147062,6.438646911336758,0.24988131634900707,0.6590878242012365,127.62135903855676,11.372331373670553,0.0,1.0,0.0,0.0,1.0,Taxi
34.4,-0.021515371193302574,-28.830706261974438,7.546771440522983,-0.11258863175405104,0.1799084772109295,127.60490084860032,11.693309467147273,0.0,1.0,0.0,0.0,1.0,Taxi
34.5,-0.11697416668013645,-56.186596444428766,7.616794136127054,-0.17820208945915872,0.2928860174074253,127.8491831612331,11.560388457624526,0.0,1.0,0.0,0.0,1.0,Taxi
34.6,-0.26620179692080076,1.2208288236363576,6.676007285251545,-0.5586529945621588,-0.38890276127129975,127.74861933361427,10.692321815333885,0.0,1.0,0.0,0.0,1.0,Taxi
34.7,-0.015411227075120736,-4.587584756676219,8.02826176110279,-0.5303925378686333,0.7850307258825681,127.88014485657305,12.007346665993973,0.0,1.0,0.0,0.0,1.0,Taxi
34.800000000000004,-0.13991209046351752,54.905640025157915,7.421890355952068,-0.11924523075987695,1.3973530017892914,127.85587867923198,11.757819844833023,0.0,1.0,0.0,0.0,1.0,Taxi
34.9,0.008326403204988888,-16.94520232653342,7.925544353085343,-0.22984129288789262,-0.05069731028001634,127.60610947840263,10.77596309737274,0.0,1.0,0.0,0.0,1.0,Taxi
35.0,-0.10013723870778779,34.98709567388156,7.639681510705375,-0.33320461909881816,0.6995810072543942,127.50367690612916,11.396285893270386,0.0,1.0,0.0,0.0,1.0,Taxi
