time_s,altitude_ft,vertical_speed_fpm,ias_kt,pitch_deg,roll_deg,heading_deg,throttle_pct,afterburner_on,gear_down,flaps_deg,speedbrake_pct,weight_on_wheels,label
0.0,-1.9604515290042548,-584.2267163114038,164.73949962808132,2.991501747566923,-0.5680551261529946,262.8042663156914,38.86577874540332,0.0,1.0,18.934206306632827,4.4173027759373245,0.0,Landing
0.1,-3.907873916708934,-778.9959069549168,162.96380198295788,3.5488559178528627,-0.5808849914809597,262.57777824474374,38.38833221255134,0.0,1.0,18.934206306632827,4.4173027759373245,0.0,Landing
0.2,-5.8554310637788385,-1159.1711606617964,166.02873432043256,3.086399962176042,-0.46659489615632194,262.4392756569763,38.77458566973851,0.0,1.0,18.934206306632827,4.4173027759373245,0.0,Landing
0.30000000000000004,-7.756307332313237,-1135.255570145392,163.16671985461664,3.252110119912775,-0.44785087168273846,262.4858195859888,38.44890560633577,0.0,1.0,18.934206306632827,4.4173027759373245,0.0,Landing
0.4,-9.584151767435895,-1119.339703127042,164.66734168110648,3.440845896752655,-0.4434723849551547,262.2970062854283,39.041661666394305,0.0,1.0,18.934206306632827,4.4173027759373245,0.0,Landing
0.5,-11.452129579414049,-1116.6180670908625,164.42277021611102,3.419809044214928,-0.35418151653833496,262.4115063247302,39.26109450846479,0.0,1.0,18.934206306632827,4.4173027759373245,0.0,Landing
0.6000000000000001,-13.33939766776755,-1136.2724649377215,164.47158938361954,3.273085269710761,-0.36681564457988236,262.53213271062623,38.7350572389687,0.0,1.0,18.934206306632827,4.4173027759373245,0.0,Landing
0.7000000000000001,-15.265514092124501,-1134.618036865379,164.6798189178841,3.290175522825704,-0.6561854719209048,262.5117238539624,39.166387623063606,0.0,1.0,18.934206306632827,4.4173027759373245,0.0,Landing
0.8,-17.125219763740944,-1130.505813862773,165.74435569117577,3.37690349122046,-0.6628280124815868,262.55154264835755,39.16562970068821,0.0,1.0,18.934206306632827,4.4173027759373245,0.0,Landing
0.9,-18.991926737081414,-1122.4583516298935,166.99048391406635,2.8407252736277435,-0.28688383931305245,262.5622522406593,39.037418487574726,0.0,1.0,18.934206306632827,4.4173027759373245,0.0,Landing
1.0,-20.87780585027397,-1151.9704930127843,164.90140201902344,3.0151717316189544,-0.3797696940230572,262.25527850298715,38.12357048416241,0.0,1.0,18.934206306632827,4.4173027759373245,0.0,Landing
1.1,-22.885072228804866,-1165.00549344318,164.3138279775593,3.381588709754023,-0.47535436202629733,262.42063141950166,38.0567475905487,0.0,1.0,18.934206306632827,4.4173027759373245,0.0,Landing
1.2000000000000002,-24.816954204297314,-1180.8722776948089,163.52087263519712,3.4809433212287813,-0.548879563620949,262.1951265777932,38.93139206913023,0.0,1.0,18.934206306632827,4.4173027759373245,0.0,Landing
1.3,-26.782167238748013,-1170.200012967505,166.1561648474103,2.925780032003113,-1.0324026001563247,262.40797972200426,39.21362260273961,0.0,1.0,18.934206306632827,4.4173027759373245,0.0,Landing
1.4000000000000001,-28.73607229364239,-1169.3280139841363,163.72144493841077,2.986012044725145,-0.5120550949198798,262.44351382078275,38.46718010272907,0.0,1.0,18.934206306632827,4.4173027759373245,0.0,Landing
1.5,-30.663594274217996,-1154.1006350763346,164.92292747696078,3.487712226865437,-0.5444594731866294,262.33399329782037,38.58431690861425,0.0,1.0,18.934206306632827,4.4173027759373245,0.0,Landing
1.6,-32.552670414129686,-1137.948655339351,167.0476826889135,3.6380504591095395,-0.03841125338974083,262.58362393602874,38.559540496826564,0.0,1.0,18.934206306632827,4.4173027759373245,0.0,Landing
1.7000000000000002,-34.42581557033915,-1132.7914701094749,164.79179141715008,3.2669396254140683,-0.7071384726245526,262.529423204722,38.95899511291577,0.0,1.0,18.934206306632827,4.4173027759373245,0.0,Landing
1.8,-36.32755162476537,-1115.4541906812028,164.10401225709845,3.1859831745524776,-0.9307011733892684,262.700244635726,38.601686472032135,0.0,1.0,18.934206306632827,4.4173027759373245,0.0,Landing
1.9000000000000001,-38.1299413675357,-1110.1191758410507,164.57313113237146,3.3909978100933578,-0.49015532633286446,262.54364077903654,39.07345260226745,0.0,1.0,18.934206306632827,4.4173027759373245,0.0,Landing
2.0,-39.9764114495444,-1112.9834509400182,165.080527630591,3.0711839769277223,-0.5875504004061439,262.3017731427475,38.65033990829215,0.0,1.0,18.934206306632827,4.4173027759373245,0.0,Landing
2.1,-41.89246887946546,-1139.517740724473,164.80076877449807,2.932373301341914,-0.6006312550139578,262.4157303399155,39.006531138610164,0.0,1.0,18.934206306632827,4.4173027759373245,0.0,Landing
2.2,-43.827530071158066,-1179.2660325596828,165.86712772934385,3.176876935231377,-0.43251952696361984,262.55329227297443,39.25264148528135,0.0,1.0,18.934206306632827,4.4173027759373245,0.0,Landing
2.3000000000000003,-45.872741612342814,-1184.8538116521695,165.39291882137937,3.15889990774039,-0.4428691722690588,262.41650953593614,38.80758034847786,0.0,1.0,18.934206306632827,4.4173027759373245,0.0,Landing
2.4000000000000004,-47.81673793772631,-1162.1455852136066,164.68803457502827,3.1464670180269128,-0.7603958870062673,262.4730348250947,38.93061207313097,0.0,1.0,18.934206306632827,4.4173027759373245,0.0,Landing
2.5,-49.6382579972261,-1129.478578170644,164.4716600745093,3.2770564653679735,-0.49720837962172526,262.3722520484222,38.79605571289033,0.0,1.0,18.934206306632827,4.4173027759373245,0.0,Landing
2.6,-51.52013450319603,-1099.906414592415,165.8009565711219,3.2152644952597496,-0.238422086948945,262.5335702039001,38.74468796451171,0.0,1.0,18.934206306632827,4.4173027759373245,0.0,Landing
2.7,-53.316270010688385,-1114.1900240774532,165.71559264730868,3.391177514232437,-0.3196367638148323,262.1663926366948,39.55604049734735,0.0,1.0,18.934206306632827,4.4173027759373245,0.0,Landing
2.8000000000000003,-55.209208117613365,-1106.5929157274538,162.2233903111947,3.228325252849615,-0.7687577246977564,262.1958173558951,39.660891340377184,0.0,1.0,18.934206306632827,4.4173027759373245,0.0,Landing
2.9000000000000004,-57.0530990818333,-1119.441785033142,165.70297525626415,3.3550409686144724,-0.6921060562308765,262.47708315063096,39.21612495402006,0.0,1.0,18.934206306632827,4.4173027759373245,0.0,Landing
3.0,-58.913478935854094,-1116.927774714567,164.97829430333994,3.4502040213463006,-0.1020896851974884,262.58963015856637,38.597990544566294,0.0,1.0,18.934206306632827,4.4173027759373245,0.0,Landing
3.1,-60.7938469911862,-1119.682598921949,164.36743525113044,3.208575260422625,-0.5026580489797454,262.45524823671076,38.395814327418535,0.0,1.0,18.934206306632827,4.4173027759373245,0.0,Landing
3.2,-62.65151207644305,-1108.1079171929575,164.0818197202276,3.591337183282444,-0.4755773685133257,262.5082918149086,38.58812473617201,0.0,1.0,18.934206306632827,4.4173027759373245,0.0,Landing
3.3000000000000003,-64.45401852181888,-1101.6135755833973,163.3553050331659,3.1838411859951723,-0.5696983196316561,262.1739948763726,38.78012362202574,0.0,1.0,18.934206306632827,4.4173027759373245,0.0,Landing
3.4000000000000004,-66.30191486910319,-1106.3842185308333,165.97327067240812,3.249758332317011,-0.8031085611757324,262.59364099937716,38.44324113295379,0.0,1.0,18.934206306632827,4.4173027759373245,0.0,Landing
3.5,-68.18343316909721,-1122.5446703618672,164.07475727884326,2.7378198535798814,-1.0132896073336701,262.4163681469038,39.35395624183868,0.0,1.0,18.934206306632827,4.4173027759373245,0.0,Landing
3.6,-70.06674187362822,-1122.0803681544085,164.74927449066683,3.09390767055512,-0.3107485469203179,262.53911012710296,39.40321436412142,0.0,1.0,18.934206306632827,4.4173027759373245,0.0,Landing
3.7,-71.91231670987523,-1126.797727731713,163.73142183239824,3.2252603959115613,-0.5190831025851426,262.3101180848096,39.05320291958703,0.0,1.0,18.934206306632827,4.4173027759373245,0.0,Landing
3.8000000000000003,-73.81742180775578,-1112.9090806222848,166.63475585758508,3.3648374107102335,-0.8851648495698601,262.3875327068581,38.97506324957646,0.0,1.0,18.934206306632827,4.4173027759373245,0.0,Landing
3.9000000000000004,-75.63128727673964,-1108.6729373236865,165.51514208666708,3.3853434000476827,-0.3411113579063807,262.1058259320814,39.0498645918815,0.0,1.0,18.934206306632827,4.4173027759373245,0.0,Landing
4.0,-77.45568139649366,-1106.7789177809602,166.69029128153238,2.9548329468490446,-0.6027994040728909,262.16310362399827,38.80095247654028,0.0,1.0,18.934206306632827,4.4173027759373245,0.0,Landing
4.1000000000000005,-79.35131639666058,-1111.0235726162357,164.68837001441813,3.2813936351007293,-0.8648926643340008,262.30957781857524,38.31685449139459,0.0,1.0,18.934206306632827,4.4173027759373245,0.0,Landing
4.2,-81.18640513982082,-1125.1743498100411,163.82058452037995,3.116671606299755,-0.7122424558560908,262.4960948163706,38.645160826173296,0.0,1.0,18.934206306632827,4.4173027759373245,0.0,Landing
4.3,-83.08155314554386,-1129.4504303486292,163.9121500640493,3.02103210931163,-0.5857928956275773,262.57881033113676,37.98521418900084,0.0,1.0,18.934206306632827,4.4173027759373245,0.0,Landing
4.4,-84.99856854840372,-1147.6752867626117,164.8573672042982,3.0860864936313885,-0.886304110185264,262.3074273284403,38.558561175850286,0.0,1.0,18.934206306632827,4.4173027759373245,0.0,Landing
4.5,-86.92478157363388,-1149.0787870184593,166.04384925317487,2.9681095581773747,-0.6102211526248554,262.3779331904898,38.51172314630127,0.0,1.0,18.934206306632827,4.4173027759373245,0.0,Landing
4.6000000000000005,-88.82694708063616,-1139.302320339766,164.16581406751592,3.1705462022803843,-0.3165882135955417,262.4959170664541,38.792945286719934,0.0,1.0,18.934206306632827,4.4173027759373245,0.0,Landing
4.7,-90.69508015010256,-1115.0328812356604,166.16585261836644,3.2460240515646515,-0.9554708462447197,262.41700703308675,38.865059635966155,0.0,1.0,18.934206306632827,4.4173027759373245,0.0,Landing
4.800000000000001,-92.49994597981218,-1109.0964014119236,165.78084756316454,3.59552592501459,-0.7659196793877844,262.5501091237245,38.60125599892942,0.0,1.0,18.934206306632827,4.4173027759373245,0.0,Landing
4.9,-94.37242908769578,-1103.3097441235157,167.1946750930539,3.457995331192449,-0.701204582682159,262.4381578110574,38.93892909215315,0.0,1.0,18.934206306632827,4.4173027759373245,0.0,Landing
5.0,-96.21162887072013,-1116.5108615572622,167.05684208729684,3.675651897148799,-0.8318403920201435,262.3273542756915,39.37732512260845,0.0,1.0,18.934206306632827,4.4173027759373245,0.0,Landing
5.1000000000000005,-98.08250028759849,-1097.1617966913045,166.88358930573273,3.4088624489172954,-0.5548247318925941,262.44460795615737,38.62755732869474,0.0,1.0,18.934206306632827,4.4173027759373245,0.0,Landing
5.2,-99.8582380711523,-1105.4401847223035,162.36164251111472,3.1966945001212537,-0.5789497434806951,262.4837212266509,39.01617767194528,0.0,1.0,18.934206306632827,4.4173027759373245,0.0,Landing
5.300000000000001,-101.73882979433165,-1115.2261616808034,163.8378818698446,2.983503941114176,-0.16999468850858868,262.45551250130484,38.81530663678358,0.0,1.0,18.934206306632827,4.4173027759373245,0.0,Landing
5.4,-103.65863109600251,-1122.6052622587815,164.60058718922517,2.870997579875598,-0.4756500728936792,262.1141272710764,38.76807749160958,0.0,1.0,18.934206306632827,4.4173027759373245,0.0,Landing
5.5,-105.47126438244621,-1121.4102753846703,165.04300006807094,3.468217857650066,-0.696902442216665,262.56030281949097,39.09666877820742,0.0,1.0,18.934206306632827,4.4173027759373245,0.0,Landing
5.6000000000000005,-107.345881171255,-1092.39331418174,164.47977058003062,2.9420643614276414,-0.37632007922575994,262.5128517200686,38.901198056172404,0.0,1.0,18.934206306632827,4.4173027759373245,0.0,Landing
5.7,-109.12059766691121,-1090.1911427016018,165.58484935218166,3.305181228780241,-0.8884484648540592,262.2945632524245,38.87207121106575,0.0,1.0,18.934206306632827,4.4173027759373245,0.0,Landing
5.800000000000001,-110.92222009595422,-1083.6612027423,165.5304114220489,2.9121544427453534,-0.9767739554467637,262.54362748905646,38.715156715003765,0.0,1.0,18.934206306632827,4.4173027759373245,0.0,Landing
5.9,-112.7641871849665,-1096.1194305693766,166.08793357218187,3.3511884553879203,-0.5127073762627578,262.46968665212216,39.05864626449312,0.0,1.0,18.934206306632827,4.4173027759373245,0.0,Landing
6.0,-114.60119481975809,-1107.941350367034,165.56319359100843,3.4165055714555757,-0.5550906593592156,262.3610999631305,38.79512566881254,0.0,1.0,18.934206306632827,4.4173027759373245,0.0,Landing
6.1000000000000005,-116.46192684778939,-1092.88934850878,163.70483594814655,3.4820484772148035,-0.43744951211514593,262.72927698331114,38.09328760117684,0.0,1.0,18.934206306632827,4.4173027759373245,0.0,Landing
6.2,-118.2286339275104,-1085.7305877011754,165.64224715419167,3.050114131770914,-0.9219021159163221,262.6761717926005,38.64397763579278,0.0,1.0,18.934206306632827,4.4173027759373245,0.0,Landing
6.300000000000001,-120.02984775826397,-1064.5076748843364,164.4739596835243,3.2307830377253595,-0.5232852376885906,262.459083671273,38.99166964078351,0.0,1.0,18.934206306632827,4.4173027759373245,0.0,Landing
6.4,-121.78446522221107,-1083.2902468113048,165.1710599845573,3.9323641358027164,-0.6759069095369652,262.3077644034819,38.67039865517683,0.0,1.0,18.934206306632827,4.4173027759373245,0.0,Landing
6.5,-123.64508516156693,-1078.6067066225285,165.20980132901838,3.074251121967517,-0.4377831896752622,262.21480697127936,39.17665607369904,0.0,1.0,18.934206306632827,4.4173027759373245,0.0,Landing
6.6000000000000005,-125.42288129137661,-1095.707034251791,165.10944275118803,3.0077744120189394,-0.5005210986715667,262.3576898148276,38.90330775451155,0.0,1.0,18.934206306632827,4.4173027759373245,0.0,Landing
6.7,-127.26300039347002,-1086.4979005439693,164.817113477171,3.3415023742199708,-0.7819100558229058,262.48959931276704,38.63549566307062,0.0,1.0,18.934206306632827,4.4173027759373245,0.0,Landing
6.800000000000001,-129.07757466428677,-1093.3819937631113,163.00511063142412,3.803937744877409,-0.3361770207680098,262.63488008242246,39.16914948010452,0.0,1.0,18.934206306632827,4.4173027759373245,0.0,Landing
6.9,-130.88979126019217,-1094.633383977103,165.8978697787693,3.511967913444376,-0.948413930406574,262.16058033941295,38.57176702620353,0.0,1.0,18.934206306632827,4.4173027759373245,0.0,Landing
7.0,-132.73616731335554,-1097.1833023416707,164.32985549853396,3.368206526425278,-0.8724873744205202,262.4768367264869,38.646007415293596,0.0,1.0,18.934206306632827,4.4173027759373245,0.0,Landing
7.1000000000000005,-134.56349117599513,-1097.4189883225677,165.16657863466838,3.236699564589532,-0.5380498444461618,262.39911440784385,38.81170315179066,0.0,1.0,18.934206306632827,4.4173027759373245,0.0,Landing
7.2,-136.376886201805,-1086.176659201783,165.08646712185188,3.184564594999725,-0.5024868425523408,262.3810373544353,39.096233101606344,0.0,1.0,18.934206306632827,4.4173027759373245,0.0,Landing
7.300000000000001,-138.16705060936445,-1074.7017896792102,164.69771138819328,3.2711608452040966,-0.19213157389039526,262.72446957541956,38.706732062226415,0.0,1.0,18.934206306632827,4.4173027759373245,0.0,Landing
7.4,-139.93700012439118,-1091.493623384298,164.3741497538256,3.4598028910357237,-0.5342216721639802,262.52672198727623,38.56584403970196,0.0,1.0,18.934206306632827,4.4173027759373245,0.0,Landing
7.5,-141.8343543187265,-1106.3860213313208,165.91297702400632,3.6898037662192285,-0.8404027261401266,262.5159152142014,38.574433990456335,0.0,1.0,18.934206306632827,4.4173027759373245,0.0,Landing
7.6000000000000005,-143.69898071602105,-1139.5639872349193,164.89666751982747,3.0183169320887275,-0.7136012648856702,262.54837384317875,38.769950546428255,0.0,1.0,18.934206306632827,4.4173027759373245,0.0,Landing
7.7,-145.63482006056577,-1130.5780139330466,167.58455396173372,3.155012716842374,-0.9179907290046315,262.4324310842761,39.27779434646183,0.0,1.0,18.934206306632827,4.4173027759373245,0.0,Landing
7.800000000000001,-147.48724438839173,-1119.7287467058743,164.44707636754816,3.333696691843079,-0.7778531359102505,262.2959748218575,38.60256355502901,0.0,1.0,18.934206306632827,4.4173027759373245,0.0,Landing
7.9,-149.29762444955043,-1093.5706935360258,163.3569229725954,3.3705750590759056,-0.36035071922906864,262.536459006389,38.954443794421,0.0,1.0,18.934206306632827,4.4173027759373245,0.0,Landing
8.0,-151.1026735282459,-1095.4514167534853,165.55547827297355,3.1909112306961043,-0.5608003300995086,262.31636303162145,38.9006411457221,0.0,1.0,18.934206306632827,4.4173027759373245,0.0,Landing
8.1,-152.96450147215916,-1090.106466436697,166.1644333479684,3.235152540041626,-0.9377827612271058,262.58267603434217,38.95528093145044,0.0,1.0,18.934206306632827,4.4173027759373245,0.0,Landing
8.200000000000001,-154.7481567817339,-1063.1687110499797,163.80090278094167,3.2445798032451996,-0.7088114865359791,262.60127004504943,38.82967115872709,0.0,1.0,18.934206306632827,4.4173027759373245,0.0,Landing
8.3,-156.4185170834958,-1055.3438896658747,166.06377099397363,3.1518741093816853,-0.8398788850304053,262.61575756239745,38.94222278840596,0.0,1.0,18.934206306632827,4.4173027759373245,0.0,Landing
8.4,-158.24122092048853,-1062.9491332872137,164.90035633538474,2.9837750584629337,-0.533457439962346,262.5488655961402,38.78894670062961,0.0,1.0,18.934206306632827,4.4173027759373245,0.0,Landing
8.5,-160.06290244816998,-1091.719008708202,164.9880260142555,3.04134916090362,-1.0068027481706476,262.1646666959267,38.49813162235597,0.0,1.0,18.934206306632827,4.4173027759373245,0.0,Landing
8.6,-161.8771121270368,-1094.1297500038274,164.7444107830752,2.771345189216189,-0.46277583739791817,262.09936965754025,38.73666694593041,0.0,1.0,18.934206306632827,4.4173027759373245,0.0,Landing
8.700000000000001,-163.71186967050767,-1077.1170947288854,165.38856821999812,3.2966338977733978,-0.7447835579190933,262.45429994827236,39.30148218933184,0.0,1.0,18.934206306632827,4.4173027759373245,0.0,Landing
8.8,-165.4484879218144,-1070.2134374009177,164.80496678628415,3.124148965257775,-0.16969174581362045,262.4414118668001,38.982599899687365,0.0,1.0,18.934206306632827,4.4173027759373245,0.0,Landing
8.9,-167.2281793140414,-1061.4844032604253,166.3164068603532,3.1625586293809094,-0.3805543134530669,262.474096805014,39.475045454779696,0.0,1.0,18.934206306632827,4.4173027759373245,0.0,Landing
9.0,-169.0192916868098,-1079.9193202325225,163.9082978398361,3.2233078604446286,-0.8432478860712167,262.32458934396436,38.609828509422314,0.0,1.0,18.934206306632827,4.4173027759373245,0.0,Landing
9.1,-170.84808452297702,-1081.62741603972,164.69374230682556,3.321226407366345,-0.9886068456788568,262.4072884263826,38.93749208313159,0.0,1.0,18.934206306632827,4.4173027759373245,0.0,Landing
9.200000000000001,-172.63631639424,-1067.8238018393756,165.02623098974695,3.177853926667405,-0.4648699823616674,262.3628725404694,38.603442218614425,0.0,1.0,18.934206306632827,4.4173027759373245,0.0,Landing
9.3,-174.35841069600667,-1058.0026787930876,163.62019401164764,2.8921646272714354,-0.8121181811443718,262.3885857742972,39.103237026434016,0.0,1.0,18.934206306632827,4.4173027759373245,0.0,Landing
9.4,-176.13809791694246,-1058.215603928062,165.05218090672733,3.3594430923280703,-0.5979739033451332,262.1745661445748,38.292437354313606,0.0,1.0,18.934206306632827,4.4173027759373245,0.0,Landing
9.5,-177.9273944138803,-1055.4271548276745,164.94350350944316,3.157239774543166,-0.1778878981625971,262.3421426105788,39.06666270084409,0.0,1.0,18.934206306632827,4.4173027759373245,0.0,Landing
9.600000000000001,-179.63554647014504,-1053.4163140309772,162.58874155072746,3.4707606634710864,-0.4083828195208855,262.3777359427494,38.63519440761116,0.0,1.0,18.934206306632827,4.4173027759373245,0.0,Landing
9.700000000000001,-181.40517948709734,-1060.4323728689053,165.216833363194,3.1524848300753323,-0.3769570828814582,262.3578948923423,38.86980901365509,0.0,1.0,18.934206306632827,4.4173027759373245,0.0,Landing
9.8,-183.22955627822483,-1065.9982308853043,165.43511985970318,2.854427111201888,-0.2976647532393665,262.47455171275647,38.99766835380032,0.0,1.0,18.934206306632827,4.4173027759373245,0.0,Landing
9.9,-184.96553762457157,-1061.5124424858095,165.946010198224,3.625573937132183,-0.42385217564691957,262.66637980613996,38.97372432912895,0.0,1.0,18.934206306632827,4.4173027759373245,0.0,Landing
10.0,-186.7127416995264,-1061.6119443269667,165.03309251254524,3.009372101621353,-0.16126463067377822,262.5709031622058,39.016592238362776,0.0,1.0,18.934206306632827,4.4173027759373245,0.0,Landing
10.100000000000001,-188.53761599985967,-1077.1322179916694,164.8852012969823,3.3641086664457776,-0.5898051415872159,262.4735795999611,38.42977383180337,0.0,1.0,18.934206306632827,4.4173027759373245,0.0,Landing
10.200000000000001,-190.35119871452991,-1086.4785637139792,164.8199279400905,3.072269026306718,-0.6109685814785419,262.3396354310445,38.90039310293373,0.0,1.0,18.934206306632827,4.4173027759373245,0.0,Landing
10.3,-192.14513451809628,-1076.1414710527845,166.6815868449999,3.237908020230169,-0.6273140256850271,262.07406592574307,38.56312865185878,0.0,1.0,18.934206306632827,4.4173027759373245,0.0,Landing
10.4,-193.9183233551236,-1062.359802346134,164.70517728643674,3.312283312049313,-0.4647389037158072,262.4959256822415,39.421304803465055,0.0,1.0,18.934206306632827,4.4173027759373245,0.0,Landing
10.5,-195.66299772626058,-1048.8167082096086,164.11911696479712,3.2738526878125644,-0.7778238454397358,262.46790694820015,39.24023681877654,0.0,1.0,18.934206306632827,4.4173027759373245,0.0,Landing
10.600000000000001,-197.38921805914433,-1048.7415682727942,164.86255601801417,3.219790678975519,-0.7206554371740105,262.5181420968754,38.906685860890946,0.0,1.0,18.934206306632827,4.4173027759373245,0.0,Landing
10.700000000000001,-199.16203119648756,-1046.4084542749788,164.42860540829906,3.063719176076903,-0.8987853328492427,262.51318745698586,38.553545276185,0.0,1.0,18.934206306632827,4.4173027759373245,0.0,Landing
10.8,-200.89503999763548,-1045.2909355532654,165.02430621881706,2.9508250480299183,-0.5287107870717268,262.24071060429924,38.77001721886556,0.0,1.0,18.934206306632827,4.4173027759373245,0.0,Landing
10.9,-202.61567273691065,-1043.2806808559806,165.60169646583728,3.07528288931924,-0.16007979574086184,262.3313963915791,38.9546806855993,0.0,1.0,18.934206306632827,4.4173027759373245,0.0,Landing
11.0,-204.37843460076746,-1060.0820531458453,166.35986053772416,3.1588325068263066,-0.03589643240981821,262.2403678367614,39.19639204872101,0.0,1.0,18.934206306632827,4.4173027759373245,0.0,Landing
11.100000000000001,-206.1954502633647,-1083.0755893396429,165.54364944576992,3.1588138420258463,-0.8122958843673489,262.39075653025554,38.94363511499648,0.0,1.0,18.934206306632827,4.4173027759373245,0.0,Landing
11.200000000000001,-208.03105068360887,-1098.1773514262725,165.5678596973727,3.367318104168909,-0.506172038119932,262.5253439395801,38.95721315127345,0.0,1.0,18.934206306632827,4.4173027759373245,0.0,Landing
11.3,-209.86932135789883,-1083.494672071697,165.99535126146915,2.9985230044571844,-0.6293266951268822,262.63517021909445,38.363759474493065,0.0,1.0,18.934206306632827,4.4173027759373245,0.0,Landing
11.4,-211.6129236237232,-1078.17376493565,165.19899051699997,3.0979448175050277,-0.5281778293967356,262.7472647103209,38.63161836505263,0.0,1.0,18.934206306632827,4.4173027759373245,0.0,Landing
11.5,-213.42191950828712,-1079.5495134905366,164.50567715530553,3.0643013205591196,-0.6837880200737584,262.41745529543255,39.125192010188535,0.0,1.0,18.934206306632827,4.4173027759373245,0.0,Landing
11.600000000000001,-215.2670689253515,-1080.4753931253117,165.96617005617216,3.226192719606183,-0.5867641331965235,262.28919687606185,38.72644312786336,0.0,1.0,18.934206306632827,4.4173027759373245,0.0,Landing
11.700000000000001,-217.01530058934975,-1057.0095887830291,168.04042900613496,3.6308229638873595,-0.6136378096947798,262.7443855455356,39.13904002106795,0.0,1.0,18.934206306632827,4.4173027759373245,0.0,Landing
11.8,-218.70696745220226,-1035.2251667742053,165.11800458002736,3.442812622419964,-0.6305115962564547,262.55191390259165,38.854293504476,0.0,1.0,18.934206306632827,4.4173027759373245,0.0,Landing
11.9,-220.44319475922254,-1025.3631489908798,165.71671345966226,3.1638830404734017,-0.8192716690230313,262.3506411406711,38.69468838290153,0.0,1.0,18.934206306632827,4.4173027759373245,0.0,Landing
12.0,-222.14211633430415,-1049.630089929451,164.22867402318164,3.08278252277426,-0.7521632682104058,262.6215947438345,39.33961031719711,0.0,1.0,18.934206306632827,4.4173027759373245,0.0,Landing
12.100000000000001,-223.95511790184952,-1050.7444616212865,165.086187317164,2.721645505129945,-0.44193219823340524,262.6273056864254,38.67446705441538,0.0,1.0,18.934206306632827,4.4173027759373245,0.0,Landing
12.200000000000001,-225.69691706732897,-1064.6852496292354,163.97342761131236,3.266997233734657,-0.4925972704144799,262.123651905836,39.32044684501967,0.0,1.0,18.934206306632827,4.4173027759373245,0.0,Landing
12.3,-227.46554258245033,-1057.8455752725915,164.0814661149881,3.1586776127152665,-0.8645148362220966,262.54356722160173,39.1863815568023,0.0,1.0,18.934206306632827,4.4173027759373245,0.0,Landing
12.4,-229.24434577821248,-1074.8372385199218,164.2580490198615,3.1839453766903048,-0.5012252030663847,262.4948452620058,38.90440177959885,0.0,1.0,18.934206306632827,4.4173027759373245,0.0,Landing
12.5,-231.07110325992858,-1085.3048021170139,163.43305741785204,3.0465408577994357,-0.652942171628581,262.04139050122717,39.06279789471863,0.0,1.0,18.934206306632827,4.4173027759373245,0.0,Landing
12.600000000000001,-232.8920665930354,-1096.890831480465,166.29559805978127,3.2910309884078957,-0.7428687789022007,262.40214192169515,39.03550627871217,0.0,1.0,18.934206306632827,4.4173027759373245,0.0,Landing
12.700000000000001,-234.7287999356148,-1068.3338411961074,163.33355014149933,3.600452158122149,-0.2072480080515292,262.4188854699232,39.267454586223984,0.0,1.0,18.934206306632827,4.4173027759373245,0.0,Landing
12.8,-236.41277246590911,-1046.4200294568684,166.0286436532297,3.3474426417058094,-0.9148116386643039,262.61445769940406,38.416727213488016,0.0,1.0,18.934206306632827,4.4173027759373245,0.0,Landing
12.9,-238.12416674031974,-1031.0268863755198,162.70252424063884,3.3730112119047257,-0.3519722823025947,262.2959474602501,38.72784135105671,0.0,1.0,18.934206306632827,4.4173027759373245,0.0,Landing
13.0,-239.8839343674924,-1052.1844807115428,163.80622465699156,3.285726188832525,-0.24452049413320803,262.18786776779575,38.724178317825164,0.0,1.0,18.934206306632827,4.4173027759373245,0.0,Landing
13.100000000000001,-241.67369486946683,-1071.2590789998274,164.12258570192603,3.178210230983313,-0.30046061728621015,262.456200829869,38.41485098417379,0.0,1.0,18.934206306632827,4.4173027759373245,0.0,Landing
13.200000000000001,-243.48046213531887,-1065.5219815492558,164.3598312683548,3.136450580537848,-0.68447013211373,262.4354653338885,39.01364984019801,0.0,1.0,18.934206306632827,4.4173027759373245,0.0,Landing
13.3,-245.21154427523868,-1063.3985839663524,163.75865728054364,3.1243895764452465,-0.5668956651998759,262.434517480204,38.98626557188195,0.0,1.0,18.934206306632827,4.4173027759373245,0.0,Landing
13.4,-246.9906877892986,-1056.338363129845,163.63963813333714,3.275120547893702,-0.5933468541761348,262.05804966867856,38.8460499443361,0.0,1.0,18.934206306632827,4.4173027759373245,0.0,Landing
13.5,-248.7621539509681,-1066.6876640622434,164.9499128470653,3.3023866669995923,-0.5967918289373014,262.31836036211075,38.9750096005692,0.0,1.0,18.934206306632827,4.4173027759373245,0.0,Landing
13.600000000000001,-250.5449825955499,-1054.5378969826857,166.4466789027324,3.1414511393749467,-0.7879466137523577,262.4863513917751,38.652221239019866,0.0,1.0,18.934206306632827,4.4173027759373245,0.0,Landing
13.700000000000001,-252.26337727421202,-1047.768319512795,164.94036972168124,3.062587714633586,-0.40799512925499365,262.40924648366035,39.73963639817999,0.0,1.0,18.934206306632827,4.4173027759373245,0.0,Landing
13.8,-254.00099554853207,-1039.6018171852404,165.51407176201369,3.481980441026439,-0.5611842380452282,262.59415787003104,38.67446149744845,0.0,1.0,18.934206306632827,4.4173027759373245,0.0,Landing
13.9,-255.7429916814761,-1066.4762053071286,165.8152129403333,3.1995472358210746,-0.5168267705774452,262.4755284765097,38.6620706560394,0.0,1.0,18.934206306632827,4.4173027759373245,0.0,Landing
14.0,-257.59575830074766,-1059.7269090186217,164.36530301231116,3.1704647105803194,-0.7605410925951166,262.3260327874623,39.09613948672796,0.0,1.0,18.934206306632827,4.4173027759373245,0.0,Landing
14.100000000000001,-259.2996300936252,-1072.5803615538666,165.8567190669972,3.1788357211731286,-0.5378128966610732,262.3985237640426,38.49963409581259,0.0,1.0,18.934206306632827,4.4173027759373245,0.0,Landing
14.200000000000001,-261.10589348924543,-1036.0971894884756,163.85028924152792,3.1521567121739755,-0.7007760574043133,262.0774343259891,38.78506377870239,0.0,1.0,18.934206306632827,4.4173027759373245,0.0,Landing
14.3,-262.77624424819004,-1053.0220366233834,164.5017574932493,3.2785469707083434,-0.26485747100969526,262.1564876649852,39.10143969655655,0.0,1.0,18.934206306632827,4.4173027759373245,0.0,Landing
14.4,-264.5647402767421,-1011.1695195922152,163.95748628139532,2.874749765984812,-0.5120773373179665,262.3345246963411,38.295747468596055,0.0,1.0,18.934206306632827,4.4173027759373245,0.0,Landing
14.5,-266.1617410872065,-1019.1003999191366,165.30494416526636,2.9380167829160384,-0.3399991278906773,262.44029350728476,39.2486129841725,0.0,1.0,18.934206306632827,4.4173027759373245,0.0,Landing
14.600000000000001,-267.8717462477857,-994.9421654495268,164.34205579116613,3.382715133654752,-0.43440953270125326,262.40774528647705,38.90632558105824,0.0,1.0,18.934206306632827,4.4173027759373245,0.0,Landing
14.700000000000001,-269.53945110398973,-1008.5133052353285,164.74881003959692,3.1937227012449845,-0.555090487630698,262.1692958195814,39.17748170103681,0.0,1.0,18.934206306632827,4.4173027759373245,0.0,Landing
14.8,-271.20430761338315,-1009.4166686219182,165.0157730573697,3.4224803202359775,-0.9263591256344319,262.2612119195991,39.333749250429484,0.0,1.0,18.934206306632827,4.4173027759373245,0.0,Landing
14.9,-272.9188295908953,-1016.1679110354044,164.15510036281867,3.3468152373895887,-0.39105587610398873,262.3857389668808,38.61043840133159,0.0,1.0,18.934206306632827,4.4173027759373245,0.0,Landing
15.0,-274.62029065916676,-1025.3177327189292,165.26271256957827,3.3879898177914995,-0.6949886854594958,262.5747318453041,38.838730923459586,0.0,1.0,18.934206306632827,4.4173027759373245,0.0,Landing
15.100000000000001,-276.3308962769778,-1017.4831952090244,166.24481829918187,3.3996844720451422,-0.6100773516534689,262.629508775221,38.99563197869229,0.0,1.0,18.934206306632827,4.4173027759373245,0.0,Landing
15.200000000000001,-278.00624556694044,-1033.329485366687,164.80504774242996,3.4998882538158993,-0.487327666413124,262.4309357140944,38.11642765466946,0.0,1.0,18.934206306632827,4.4173027759373245,0.0,Landing
15.3,-279.7869380860002,-1056.6173582990814,166.29275268255307,3.2613530934848782,-0.4909924801598613,262.5770220781999,39.072422793946366,0.0,1.0,18.934206306632827,4.4173027759373245,0.0,Landing
15.4,-281.6139830684732,-1065.7622528680577,163.45270765719508,3.7569302363665447,-0.6111001446334304,262.14667328717485,38.49933255287194,0.0,1.0,18.934206306632827,4.4173027759373245,0.0,Landing
15.5,-283.3350568312807,-1069.6028583572229,165.09586518057037,3.1050473067198614,-0.8953871971049592,262.4469575074045,38.97684517408719,0.0,1.0,18.934206306632827,4.4173027759373245,0.0,Landing
15.600000000000001,-285.1349523777863,-1045.2852508354113,165.50227865510283,3.7683016351250975,-0.5881275893487611,262.4352066119077,38.85877862714552,0.0,1.0,18.934206306632827,4.4173027759373245,0.0,Landing
15.700000000000001,-286.84040932265026,-1035.1473750237005,164.49687391443763,3.2999038973495587,-0.8927347804604595,262.2872743866309,38.81495708490319,0.0,1.0,18.934206306632827,4.4173027759373245,0.0,Landing
15.8,-288.5107937063992,-1012.8630017168462,164.6146420320622,3.3364039276267254,-0.5866975204580237,262.326006334078,38.3890081832271,0.0,1.0,18.934206306632827,4.4173027759373245,0.0,Landing
15.9,-290.19926738637054,-1019.7592450752495,165.5270271926077,3.2429400046065773,-0.8462611738786507,262.62300863498035,38.2754274902614,0.0,1.0,18.934206306632827,4.4173027759373245,0.0,Landing
16.0,-291.9392055480265,-1045.8446436790837,163.83164161683158,3.6373889902500314,-0.9532652859433752,262.5083612811054,39.041112905305724,0.0,1.0,18.934206306632827,4.4173027759373245,0.0,Landing
16.1,-293.74001692479465,-1071.2240561531758,164.61174648181014,3.3109299348639363,-0.7136094876620567,262.65957559534127,38.841001763460405,0.0,1.0,18.934206306632827,4.4173027759373245,0.0,Landing
16.2,-295.5553876671364,-1057.564369352997,164.7948308449083,3.426146447085991,-0.8870077936430159,262.4288175638949,39.22308464362597,0.0,1.0,18.934206306632827,4.4173027759373245,0.0,Landing
16.3,-297.2270273947915,-1045.586233825884,166.01843558321994,3.1203206887141506,-0.4557277979471823,262.90202264516745,38.86829946086427,0.0,1.0,18.934206306632827,4.4173027759373245,0.0,Landing
16.400000000000002,-298.96794809392406,-1022.1732613736208,164.97968867697898,2.7605084674369746,-0.5056945656030309,262.3330632023535,38.69360132942724,0.0,1.0,18.934206306632827,4.4173027759373245,0.0,Landing
16.5,-300.6662539740045,-1014.6241414900373,163.59924103469046,3.3055225565998843,-0.554821670546436,262.312873249414,38.99326063700228,0.0,1.0,18.934206306632827,4.4173027759373245,0.0,Landing
16.6,-302.3001481022417,-998.4301440789409,165.02451356120164,3.104426810844478,-0.7009486908481505,262.1471662799893,38.87964290196418,0.0,1.0,18.934206306632827,4.4173027759373245,0.0,Landing
16.7,-303.96009881431877,-993.6725505976824,165.2184664468158,2.9743600671790786,-0.8541907372175046,262.4122369142774,39.07618983146398,0.0,1.0,18.934206306632827,4.4173027759373245,0.0,Landing
16.8,-305.63461672699293,-1001.3340411818263,165.4776135862749,3.3423370365258562,-0.701981444296944,262.4191802259554,38.87073434274372,0.0,1.0,18.934206306632827,4.4173027759373245,0.0,Landing
16.900000000000002,-307.3068183081508,-1025.5964444728875,165.28748032461993,3.12731413806624,-0.39648723142560605,262.59164298952555,38.58373185040057,0.0,1.0,18.934206306632827,4.4173027759373245,0.0,Landing
17.0,-309.0880810366832,-1044.744369454554,165.44432890972266,2.760401433096918,-0.4065529220726133,262.38448690410723,39.106316144678026,0.0,1.0,18.934206306632827,4.4173027759373245,0.0,Landing
17.1,-310.8583385742657,-1023.1778814183599,166.6367473638779,3.176321741496753,-0.7385265029851248,262.37363125151,38.60351930704176,0.0,1.0,18.934206306632827,4.4173027759373245,0.0,Landing
17.2,-312.4227077152426,-1010.9622783666509,165.11930389960392,3.2988764625515263,-0.5813028041754733,262.2617354479096,38.736700576957624,0.0,1.0,18.934206306632827,4.4173027759373245,0.0,Landing
17.3,-314.14289242851646,-974.7141127227792,165.75920989584893,3.545868036381958,-0.681851214911118,262.5062646263409,38.68598937150177,0.0,1.0,18.934206306632827,4.4173027759373245,0.0,Landing
17.400000000000002,-315.7319091378796,-992.849673119224,165.8708935901541,3.5168941535609615,-0.3436448446629836,262.37142062795215,38.421261142043164,0.0,1.0,18.934206306632827,4.4173027759373245,0.0,Landing
17.5,-317.38695608083873,-973.3464579315864,164.85708732604448,3.697104091125193,-0.11172903641773535,262.31465569128363,39.21617191456355,0.0,1.0,18.934206306632827,4.4173027759373245,0.0,Landing
17.6,-319.0096247181744,-975.2985112799138,164.15783760893964,3.070550058093849,-0.6675282099797235,262.44709456633666,38.42096954059006,0.0,1.0,18.934206306632827,4.4173027759373245,0.0,Landing
17.7,-320.60840169427917,-993.4569079261905,164.42373084206776,3.07889367239994,-0.013018930862572442,262.3851839228728,38.49963249915055,0.0,1.0,18.934206306632827,4.4173027759373245,0.0,Landing
17.8,-322.3542406204697,-996.9895768075617,165.20696204339805,3.602735837287812,-0.4398505936029331,262.6699950570744,38.54880352658303,0.0,1.0,18.934206306632827,4.4173027759373245,0.0,Landing
17.900000000000002,-323.9945726022122,-1014.7184056266042,165.76652062974372,3.2952250965204706,-0.6760148226028369,262.4855405721237,38.82959374909205,0.0,1.0,18.934206306632827,4.4173027759373245,0.0,Landing
18.0,-325.6819937224122,-999.6170184638231,166.07484015723782,3.4143176625483522,-0.39717432311669754,262.44177291339565,39.39810315295963,0.0,1.0,18.934206306632827,4.4173027759373245,0.0,Landing
18.1,-327.3523257127888,-1010.1518367362814,165.0806427829302,3.1069617434866816,-0.6223500684775971,262.3927522376806,39.134806787399306,0.0,1.0,18.934206306632827,4.4173027759373245,0.0,Landing
18.2,-329.0453317858936,-985.3250984598958,164.58884060554306,3.2169927347281595,-0.35865097377041105,262.34986581669364,38.89627373774948,0.0,1.0,18.934206306632827,4.4173027759373245,0.0,Landing
18.3,-330.60861921471167,-980.7740384352314,164.56541717136912,3.042456902043464,-0.39754828687501764,262.50763980473425,39.179873223185524,0.0,1.0,18.934206306632827,4.4173027759373245,0.0,Landing
18.400000000000002,-332.25619590496495,-986.537991876196,165.9212968397368,3.1974734829785767,-0.1554024589899995,262.3772483642674,38.80143158758978,0.0,1.0,18.934206306632827,4.4173027759373245,0.0,Landing
18.5,-333.9780217452746,-1016.7618816574645,163.6871644477932,3.424862087329926,-0.5232445315495814,262.1375193972592,38.8959589267901,0.0,1.0,18.934206306632827,4.4173027759373245,0.0,Landing
18.6,-335.692428622999,-1028.9147996104816,164.40395209264778,3.4213324115372465,-0.21778664258603975,262.19265085283405,39.30302256963908,0.0,1.0,18.934206306632827,4.4173027759373245,0.0,Landing
18.7,-337.40076990301736,-1014.5775493216888,165.0782416686784,3.0641802319333356,-0.5761514853393227,262.68384656290345,38.890409205506636,0.0,1.0,18.934206306632827,4.4173027759373245,0.0,Landing
18.8,-339.05090949188303,-1005.8508411510843,164.08379027000294,2.929207638426645,-0.43050860309343875,262.32641610413066,38.791333325066404,0.0,1.0,18.934206306632827,4.4173027759373245,0.0,Landing
18.900000000000002,-340.7216828287544,-1001.6009068732615,163.5409070427784,3.3158236207560043,-0.7583496981594398,262.4934032214205,38.672714832173504,0.0,1.0,18.934206306632827,4.4173027759373245,0.0,Landing
19.0,-342.40877443738367,-1033.229169113872,165.7706247892229,3.1315472636296233,-0.8189283893916711,262.2201606309891,38.49094964665301,0.0,1.0,18.934206306632827,4.4173027759373245,0.0,Landing
19.1,-344.2170553374524,-1045.6303325375984,165.62300345117467,2.9006545988219843,-0.4191247281901165,262.4451717563452,38.65613031423635,0.0,1.0,18.934206306632827,4.4173027759373245,0.0,Landing
19.200000000000003,-345.9498344914424,-1048.5651843715573,165.78802311045015,3.250607283414976,-0.8857802160719337,262.3764232365388,38.834501299622076,0.0,1.0,18.934206306632827,4.4173027759373245,0.0,Landing
19.3,-347.65160035924146,-1034.7435020736157,164.465829978267,3.34718649698004,-0.4657010098298966,262.31915236795055,38.87860120873384,0.0,1.0,18.934206306632827,4.4173027759373245,0.0,Landing
19.400000000000002,-349.3907728478205,-1024.4099422440513,163.26209419251947,3.263793344999107,-0.4483741660985309,262.4230428749689,38.859776803580935,0.0,1.0,18.934206306632827,4.4173027759373245,0.0,Landing
19.5,-351.07188420266266,-1017.0928379216775,164.01037749126925,3.115977512410242,-0.4596034204638588,262.70579806794046,38.690576472183196,0.0,1.0,18.934206306632827,4.4173027759373245,0.0,Landing
19.6,-352.73706454884984,-1017.7518812948733,164.83175947510227,3.205143371923601,-0.654160168504794,262.31272542924944,38.071567378645796,0.0,1.0,18.934206306632827,4.4173027759373245,0.0,Landing
19.700000000000003,-354.47953225429484,-1017.5362455890195,165.0362353568163,3.292860943737371,-0.4458477636328277,262.39300187502295,39.454223552805516,0.0,1.0,18.934206306632827,4.4173027759373245,0.0,Landing
19.8,-356.15956543060776,-1015.3604146602788,165.48387411559818,3.0755405229850696,-0.6780354756702883,262.527573722121,38.50005232419856,0.0,1.0,18.934206306632827,4.4173027759373245,0.0,Landing
19.900000000000002,-357.81386662215124,-1000.0521506849623,163.5960556190922,2.989663824366981,-0.5537444706179386,262.4012288747881,38.673471400742756,0.0,1.0,18.934206306632827,4.4173027759373245,0.0,Landing
20.0,-359.47979300771965,-1007.2929086732415,164.91475793931536,3.149344480628999,-1.0251694575225891,262.5573467571089,38.78867918053972,0.0,1.0,18.934206306632827,4.4173027759373245,0.0,Landing
20.1,-361.19602997397396,-1010.1547473305459,165.73318552546147,2.768126179709463,-0.648626900521731,262.17359111248606,38.91619430410603,0.0,1.0,18.934206306632827,4.4173027759373245,0.0,Landing
20.200000000000003,-362.86464035880397,-1011.4179639229405,162.90815165593412,3.0762999409845113,-0.31259837605274665,262.33794275955154,38.89261844705315,0.0,1.0,18.934206306632827,4.4173027759373245,0.0,Landing
20.3,-364.53688282733435,-1007.4833481367364,164.99548851645758,3.5457197187432334,-0.40091679348604325,262.52131024194637,39.14214388364057,0.0,1.0,18.934206306632827,4.4173027759373245,0.0,Landing
20.400000000000002,-366.23344671465765,-1019.1666887422798,163.53274218625276,3.3248998850475946,-0.6293528304679666,262.5464561542624,38.27649728094649,0.0,1.0,18.934206306632827,4.4173027759373245,0.0,Landing
20.5,-367.96047380251537,-1024.7079611291156,166.58082728520807,2.9646705699547473,-0.38459533629977677,262.4120896417578,38.85230156660395,0.0,1.0,18.934206306632827,4.4173027759373245,0.0,Landing
20.6,-369.66042263297993,-1028.9098892252014,164.32246152083886,2.941683813791332,-0.44677707398678973,262.6856308577005,38.594518618020075,0.0,1.0,18.934206306632827,4.4173027759373245,0.0,Landing
20.700000000000003,-371.37799616078365,-1007.4418548608492,165.37612909252368,3.2995810282319,-0.757013651782716,262.29038524926204,38.75148534047008,0.0,1.0,18.934206306632827,4.4173027759373245,0.0,Landing
20.8,-372.9976830768196,-1022.7852977243629,165.11441776127506,3.3906083014788715,-0.6868868526235895,262.59550651162476,38.98676652966142,0.0,1.0,18.934206306632827,4.4173027759373245,0.0,Landing
20.900000000000002,-374.77434912160174,-1038.005920853152,162.09893976438036,3.4441232866344964,-0.6966167708107222,262.35301560334074,38.247744467924136,0.0,1.0,18.934206306632827,4.4173027759373245,0.0,Landing
21.0,-376.5680257650494,-1049.0468266367316,163.37538174229,3.161926414079185,-0.5731969049648467,262.2167199809635,39.192139945188885,0.0,1.0,18.934206306632827,4.4173027759373245,0.0,Landing
21.1,-378.24291721000327,-1021.8080225490212,165.19120965293334,3.130419845854361,-0.6747941836348151,262.3758091127447,38.55226568179753,0.0,1.0,18.934206306632827,4.4173027759373245,0.0,Landing
21.200000000000003,-379.88338923434685,-986.8943751898087,164.8003966382428,3.192133308073811,-0.5497222091679126,262.44941556410095,38.90932062574476,0.0,1.0,18.934206306632827,4.4173027759373245,0.0,Landing
21.3,-381.50249764099846,-999.2376807833466,163.41755693805803,3.1522774777442244,-0.4953065998371043,262.0959792610711,39.159130139521224,0.0,1.0,18.934206306632827,4.4173027759373245,0.0,Landing
21.400000000000002,-383.23910561392,-998.0776440738396,166.36486035385508,2.9297529073021904,-0.6835152673563155,262.2747931908784,38.67795278818027,0.0,1.0,18.934206306632827,4.4173027759373245,0.0,Landing
21.5,-384.87377745471605,-1017.8316566464446,163.8448682027689,3.324905928976246,-0.41875964858894055,262.3608313980076,38.553640583055596,0.0,1.0,18.934206306632827,4.4173027759373245,0.0,Landing
21.6,-386.5916559242307,-1004.0471675142271,165.31404852433516,3.615970732467008,-0.6120850084387399,262.4475024771357,38.19117334155974,0.0,1.0,18.934206306632827,4.4173027759373245,0.0,Landing
21.700000000000003,-388.25934145149114,-1006.8059532479765,165.94672489072536,2.744385275890293,-0.8215676337516693,262.39113303542354,38.21841980666956,0.0,1.0,18.934206306632827,4.4173027759373245,0.0,Landing
21.8,-389.90780722095593,-996.4538146610721,166.40519296959488,3.3335608270368744,-0.5213389100861794,262.2779065150662,38.98371889971816,0.0,1.0,18.934206306632827,4.4173027759373245,0.0,Landing
21.900000000000002,-391.57392499753604,-1005.6862807867901,165.3268597511634,3.3154225977937903,-0.6656410925897607,262.14353388210543,39.22642133714012,0.0,1.0,18.934206306632827,4.4173027759373245,0.0,Landing
22.0,-393.2877728554251,-997.6803599808704,163.76672529665598,3.4491258740773385,-0.5844813443027268,262.12422056640094,38.92720097070184,0.0,1.0,18.934206306632827,4.4173027759373245,0.0,Landing
22.1,-394.8962090208603,-1010.3006554069225,163.63750195394329,3.153253445563851,-0.635395997197018,262.6263831980215,38.9933891285464,0.0,1.0,18.934206306632827,4.4173027759373245,0.0,Landing
22.200000000000003,-396.62542827457065,-1011.3384295866808,166.36610579606284,2.9592505830585822,-0.2803925866484824,262.5607357388369,39.029138867593275,0.0,1.0,18.934206306632827,4.4173027759373245,0.0,Landing
22.3,-398.3444650033585,-1003.2947783044165,165.19956106827766,3.3956200200426454,-0.5166314332708045,262.6310648169581,38.72263940762005,0.0,1.0,18.934206306632827,4.4173027759373245,0.0,Landing
22.400000000000002,-399.91268291238237,-992.2816699302075,164.43719688538397,2.9347437218926578,-0.7294006726165625,262.42847372423967,38.810580846206626,0.0,1.0,18.934206306632827,4.4173027759373245,0.0,Landing
22.5,-401.5868366242217,-968.040732642612,166.4010867695438,3.4474825458552973,-0.19232495953406353,262.56369374887595,38.86161290116635,0.0,1.0,18.934206306632827,4.4173027759373245,0.0,Landing
22.6,-403.18466866657155,-998.5957698606398,164.9824991576046,3.1648189754163325,-0.8451941739106583,262.47628179067533,39.19290912588166,0.0,1.0,18.934206306632827,4.4173027759373245,0.0,Landing
22.700000000000003,-404.90566176168556,-988.7154765765672,165.18919413844213,3.3280713649449005,-0.5475095258287169,262.5238014395434,38.40975428791252,0.0,1.0,18.934206306632827,4.4173027759373245,0.0,Landing
22.8,-406.5304140071045,-998.3094642051242,164.0185338821589,3.1225902703710164,-0.3776819904870532,262.69637145592196,38.2394402262574,0.0,1.0,18.934206306632827,4.4173027759373245,0.0,Landing
22.900000000000002,-408.1762159875972,-984.6506126512509,163.2047745383345,3.2861615299619493,-0.4565171600167087,262.2961025064417,39.55411933597072,0.0,1.0,18.934206306632827,4.4173027759373245,0.0,Landing
23.0,-409.8289148249418,-984.1960069804372,164.34586067874898,3.2928225862723397,-0.8591359113162178,262.46166839967975,38.78331892530158,0.0,1.0,18.934206306632827,4.4173027759373245,0.0,Landing
23.1,-411.4513940420067,-997.1568420583026,167.51933310946376,3.2182370738961867,-0.5556237295276732,262.5474512241242,38.563552105338616,0.0,1.0,18.934206306632827,4.4173027759373245,0.0,Landing
23.200000000000003,-413.1620001978887,-975.9471588478846,164.66955885506457,3.3515054625609157,-0.5023334242746381,262.4720148816307,38.838021896466586,0.0,1.0,18.934206306632827,4.4173027759373245,0.0,Landing
23.3,-414.70865061918124,-996.4399688660933,164.98075789835863,3.288154123400178,-0.6596102430466391,262.32567979949977,38.87024778177185,0.0,1.0,18.934206306632827,4.4173027759373245,0.0,Landing
23.400000000000002,-416.4335938863372,-977.4350238930083,164.01797676979194,2.7621503334401907,-0.2055332361413718,262.8522075461384,38.95876113363959,0.0,1.0,18.934206306632827,4.4173027759373245,0.0,Landing
23.5,-418.04917531735373,-986.7633717466902,165.5515623621618,3.9404548775851134,-0.836065258073859,262.47711847647406,38.79124020684562,0.0,1.0,18.934206306632827,4.4173027759373245,0.0,Landing
23.6,-419.6424674779147,-960.2875117107828,166.07085822165413,3.5237582117877815,-0.763371391221805,262.2593755941102,38.888797889426804,0.0,1.0,18.934206306632827,4.4173027759373245,0.0,Landing
23.700000000000003,-421.2350314448911,-969.8386664486634,164.70374833140997,3.4738844520308954,-0.28308792514695635,262.1845349326187,39.11056742682246,0.0,1.0,18.934206306632827,4.4173027759373245,0.0,Landing
23.8,-422.89836864959705,-972.3345334103783,162.48492754783638,2.969753815743379,-0.4279135269038066,262.5756396720742,38.943862642412654,0.0,1.0,18.934206306632827,4.4173027759373245,0.0,Landing
23.900000000000002,-424.5041401449666,-961.0407094324842,165.90699942768163,3.0667381919163854,-0.7606644534372311,262.32605524301016,39.12317215229466,0.0,1.0,18.934206306632827,4.4173027759373245,0.0,Landing
24.0,-426.0402349920535,-933.6712344293005,165.04772689259042,3.337306367539224,-0.8105486200041039,262.2630000864515,39.01543160704405,0.0,1.0,18.934206306632827,4.4173027759373245,0.0,Landing
24.1,-427.56672482174355,-944.6647057790528,162.95361426960878,3.237081293459911,-0.8555518173352321,262.55192715419946,38.482041998237456,0.0,1.0,18.934206306632827,4.4173027759373245,0.0,Landing
24.200000000000003,-429.22746367386185,-962.3853509030369,163.79317096168126,3.7928015130124257,-0.36488096444177226,262.7588305055825,38.95864829483721,0.0,1.0,18.934206306632827,4.4173027759373245,0.0,Landing
24.3,-430.8521617465687,-974.5076478117994,165.95218593649318,3.1286917239395193,-0.33118534093723406,262.52612819978356,38.75411037785973,0.0,1.0,18.934206306632827,4.4173027759373245,0.0,Landing
24.400000000000002,-432.43926306080255,-965.3386908099833,163.19716950092928,3.368621068900713,-0.6685798720392427,262.52446239824417,38.56158554699474,0.0,1.0,18.934206306632827,4.4173027759373245,0.0,Landing
24.5,-434.05415712791176,-962.0045942399429,165.63106872865043,3.0954645114998476,-0.8776814397925188,262.515808106313,38.896908289633664,0.0,1.0,18.934206306632827,4.4173027759373245,0.0,Landing
24.6,-435.6621847177684,-978.7306814886392,166.52098087849603,3.258954228102255,-0.4097363717507302,262.30607111939537,38.74127628155241,0.0,1.0,18.934206306632827,4.4173027759373245,0.0,Landing
24.700000000000003,-437.33291646824574,-973.3410235234487,166.47705574696568,2.9869161410581446,-0.5688830517061771,262.2910334285523,38.69291051243708,0.0,1.0,18.934206306632827,4.4173027759373245,0.0,Landing
24.8,-438.920862245529,-974.5207394641625,165.58118932932402,3.269359071154707,-0.6147166692907358,262.3951000570014,38.425496652596316,0.0,1.0,18.934206306632827,4.4173027759373245,0.0,Landing
24.900000000000002,-440.5347884150892,-967.4559878052605,163.65651057479576,3.6042325467644187,-0.8189675943726776,262.07686065747,39.276433224329054,0.0,1.0,18.934206306632827,4.4173027759373245,0.0,Landing
25.0,-442.17019640727204,-976.7585417504961,165.44931264747225,3.480657457992366,-0.542474839802005,262.4747929955457,39.0283343981367,0.0,1.0,18.934206306632827,4.4173027759373245,0.0,Landing
25.1,-443.8046549542815,-997.9249045979259,164.86809903276634,3.292152278115508,-0.8154101232317486,262.1781987020195,38.53399497381607,0.0,1.0,18.934206306632827,4.4173027759373245,0.0,Landing
25.200000000000003,-445.52441293807885,-988.0953769672374,164.99367396104623,3.1869890778421825,-0.6590447894700664,262.3703940909511,39.040067780651846,0.0,1.0,18.934206306632827,4.4173027759373245,0.0,Landing
25.3,-447.11067329210823,-1009.3350020269554,165.6637311099631,3.521777559057387,-0.6008823256488557,262.37014536695415,39.179637597838145,0.0,1.0,18.934206306632827,4.4173027759373245,0.0,Landing
25.400000000000002,-448.85132996441627,-980.2425372028438,164.65890593848528,2.975699319671675,-0.3764397138239278,262.4125634167633,38.90209265067885,0.0,1.0,18.934206306632827,4.4173027759373245,0.0,Landing
25.5,-450.4256256240931,-989.7732205756142,163.70992988714121,2.958792350046433,-0.6264601990575228,262.55468439918343,38.428576168440756,0.0,1.0,18.934206306632827,4.4173027759373245,0.0,Landing
25.6,-452.0595393949863,-975.4714819981814,164.1662714451492,3.1832366833905397,-0.5099098970007684,262.48557683823174,39.158320339277104,0.0,1.0,18.934206306632827,4.4173027759373245,0.0,Landing
25.700000000000003,-453.7286873744072,-979.7993378112665,162.0933330608937,3.3932338024486675,-0.3486165734556719,262.3909749448883,38.38797750984949,0.0,1.0,18.934206306632827,4.4173027759373245,0.0,Landing
25.8,-455.3246223131494,-982.8436810922767,164.76866308099073,2.994677768239666,-0.6663143297626369,262.40606674915125,38.54367335246683,0.0,1.0,18.934206306632827,4.4173027759373245,0.0,Landing
25.900000000000002,-456.9737578004477,-970.0199396744893,165.47460024995615,3.261567590350944,-0.6437769424454872,262.70656108275443,38.09467968582001,0.0,1.0,18.934206306632827,4.4173027759373245,0.0,Landing
26.0,-458.5787870727796,-964.6963943267224,165.81801244714978,3.3770681228960187,-0.6011535813242753,262.36793004610286,38.83379308559907,0.0,1.0,18.934206306632827,4.4173027759373245,0.0,Landing
26.1,-460.148104284783,-961.8055285599098,166.00461656783034,3.358685010151688,-0.6735211656285736,262.3171467674591,39.097400351125515,0.0,1.0,18.934206306632827,4.4173027759373245,0.0,Landing
26.200000000000003,-461.78278544324723,-961.7431682252573,164.16395294674075,3.6563681166004356,-0.3342612891211352,262.47919624010683,39.0568954036557,0.0,1.0,18.934206306632827,4.4173027759373245,0.0,Landing
26.3,-463.3875029139059,-969.0131631469626,163.37394983232514,3.1875750338487516,-0.38185629960099776,262.32702575512485,38.6868025484527,0.0,1.0,18.934206306632827,4.4173027759373245,0.0,Landing
26.400000000000002,-464.99317010051783,-950.5901185788616,165.5887791755456,3.1702777293096753,-0.13820027477883517,262.7557737255453,38.99485590993719,0.0,1.0,18.934206306632827,4.4173027759373245,0.0,Landing
26.5,-466.53573603614154,-953.558839362222,165.26020653211404,3.1230156197801096,-0.6685862231711289,262.2776267423636,38.75076532708548,0.0,1.0,18.934206306632827,4.4173027759373245,0.0,Landing
26.6,-468.155297110717,-945.7377591133877,163.65243260967648,3.5532004480849113,-0.39772726315414,262.4161947525705,39.38615325120108,0.0,1.0,18.934206306632827,4.4173027759373245,0.0,Landing
26.700000000000003,-469.72185889608477,-951.7435859673355,165.20254484276282,3.2489415232606857,-0.5180122210016749,262.3794126460982,38.84474355097108,0.0,1.0,18.934206306632827,4.4173027759373245,0.0,Landing
26.8,-471.2944539659782,-944.7806141030014,165.28706368899284,3.3294553799695668,-0.9400189627876596,262.3781196443871,38.642703893681016,0.0,1.0,18.934206306632827,4.4173027759373245,0.0,Landing
26.900000000000002,-472.879200181232,-958.9887744083399,163.51571187234805,3.5147304797773122,-0.6855327872232908,262.571702949328,39.03831532643113,0.0,1.0,18.934206306632827,4.4173027759373245,0.0,Landing
27.0,-474.51680276812647,-957.1044047332975,164.28057107038708,2.9440973063780933,-0.3782343471478081,262.3548153143597,38.42404785387166,0.0,1.0,18.934206306632827,4.4173027759373245,0.0,Landing
27.1,-476.0799759896447,-961.1252945785054,165.987109092493,3.1182975883707496,-0.5153645881846437,262.2038847476688,38.61148589714258,0.0,1.0,18.934206306632827,4.4173027759373245,0.0,Landing
27.200000000000003,-477.68482665412455,-944.2416521617133,164.51092387168202,3.553911447824497,-0.7088598117371949,262.5198190057815,39.23534082487437,0.0,1.0,18.934206306632827,4.4173027759373245,0.0,Landing
27.3,-479.23801102893503,-942.4300586974368,164.74954592399226,3.556526832878249,-0.49316589799823773,262.4215792450898,39.13114994329511,0.0,1.0,18.934206306632827,4.4173027759373245,0.0,Landing
27.400000000000002,-480.7921262831319,-921.3458125335933,165.76630659823988,3.360622072809157,-0.7079113006292714,262.1913412498038,38.16890808112119,0.0,1.0,18.934206306632827,4.4173027759373245,0.0,Landing
27.5,-482.2915557167925,-940.3681799111382,166.1812286134173,3.1348986499231652,-0.7470733107750399,262.2347988239669,38.21169376750836,0.0,1.0,18.934206306632827,4.4173027759373245,0.0,Landing
27.6,-483.9398519284907,-948.0619587484853,166.37532768256168,3.1934674913465595,-0.3044068346564169,262.6679804563669,38.62638525187733,0.0,1.0,18.934206306632827,4.4173027759373245,0.0,Landing
27.700000000000003,-485.5324360768743,-955.9331545870464,163.6380804454442,2.9323321551832064,-0.34596884351525015,262.4029625857188,39.078518901775126,0.0,1.0,18.934206306632827,4.4173027759373245,0.0,Landing
27.8,-487.07122148972775,-949.324628818033,165.78008474254443,3.041423133451073,-0.18193703093621605,262.42596091413475,38.56315677106821,0.0,1.0,18.934206306632827,4.4173027759373245,0.0,Landing
27.900000000000002,-488.6864750725809,-942.8052778244592,165.68632107201597,3.290484400286228,-0.4183303616241627,262.3089799675056,38.58002778481412,0.0,1.0,18.934206306632827,4.4173027759373245,0.0,Landing
28.0,-490.2464624659966,-938.6975935741134,165.83364644289094,3.383134253497541,-0.5013920452221793,262.1290714700523,38.659554091382645,0.0,1.0,18.934206306632827,4.4173027759373245,0.0,Landing
28.1,-491.7647094575983,-934.6951948380138,166.6984038602293,3.3938689981988515,-0.6745994707049711,262.3282303969256,38.66830412740617,0.0,1.0,18.934206306632827,4.4173027759373245,0.0,Landing
28.200000000000003,-493.35995104677096,-938.0379275940413,164.26756140324244,3.417319537192915,-0.47810684018368826,262.51134585325576,38.88094874182255,0.0,1.0,18.934206306632827,4.4173027759373245,0.0,Landing
28.3,-494.9366521039668,-964.5954505269515,165.09082786254467,3.415759738142921,-0.6589383923506663,262.2343412070388,39.000204535725885,0.0,1.0,18.934206306632827,4.4173027759373245,0.0,Landing
28.400000000000002,-496.5876867102331,-949.3568417775691,163.02370225910917,3.404541234693182,-0.7340906928025878,262.52230308217213,38.72194079768404,0.0,1.0,18.934206306632827,4.4173027759373245,0.0,Landing
28.5,-498.1067352556588,-967.0084535785918,164.1160482352937,3.5296903505610797,-0.4503109861883807,262.41808406435416,38.96674027967945,0.0,1.0,18.934206306632827,4.4173027759373245,0.0,Landing
28.6,-499.7716943718598,-954.584343469412,163.932246514944,3.5971216511032487,-0.547142687799637,262.5059131250408,38.96209486453769,0.0,1.0,18.934206306632827,4.4173027759373245,0.0,Landing
28.700000000000003,-501.36060842758013,-962.7672741773381,164.34657983546953,2.9856523716146373,-0.3696113242612861,262.49646843727396,39.032077325298765,0.0,1.0,18.934206306632827,4.4173027759373245,0.0,Landing
28.8,-502.9205716265455,-942.245742110606,164.59565871371453,3.223400783752919,-0.5321242607283966,262.38011025339506,38.30689464043747,0.0,1.0,18.934206306632827,4.4173027759373245,0.0,Landing
28.900000000000002,-504.4829230824128,-945.4744928003151,165.11589270758805,3.2252224951411734,-0.4030149984497273,262.3453834216418,38.62803788332654,0.0,1.0,18.934206306632827,4.4173027759373245,0.0,Landing
29.0,-506.0879808915817,-950.5086110611501,163.81286746549836,3.1529253923104523,-0.33968651541667993,262.3186880767603,38.78461563383444,0.0,1.0,18.934206306632827,4.4173027759373245,0.0,Landing
29.1,-507.67311468185125,-948.2175999967126,165.92479847751736,3.552726970307681,-0.2936325813492075,262.46586609612564,38.72282383506282,0.0,1.0,18.934206306632827,4.4173027759373245,0.0,Landing
29.200000000000003,-509.2240110823964,-950.5076024942582,165.5959414506943,3.509798724362472,-0.5915716844467244,262.3085572465575,39.43196309025276,0.0,1.0,18.934206306632827,4.4173027759373245,0.0,Landing
29.3,-510.840518904053,-963.2795218543492,164.73389297076065,2.811511355261916,-0.2771705867657752,262.43280734715813,39.169825902003424,0.0,1.0,18.934206306632827,4.4173027759373245,0.0,Landing
29.400000000000002,-512.489512291123,-962.7583207119642,166.46477581139274,2.832803563636992,-0.6271152193240971,262.4439166445677,38.868671527418584,0.0,1.0,18.934206306632827,4.4173027759373245,0.0,Landing
29.5,-514.0378026859562,-946.4113527294671,163.91355643481086,3.2531022429571443,-0.8706640999186358,262.43288856375534,38.66248639322214,0.0,1.0,18.934206306632827,4.4173027759373245,0.0,Landing
29.6,-515.5725756677003,-932.6880902153789,166.37463358982424,3.2286938876651905,-0.4972685005989188,262.10944554318655,39.275992011509395,0.0,1.0,18.934206306632827,4.4173027759373245,0.0,Landing
29.700000000000003,-517.1529527421999,-943.1911406696827,164.99290754671003,3.3482482546797643,-0.8433700111079352,262.52651163142264,38.76144273916233,0.0,1.0,18.934206306632827,4.4173027759373245,0.0,Landing
