time_s,altitude_ft,vertical_speed_fpm,ias_kt,pitch_deg,roll_deg,heading_deg,throttle_pct,afterburner_on,gear_down,flaps_deg,speedbrake_pct,weight_on_wheels,label
0.0,-1.563153204352487,-514.0847038878321,181.50899423195605,2.4512085409200517,1.1893281856720168,149.66457197651255,39.06933895411925,0.0,1.0,18.369625674033706,5.324774542146016,0.0,Landing
0.1,-3.276768883978594,-691.7272303397982,181.43987277350053,2.455600788357331,1.1812301349276115,149.53526913993642,39.060181675689925,0.0,1.0,18.369625674033706,5.324774542146016,0.0,Landing
0.2,-5.021789356051478,-1014.9821439198948,181.38940363221383,2.3404959996017802,1.1404135130422057,149.23380942643735,39.1584821955858,0.0,1.0,18.369625674033706,5.324774542146016,0.0,Landing
0.30000000000000004,-6.638063923951961,-997.0449755766502,182.07604594530383,2.424347143566626,0.7257391490848955,149.5765331549099,39.4821599746948,0.0,1.0,18.369625674033706,5.324774542146016,0.0,Landing
0.4,-8.261993761861845,-994.2776843765181,180.835753448183,2.396895356410409,0.6668717793620634,149.7690654307994,39.060430497636254,0.0,1.0,18.369625674033706,5.324774542146016,0.0,Landing
0.5,-9.993177777934068,-1019.0870645802542,182.10034753823956,2.2461779909619537,1.1840127339155966,149.44358347225818,39.62944782232523,0.0,1.0,18.369625674033706,5.324774542146016,0.0,Landing
0.6000000000000001,-11.733499246853231,-1020.0435660600775,181.26751825419746,2.243994193854103,1.235403500925754,149.74890406596603,39.29633189751122,0.0,1.0,18.369625674033706,5.324774542146016,0.0,Landing
0.7000000000000001,-13.362211592162232,-1000.6329585937859,182.50602165435853,1.9577975985012104,1.0438633132415784,149.5160834719302,39.65272615776512,0.0,1.0,18.369625674033706,5.324774542146016,0.0,Landing
0.8,-14.996342570902998,-988.791437481745,181.38938814788762,2.3015966207773153,1.2454067239019109,149.58391096644328,39.07595559999639,0.0,1.0,18.369625674033706,5.324774542146016,0.0,Landing
0.9,-16.677456434261956,-1012.0033761875526,182.47913061909688,2.475617179349595,0.9454111162332421,149.3880826577883,39.33449040805648,0.0,1.0,18.369625674033706,5.324774542146016,0.0,Landing
1.0,-18.422228473099995,-1010.892486829231,180.61686403983705,2.296485165108049,1.0427321103894647,149.5615781790881,39.49740854356885,0.0,1.0,18.369625674033706,5.324774542146016,0.0,Landing
1.1,-20.050805005049153,-1003.1001793981828,181.74385243162422,2.2803779045392156,0.8741959673923723,149.38289889478762,39.01098916082143,0.0,1.0,18.369625674033706,5.324774542146016,0.0,Landing
1.2000000000000002,-21.69295733125287,-981.3566179959885,182.2334853339082,2.406564568256079,0.620982941056549,149.29877100638168,38.618108892632,0.0,1.0,18.369625674033706,5.324774542146016,0.0,Landing
1.3,-23.329011563079938,-993.5218871615226,182.77956704257818,2.2003136001849435,0.7762163955067418,149.46850561878097,39.178157070714235,0.0,1.0,18.369625674033706,5.324774542146016,0.0,Landing
1.4000000000000001,-25.018414440856766,-1000.470938266411,183.60879615204394,2.5836174951189275,0.9728009076418291,149.34374198737976,38.75008700639605,0.0,1.0,18.369625674033706,5.324774542146016,0.0,Landing
1.5,-26.695312022584925,-1000.5120106870023,179.33367903090394,2.6583398830740586,1.1280831572205232,149.2017770034338,39.57630460179543,0.0,1.0,18.369625674033706,5.324774542146016,0.0,Landing
1.6,-28.33157161651495,-991.167319561061,180.81256073247272,2.2725033832464794,0.8689216172387336,149.6157366550516,39.37795815853394,0.0,1.0,18.369625674033706,5.324774542146016,0.0,Landing
1.7000000000000002,-29.97425103866207,-998.6442035619099,182.20076082337553,2.4279463251991507,0.8538073662886931,149.70585015372927,39.21906029190711,0.0,1.0,18.369625674033706,5.324774542146016,0.0,Landing
1.8,-31.688533040394475,-1012.7185367949365,182.2120628292337,1.9374678254879192,0.7369504638881599,149.72214201716662,38.83063726481729,0.0,1.0,18.369625674033706,5.324774542146016,0.0,Landing
1.9000000000000001,-33.39516430048963,-1026.7775743616603,179.55658369450018,2.584620193931291,0.8930440354634092,149.64580214464178,39.12412209974129,0.0,1.0,18.369625674033706,5.324774542146016,0.0,Landing
2.0,-35.10813891047037,-1017.1204673399246,180.59847103214986,2.137942176671056,0.8909619728333908,149.58614011562292,39.13159196178157,0.0,1.0,18.369625674033706,5.324774542146016,0.0,Landing
2.1,-36.7741353770941,-1011.0602027983263,180.29732123518187,2.531136318986306,0.6413273983155137,149.48476752678755,38.92375590789188,0.0,1.0,18.369625674033706,5.324774542146016,0.0,Landing
2.2,-38.450465314481264,-1020.2023801298083,180.6343478992038,2.3244547484152105,1.106259650631684,149.48045578395215,39.1123597575915,0.0,1.0,18.369625674033706,5.324774542146016,0.0,Landing
2.3000000000000003,-40.209150811119414,-1032.2960708440362,182.61616963461677,2.2379751622936426,0.9863661958525811,149.73612499956312,39.491734047863055,0.0,1.0,18.369625674033706,5.324774542146016,0.0,Landing
2.4000000000000004,-41.93561573131428,-1032.4696537609284,181.5816873926958,2.29713959421149,0.9364324061943752,149.50439198464903,39.010864850846,0.0,1.0,18.369625674033706,5.324774542146016,0.0,Landing
2.5,-43.612813583285906,-1019.9292709402329,181.86811214555456,2.295501791072319,0.9823011570021619,149.85436516185553,38.88198827014681,0.0,1.0,18.369625674033706,5.324774542146016,0.0,Landing
2.6,-45.30879716582058,-1013.6092946891339,182.75333691960188,2.4660201109654176,1.029418108588313,149.62606169725757,39.420761101392245,0.0,1.0,18.369625674033706,5.324774542146016,0.0,Landing
2.7,-47.00366220475995,-1012.5361992070935,181.08746663390693,2.6052049618313884,1.192710917566629,149.5220777209114,39.016040697769206,0.0,1.0,18.369625674033706,5.324774542146016,0.0,Landing
2.8000000000000003,-48.675494579321374,-994.4758565140602,181.74575183749548,2.392770229497996,0.9716259471629846,149.4397143356664,39.75436208932743,0.0,1.0,18.369625674033706,5.324774542146016,0.0,Landing
2.9000000000000004,-50.28117644839088,-996.8517474831898,183.559664611795,2.6518434666797726,1.1286702570999434,149.254205134828,39.267698242350896,0.0,1.0,18.369625674033706,5.324774542146016,0.0,Landing
3.0,-51.9879209421759,-980.5830619216919,180.41258509332604,2.358570406543831,1.3617825513393753,149.57793280760666,39.178427344142605,0.0,1.0,18.369625674033706,5.324774542146016,0.0,Landing
3.1,-53.57840988892983,-1000.2124122839874,183.6485081390811,2.142980198530907,0.7181896694544061,149.33710624560752,39.12764435898375,0.0,1.0,18.369625674033706,5.324774542146016,0.0,Landing
3.2,-55.28223850981082,-996.9221498338399,182.59642452155683,2.8330379526268805,1.070987373886397,149.2574247960673,38.98604373632454,0.0,1.0,18.369625674033706,5.324774542146016,0.0,Landing
3.3000000000000003,-56.9725316913451,-1011.9169895272008,183.08967647386146,2.303148890253141,0.9294386711636148,149.5271280049683,38.470672834765644,0.0,1.0,18.369625674033706,5.324774542146016,0.0,Landing
3.4000000000000004,-58.63799483656584,-1019.1889789108671,181.5107022864281,2.30081541172824,0.9033874808072556,149.28428275716453,39.21972535833904,0.0,1.0,18.369625674033706,5.324774542146016,0.0,Landing
3.5,-60.37818340436515,-1014.220466110119,182.42332860541896,2.3706916455612737,1.3122610727246644,149.77791579831478,39.09856773338266,0.0,1.0,18.369625674033706,5.324774542146016,0.0,Landing
3.6,-62.04363402189569,-1005.3739623585316,180.7846018864269,2.174779690513598,0.7783445198267647,149.2504960683841,38.630068342723575,0.0,1.0,18.369625674033706,5.324774542146016,0.0,Landing
3.7,-63.664864648358495,-975.3204395587474,181.51210658111782,2.7197920072366184,0.8488109292106143,149.40908133008463,39.25867391499211,0.0,1.0,18.369625674033706,5.324774542146016,0.0,Landing
3.8000000000000003,-65.25478560215889,-981.9935619582693,181.163311649177,2.09489886473711,1.2052018455247284,149.49411844008887,38.94873789906825,0.0,1.0,18.369625674033706,5.324774542146016,0.0,Landing
3.9000000000000004,-66.95360183168704,-984.2941274333625,182.6586412783912,2.3296674796518624,1.1244759499022035,149.26245426555994,39.40897766444476,0.0,1.0,18.369625674033706,5.324774542146016,0.0,Landing
4.0,-68.58633528552531,-1008.7950364211707,180.56542100291458,2.3429165765117843,0.7861775853795141,149.48954002264372,38.6858637421682,0.0,1.0,18.369625674033706,5.324774542146016,0.0,Landing
4.1000000000000005,-70.29876078426474,-999.0603081989603,182.2034920891387,2.2284649466906568,0.8293039771314832,149.62724095133046,39.280235094973534,0.0,1.0,18.369625674033706,5.324774542146016,0.0,Landing
4.2,-71.94890337268184,-1017.0256428860938,182.40638686943433,2.3088314465695556,1.4529424609357575,149.49394889030782,39.13715680631577,0.0,1.0,18.369625674033706,5.324774542146016,0.0,Landing
4.3,-73.67146349995578,-1014.4899181912989,181.39039081486618,2.2316188970698563,1.257207721602597,149.46486301149935,39.3464434344651,0.0,1.0,18.369625674033706,5.324774542146016,0.0,Landing
4.4,-75.37121037522124,-1017.8055290590464,181.9810741848433,2.595225410742727,0.9545874491343809,149.6350538493836,39.18074094666301,0.0,1.0,18.369625674033706,5.324774542146016,0.0,Landing
4.5,-77.03793101797707,-988.7258478270666,180.70422320277416,2.383449486294364,1.0623022289806596,149.27814461525634,39.13736311490395,0.0,1.0,18.369625674033706,5.324774542146016,0.0,Landing
4.6000000000000005,-78.61509273909111,-971.77067138214,180.95385082370973,2.315149618626171,1.4570585613307696,149.57586012936565,39.42847038465288,0.0,1.0,18.369625674033706,5.324774542146016,0.0,Landing
4.7,-80.23006373213194,-982.3360060304452,181.3931865503924,2.508943392106768,1.2774509684241186,149.3830812218506,39.179693250815745,0.0,1.0,18.369625674033706,5.324774542146016,0.0,Landing
4.800000000000001,-81.9496110481293,-991.3972203184358,182.49514136225335,2.0757707779914076,1.1412886686625776,149.4742630039782,39.560089291730094,0.0,1.0,18.369625674033706,5.324774542146016,0.0,Landing
4.9,-83.57207884068329,-994.6708315250959,182.50299461896023,2.4144554166586873,0.9845006649473685,149.5475789410052,38.968394665269635,0.0,1.0,18.369625674033706,5.324774542146016,0.0,Landing
5.0,-85.20341788975742,-981.4043733210668,182.99989716782895,2.434721436117257,1.0477566491324646,149.37382588566174,38.90981807912243,0.0,1.0,18.369625674033706,5.324774542146016,0.0,Landing
5.1000000000000005,-86.85663291473463,-987.3406034738679,181.58624117217428,2.3657185971059635,0.8750301466342179,149.36195203617183,39.38240986963093,0.0,1.0,18.369625674033706,5.324774542146016,0.0,Landing
5.2,-88.50878185805263,-1001.0493133772002,180.3237968267677,2.1555049525746823,1.1755738139876863,149.60846546741112,39.13227737387623,0.0,1.0,18.369625674033706,5.324774542146016,0.0,Landing
5.300000000000001,-90.20866445664342,-1015.6562356262356,182.11584595361495,2.378672905143737,1.2233227830610987,149.75632502278478,38.30785469062312,0.0,1.0,18.369625674033706,5.324774542146016,0.0,Landing
5.4,-91.93491409286581,-1019.5732897433203,181.46338062214534,2.853565084336749,0.9177925096192622,149.2925066488349,39.02522868978919,0.0,1.0,18.369625674033706,5.324774542146016,0.0,Landing
5.5,-93.60664830676923,-1025.344816164167,182.64064276010737,2.2181528480667914,0.9489353177844373,149.36133405224984,39.24529068126593,0.0,1.0,18.369625674033706,5.324774542146016,0.0,Landing
5.6000000000000005,-95.33538853746425,-1014.8554184313724,182.37734859402576,2.0819474723051514,1.201173334361449,149.52313480307805,39.06449833575839,0.0,1.0,18.369625674033706,5.324774542146016,0.0,Landing
5.7,-97.00919118502267,-1003.2307444216599,180.83294070742858,2.556757511267034,0.8615368055299493,149.37068655364135,38.927595470682036,0.0,1.0,18.369625674033706,5.324774542146016,0.0,Landing
5.800000000000001,-98.62280202887753,-972.8349574851535,180.68931179804045,2.190247134927187,0.7737875817282943,149.50009914996326,39.80020191944933,0.0,1.0,18.369625674033706,5.324774542146016,0.0,Landing
5.9,-100.19956332489002,-961.5760525626173,180.8571880957978,2.376734159986919,1.2029778280779284,149.5281031976815,39.433673460209654,0.0,1.0,18.369625674033706,5.324774542146016,0.0,Landing
6.0,-101.81707144783576,-983.2979706979104,181.141652715644,2.1910546727511844,0.9948111632397689,149.47273219111196,39.28996523487259,0.0,1.0,18.369625674033706,5.324774542146016,0.0,Landing
6.1000000000000005,-103.53929188236708,-1001.1944408466888,180.24633462157755,2.376324861673959,1.3716777788007344,149.12618131953639,39.07756321432519,0.0,1.0,18.369625674033706,5.324774542146016,0.0,Landing
6.2,-105.20553552912347,-1005.085697339112,182.80574089502022,2.4760420586245186,1.0048312207676253,149.54638708888763,38.64346934462568,0.0,1.0,18.369625674033706,5.324774542146016,0.0,Landing
6.300000000000001,-106.84249993453132,-965.4179942101991,181.4273939584206,2.280084015836761,0.8479116158402249,149.53870664440825,39.61468247413078,0.0,1.0,18.369625674033706,5.324774542146016,0.0,Landing
6.4,-108.36638185341808,-958.920718391542,183.06668736691802,2.3415372402330927,1.1625650641123682,149.40521727685388,39.22097357219638,0.0,1.0,18.369625674033706,5.324774542146016,0.0,Landing
6.5,-110.00013912108118,-976.1184769037386,182.32437128553704,2.745070624135113,0.6914507419101457,149.14146958552368,38.69994418214076,0.0,1.0,18.369625674033706,5.324774542146016,0.0,Landing
6.6000000000000005,-111.72309231905001,-1007.9668969751027,182.6334704201141,2.39286326448155,1.133196090832328,149.25984660064591,39.6004827346704,0.0,1.0,18.369625674033706,5.324774542146016,0.0,Landing
6.7,-113.40621633829359,-1000.3830231840425,181.9374295069763,2.4519270099549746,0.8049700177338361,149.5357521032007,39.0690125007278,0.0,1.0,18.369625674033706,5.324774542146016,0.0,Landing
6.800000000000001,-115.00205423700139,-997.5471813966493,182.50964720459658,2.6552587747220917,0.8346605512191954,149.59427942326556,38.88390610635567,0.0,1.0,18.369625674033706,5.324774542146016,0.0,Landing
6.9,-116.71082822603326,-986.8689201091996,181.13051692076772,2.5448873926383886,0.9161579769655666,149.6825586416764,39.322057523593244,0.0,1.0,18.369625674033706,5.324774542146016,0.0,Landing
7.0,-118.34056093883959,-987.3496490131289,183.49944591299155,2.3564199585404233,1.0872778358024267,149.36598566067437,39.18850974007711,0.0,1.0,18.369625674033706,5.324774542146016,0.0,Landing
7.1000000000000005,-119.93880248206703,-981.9259636197813,182.32541950674675,2.7925226745748324,0.7304933698709479,149.57936035560863,38.92712950792358,0.0,1.0,18.369625674033706,5.324774542146016,0.0,Landing
7.2,-121.62045804413216,-986.6951391411561,181.45155331177256,2.3705882311005233,0.6991892550064676,149.3840211011302,38.998425159426425,0.0,1.0,18.369625674033706,5.324774542146016,0.0,Landing
7.300000000000001,-123.27403663454537,-989.6763678858348,180.42005438678655,2.482119482192702,0.7762025831913202,149.20788026342825,38.86776314929166,0.0,1.0,18.369625674033706,5.324774542146016,0.0,Landing
7.4,-124.8871843214962,-980.932672845438,182.0903411272879,2.1268036873656198,1.0817460528480298,149.48540653511031,39.49911649823616,0.0,1.0,18.369625674033706,5.324774542146016,0.0,Landing
7.5,-126.52512140835935,-975.0541374337587,182.6947656756557,2.162705636214717,0.9924455437021542,149.3649199333613,39.12607672085994,0.0,1.0,18.369625674033706,5.324774542146016,0.0,Landing
7.6000000000000005,-128.14930732171416,-971.6416617363251,182.8804412515628,2.598820581495018,0.792602000654522,149.68951705513007,39.07442921989206,0.0,1.0,18.369625674033706,5.324774542146016,0.0,Landing
7.7,-129.74539263017783,-968.9244894453224,182.17746493082478,2.4746838516006147,0.909038342828812,149.51953738495365,39.72024420815199,0.0,1.0,18.369625674033706,5.324774542146016,0.0,Landing
7.800000000000001,-131.36974385558597,-970.2066685330578,184.57226880385102,2.437845778212467,1.0052227010793204,149.44725438602882,39.84744821807898,0.0,1.0,18.369625674033706,5.324774542146016,0.0,Landing
7.9,-133.00034066437945,-980.8085576878739,181.30693095485435,2.356576875905284,0.7849208013368579,149.54502172773084,39.036082591750684,0.0,1.0,18.369625674033706,5.324774542146016,0.0,Landing
8.0,-134.6494354186172,-978.8206602926834,181.3858225372422,2.458191483039583,1.066054233128455,149.64552887147522,38.782792643664116,0.0,1.0,18.369625674033706,5.324774542146016,0.0,Landing
8.1,-136.26384715704938,-981.5104310253332,180.46552452093457,2.2222004176199883,0.8888633808395002,149.6509512744268,38.68847291656949,0.0,1.0,18.369625674033706,5.324774542146016,0.0,Landing
8.200000000000001,-137.90789281950612,-987.1493118903403,182.0844388622296,2.318754854081794,0.8300910819186348,149.3290798005138,38.8223836877522,0.0,1.0,18.369625674033706,5.324774542146016,0.0,Landing
8.3,-139.5851819780689,-1012.6551210555534,180.48237912733327,2.2174578171829,0.5618521675183614,149.30142308007316,39.68979509925517,0.0,1.0,18.369625674033706,5.324774542146016,0.0,Landing
8.4,-141.32712276232715,-1010.1253846706358,180.98558474355843,2.165677570988606,0.931117770766608,149.58491248945518,38.95095417400209,0.0,1.0,18.369625674033706,5.324774542146016,0.0,Landing
8.5,-142.9585197428593,-1007.6204133858937,181.9910395078638,2.055765304723035,1.0173912862642698,149.93309181513706,38.65053034005124,0.0,1.0,18.369625674033706,5.324774542146016,0.0,Landing
8.6,-144.62328404499837,-974.7229620887368,183.24937460596306,2.3845003006277343,1.3058152210091964,149.40280184931362,38.85783950999355,0.0,1.0,18.369625674033706,5.324774542146016,0.0,Landing
8.700000000000001,-146.20073757277083,-968.2195189918333,182.01561692306134,2.4388432903454484,1.2988004714835324,149.50326431970944,39.22152307721789,0.0,1.0,18.369625674033706,5.324774542146016,0.0,Landing
8.8,-147.79961733781846,-956.7708658809748,182.53682626744563,2.4437338729110025,1.167015196654597,149.15513258209023,38.99253747396684,0.0,1.0,18.369625674033706,5.324774542146016,0.0,Landing
8.9,-149.40713837440325,-956.6547293577684,181.0622963558839,2.242401710886546,1.1919619942587472,149.51389204422878,38.934989409257966,0.0,1.0,18.369625674033706,5.324774542146016,0.0,Landing
9.0,-150.98401121955968,-970.0062931760158,180.4477535447078,2.0383394259176573,1.0203327548387524,149.6732031820842,39.24603998533206,0.0,1.0,18.369625674033706,5.324774542146016,0.0,Landing
9.1,-152.64964880369854,-988.2890316061093,179.96667442417296,2.421501134953418,0.9596955777859115,149.32430764256424,39.019576135946515,0.0,1.0,18.369625674033706,5.324774542146016,0.0,Landing
9.200000000000001,-154.3485835324338,-995.7734573181539,182.44055134970571,2.393977745983951,1.2068920684169677,149.5897006966252,38.81147457743602,0.0,1.0,18.369625674033706,5.324774542146016,0.0,Landing
9.3,-155.96287850615045,-967.9695441521914,183.2310569160486,2.321061109272942,0.824067839809685,149.47795680399446,39.129431140049704,0.0,1.0,18.369625674033706,5.324774542146016,0.0,Landing
9.4,-157.4894965244595,-947.0308594954589,181.39824094997323,2.7485129870813956,1.063475909538762,149.16645096182037,38.70143631027413,0.0,1.0,18.369625674033706,5.324774542146016,0.0,Landing
9.5,-159.0837378299111,-956.0893247453292,180.61373608574732,2.315185686057178,0.9711008540942697,149.5881443205996,39.22279487779839,0.0,1.0,18.369625674033706,5.324774542146016,0.0,Landing
9.600000000000001,-160.7433251298771,-980.9017949801273,181.49862894813842,2.415658197026929,0.7168155790322692,149.43519570218274,39.21567283532163,0.0,1.0,18.369625674033706,5.324774542146016,0.0,Landing
9.700000000000001,-162.39400549936013,-976.2828606568233,182.9048716834132,2.591034297997033,0.6097542562009468,149.43353413147008,38.655588110308315,0.0,1.0,18.369625674033706,5.324774542146016,0.0,Landing
9.8,-163.9651521331952,-972.5102784011028,180.94544511725044,2.531113577323203,0.6824845745495836,149.3108777887095,38.72830574216708,0.0,1.0,18.369625674033706,5.324774542146016,0.0,Landing
9.9,-165.6058765218826,-975.0236328310621,181.070036690782,2.3577148768773055,1.048682373194794,149.53526309323377,39.12201131645408,0.0,1.0,18.369625674033706,5.324774542146016,0.0,Landing
10.0,-167.26912366351544,-971.2728125792296,181.361985077262,2.353379398470263,1.0777451404360947,149.63101859583855,39.08334597927561,0.0,1.0,18.369625674033706,5.324774542146016,0.0,Landing
10.100000000000001,-168.82151619609135,-971.2273561883934,182.96405503601994,2.3897404640072013,0.9872497347369924,149.49320819419688,38.83060154121623,0.0,1.0,18.369625674033706,5.324774542146016,0.0,Landing
10.200000000000001,-170.46201330282457,-961.0090886139574,181.19012407454724,2.384503364807102,1.1432445492099634,149.58077760692504,38.68629790660226,0.0,1.0,18.369625674033706,5.324774542146016,0.0,Landing
10.3,-172.07416910658523,-973.7711328487363,182.93451896004333,2.2242872221516112,1.0483089681877467,149.51161321707275,38.672245852851326,0.0,1.0,18.369625674033706,5.324774542146016,0.0,Landing
10.4,-173.69037186033503,-960.4772928990029,181.88926822299712,2.5761822381859862,0.42078351401654235,149.6597416219672,38.7743745782931,0.0,1.0,18.369625674033706,5.324774542146016,0.0,Landing
10.5,-175.2643997673196,-952.6189344770955,181.86823504407107,2.2280513265469915,1.053859159614221,149.42035729511002,39.23667842280631,0.0,1.0,18.369625674033706,5.324774542146016,0.0,Landing
10.600000000000001,-176.8372637789707,-951.195410091168,182.3396630852555,2.4803512128005996,0.7532424539679233,149.55080961443548,39.108048553190564,0.0,1.0,18.369625674033706,5.324774542146016,0.0,Landing
10.700000000000001,-178.44634891079087,-959.3663759373499,181.65592804708442,2.3004105137754984,1.0542909458580758,149.3863686776815,39.201276426679186,0.0,1.0,18.369625674033706,5.324774542146016,0.0,Landing
10.8,-180.06123164700634,-963.9807383031042,180.7097705507829,2.4937527783174716,0.9402921708776532,149.71482910044335,38.93924434427221,0.0,1.0,18.369625674033706,5.324774542146016,0.0,Landing
10.9,-181.65716747048623,-974.913458690537,182.22809525580715,2.8318214881570087,1.0330691282121829,149.27272497429084,39.26951022544022,0.0,1.0,18.369625674033706,5.324774542146016,0.0,Landing
11.0,-183.32091620424356,-993.1949083183213,181.5421669668118,2.1535653451792944,1.0166950811560165,149.4852366650261,38.94651203256745,0.0,1.0,18.369625674033706,5.324774542146016,0.0,Landing
11.100000000000001,-185.02720618859794,-998.5995472415198,181.17594449492918,2.514462575965754,0.983348974989152,149.52256520215735,39.567488264362105,0.0,1.0,18.369625674033706,5.324774542146016,0.0,Landing
11.200000000000001,-186.65016520669383,-988.2222235122923,179.98532808982426,2.031987024659954,0.9802874728795966,149.55520010004506,39.436990924303,0.0,1.0,18.369625674033706,5.324774542146016,0.0,Landing
11.3,-188.26202732180502,-959.3281224116481,183.34027992647,2.5182037789184855,0.8635747799400912,149.4216810238554,38.62439865232413,0.0,1.0,18.369625674033706,5.324774542146016,0.0,Landing
11.4,-189.82384680065618,-928.63861063193,182.27137880824554,2.4188832190681944,1.2946986263293534,149.64167330944713,39.43184778953829,0.0,1.0,18.369625674033706,5.324774542146016,0.0,Landing
11.5,-191.29335825985348,-927.778566153188,183.17479712022106,2.324505653288126,1.4475804875047236,149.69386576018383,39.42252073373026,0.0,1.0,18.369625674033706,5.324774542146016,0.0,Landing
11.600000000000001,-192.90092015257096,-951.0261386226206,181.94155073281956,2.6048884870179543,0.7453920908102911,149.44536579056034,39.048139760475046,0.0,1.0,18.369625674033706,5.324774542146016,0.0,Landing
11.700000000000001,-194.5789774937693,-975.1042988809728,182.95911476672507,2.327600626384069,1.0373755113970424,149.13173201558925,38.52730793533583,0.0,1.0,18.369625674033706,5.324774542146016,0.0,Landing
11.8,-196.16887975425834,-969.0305451281233,180.73416953734144,2.3148444867831537,1.2281670769353767,149.41971388833906,39.40053606308642,0.0,1.0,18.369625674033706,5.324774542146016,0.0,Landing
11.9,-197.74607287821158,-946.8098468822576,181.5166525599207,2.5381395464589867,0.6910024879725771,149.37057491334878,39.332604329716084,0.0,1.0,18.369625674033706,5.324774542146016,0.0,Landing
12.0,-199.31302672818057,-936.5005399424775,181.44484377973694,2.4166751043968433,0.9583567746237993,149.26328283684182,39.09676110528232,0.0,1.0,18.369625674033706,5.324774542146016,0.0,Landing
12.100000000000001,-200.85138245397073,-938.4533696476069,183.54589758136032,2.1218986363359376,1.0005619717145986,149.55846706104637,38.67241803642564,0.0,1.0,18.369625674033706,5.324774542146016,0.0,Landing
12.200000000000001,-202.4383397264496,-948.6007793384318,181.9280267578833,2.2220542563236814,1.2345941176697228,149.5886597217766,39.32993750501982,0.0,1.0,18.369625674033706,5.324774542146016,0.0,Landing
12.3,-204.05603062487273,-965.9349398423842,183.7275500724307,2.1632438033985437,1.122524644971059,149.4933181403399,38.9280593918636,0.0,1.0,18.369625674033706,5.324774542146016,0.0,Landing
12.4,-205.68105715318265,-970.6957686993633,182.06044022445474,2.311784127308554,0.9009441095553102,149.62778984557076,38.99641340850258,0.0,1.0,18.369625674033706,5.324774542146016,0.0,Landing
12.5,-207.29181856994643,-971.4667158656994,180.8672565212201,2.105212439805808,1.0568279560618836,149.21815959746175,38.740404415925845,0.0,1.0,18.369625674033706,5.324774542146016,0.0,Landing
12.600000000000001,-208.91336420420123,-972.2640106205517,181.4173118203055,2.755220839273913,0.6705148075335342,149.37896749458213,39.35067230728743,0.0,1.0,18.369625674033706,5.324774542146016,0.0,Landing
12.700000000000001,-210.5423772062854,-956.361291133902,182.6972803578494,2.420392237933245,0.9502121054469329,149.43476041612968,39.3146401985613,0.0,1.0,18.369625674033706,5.324774542146016,0.0,Landing
12.8,-212.07362502561594,-956.0624220486375,181.800390865994,2.458780178679928,0.9104981591273371,149.4571814341457,38.94177885511101,0.0,1.0,18.369625674033706,5.324774542146016,0.0,Landing
12.9,-213.69367631444442,-949.520577635792,182.15563116777926,2.24015379312649,1.1054927404407002,149.53996736191283,39.22809955274493,0.0,1.0,18.369625674033706,5.324774542146016,0.0,Landing
13.0,-215.28998009446437,-967.1219027499377,180.5315402044979,2.6409955934455867,1.616751828997967,149.30867951823166,39.289974604892315,0.0,1.0,18.369625674033706,5.324774542146016,0.0,Landing
13.100000000000001,-216.90923453936563,-940.2359173759293,181.260200340242,2.3511725410925965,0.8280019374314969,149.561334586714,39.131313049832336,0.0,1.0,18.369625674033706,5.324774542146016,0.0,Landing
13.200000000000001,-218.39485590132406,-936.0294527652627,181.43080105368085,2.631257602150615,1.0519376088375354,149.61300470799569,38.97510174950553,0.0,1.0,18.369625674033706,5.324774542146016,0.0,Landing
13.3,-219.97012735829068,-923.0712100395294,180.38094528530104,2.6581668443548234,1.2103447696064362,149.67630276440627,38.76724041022882,0.0,1.0,18.369625674033706,5.324774542146016,0.0,Landing
13.4,-221.52459058956327,-953.647666040888,181.6338685997844,2.5524885390541865,1.3446632310269926,149.3794090328713,39.07127059214964,0.0,1.0,18.369625674033706,5.324774542146016,0.0,Landing
13.5,-223.1630942315285,-930.3239635195781,181.19013273960266,2.204691032305845,0.966641447253769,149.5365948002061,39.18317617848134,0.0,1.0,18.369625674033706,5.324774542146016,0.0,Landing
13.600000000000001,-224.62174717588857,-928.102640526231,181.0623888086666,2.1301233154837234,0.8515837985894371,149.43645226502412,39.34880689519072,0.0,1.0,18.369625674033706,5.324774542146016,0.0,Landing
13.700000000000001,-226.16510379219443,-917.4122294652307,183.24269298934874,2.1767426317671394,0.8666071345027515,149.35238422408167,39.06324477896451,0.0,1.0,18.369625674033706,5.324774542146016,0.0,Landing
13.8,-227.75015537885466,-933.4492903539626,181.21331120524104,2.407017923086526,0.760483089405072,149.65916855246155,38.96877819746914,0.0,1.0,18.369625674033706,5.324774542146016,0.0,Landing
13.9,-229.28899362765839,-940.6974271500361,182.86787457002896,2.4144272723436457,0.7634041381078923,149.66077833455165,39.0897387093738,0.0,1.0,18.369625674033706,5.324774542146016,0.0,Landing
14.0,-230.8685909279446,-942.6377675951413,181.12311569784632,2.33270229644568,0.5383233693288911,149.75642819512143,39.09226227897952,0.0,1.0,18.369625674033706,5.324774542146016,0.0,Landing
14.100000000000001,-232.46334421683036,-959.9206169494267,184.2645750207467,2.3349495693793267,1.0777689240235475,149.5919254597493,39.43994424072123,0.0,1.0,18.369625674033706,5.324774542146016,0.0,Landing
14.200000000000001,-234.08859671240552,-971.7149754530225,181.72446278617093,2.151528316731113,0.8003502656297585,149.64837167628406,39.10038407322187,0.0,1.0,18.369625674033706,5.324774542146016,0.0,Landing
14.3,-235.72716580520972,-957.4070906401516,182.850146759357,2.17278278437354,0.9753346547531686,149.64705449743906,39.217888856806994,0.0,1.0,18.369625674033706,5.324774542146016,0.0,Landing
14.4,-237.25037967003112,-953.0322192587677,180.18741088125006,2.653827671210608,1.4227430168559245,149.5120253402519,38.95806271333484,0.0,1.0,18.369625674033706,5.324774542146016,0.0,Landing
14.5,-238.85375780869936,-950.9041250134715,180.74046240799757,2.1933914077876553,1.038523075526637,149.4367410896291,39.12080950684353,0.0,1.0,18.369625674033706,5.324774542146016,0.0,Landing
14.600000000000001,-240.48168643027708,-959.7778340097875,181.65557760475568,2.3555663253462296,0.7484867044935251,149.00384339199394,39.06795119730297,0.0,1.0,18.369625674033706,5.324774542146016,0.0,Landing
14.700000000000001,-242.04926884008006,-965.8434237824791,183.99856165522945,2.531874639061404,1.0866366242564565,149.51421766601266,39.22634836263798,0.0,1.0,18.369625674033706,5.324774542146016,0.0,Landing
14.8,-243.68297492761175,-959.9007904484382,181.24435581163172,2.1738116581542952,0.8277487046992552,149.6083678775517,39.08854828870553,0.0,1.0,18.369625674033706,5.324774542146016,0.0,Landing
14.9,-245.28119038251927,-960.8846282433092,180.56897570842332,2.560667249497322,1.0942239369069662,149.61485035867628,39.48025939496807,0.0,1.0,18.369625674033706,5.324774542146016,0.0,Landing
15.0,-246.8536919812966,-949.1105303058533,182.68111124979336,2.604578802729205,0.9464274729359983,149.44492084151824,39.4281995351102,0.0,1.0,18.369625674033706,5.324774542146016,0.0,Landing
15.100000000000001,-248.42852757914102,-931.7601180671431,182.963527635292,2.393002044866086,0.743268911334672,149.46333887189667,39.415564657774816,0.0,1.0,18.369625674033706,5.324774542146016,0.0,Landing
15.200000000000001,-249.93999097285499,-921.8835843598014,179.81373144262335,2.324181570005353,1.0234507513974935,149.72546787661577,39.33571485310374,0.0,1.0,18.369625674033706,5.324774542146016,0.0,Landing
15.3,-251.4631099030956,-928.8954699334168,180.494970528521,2.30850194264982,1.0275155330815884,149.40238362269298,39.23023839877323,0.0,1.0,18.369625674033706,5.324774542146016,0.0,Landing
15.4,-253.0730049288081,-947.6745471105005,181.13977085300206,2.809031013355619,1.085007827930914,149.35030167154275,39.26214340619894,0.0,1.0,18.369625674033706,5.324774542146016,0.0,Landing
15.5,-254.6783637084075,-966.8306456912147,180.40297871318785,2.4918185520129414,1.0202636309879087,149.72391784513206,39.52556914858102,0.0,1.0,18.369625674033706,5.324774542146016,0.0,Landing
15.600000000000001,-256.2972631315517,-957.4591563561002,181.44555427942552,2.6586575127546093,1.2983409125912908,149.3711993860918,38.78142794841671,0.0,1.0,18.369625674033706,5.324774542146016,0.0,Landing
15.700000000000001,-257.8603007105886,-951.0903959902804,181.9323057174405,2.076265417138307,1.1106729752933604,149.8226451577591,39.05665500529679,0.0,1.0,18.369625674033706,5.324774542146016,0.0,Landing
15.8,-259.4338156883589,-932.1547831560906,181.69426162143134,2.0173840626692137,0.9533588859285231,149.61619509348884,39.044719636614964,0.0,1.0,18.369625674033706,5.324774542146016,0.0,Landing
15.9,-260.95803704733214,-927.6412294985221,182.08712779315033,2.5485381219980057,0.958874267964881,149.46941216180102,39.21906066548191,0.0,1.0,18.369625674033706,5.324774542146016,0.0,Landing
16.0,-262.4985068580812,-912.236971250104,182.2495953573907,2.5095917352383244,1.4499955604093973,149.49535182244165,39.40381032213733,0.0,1.0,18.369625674033706,5.324774542146016,0.0,Landing
16.1,-263.9950005446094,-919.0375934348367,182.09189565740388,2.529800152385389,0.9142208787131426,149.50672499355136,39.02227701552208,0.0,1.0,18.369625674033706,5.324774542146016,0.0,Landing
16.2,-265.5532250145063,-896.781086202293,182.0639762492546,2.2767420647411223,1.1352277926152528,149.57577432019718,38.99726872113521,0.0,1.0,18.369625674033706,5.324774542146016,0.0,Landing
16.3,-266.9824122890927,-914.967167796317,181.4918128658743,2.2577057460865864,0.803280242846369,149.65167472844325,39.92702291488331,0.0,1.0,18.369625674033706,5.324774542146016,0.0,Landing
16.400000000000002,-268.569836383591,-937.07357804102,182.56960343463453,1.9073290786439197,1.1461333493692636,149.29334617961888,39.10660148865896,0.0,1.0,18.369625674033706,5.324774542146016,0.0,Landing
16.5,-270.2385929047114,-956.3955714813233,183.66700508257438,2.5028646255656257,1.0702068831889069,149.63722258810128,39.29629946240795,0.0,1.0,18.369625674033706,5.324774542146016,0.0,Landing
16.6,-271.7643901464993,-946.0298046183311,181.99786415598803,2.485270035611364,1.2495962431718812,149.50683155400804,39.77204805095761,0.0,1.0,18.369625674033706,5.324774542146016,0.0,Landing
16.7,-273.29998540668265,-933.9188267306554,183.1528313390083,2.134852814396537,0.8554676770415451,149.21750638107096,39.191232344993644,0.0,1.0,18.369625674033706,5.324774542146016,0.0,Landing
16.8,-274.9081870383647,-949.9065598405082,182.90272351574842,2.3812325315959364,1.123619920956791,149.3285925950227,39.47858128235049,0.0,1.0,18.369625674033706,5.324774542146016,0.0,Landing
16.900000000000002,-276.51392294570184,-939.3623112873797,181.53359143474884,2.390391947970939,0.9490077025776157,149.5906351820251,39.25397364956245,0.0,1.0,18.369625674033706,5.324774542146016,0.0,Landing
17.0,-277.99679696311955,-928.0587402218316,181.36208832505585,2.473000193598753,1.2590057229319305,149.47866481845824,38.70247521639012,0.0,1.0,18.369625674033706,5.324774542146016,0.0,Landing
17.1,-279.54848073947386,-915.3586368523975,181.3457917539271,2.3692002668846697,1.1060980637787625,149.47638632234333,39.08279253623794,0.0,1.0,18.369625674033706,5.324774542146016,0.0,Landing
17.2,-281.0907161299638,-940.4673563226197,182.35669264449865,2.2501415145281167,1.1714021373242058,149.40432682552284,39.04245716849815,0.0,1.0,18.369625674033706,5.324774542146016,0.0,Landing
17.3,-282.69913374473265,-953.3531379620058,181.7918159276623,2.4365477007993586,1.222699365768933,149.62893518583178,39.22704548305225,0.0,1.0,18.369625674033706,5.324774542146016,0.0,Landing
17.400000000000002,-284.3152464292839,-951.443783928471,181.53066969032076,2.344858929803719,1.270411161755718,149.53256585999793,39.28423476006731,0.0,1.0,18.369625674033706,5.324774542146016,0.0,Landing
17.5,-285.8479350496062,-964.4530046842419,182.3374762264243,2.2588135571851122,1.0838516592642597,149.59597535781836,39.38719349749765,0.0,1.0,18.369625674033706,5.324774542146016,0.0,Landing
17.6,-287.52139876815386,-955.1555353320623,182.72648470201597,2.507827058019378,0.770752807340024,149.4999354291299,39.334681203158354,0.0,1.0,18.369625674033706,5.324774542146016,0.0,Landing
17.7,-289.0910241059442,-954.8426967483351,182.4051321829284,2.0671581224651154,0.754535962261705,149.55554693668205,39.309087315849446,0.0,1.0,18.369625674033706,5.324774542146016,0.0,Landing
17.8,-290.62214853334785,-926.4364021834922,182.1066821377306,2.5503751772800114,0.9044082222397526,149.52643618195452,39.081873921438465,0.0,1.0,18.369625674033706,5.324774542146016,0.0,Landing
17.900000000000002,-292.1535807790713,-923.6433251703829,181.81510621380755,2.5329743617321148,1.0747367530920309,149.70090923714508,39.38613320970881,0.0,1.0,18.369625674033706,5.324774542146016,0.0,Landing
18.0,-293.7092407317961,-920.2856621799583,180.6325019763022,2.5966940607377897,0.8054772385935434,149.30619132000413,38.71446585077924,0.0,1.0,18.369625674033706,5.324774542146016,0.0,Landing
18.1,-295.22357684424765,-929.1281324040028,181.29615865518997,2.2153899110310085,0.9028939149586572,149.26974986264906,39.411288996185476,0.0,1.0,18.369625674033706,5.324774542146016,0.0,Landing
18.2,-296.79922144109133,-915.4552517622506,181.59033605964174,2.4415035756673436,1.1898577694030967,149.49194575983643,39.07555653680113,0.0,1.0,18.369625674033706,5.324774542146016,0.0,Landing
18.3,-298.28651699060737,-911.1557568358535,180.30290277054053,2.6766367430174576,0.7166450972738552,149.22922923427797,39.48959515050882,0.0,1.0,18.369625674033706,5.324774542146016,0.0,Landing
18.400000000000002,-299.7793556284269,-909.5949159631346,181.2425221931249,2.043152735165716,0.7848692933309485,149.26587192210366,39.06262884680662,0.0,1.0,18.369625674033706,5.324774542146016,0.0,Landing
18.5,-301.347196020907,-941.1843657355462,181.46960744799574,2.49425805583722,1.2494794445188067,149.2171495659207,39.111496400120785,0.0,1.0,18.369625674033706,5.324774542146016,0.0,Landing
18.6,-302.9924388192851,-968.9447004052113,180.85718028976538,2.5344832336901058,1.094720066857043,149.54027897041811,38.996216479641284,0.0,1.0,18.369625674033706,5.324774542146016,0.0,Landing
18.7,-304.62407913045297,-948.8705982045872,181.3636552430165,2.492335079186833,0.9398941630454586,149.18543998834934,39.46682384880033,0.0,1.0,18.369625674033706,5.324774542146016,0.0,Landing
18.8,-306.09154901192994,-943.8715709387566,181.87825278653082,2.400579285027443,0.9275536853917776,149.405084038219,39.209344039939765,0.0,1.0,18.369625674033706,5.324774542146016,0.0,Landing
18.900000000000002,-307.7117966739789,-952.6243844775195,181.59082508741972,2.4188763984063066,1.1534775885686201,149.56881120022535,39.46608578587952,0.0,1.0,18.369625674033706,5.324774542146016,0.0,Landing
19.0,-309.38720105284057,-966.1640770274289,180.40996930388712,2.383291625636799,0.8289625673052192,149.35108925332992,39.40266027575023,0.0,1.0,18.369625674033706,5.324774542146016,0.0,Landing
19.1,-310.9223693970671,-946.3578501344386,183.25543161668793,2.500941272077828,0.8441332276118673,149.33282193645687,39.034710582670016,0.0,1.0,18.369625674033706,5.324774542146016,0.0,Landing
19.200000000000003,-312.4435859246511,-925.5453674816181,182.13569976093427,2.4586727721689186,0.9060698512323532,149.6154882331366,38.61509681628748,0.0,1.0,18.369625674033706,5.324774542146016,0.0,Landing
19.3,-314.01492789024866,-927.9384586886636,182.2929231673451,2.7076069779379623,0.7159485103505312,149.29606537433574,39.454517050962075,0.0,1.0,18.369625674033706,5.324774542146016,0.0,Landing
19.400000000000002,-315.5620616905104,-929.30102357451,182.22351808277767,2.370383939789835,0.5244363510631729,149.26276312895038,39.43863918482439,0.0,1.0,18.369625674033706,5.324774542146016,0.0,Landing
19.5,-317.0900910425236,-933.2277190562195,183.638768483707,2.7976799170244586,1.1530817994383513,149.44149697193916,39.21958967123748,0.0,1.0,18.369625674033706,5.324774542146016,0.0,Landing
19.6,-318.68106648552975,-958.5196872644929,181.9525453909272,2.4409191903955842,0.4771446883926306,149.5235948893245,38.906215461894305,0.0,1.0,18.369625674033706,5.324774542146016,0.0,Landing
19.700000000000003,-320.35466012683287,-956.3033870565846,179.57694720126415,2.5401481039253833,0.8303699903410688,149.50894605428414,39.33634524855461,0.0,1.0,18.369625674033706,5.324774542146016,0.0,Landing
19.8,-321.87160797780655,-960.4832124256063,182.8922608322508,2.370213359215169,1.0749588784990811,149.5235153150362,39.55588555102083,0.0,1.0,18.369625674033706,5.324774542146016,0.0,Landing
19.900000000000002,-323.4834825476578,-939.7173794630817,182.34183011567833,2.5842591531544272,0.9733399097517746,149.55151461678304,39.12648946889836,0.0,1.0,18.369625674033706,5.324774542146016,0.0,Landing
20.0,-325.0532470241483,-935.5706868025891,180.79003180939148,2.0608441166946134,0.7292979206425652,149.75824458323774,39.05140857687686,0.0,1.0,18.369625674033706,5.324774542146016,0.0,Landing
20.1,-326.5494614118195,-910.983615795567,181.94029604249783,2.53391738156668,0.8046670720962062,149.43729766139728,39.300132806419846,0.0,1.0,18.369625674033706,5.324774542146016,0.0,Landing
20.200000000000003,-328.0384006266356,-911.9424439257727,180.5206801794219,2.7632983172659356,0.7308007685117464,149.52551848208947,39.061577470092274,0.0,1.0,18.369625674033706,5.324774542146016,0.0,Landing
20.3,-329.61295924377714,-917.2942719757998,182.66238762714582,2.8075086371346387,1.2189349164453374,149.62860624320604,38.922369255418964,0.0,1.0,18.369625674033706,5.324774542146016,0.0,Landing
20.400000000000002,-331.1359327716985,-932.004916673111,182.60893896733353,2.3101500949416818,1.0863126477760485,149.417851096533,39.09354448470323,0.0,1.0,18.369625674033706,5.324774542146016,0.0,Landing
20.5,-332.6984252100012,-929.629323822212,181.80855771866322,2.2432800698253343,1.0468999727868395,149.18851986730272,39.060781815276634,0.0,1.0,18.369625674033706,5.324774542146016,0.0,Landing
20.6,-334.2611058628882,-934.2623722741791,182.49489946401386,2.555109798200234,0.8895820846000635,149.43475425638496,39.11337269134935,0.0,1.0,18.369625674033706,5.324774542146016,0.0,Landing
20.700000000000003,-335.8072446330694,-922.6849773183744,180.8243002959958,2.1480360234832,1.0802587205160337,149.69641160546564,39.703181054549844,0.0,1.0,18.369625674033706,5.324774542146016,0.0,Landing
20.8,-337.31185009659305,-906.617895253271,180.62482794160962,2.101666992358916,0.8428852474826867,149.6651378877819,39.108724338003235,0.0,1.0,18.369625674033706,5.324774542146016,0.0,Landing
20.900000000000002,-338.79419533915456,-894.0312674547499,183.06041795945754,2.403881466774241,0.9757742850485155,149.14852996476816,39.411688009624804,0.0,1.0,18.369625674033706,5.324774542146016,0.0,Landing
21.0,-340.27740097034314,-908.3277707636057,181.96041160376035,2.274755240041154,1.180644007815161,149.58977437832493,39.247027694865906,0.0,1.0,18.369625674033706,5.324774542146016,0.0,Landing
21.1,-341.8534889504111,-917.9127426332457,179.97200751182717,2.1074589718255616,1.0176975400746238,149.71941100307595,39.37329378213313,0.0,1.0,18.369625674033706,5.324774542146016,0.0,Landing
21.200000000000003,-343.3837590523208,-937.2118525865972,180.79007037408445,1.9724368063951718,0.9917763924627209,149.55729918587122,39.31188794557964,0.0,1.0,18.369625674033706,5.324774542146016,0.0,Landing
21.3,-344.9634602332761,-931.3908039620856,180.67999920209726,2.295645100826336,1.1060024153367225,149.51927114525012,39.18539915424149,0.0,1.0,18.369625674033706,5.324774542146016,0.0,Landing
21.400000000000002,-346.5104429702215,-931.1677789724399,181.5600239295042,2.4702189241691945,0.7742457398734142,149.3932502030613,39.25983819966845,0.0,1.0,18.369625674033706,5.324774542146016,0.0,Landing
21.5,-348.039597947183,-932.7320761424858,182.85085546288693,2.367729703144359,1.1743129210392205,149.43337638790308,39.08899765123778,0.0,1.0,18.369625674033706,5.324774542146016,0.0,Landing
21.6,-349.62712061398855,-941.4250722868132,181.82688829495132,2.059209031241796,1.1562062558879571,149.48817885693472,39.25278153620299,0.0,1.0,18.369625674033706,5.324774542146016,0.0,Landing
21.700000000000003,-351.21756833165557,-954.5570955086873,180.58633126120174,2.73791545511075,0.7364895778366064,149.36322939461985,39.58062252616802,0.0,1.0,18.369625674033706,5.324774542146016,0.0,Landing
21.8,-352.8123834247264,-938.1412611072278,181.7129403396339,2.4242478670585514,1.1195515698626965,149.54265741388667,39.37469169698138,0.0,1.0,18.369625674033706,5.324774542146016,0.0,Landing
21.900000000000002,-354.3178269195247,-938.7347973570854,182.84847324105235,2.332784303023018,1.129849069122456,149.3947800532108,39.240919539214666,0.0,1.0,18.369625674033706,5.324774542146016,0.0,Landing
22.0,-355.911242318441,-922.469399769875,182.62989379892443,2.307955332003154,1.0289532473964431,149.60819320832388,39.32332742706143,0.0,1.0,18.369625674033706,5.324774542146016,0.0,Landing
22.1,-357.4247304235758,-918.372853359574,182.4201391952362,2.355504331710954,1.372323289880664,149.18002245920707,39.52236155431952,0.0,1.0,18.369625674033706,5.324774542146016,0.0,Landing
22.200000000000003,-358.90969118632256,-897.1750351566584,182.77134807386722,2.328272004849107,1.1520995691485494,149.42479671049284,39.56100225869591,0.0,1.0,18.369625674033706,5.324774542146016,0.0,Landing
22.3,-360.3971174942243,-892.4991213195881,182.2944761698669,2.0255728426032005,1.0217101118087324,149.25615454249413,39.36363083719153,0.0,1.0,18.369625674033706,5.324774542146016,0.0,Landing
22.400000000000002,-361.88722603017374,-908.3638276333318,181.11401555576126,2.8267971176503366,0.9686879726388159,149.65765836024354,39.381117718372366,0.0,1.0,18.369625674033706,5.324774542146016,0.0,Landing
22.5,-363.4515103244892,-926.8293415819812,183.81867166057432,2.63393484444241,1.2253903760275637,149.30424316739982,38.76352669814945,0.0,1.0,18.369625674033706,5.324774542146016,0.0,Landing
22.6,-365.0312642021342,-931.3922225958777,182.8561712672027,2.241683334834015,1.078068732811875,149.83113604690345,39.70829098054576,0.0,1.0,18.369625674033706,5.324774542146016,0.0,Landing
22.700000000000003,-366.5441871431531,-939.690869561332,181.67645325619117,2.568455209836116,1.060720405430304,149.35321872865666,38.938057724318185,0.0,1.0,18.369625674033706,5.324774542146016,0.0,Landing
22.8,-368.1499646722959,-929.8877140938316,180.92684787419816,2.273125994501218,0.8948655241203427,149.46346562709073,38.56444658870932,0.0,1.0,18.369625674033706,5.324774542146016,0.0,Landing
22.900000000000002,-369.68070277260335,-949.4784618021868,182.4484513856582,2.447600149711772,0.897898046232463,149.74715579635858,39.120586863412136,0.0,1.0,18.369625674033706,5.324774542146016,0.0,Landing
23.0,-371.29157945216406,-915.0165413199261,182.89619149482164,2.5734500838383507,1.2697197368241917,149.36039873149105,39.13634315553315,0.0,1.0,18.369625674033706,5.324774542146016,0.0,Landing
23.1,-372.7250473788955,-910.017276862061,182.95637283693512,2.5429660699124454,1.2419325521338105,149.67852126173148,39.64273670381811,0.0,1.0,18.369625674033706,5.324774542146016,0.0,Landing
23.200000000000003,-374.23078915691366,-889.5298508685642,183.3600155355257,2.6590330190484828,0.9635422853063178,149.33557885827838,38.58660749283609,0.0,1.0,18.369625674033706,5.324774542146016,0.0,Landing
23.3,-375.7392287065069,-928.5975668175297,182.72430366294515,2.0350645213973175,0.9409493616738503,149.4895866765064,39.17047023580734,0.0,1.0,18.369625674033706,5.324774542146016,0.0,Landing
23.400000000000002,-377.36803521298316,-916.8185623007844,181.4694350562723,1.990810788058392,1.2317133887468934,149.42750019261638,39.188521480781205,0.0,1.0,18.369625674033706,5.324774542146016,0.0,Landing
23.5,-378.8148819684176,-893.0241704733589,181.09854872234513,2.5668850971679396,1.0650576956602436,149.32941450259085,38.446799723617374,0.0,1.0,18.369625674033706,5.324774542146016,0.0,Landing
23.6,-380.2043495588737,-858.9101157445384,182.62161431144318,2.1499964949897414,0.8051610794653524,149.45901685117212,39.4611395293426,0.0,1.0,18.369625674033706,5.324774542146016,0.0,Landing
23.700000000000003,-381.66258579170585,-874.5816325505757,183.69883561778792,2.32665089578839,0.8927063815504226,149.69660374465275,39.357779786326674,0.0,1.0,18.369625674033706,5.324774542146016,0.0,Landing
23.8,-383.18779013117046,-911.2113652317589,181.90889005880373,2.4427890469412477,0.7567980096593254,149.61100153339487,39.113894834414396,0.0,1.0,18.369625674033706,5.324774542146016,0.0,Landing
23.900000000000002,-384.76040638503247,-926.3633491968903,183.2258992551206,2.2519770860301898,1.2580107604361117,149.71563782726264,39.22487692443947,0.0,1.0,18.369625674033706,5.324774542146016,0.0,Landing
24.0,-386.2944025376903,-917.377934665592,182.14136586117232,2.191188676930162,0.9230429866406933,149.54586105746887,39.363824457733344,0.0,1.0,18.369625674033706,5.324774542146016,0.0,Landing
24.1,-387.7746798044984,-920.4128620719871,181.1118769028459,2.350457784425073,1.115162724390565,149.48846521062495,38.914250590515756,0.0,1.0,18.369625674033706,5.324774542146016,0.0,Landing
24.200000000000003,-389.3624706953924,-925.0714651615112,181.72157568036934,2.4105575517004407,0.5650393065729874,149.54077565850548,39.2726322288021,0.0,1.0,18.369625674033706,5.324774542146016,0.0,Landing
24.3,-390.91975986349786,-949.3667199901097,182.5584221639292,2.3788001148513414,0.9717472274377357,149.5434477789472,39.37684480551118,0.0,1.0,18.369625674033706,5.324774542146016,0.0,Landing
24.400000000000002,-392.52151340444897,-929.3127730279593,182.73665051692538,2.1422562153746156,1.146221266373031,149.43757970433876,39.344621677429004,0.0,1.0,18.369625674033706,5.324774542146016,0.0,Landing
24.5,-394.0090345605322,-910.2027263957552,181.67369276520637,2.7051249637929025,0.9717698150275164,149.4235344085542,39.42482920652903,0.0,1.0,18.369625674033706,5.324774542146016,0.0,Landing
24.6,-395.47077349547664,-880.2718131802976,181.2005311543515,2.5997735647667675,1.3203614448533894,149.5094422784087,39.202696748080555,0.0,1.0,18.369625674033706,5.324774542146016,0.0,Landing
24.700000000000003,-396.92287247035046,-875.5572024216008,180.49742643912492,2.2436153758610677,1.1593316929876498,149.42148155306842,39.210321069437185,0.0,1.0,18.369625674033706,5.324774542146016,0.0,Landing
24.8,-398.3868205726402,-888.5287005262512,181.67763506636288,2.2643805205273178,0.8631376229748658,149.62294593311663,38.31843026147413,0.0,1.0,18.369625674033706,5.324774542146016,0.0,Landing
24.900000000000002,-399.9134169981079,-904.9181751207016,182.600882127371,1.952525449376814,0.776822398808674,149.74319038178754,39.11836178512218,0.0,1.0,18.369625674033706,5.324774542146016,0.0,Landing
25.0,-401.44746334595396,-907.8491858033885,181.8690804228467,2.4220058090911447,0.5263603536845332,149.49630442211503,39.286474859466026,0.0,1.0,18.369625674033706,5.324774542146016,0.0,Landing
25.1,-402.92606650165715,-904.5944895442744,182.24843553729053,2.6497827706901544,0.9023533325092787,149.69465083675595,38.75661208693616,0.0,1.0,18.369625674033706,5.324774542146016,0.0,Landing
25.200000000000003,-404.43638944582926,-893.4588288515556,181.93942213379594,2.3849826668959793,1.1239522369665478,149.42790455566478,39.082094056384875,0.0,1.0,18.369625674033706,5.324774542146016,0.0,Landing
25.3,-405.91475749021174,-906.3935423148223,179.31937763197516,2.0273884819184405,1.1693368864328344,149.41117662767192,39.105580571809625,0.0,1.0,18.369625674033706,5.324774542146016,0.0,Landing
25.400000000000002,-407.45803421323126,-901.6512404355581,181.12975892878686,1.96669844411632,0.5295833948974282,149.74084152263384,38.92047746974264,0.0,1.0,18.369625674033706,5.324774542146016,0.0,Landing
25.5,-408.94464564800705,-899.4266591517771,182.42923484799317,2.390879417860894,1.0500729218529679,149.52208258035137,38.997776971929326,0.0,1.0,18.369625674033706,5.324774542146016,0.0,Landing
25.6,-410.4118907859706,-892.1281328082387,182.48348734240744,2.40325689560027,0.989636429759145,149.3672574025568,39.460597513438614,0.0,1.0,18.369625674033706,5.324774542146016,0.0,Landing
25.700000000000003,-411.91867487727245,-886.840920197892,181.99778653646592,2.637592676557489,1.2676490870071893,149.5950010793248,39.073151835667204,0.0,1.0,18.369625674033706,5.324774542146016,0.0,Landing
25.8,-413.3788502489965,-896.8875906523294,182.66014062856274,2.0541383886809035,1.0302023405914025,149.38485758128274,39.04688354119157,0.0,1.0,18.369625674033706,5.324774542146016,0.0,Landing
25.900000000000002,-414.8963287392323,-892.268616196202,183.69147243190037,2.086853096929653,0.7609460359783694,149.34188526372247,39.48120412308503,0.0,1.0,18.369625674033706,5.324774542146016,0.0,Landing
26.0,-416.38001795825346,-877.8000362853049,181.86057242059275,2.2986128174951515,1.3473834643546923,149.5497162541352,39.44474667602396,0.0,1.0,18.369625674033706,5.324774542146016,0.0,Landing
26.1,-417.76785043042304,-888.0103690989586,181.45602260924633,2.2631820040108157,0.936376183481838,149.7205348142429,39.16194373139815,0.0,1.0,18.369625674033706,5.324774542146016,0.0,Landing
26.200000000000003,-419.33638058472707,-923.8455919511352,181.29187668622882,2.7148284398227807,1.0684879625882049,149.50753164533717,39.22772678748294,0.0,1.0,18.369625674033706,5.324774542146016,0.0,Landing
26.3,-420.99924591800914,-947.1290485901477,181.72417224133926,2.3907388742869786,0.7898126755915251,149.44432842372362,39.18064844518081,0.0,1.0,18.369625674033706,5.324774542146016,0.0,Landing
26.400000000000002,-422.5034956733738,-945.2936254840893,180.86813831585937,2.5306968435912043,0.5008835782206591,149.60134156946793,38.8075364952152,0.0,1.0,18.369625674033706,5.324774542146016,0.0,Landing
26.5,-424.0628487121475,-903.8873017655874,181.59404499440166,2.3173220667401098,0.859661667195443,149.4447090072017,39.41896494636484,0.0,1.0,18.369625674033706,5.324774542146016,0.0,Landing
26.6,-425.5186824268371,-895.3514719444343,180.35520825721375,2.397621439370638,0.8592125159913856,149.43718024785005,39.01595251933105,0.0,1.0,18.369625674033706,5.324774542146016,0.0,Landing
26.700000000000003,-426.98025303309595,-878.4935894036948,182.2798635899657,2.3525389581621465,1.4601640705457368,149.52749150035277,39.31891360436875,0.0,1.0,18.369625674033706,5.324774542146016,0.0,Landing
26.8,-428.455316659166,-898.8528663582997,180.59319568706698,2.3894295545834683,0.9904759710215993,149.4159501822819,38.73192698111653,0.0,1.0,18.369625674033706,5.324774542146016,0.0,Landing
26.900000000000002,-430.0129467586286,-910.4746008976235,185.06808028187083,2.4185223493916745,0.8337960835107671,149.51178797227283,38.55103492593902,0.0,1.0,18.369625674033706,5.324774542146016,0.0,Landing
27.0,-431.53262603758407,-920.08898614896,181.64058267536439,2.3675556793795343,0.916916746467611,149.47811026637766,39.73054225454791,0.0,1.0,18.369625674033706,5.324774542146016,0.0,Landing
27.1,-433.0557615899108,-895.145745568368,181.2118833856042,2.1709496184080312,1.1289322767112395,149.6655848535031,38.90572986601399,0.0,1.0,18.369625674033706,5.324774542146016,0.0,Landing
27.200000000000003,-434.4886754864704,-896.6333121920229,182.63687242279687,2.4140097661193596,1.135059811198102,149.45457832247985,39.122076261071115,0.0,1.0,18.369625674033706,5.324774542146016,0.0,Landing
27.3,-436.0157925985442,-890.8286353084009,181.7914723179754,2.4945492433435863,0.47469527621277663,149.4130624241792,39.5266411751504,0.0,1.0,18.369625674033706,5.324774542146016,0.0,Landing
27.400000000000002,-437.5099047664528,-909.1890855194379,180.61124165394,2.383718098655436,0.9109442094540126,149.59657326361537,39.24979239089856,0.0,1.0,18.369625674033706,5.324774542146016,0.0,Landing
27.5,-439.0346209140676,-903.7602447993777,181.6153078646213,2.298686815766557,0.9224327953253827,149.60127737294397,38.79180041595056,0.0,1.0,18.369625674033706,5.324774542146016,0.0,Landing
27.6,-440.53459382254107,-909.5942099174295,183.16510875689534,2.4640912655455933,1.4060693092267567,149.3707277108715,39.08637907061508,0.0,1.0,18.369625674033706,5.324774542146016,0.0,Landing
27.700000000000003,-442.05787581603994,-901.450206695813,182.8548996189089,2.1741053368421,1.2187861993861069,149.69170273885652,38.92361238059645,0.0,1.0,18.369625674033706,5.324774542146016,0.0,Landing
27.8,-443.54187194754667,-910.7031400812275,182.56371437849242,2.471664809885815,0.68254829612117,149.3048625890931,39.95007214588546,0.0,1.0,18.369625674033706,5.324774542146016,0.0,Landing
27.900000000000002,-445.0881095229472,-893.5797284920682,181.07792858114757,2.6784763377217393,0.7281188043402635,149.36830264098603,39.54260833660443,0.0,1.0,18.369625674033706,5.324774542146016,0.0,Landing
28.0,-446.5257744585003,-891.2633631205495,183.91733769422382,2.6541360422332883,1.1640293030642557,149.55956690975654,39.02666397028289,0.0,1.0,18.369625674033706,5.324774542146016,0.0,Landing
28.1,-447.9981887631494,-876.9412937176185,181.16727901824632,2.341164588707175,1.1283092021557453,149.5459468360549,39.13997849427943,0.0,1.0,18.369625674033706,5.324774542146016,0.0,Landing
28.200000000000003,-449.4728159915353,-904.5751414695587,179.7931124967747,2.405593068380852,1.0853148576421305,149.46253396921054,39.345486302451526,0.0,1.0,18.369625674033706,5.324774542146016,0.0,Landing
28.3,-451.0486501658481,-910.3526694860875,180.91333815156756,2.721289434910887,0.9059453652260024,149.41206485677571,39.1239026585602,0.0,1.0,18.369625674033706,5.324774542146016,0.0,Landing
28.400000000000002,-452.54995211057985,-923.9169038574687,179.92677653409018,2.1040812140257987,0.44838508925640197,149.27710611820044,39.26954535939203,0.0,1.0,18.369625674033706,5.324774542146016,0.0,Landing
28.5,-454.09240051082264,-899.9666788215109,183.05969336090266,2.421279113605358,0.9010735984066927,149.68085840781873,38.98816086492653,0.0,1.0,18.369625674033706,5.324774542146016,0.0,Landing
28.6,-455.5484835599556,-922.3548264497595,182.1012654972222,2.579468663087795,1.1614561677101745,149.59350329267494,38.98968455696963,0.0,1.0,18.369625674033706,5.324774542146016,0.0,Landing
28.700000000000003,-457.16172624282865,-907.7317541125467,181.28018622318342,2.5953529577084713,0.7389388649158983,149.2486298790937,38.986084486154894,0.0,1.0,18.369625674033706,5.324774542146016,0.0,Landing
28.8,-458.6310592813854,-928.8457543648747,182.55690300141455,2.299295687008177,0.9660128997430582,149.08282981110165,38.794275877121514,0.0,1.0,18.369625674033706,5.324774542146016,0.0,Landing
28.900000000000002,-460.19271233178,-912.4244007969196,180.805099161141,2.1897875918270793,0.690897178276848,149.29016272270962,39.153557739211465,0.0,1.0,18.369625674033706,5.324774542146016,0.0,Landing
29.0,-461.72384824681325,-902.2314319365023,181.77202192182094,2.4523065049634942,1.0568629297595238,149.6207428753508,39.28312187307402,0.0,1.0,18.369625674033706,5.324774542146016,0.0,Landing
29.1,-463.1422164410679,-896.1516963538088,181.745182697407,2.467337237569455,0.9671513818446766,149.57416016663103,38.66656769864795,0.0,1.0,18.369625674033706,5.324774542146016,0.0,Landing
29.200000000000003,-464.67347081354905,-888.464336656773,181.59555388062387,2.13605173990951,1.2507285584345138,149.41078718794608,39.02398087745703,0.0,1.0,18.369625674033706,5.324774542146016,0.0,Landing
29.3,-466.1661699300971,-898.6080231103756,182.74165577543175,2.3558744290269336,0.8877704959671329,149.69024679495794,39.25849693351678,0.0,1.0,18.369625674033706,5.324774542146016,0.0,Landing
29.400000000000002,-467.63525655661977,-877.8890865736457,179.84502488913964,2.158150023247268,0.6643090661288291,149.25030461846552,39.647291034393994,0.0,1.0,18.369625674033706,5.324774542146016,0.0,Landing
29.5,-469.0629162464173,-870.6747985548873,182.51801576001705,2.63791728888027,0.9048948079734511,149.7860302680475,39.49813598453396,0.0,1.0,18.369625674033706,5.324774542146016,0.0,Landing
29.6,-470.51954392287155,-857.3971861445898,182.1668274882555,2.536490071004616,0.8028647069669967,149.73774958557476,39.3088259500983,0.0,1.0,18.369625674033706,5.324774542146016,0.0,Landing
29.700000000000003,-471.9222424873427,-886.7004978769046,182.19726833205547,2.33646808731823,0.8527836371625405,149.049115328702,38.877203264508815,0.0,1.0,18.369625674033706,5.324774542146016,0.0,Landing
29.8,-473.4964187358018,-886.6061328090041,182.50574530323348,2.579756268546124,0.5705442334108443,149.43346791201384,38.948494498466886,0.0,1.0,18.369625674033706,5.324774542146016,0.0,Landing
29.900000000000002,-474.95257458691657,-888.8817063098713,183.11349594031543,2.574346055750744,0.5492502042587288,149.53017957134875,39.66257401114214,0.0,1.0,18.369625674033706,5.324774542146016,0.0,Landing
30.0,-476.36665101889207,-853.4128220611478,180.4785548991278,2.051840356920507,1.1219877703941026,149.37561711259286,38.6525262814802,0.0,1.0,18.369625674033706,5.324774542146016,0.0,Landing
30.1,-477.76348284610754,-867.4603271687602,181.842566844806,1.9182060647179986,0.9651106037651058,149.24714380872763,39.426130456980175,0.0,1.0,18.369625674033706,5.324774542146016,0.0,Landing
