time_s,altitude_ft,vertical_speed_fpm,ias_kt,pitch_deg,roll_deg,heading_deg,throttle_pct,afterburner_on,gear_down,flaps_deg,speedbrake_pct,weight_on_wheels,label
0.0,-0.13244215430556944,38.78823496314544,23.070914763172173,0.10417358812915167,-0.3005318237117178,61.351472454503835,22.002989573975544,0.0,1.0,0.0,0.0,1.0,Taxi
0.1,-0.003148037761751292,34.74095865971973,23.525283056331123,0.15243766941542852,0.8716750284587964,61.416831147426365,22.21764927327537,0.0,1.0,0.0,0.0,1.0,Taxi
0.2,0.041262638993029205,25.532538020981153,23.056371491653298,0.3399645840116957,-0.9255610674238411,61.52240009168298,22.319665953421488,0.0,1.0,0.0,0.0,1.0,Taxi
0.30000000000000004,-0.004779464200663656,4.808464452466978,22.21474965830755,0.005393882811388584,0.1363961184402131,61.4714728923459,21.41541909078723,0.0,1.0,0.0,0.0,1.0,Taxi
0.4,0.020894284500583594,9.615465741942627,23.434764856153894,0.10790747577391151,-0.5938040869440729,61.59451998320037,21.908758120251495,0.0,1.0,0.0,0.0,1.0,Taxi
0.5,0.08933996770274233,-9.827538827729327,24.289004956050373,0.13002473452933855,0.0990300952998046,61.38764190343659,21.89958295434482,0.0,1.0,0.0,0.0,1.0,Taxi
0.6000000000000001,-0.0539171583393103,-39.03656564975136,24.000606798500755,0.23200842970879487,-0.30011186049984695,61.443316023224725,21.038108240731802,0.0,1.0,0.0,0.0,1.0,Taxi
0.7000000000000001,-0.1742885437481732,-20.03818466442803,23.56624681856606,0.21960171434847528,0.7103996837551697,61.34513333080332,22.215988749343335,0.0,1.0,0.0,0.0,1.0,Taxi
0.8,-0.010850955619397792,3.203367037472868,23.08995688562329,-0.08590508785997247,0.6102786588602431,61.437886604581706,21.96462076783292,0.0,1.0,0.0,0.0,1.0,Taxi
0.9,-0.03790032315194595,20.53959590488376,22.204146980310817,0.15201706648941254,1.1420219834900371,61.446667145426545,22.075289782692856,0.0,1.0,0.0,0.0,1.0,Taxi
1.0,-0.0715905642237544,45.82577183996446,23.30683102266544,0.19712919587640318,0.012209008343716337,61.492571055067515,22.179613519361357,0.0,1.0,0.0,0.0,1.0,Taxi
1.1,0.2182779035804245,6.699734446135342,22.312154878668867,0.525210587937302,0.7788742062196553,61.50261014995681,21.889768492581094,0.0,1.0,0.0,0.0,1.0,Taxi
1.2000000000000002,-0.004401650921269198,29.6664798802344,23.83833427343808,0.32113130716146726,-0.002150302808451624,61.32245195181048,21.92480487286749,0.0,1.0,0.0,0.0,1.0,Taxi
1.3,0.07674183517741763,-66.61519220951975,23.717530537545414,0.2533416804274839,0.1937244653624379,61.54354315157502,22.80188698721716,0.0,1.0,0.0,0.0,1.0,Taxi
1.4000000000000001,-0.11479805746717418,21.115924779652715,24.58202150842571,0.09008834881112374,0.7550380761730436,61.42850909612417,22.39578791388267,0.0,1.0,0.0,0.0,1.0,Taxi
1.5,0.10117797297699441,-27.46558272555477,23.282858373380694,-0.26895530417793434,0.03213953257960968,61.53946413545668,21.96854573041324,0.0,1.0,0.0,0.0,1.0,Taxi
1.6,-0.06058607845035621,36.710170333858,24.66573896651219,0.2935079888579231,0.4039273235884923,61.69657738544248,21.94857611635169,0.0,1.0,0.0,0.0,1.0,Taxi
1.7000000000000002,0.06875279420211587,-24.476505000289023,22.932568567788106,-0.05238515877334976,0.3810300740085682,61.440036334410536,21.805399733627343,0.0,1.0,0.0,0.0,1.0,Taxi
1.8,-0.021204552024450683,27.038073715126966,24.138860239475715,0.1738887195117588,-0.481178262317041,61.419431288524606,22.448996848753016,0.0,1.0,0.0,0.0,1.0,Taxi
1.9000000000000001,0.07460429012527864,-26.377022741601692,23.211228885918597,0.11122679179793672,0.05316637643126713,61.67058545000663,21.243680486892373,0.0,1.0,0.0,0.0,1.0,Taxi
2.0,-0.06313231950589258,12.00161071384779,24.232000630955326,0.32172203452100545,0.07940929798017181,61.574673041499295,22.622892308317475,0.0,1.0,0.0,0.0,1.0,Taxi
2.1,0.03880350154478829,3.0682506705063872,22.489403909268805,0.2820534350205727,0.35962697572279767,61.41959522787806,21.876771321694456,0.0,1.0,0.0,0.0,1.0,Taxi
2.2,0.08994554347781059,37.29785346274229,22.18458274567169,0.4124176042902702,-0.3303077227080082,61.39223969915946,23.400841363712356,0.0,1.0,0.0,0.0,1.0,Taxi
2.3000000000000003,0.12335694780781888,9.578427215841705,24.09424499624406,0.5605348584476701,-0.7455136447951065,61.44874234090105,21.613063279519675,0.0,1.0,0.0,0.0,1.0,Taxi
2.4000000000000004,0.0866956376239968,-1.4607339454124169,23.941650985597917,0.543355959642214,0.27081492735423796,61.60644289004625,21.911370476283825,0.0,1.0,0.0,0.0,1.0,Taxi
2.5,0.0826418737507485,17.284943073444328,23.17982058039563,0.26865324086987696,-0.4913386837367197,61.56444098979705,21.994613127549524,0.0,1.0,0.0,0.0,1.0,Taxi
2.6,0.2097816631750405,-17.23298804728097,24.13871236203114,0.33596737253261977,-0.6445269802282044,61.501565810415116,22.210199041601893,0.0,1.0,0.0,0.0,1.0,Taxi
2.7,0.0005306973875918878,-16.498481375106504,22.64528141700636,0.5601829625734995,0.2843231892921687,61.41769871299692,21.842138173164322,0.0,1.0,0.0,0.0,1.0,Taxi
2.8000000000000003,0.00014946687521590348,-41.9545673584001,24.191156938469362,0.3548578010414062,-0.4276721408627892,61.556395767119625,21.14927187897451,0.0,1.0,0.0,0.0,1.0,Taxi
2.9000000000000004,8.826383039929358e-06,-21.336325929379928,22.003195173853477,0.46053276903604,0.047443718912318765,61.46412358137019,22.377165261551646,0.0,1.0,0.0,0.0,1.0,Taxi
3.0,-0.10615093225930777,14.82381673677098,23.399879788868574,0.38943920123449133,-0.5834318193095166,61.42299909687,21.62091391893367,0.0,1.0,0.0,0.0,1.0,Taxi
3.1,0.0742685505590708,-20.333012792283547,23.97330454491113,0.22398448928287562,-1.072279107413743,61.400601519186125,22.016598570817223,0.0,1.0,0.0,0.0,1.0,Taxi
3.2,-0.10165623757837781,-16.356026148411186,22.71339761064325,0.23756608403823642,-0.17680011626556696,61.412730484790984,22.173207313550428,0.0,1.0,0.0,0.0,1.0,Taxi
3.3000000000000003,-0.1879310630013637,-24.166018745595096,23.43939980998375,0.02221434144875503,0.20034109592816768,61.492040672903215,22.61093431235844,0.0,1.0,0.0,0.0,1.0,Taxi
3.4000000000000004,-0.046561543168904686,-2.8406024813776014,22.559179593242174,0.19533900541131566,-1.297817220443117,61.58862086855771,21.662452094499198,0.0,1.0,0.0,0.0,1.0,Taxi
3.5,-0.11585924998526582,9.227264897191256,23.599580149262415,0.39793667386237674,0.08097192313421495,61.36091787121023,21.995286275827272,0.0,1.0,0.0,0.0,1.0,Taxi
3.6,-0.14179473851540741,14.689345745548001,23.244937470284253,0.5193174738457742,-1.2633134506809096,61.39074389542469,21.32505840371195,0.0,1.0,0.0,0.0,1.0,Taxi
3.7,0.02688518555883533,49.153000710532474,24.148431411690392,0.1267933158682882,0.2637606436840826,61.42075460270411,22.412368984174417,0.0,1.0,0.0,0.0,1.0,Taxi
3.8000000000000003,0.12990575356739656,14.916291603217587,23.265224036439342,0.14420058319280904,-0.25969705816821764,61.29928730331176,22.09603994954709,0.0,1.0,0.0,0.0,1.0,Taxi
3.9000000000000004,-0.0672132804993195,6.665435320942578,23.463114778664355,0.1957233840561397,-0.2922957948791125,61.5295264929544,21.55097808102074,0.0,1.0,0.0,0.0,1.0,Taxi
4.0,0.06021236216354821,-54.92446961617524,22.903543114790036,0.19754907037825628,0.043838973514409366,61.545038847625904,21.01110660737495,0.0,1.0,0.0,0.0,1.0,Taxi
4.1000000000000005,-0.1447165945134796,1.1236418331606852,22.473083773403058,-0.015132212351092966,0.0723753818098607,61.27782676554381,22.056627674547723,0.0,1.0,0.0,0.0,1.0,Taxi
4.2,-0.06159507133351605,0.11755248376829286,23.62064413629724,0.5490835864299872,0.10455329751027022,61.58875770275091,22.377165155015476,0.0,1.0,0.0,0.0,1.0,Taxi
4.3,0.0608001245823897,37.27365007520044,22.9305855089194,0.20984544520757975,-0.2949900027801401,61.335006420833,20.449163799715635,0.0,1.0,0.0,0.0,1.0,Taxi
4.4,0.041651655862522625,9.728033912064449,23.510030248629718,0.1139310017574116,-0.5191272880150793,61.51845312102495,22.60699386277409,0.0,1.0,0.0,0.0,1.0,Taxi
4.5,-0.0129549017731938,-31.54787929940286,24.359979233670558,0.5613405612598901,-0.854260958285535,61.366829600338576,20.758699810530356,0.0,1.0,0.0,0.0,1.0,Taxi
4.6000000000000005,-0.09693927191462462,-29.76753318142902,22.886857219997456,0.313887438168117,0.536686936157523,61.4315294174088,21.819524080534695,0.0,1.0,0.0,0.0,1.0,Taxi
4.7,-0.1071860100446225,24.18132257525996,22.68244954631332,0.43638973140945003,0.5050370891608229,61.4868963625658,20.966825192911422,0.0,1.0,0.0,0.0,1.0,Taxi
4.800000000000001,0.10795171110310593,25.330157967300323,24.232318465660175,0.262866405199754,0.2578236014275746,61.46455481716521,22.653581829519172,0.0,1.0,0.0,0.0,1.0,Taxi
4.9,0.029711517921876936,39.779382060984794,23.194355206974144,0.046238477167278774,0.21233726774506767,61.44052064326047,22.884334558707973,0.0,1.0,0.0,0.0,1.0,Taxi
5.0,0.09171090026030143,-29.73029437630366,22.9036404358302,0.22729496644387268,-1.1367147997643976,61.448272183756956,21.530361852392005,0.0,1.0,0.0,0.0,1.0,Taxi
5.1000000000000005,-0.04069976077841235,9.788474838133384,23.116634257990906,0.5845336114391033,-0.269054436879388,61.38068786642589,21.68976219215837,0.0,1.0,0.0,0.0,1.0,Taxi
5.2,0.07865389211254388,4.926500704882902,23.677151784754464,0.16399376845101357,0.15949919697173734,61.33178368692762,21.56435508778098,0.0,1.0,0.0,0.0,1.0,Taxi
5.300000000000001,0.11634340378471596,14.169354432231982,24.018404097359664,0.059919999189014694,0.3334829807609084,61.61787476911104,21.41382204701482,0.0,1.0,0.0,0.0,1.0,Taxi
5.4,0.030147011382747554,-29.122351588477084,24.90494306818209,0.06950891208214463,0.008414106444405978,61.30869073194202,22.80218725588685,0.0,1.0,0.0,0.0,1.0,Taxi
5.5,-0.0669578658298415,-25.782596977158438,24.48654623428505,-0.05626625531132168,0.33044219044887607,61.49481846222358,21.186696882568025,0.0,1.0,0.0,0.0,1.0,Taxi
5.6000000000000005,-0.012569581101076222,-17.565310333707693,23.647596047656062,0.27806050466084764,-0.8392023409433434,61.49754464072072,21.913149882966824,0.0,1.0,0.0,0.0,1.0,Taxi
5.7,-0.0576795402857909,-4.689132812404967,23.17418657906488,-0.18812790561411985,-0.3400632277405136,61.39699299461745,21.79083617940984,0.0,1.0,0.0,0.0,1.0,Taxi
5.800000000000001,-0.09040352989186634,-11.66980115450229,23.25023748324941,0.49433571676652005,-0.42052620057498186,61.29963152056769,22.085928880657796,0.0,1.0,0.0,0.0,1.0,Taxi
5.9,-0.07091858687358768,3.1629444613200213,24.094107415228585,0.03033256446975774,-0.13205235007157246,61.491070716334036,22.41622354499825,0.0,1.0,0.0,0.0,1.0,Taxi
6.0,-0.04186481797919078,32.4729650845972,24.292046002996397,0.2575362885109199,0.7015430157175486,61.27146630511271,21.676759734580195,0.0,1.0,0.0,0.0,1.0,Taxi
6.1000000000000005,0.07196129553111967,22.982496832390126,23.208124374467413,0.41872863825078965,0.5210184173354028,61.418019818988284,21.605345047500478,0.0,1.0,0.0,0.0,1.0,Taxi
6.2,0.04399389728836295,36.83506589502494,23.28070689492722,0.13408443838358727,0.703878960950608,61.47469956238507,22.363374609548973,0.0,1.0,0.0,0.0,1.0,Taxi
6.300000000000001,0.14231051149593393,-51.05900444615816,23.166226926847344,0.06588020472910272,-0.1330491347465548,61.55160731653416,22.083696698967387,0.0,1.0,0.0,0.0,1.0,Taxi
6.4,-0.18333372669967113,27.939308182242126,23.74160996589267,0.2798003085333116,0.013053928016846513,61.45326566656951,21.471058060620418,0.0,1.0,0.0,0.0,1.0,Taxi
6.5,0.18369043819957356,-59.3806748185097,22.8182141861087,0.16670864120690126,-0.35163299004536835,61.41626057171658,21.066748706213044,0.0,1.0,0.0,0.0,1.0,Taxi
6.6000000000000005,-0.15459286259661464,43.18882849046238,23.251500154139684,0.22606227410218427,-0.4441779373567767,61.38712901168765,21.92873183448837,0.0,1.0,0.0,0.0,1.0,Taxi
6.7,0.032610415752640697,-38.74164837523493,23.10347685335097,0.2895357757035607,0.29403472748353066,61.52325563595798,21.71691846592788,0.0,1.0,0.0,0.0,1.0,Taxi
6.800000000000001,-0.010017803676601114,17.64087694902095,23.746955817119414,0.002483124626831257,-0.5709688613049391,61.51913559491135,23.457451727584623,0.0,1.0,0.0,0.0,1.0,Taxi
6.9,-0.06638847785150989,-3.6115774213117646,24.337960341678293,0.20522979117177664,0.180239042759725,61.45222542296028,21.646489750132382,0.0,1.0,0.0,0.0,1.0,Taxi
7.0,0.014552528646081876,-7.82361225136136,22.596801831855867,0.12525453185729923,0.12674539966551043,61.45945657105483,23.394151192857485,0.0,1.0,0.0,0.0,1.0,Taxi
7.1000000000000005,-0.04913586493340791,47.2471599463305,24.050364459738233,-0.03339808706799835,0.004488508773234837,61.77532809955102,22.57679513819526,0.0,1.0,0.0,0.0,1.0,Taxi
7.2,0.16984732188014262,1.4842956115457422,23.15879795363237,0.12751555551669366,-0.777371116434885,61.35579654328785,21.582103551769656,0.0,1.0,0.0,0.0,1.0,Taxi
7.300000000000001,0.021974006703810608,-0.23809869244586915,24.05565395770537,0.10597520519116455,-0.40630051326958677,61.373167995595395,22.84106963711218,0.0,1.0,0.0,0.0,1.0,Taxi
7.4,-0.05032635839563724,-35.85215107810032,23.092189429638918,-0.11422914835978704,-0.0484465697130742,61.44485168037846,21.81336503869689,0.0,1.0,0.0,0.0,1.0,Taxi
7.5,-0.009413433510358966,25.824670095483565,23.192528738131006,-0.07606235836194752,-0.3971304275247177,61.42870767142517,22.035722414924464,0.0,1.0,0.0,0.0,1.0,Taxi
7.6000000000000005,0.15109735718122844,16.80427146919055,23.246878220554883,0.5291353740885498,-0.06926046167049509,61.46100363172377,22.110274549170462,0.0,1.0,0.0,0.0,1.0,Taxi
7.7,0.033694998950315524,23.360139260608182,23.731802674992082,0.48885159979160636,0.4233384457974979,61.594429897012105,21.673250034462967,0.0,1.0,0.0,0.0,1.0,Taxi
7.800000000000001,0.10738726279268196,-50.968554676059455,23.182664509025734,0.5106803980409997,-0.7930871430360338,61.49627316571025,21.886729057869527,0.0,1.0,0.0,0.0,1.0,Taxi
7.9,-0.1037454161990688,1.5147300088351017,23.31984730012871,0.08643237955190958,-0.07963354227149247,61.52049981704681,22.03894723638584,0.0,1.0,0.0,0.0,1.0,Taxi
8.0,0.041268648994491036,1.740628279565416,23.188140984257394,0.34169207114587186,-0.37183935045465505,61.58126814073239,21.688704102230854,0.0,1.0,0.0,0.0,1.0,Taxi
8.1,0.11609040419050905,-14.685305665252022,22.969955366219235,-0.2214673042274794,0.2099744919840308,61.279147455112025,21.666078267249077,0.0,1.0,0.0,0.0,1.0,Taxi
8.200000000000001,-0.17717194452532892,-14.676120013764839,23.285164185542442,0.30789537834113834,0.3575987129647428,61.3772729844103,21.649234468305867,0.0,1.0,0.0,0.0,1.0,Taxi
8.3,-0.03211195107433316,24.841657903510278,24.61443051693124,0.162671108493315,1.161376200394354,61.571687139435255,21.897386933737398,0.0,1.0,0.0,0.0,1.0,Taxi
8.4,0.24029869370806042,65.03111057465942,23.38640744272345,0.13471356960882347,0.0951333559169421,61.36135934749677,21.703196005887037,0.0,1.0,0.0,0.0,1.0,Taxi
8.5,0.14798360834796823,8.5480044985808,24.025650760761042,0.25886913963881764,-0.0371888804287962,61.52731875636181,22.805566516447673,0.0,1.0,0.0,0.0,1.0,Taxi
8.6,0.010628071418570856,-28.341288582227616,23.448152354148867,0.1492719950290844,0.2272070661417036,61.41350551139283,22.6946575294932,0.0,1.0,0.0,0.0,1.0,Taxi
8.700000000000001,0.09859225079692234,-21.081664087801126,22.76217580844185,0.05766530534580569,-0.28578390484234656,61.55437790673284,22.363610741352066,0.0,1.0,0.0,0.0,1.0,Taxi
8.8,0.04257528790896259,-20.051040020554165,23.295326146557645,0.15970407477456092,-0.2444954008986997,61.4397120823013,21.745691776122754,0.0,1.0,0.0,0.0,1.0,Taxi
8.9,-0.08962712868419996,-53.9418355223494,23.83832625740251,0.39008896306119234,-0.6448661619837835,61.36578117131137,22.456823846182857,0.0,1.0,0.0,0.0,1.0,Taxi
9.0,-0.17111692681482463,-9.286367873978927,24.203699678984094,0.16126633574040067,0.5293208296920667,61.36632761031103,22.081700652910836,0.0,1.0,0.0,0.0,1.0,Taxi
9.1,-0.003856551460932048,13.473337197531848,22.952887066186435,0.22094157851656057,0.8796243222735789,61.51754146152234,21.616914850002082,0.0,1.0,0.0,0.0,1.0,Taxi
9.200000000000001,-0.022260442696540716,34.21827481058118,23.86080922728074,0.6517151213514207,-0.12563896673986275,61.34216392258338,22.204619146669177,0.0,1.0,0.0,0.0,1.0,Taxi
9.3,-2.5552761918708625e-05,0.5009020804756203,23.13365403265902,0.23176266065348564,0.49040435416126804,61.37332004350009,22.34246252097087,0.0,1.0,0.0,0.0,1.0,Taxi
9.4,-0.0013520410585539232,-22.121443662858695,23.348960189888246,-0.30638716914866915,0.5824852957496309,61.26363714072926,21.810480136505408,0.0,1.0,0.0,0.0,1.0,Taxi
9.5,-0.13286766101083416,4.495924656536232,23.322965882043704,0.1485897393933955,-0.2667203774790449,61.392951653992895,22.534903990762565,0.0,1.0,0.0,0.0,1.0,Taxi
9.600000000000001,0.022454070520762454,-20.813874324098748,23.35376788115808,0.266865914547519,0.3083220830827804,61.41694183578346,22.28167390925859,0.0,1.0,0.0,0.0,1.0,Taxi
9.700000000000001,-0.10542141267904764,34.08616698262179,23.440908390625378,0.30358437271173294,-0.17364570181101685,61.432964568546595,21.87575418736584,0.0,1.0,0.0,0.0,1.0,Taxi
9.8,0.037563173902274816,-12.899561582381802,23.209207427135873,0.4930746983810873,-1.4792940788638111,61.44356828608295,21.431269576391752,0.0,1.0,0.0,0.0,1.0,Taxi
9.9,-0.0420437373911465,-0.5717432298792389,23.272837114936472,0.5987723785610817,1.088294973716682,61.46686987645961,21.465257298418685,0.0,1.0,0.0,0.0,1.0,Taxi
10.0,-0.10828012882844379,7.520022674013617,23.77341231811898,0.11886201105845667,-0.5515819073242695,61.38383981041869,21.553743697645647,0.0,1.0,0.0,0.0,1.0,Taxi
10.100000000000001,0.07516328727234295,31.96892693653056,23.530594123233012,0.03482578814149276,0.11458572719626886,61.459269728791014,21.6283622932517,0.0,1.0,0.0,0.0,1.0,Taxi
10.200000000000001,0.11780089729150632,19.981467789577938,24.19228812950615,-0.04602691938432485,0.1005963241737419,61.347386652490115,21.96893417342678,0.0,1.0,0.0,0.0,1.0,Taxi
10.3,-0.008372789880554085,13.156381477909187,22.64199924176235,0.1683924672679455,0.7736842625814955,61.62280908685574,21.604972004851426,0.0,1.0,0.0,0.0,1.0,Taxi
10.4,0.14094519466188887,-0.46522094704292866,23.183502956934884,0.16132071100977394,-0.5944842059383274,61.59631598657148,21.774294269674407,0.0,1.0,0.0,0.0,1.0,Taxi
10.5,0.11547479255629166,-19.92095269497158,22.752790175557525,0.193060163034331,0.6784062743543032,61.44407893200662,22.03478567635658,0.0,1.0,0.0,0.0,1.0,Taxi
10.600000000000001,-0.10797755335541198,-25.42580668539699,23.613473254559164,0.4691979808520973,0.29165351745708673,61.53833724180936,21.61794571184769,0.0,1.0,0.0,0.0,1.0,Taxi
10.700000000000001,0.013816161234903963,-27.537079108843205,23.099312847515293,-0.10249716980622892,-0.40511347685320936,61.295594133411214,21.73552455684184,0.0,1.0,0.0,0.0,1.0,Taxi
10.8,-0.022210602987924346,17.46553780257705,23.609512353810548,0.33847033268190957,-0.7208437046418148,61.55438038327395,22.620512237432095,0.0,1.0,0.0,0.0,1.0,Taxi
10.9,-0.020649864342526747,7.6182620043909255,22.63206594603704,0.07599652502807075,0.12915929451909391,61.33803861194633,22.63884755062591,0.0,1.0,0.0,0.0,1.0,Taxi
11.0,0.051907471256858566,-2.6862124508244256,23.870604906034984,0.1883717176313226,-0.39719953817216835,61.397117378339374,21.33322537639886,0.0,1.0,0.0,0.0,1.0,Taxi
11.100000000000001,-0.0356416652420465,22.453904271252085,24.41692497546124,0.39897313090970843,-0.19040717909342833,61.453995703110195,22.527851016498044,0.0,1.0,0.0,0.0,1.0,Taxi
11.200000000000001,0.09161965701373366,44.54847771668262,23.540509819113442,0.2133912797280059,0.2540890484272213,61.25025312083619,22.022583688365167,0.0,1.0,0.0,0.0,1.0,Taxi
11.3,0.2746498598402716,14.917935904398414,22.825876574965044,0.1961354854059026,-0.4503894210510456,61.4037289828176,21.429428105413926,0.0,1.0,0.0,0.0,1.0,Taxi
11.4,0.038948014279945556,-44.63586594260747,23.230201761493355,0.2711619351614212,-0.18179855815774876,61.4248341806408,21.91496239096783,0.0,1.0,0.0,0.0,1.0,Taxi
11.5,-0.13155967269930366,-41.39631298881586,24.21623437343822,0.17513915154387388,0.520809502575392,61.46898006326899,23.377920483647564,0.0,1.0,0.0,0.0,1.0,Taxi
11.600000000000001,0.0676682948961924,-14.412085689838534,23.208601945872623,0.4159850989627756,0.7300037718827088,61.22290443394007,22.227012442907704,0.0,1.0,0.0,0.0,1.0,Taxi
11.700000000000001,-0.033112414169247074,26.141654762027958,22.73220236766209,0.4630247696639008,1.0001643817459327,61.63477191089845,22.413661846793826,0.0,1.0,0.0,0.0,1.0,Taxi
11.8,-0.0008513988891638351,-13.169897076433353,24.83907323383957,0.27154785697288963,0.1377857557590443,61.38606306913124,22.278781300314865,0.0,1.0,0.0,0.0,1.0,Taxi
11.9,0.0018188095140256309,-14.961689831088393,23.55139599771059,-0.1917990778400211,-0.8998346730492407,61.63657197301558,21.760104571517346,0.0,1.0,0.0,0.0,1.0,Taxi
12.0,-0.10792086332468903,-23.950368493140378,22.858658626423438,0.5026740131883163,-0.39455718312619376,61.46690339369775,21.75877186555405,0.0,1.0,0.0,0.0,1.0,Taxi
12.100000000000001,-0.12060324135486573,-0.38249519257415915,22.901263774474735,0.3370841501043118,-0.2236938790782171,61.43543884672772,22.038040579719713,0.0,1.0,0.0,0.0,1.0,Taxi
12.200000000000001,-9.366644884515479e-05,24.39486437779472,23.5847235792541,0.6656673376680803,-0.17756035484064556,61.29314535831617,21.953227747268066,0.0,1.0,0.0,0.0,1.0,Taxi
12.3,0.014053458564284558,15.09632244498907,23.696825653558406,0.3008397234090449,-0.1745372759999201,61.298556807044406,21.676318090278997,0.0,1.0,0.0,0.0,1.0,Taxi
12.4,-0.045121629129920356,6.342808856702213,23.81979666604117,0.3352291301199515,0.4286612672251112,61.38978328157185,21.58312284425817,0.0,1.0,0.0,0.0,1.0,Taxi
12.5,0.03162037783466592,1.6526916605583395,24.004298693401978,0.25786922762763503,-0.07733679168386401,61.49193252221181,21.67153391270491,0.0,1.0,0.0,0.0,1.0,Taxi
12.600000000000001,0.022316916867076264,9.144952277761632,24.228707343666454,0.37495638089630656,0.08058144425721378,61.62091015584383,21.61660048386096,0.0,1.0,0.0,0.0,1.0,Taxi
12.700000000000001,0.0006031322588878059,12.539694009190084,23.183520699963996,0.48986640773205703,0.35180756467689683,61.49040677740919,22.306783104105584,0.0,1.0,0.0,0.0,1.0,Taxi
12.8,0.09431884788061634,-15.621652906254246,23.471257762366218,0.267660414182828,0.3249667412847155,61.44833768741171,21.209969637399094,0.0,1.0,0.0,0.0,1.0,Taxi
12.9,-0.05579134766419496,-2.5202180650921355,23.453414239199816,-0.23943774761914027,-0.2631858481084891,61.32929851447744,21.02809026347613,0.0,1.0,0.0,0.0,1.0,Taxi
13.0,-0.011997958066572872,-60.34489931004595,23.926141830342328,0.027052222867833486,0.416738409547953,61.42260924112156,21.739521047454986,0.0,1.0,0.0,0.0,1.0,Taxi
13.100000000000001,-0.20740564866961342,-4.027396147741588,23.296978891478254,0.4724396437025807,0.24755637733712277,61.372312466364406,22.747796760613404,0.0,1.0,0.0,0.0,1.0,Taxi
13.200000000000001,-0.07592832840290294,10.333753949489436,23.143929727729493,0.35075538340263046,-0.40478674922531216,61.483997634761124,20.55471314183694,0.0,1.0,0.0,0.0,1.0,Taxi
13.3,0.039670811680874295,71.69416589415455,23.44503525330921,0.2873482427506453,-0.1710958793027741,61.37925420393003,22.413867623511877,0.0,1.0,0.0,0.0,1.0,Taxi
13.4,0.15106518080115933,12.268839759025965,23.836142599791632,0.30829694155011605,-0.0474330415312278,61.347038840268965,22.143475796605376,0.0,1.0,0.0,0.0,1.0,Taxi
13.5,-0.014584129607773147,42.1029322778402,24.932544630223944,0.24955914229312487,0.7722301528854675,61.61882170353323,21.42501539873041,0.0,1.0,0.0,0.0,1.0,Taxi
13.600000000000001,0.25018547307007527,-37.84420955577712,23.96845026809132,0.267869970093354,0.42998097672590785,61.75328344209015,21.532006151438047,0.0,1.0,0.0,0.0,1.0,Taxi
13.700000000000001,-0.03815586697772633,10.29384642225711,23.0332865231404,0.24498092615794725,0.06470932267333515,61.553184680765185,21.404724295204122,0.0,1.0,0.0,0.0,1.0,Taxi
13.8,0.03688510250351236,-64.70884361151573,24.50508301725462,0.1593191585894189,0.5883086232429519,61.5375364902369,22.15976651425782,0.0,1.0,0.0,0.0,1.0,Taxi
13.9,-0.07335874498750343,18.19688920450409,23.379329526164774,-0.14992224273806132,-0.5397258204512158,61.410601898966945,22.23248114536784,0.0,1.0,0.0,0.0,1.0,Taxi
14.0,0.0528285790447941,-2.7302796490562167,23.500789292681475,-0.21673071547139378,0.29826592375249206,61.46984437246658,21.188848844946428,0.0,1.0,0.0,0.0,1.0,Taxi
14.100000000000001,0.02323370425823126,53.16176484529473,22.324277359447432,0.4398533277391322,0.4236697492463303,61.389822685838,22.109151268612624,0.0,1.0,0.0,0.0,1.0,Taxi
14.200000000000001,0.1924500792389702,9.221392968063,24.497673275739277,0.5354996748790579,0.05802872989164094,61.508057185414486,22.671506642633638,0.0,1.0,0.0,0.0,1.0,Taxi
14.3,0.09893554388510906,-18.18057602523253,23.492001119539736,0.20328147781608938,-0.15981466981362685,61.51742018769767,22.15703582343684,0.0,1.0,0.0,0.0,1.0,Taxi
14.4,-0.06766917586793142,-69.63662639384346,23.233249319832105,0.08092665648899444,-0.6880780292992374,61.54377549502101,22.940502781413205,0.0,1.0,0.0,0.0,1.0,Taxi
14.5,-0.15573305273024712,-33.29202864013902,23.23354146960265,0.2179579391426723,-0.161611881569622,61.38627256826862,20.885017184761388,0.0,1.0,0.0,0.0,1.0,Taxi
14.600000000000001,-0.06752459931558605,-15.316426869742015,24.498948943936902,0.34858565560938837,-0.5305930677927424,61.447973897372606,22.718971082199147,0.0,1.0,0.0,0.0,1.0,Taxi
14.700000000000001,-0.14425131021664153,4.633093035591791,24.123080575525808,0.2535708517300733,-0.5180700156573782,61.393379458330514,21.616028164542573,0.0,1.0,0.0,0.0,1.0,Taxi
14.8,-0.1325675875522882,-1.3900554121636688,23.364351142906187,0.2005737578971598,-0.8299240612439529,61.402471518975574,22.135845655925028,0.0,1.0,0.0,0.0,1.0,Taxi
14.9,-0.07447487637640442,6.924874785835555,23.792963700081522,0.37097788454703384,0.5812345375307505,61.336152483376964,21.52938977493314,0.0,1.0,0.0,0.0,1.0,Taxi
15.0,-0.10962693628746378,6.486860532113108,23.21590134708808,-0.18835711457798648,-1.133950673778556,61.367479770002944,21.92074399020094,0.0,1.0,0.0,0.0,1.0,Taxi
15.100000000000001,-0.10013328489172268,49.11921253274172,23.301585014070984,0.2544294111915699,0.006308126477678699,61.59358584895227,21.40210827251954,0.0,1.0,0.0,0.0,1.0,Taxi
15.200000000000001,0.17112118628730424,20.417030517478235,23.123792791665053,0.550714613565289,0.9125108491473073,61.37931587671824,22.69471650466832,0.0,1.0,0.0,0.0,1.0,Taxi
15.3,-0.0075417837000725215,-13.399824956035394,22.436386040888575,0.1378770992608616,-0.03503691304409199,61.465746534982486,21.872633982812367,0.0,1.0,0.0,0.0,1.0,Taxi
15.4,-0.16713240967189957,-41.80204174916668,23.346494329501716,0.1480571852248887,0.5680180261452533,61.49549532911897,21.802816980416747,0.0,1.0,0.0,0.0,1.0,Taxi
15.5,-0.03788902245852918,16.68561968580627,23.738071612319064,0.016423577492006514,0.10882600258003529,61.45726095538214,21.924417728096884,0.0,1.0,0.0,0.0,1.0,Taxi
15.600000000000001,0.07588631472895879,13.473355033473473,23.25800306914346,0.4377670449312209,-0.6808707404271027,61.40237196966302,21.81031619476899,0.0,1.0,0.0,0.0,1.0,Taxi
15.700000000000001,-0.09976563450453224,13.26800757702602,23.417894352555255,0.11462068453246281,-0.6960784886651975,61.51514450125018,21.64345662765661,0.0,1.0,0.0,0.0,1.0,Taxi
15.8,0.028451015426600897,13.29402273298912,23.689375848498983,0.14055669411163854,-1.5099209272911605,61.47727306441192,21.680336629815475,0.0,1.0,0.0,0.0,1.0,Taxi
15.9,0.14235642839390436,54.97545943927392,23.33527890249219,0.34556491975321624,0.6005410677210999,61.29403130528192,21.708037308795614,0.0,1.0,0.0,0.0,1.0,Taxi
16.0,0.1751116626918373,-7.144222612756721,22.95694629285101,0.20885061161545074,-0.6356054400534606,61.44558813651054,21.384604824949655,0.0,1.0,0.0,0.0,1.0,Taxi
16.1,-0.007270097637182742,8.613464358116303,23.36993300206499,0.30779420500396415,0.7899710867011092,61.235960796038796,21.86163757887488,0.0,1.0,0.0,0.0,1.0,Taxi
16.2,0.18542375018448584,-54.7181680224919,23.389988408757578,0.41462519369750905,0.24581996356735517,61.522146255579855,22.2688328480334,0.0,1.0,0.0,0.0,1.0,Taxi
16.3,-0.09847917742062222,-6.359830376187065,23.49092434101185,0.013874077760207937,-0.5376869299975612,61.53725347716761,21.898946061161766,0.0,1.0,0.0,0.0,1.0,Taxi
16.400000000000002,-0.03906924951811811,-56.69432049386274,23.465014267319546,0.04002253800466335,-0.5513787376190418,61.45369036671161,22.070737003408997,0.0,1.0,0.0,0.0,1.0,Taxi
16.5,-0.09804785228482787,37.69820660660029,23.4387914679131,0.251221957229925,0.2849857048250884,61.617992310681416,22.221266680184325,0.0,1.0,0.0,0.0,1.0,Taxi
16.6,0.09001185561237918,12.481890027969122,24.025351033515783,0.32761683915628886,-0.03236946445413855,61.42854771175831,22.130238743237822,0.0,1.0,0.0,0.0,1.0,Taxi
16.7,0.023340200621727442,-29.228836762423203,23.27890764686353,0.02841606412573866,0.03039211640204541,61.45947489238239,22.104934569359777,0.0,1.0,0.0,0.0,1.0,Taxi
16.8,-0.24419203609694395,23.096990562229347,22.94442363791287,0.21786212458322002,0.8642213102865169,61.57596424881916,22.167646225495506,0.0,1.0,0.0,0.0,1.0,Taxi
16.900000000000002,0.20549680842352586,-22.250655110818617,23.794184903138472,0.3375066667554953,-0.2624556096791787,61.475584295071826,22.081894783671775,0.0,1.0,0.0,0.0,1.0,Taxi
17.0,-0.08791307493236568,54.52950373078895,23.213324201008522,0.40903678838928137,-0.5762380339627499,61.61675413799412,21.39567981110652,0.0,1.0,0.0,0.0,1.0,Taxi
17.1,0.0284554825570008,-43.63619483444102,23.213771222955526,0.1551050321004589,-0.1345477428988132,61.449463502912295,22.09469142514791,0.0,1.0,0.0,0.0,1.0,Taxi
17.2,-0.012684165748679258,31.74566351508045,22.88483186098069,0.2591632733405124,0.41472258669869955,61.436179381740885,20.95396060696142,0.0,1.0,0.0,0.0,1.0,Taxi
17.3,0.07081524264303656,11.079344477898834,22.508578469151043,0.44133229791312295,0.4066015972604439,61.55508576716238,20.52279539436842,0.0,1.0,0.0,0.0,1.0,Taxi
17.400000000000002,0.08385220494649492,30.80785426248602,24.148285047085903,0.5372820581527551,-0.1960698694012018,61.43267585293205,22.749936366380112,0.0,1.0,0.0,0.0,1.0,Taxi
17.5,0.1413551055637508,3.102884461104658,23.61963811542081,0.7481031091196509,0.21922781021943405,61.5582470720978,22.19881204667103,0.0,1.0,0.0,0.0,1.0,Taxi
17.6,0.0863296649485598,-32.74577856530679,23.53450966957512,0.2562618577923752,0.189633826855218,61.405119691561765,21.729424075572773,0.0,1.0,0.0,0.0,1.0,Taxi
17.7,-0.07987668788003911,-23.133690447385902,23.69054954235378,0.17352179289327282,-0.6019080836959992,61.44700152216495,22.217431607822412,0.0,1.0,0.0,0.0,1.0,Taxi
17.8,0.02568665332682123,-13.195411772206675,24.01012677729529,0.42698391188763285,-0.07476654547172935,61.40720339114529,21.24576423654486,0.0,1.0,0.0,0.0,1.0,Taxi
17.900000000000002,0.020352606087526343,29.593431206359757,23.96700420169114,0.23806771763241094,0.07332157180670495,61.2647149944753,21.942619113592393,0.0,1.0,0.0,0.0,1.0,Taxi
18.0,0.06809046815175962,-19.17550876656502,24.065320780815423,0.03308218023733461,0.5590901806775562,61.285711671864874,21.773294164552965,0.0,1.0,0.0,0.0,1.0,Taxi
18.1,-0.0701908905060039,22.566403539070553,23.07575708907303,0.37289041917275556,-0.018486023038293848,61.26295269240251,22.356064160000674,0.0,1.0,0.0,0.0,1.0,Taxi
18.2,0.13318462378287912,-18.16912438126548,23.191902434725307,0.1953755779249526,0.682059341716377,61.24535877626914,22.094056132129307,0.0,1.0,0.0,0.0,1.0,Taxi
18.3,-0.022755153754567735,31.294567026723854,22.783281787538577,0.43444289591602026,-0.5111583991877272,61.438798194260926,21.63438539123612,0.0,1.0,0.0,0.0,1.0,Taxi
18.400000000000002,0.0862819446276154,-42.69701353554397,22.00807627810754,0.34477055040626436,0.13245418368168813,61.455634512202494,21.865231549365003,0.0,1.0,0.0,0.0,1.0,Taxi
18.5,-0.08030044389484071,1.2544636864864789,22.897615557885313,0.17939406055682622,0.07245383106485295,61.469966752988284,21.907950084425103,0.0,1.0,0.0,0.0,1.0,Taxi
18.6,-0.016482835322135386,-20.93240223026505,24.46825679051606,0.195078977015829,0.10547159959019337,61.371349054822076,20.499000717665396,0.0,1.0,0.0,0.0,1.0,Taxi
18.7,-0.018380066523709906,-5.406639964085305,23.248821365054752,0.3709252632276393,0.020364904338328767,61.58745984142979,21.826166596277318,0.0,1.0,0.0,0.0,1.0,Taxi
18.8,-0.10733364371526727,25.409278879418682,24.49129096904454,0.44189489796488524,-0.21013387152115598,61.4081895929624,21.407661168655686,0.0,1.0,0.0,0.0,1.0,Taxi
18.900000000000002,0.11056355907495802,26.380213495568984,22.996041134816863,0.3430792914547499,-0.00850823685832257,61.44182467181173,22.019736280814996,0.0,1.0,0.0,0.0,1.0,Taxi
19.0,0.113521000954135,46.49290469196017,23.702709719553773,0.03911810200894472,-0.014754789224744552,61.44449246825155,21.906338950990943,0.0,1.0,0.0,0.0,1.0,Taxi
19.1,0.12513087974453357,-18.815785897678563,23.119537798503274,0.2428263991659663,0.48416992074177484,61.42462187874315,21.926303523871727,0.0,1.0,0.0,0.0,1.0,Taxi
19.200000000000003,0.016484629586565155,-13.174706748194346,23.216625861048605,0.11234367569717382,-0.5057674995979465,61.610716765736754,22.114801693236604,0.0,1.0,0.0,0.0,1.0,Taxi
19.3,0.047647467213163215,-48.891305262400216,23.746705942154584,0.16810327877384662,-0.1523108056965789,61.64208658593202,21.799620403555004,0.0,1.0,0.0,0.0,1.0,Taxi
19.400000000000002,-0.11932564656746761,-7.553303083543267,23.3471108039827,0.2886620942404786,-0.4411691022766064,61.4562645964682,22.187337458418614,0.0,1.0,0.0,0.0,1.0,Taxi
19.5,-0.02128188583115122,-3.9830975906335717,23.155292140478196,0.3433866001001672,-0.5629121964528169,61.46983217753126,21.17033776373199,0.0,1.0,0.0,0.0,1.0,Taxi
19.6,0.027731979259995317,28.062051927424452,24.148133637304905,0.25074486000418844,0.3504144728694252,61.44408863689648,22.40815285583609,0.0,1.0,0.0,0.0,1.0,Taxi
19.700000000000003,0.02098461306965463,19.66302473474411,23.547517385870034,0.5389524661118408,-1.0605452075230453,61.26400421557241,22.30487933209026,0.0,1.0,0.0,0.0,1.0,Taxi
19.8,0.07703323784256928,-12.17178794877286,23.929060068716783,-0.20102184856286592,0.049759957606975096,61.39314314396995,22.437991962107294,0.0,1.0,0.0,0.0,1.0,Taxi
19.900000000000002,-0.03312696048386902,-18.953878127905885,23.283331917394207,0.10093660512427552,-0.5699702155950117,61.48779276037277,21.19484793989108,0.0,1.0,0.0,0.0,1.0,Taxi
20.0,-0.07378477756987484,3.4306005656868783,22.982400165811953,0.030247451898052974,0.3243422348999961,61.43227241985926,21.789087700904567,0.0,1.0,0.0,0.0,1.0,Taxi
20.1,0.09418624067100362,21.93400879326981,23.42951105587202,0.1895756605448215,0.6779576234767313,61.457487616032836,22.05500930786941,0.0,1.0,0.0,0.0,1.0,Taxi
20.200000000000003,0.07654308348247998,-5.337149936711616,24.059371421526606,0.014847806764819671,0.031508275682801054,61.50413257688024,22.165853980372486,0.0,1.0,0.0,0.0,1.0,Taxi
20.3,-0.10047052725343297,-19.96427128538127,24.17493974596151,0.3697624469980151,0.21653805783242794,61.54202922013309,22.594405272608384,0.0,1.0,0.0,0.0,1.0,Taxi
20.400000000000002,-0.00563511575590277,-11.600632888717124,24.375704984325267,-0.11883604011812882,-1.0999623361793252,61.37494984703278,21.97298743474746,0.0,1.0,0.0,0.0,1.0,Taxi
20.5,0.018539919038894313,42.847237999347676,23.626700352337124,0.0360860600673058,0.008871122947179611,61.51949963583775,22.149899462349556,0.0,1.0,0.0,0.0,1.0,Taxi
20.6,0.11376566274330538,-6.473190096432627,24.079053478209875,0.5369848215071098,0.5779939690559291,61.48119966418716,22.819623782161425,0.0,1.0,0.0,0.0,1.0,Taxi
20.700000000000003,-0.03800106623806593,26.18133023195813,24.52337382329678,0.21659709551364803,0.7570729631732945,61.44006814776628,22.236649734571206,0.0,1.0,0.0,0.0,1.0,Taxi
20.8,0.14944657019868493,-24.497573696402128,23.399375390083502,0.09896082520642713,0.8625591736409547,61.27980166436856,22.782813659462484,0.0,1.0,0.0,0.0,1.0,Taxi
20.900000000000002,-0.00872220573870531,0.6088263673467615,23.619821806978873,0.17524608087103832,-0.4275130280649879,61.502143906407014,22.65551174003808,0.0,1.0,0.0,0.0,1.0,Taxi
21.0,-0.03495693440133218,7.111616527282384,24.460540275800245,0.29886773123925203,-0.20179817207575257,61.32513630498545,22.025553130684216,0.0,1.0,0.0,0.0,1.0,Taxi
21.1,0.18500465283509682,-38.106150089127915,23.039298055157857,0.26263662645204033,-0.4163239707960432,61.39325656639471,22.4570437949166,0.0,1.0,0.0,0.0,1.0,Taxi
21.200000000000003,-0.19925295618434488,-0.5800571217425841,22.56376760397538,0.09310208903005424,1.0906763298705406,61.45912285247243,20.956952396891523,0.0,1.0,0.0,0.0,1.0,Taxi
21.3,-0.0378572200100451,-35.98489433872834,24.19658866441077,0.3504849720741986,0.8747992946078533,61.36372011300426,22.319077628531186,0.0,1.0,0.0,0.0,1.0,Taxi
21.400000000000002,0.005080181141455083,52.04572307806364,24.551719369736837,0.22949746494857381,-1.0064359214344931,61.21666752070291,21.764435156892567,0.0,1.0,0.0,0.0,1.0,Taxi
21.5,0.06097565920597323,12.625015145895722,22.80902094566676,0.0442301800254733,0.2622897500493898,61.53518064376351,21.40191615320173,0.0,1.0,0.0,0.0,1.0,Taxi
21.6,0.025267855719433453,8.93432219279146,22.648111021852177,0.4209949272859731,-0.08318666244568369,61.570015189822755,21.568860889209162,0.0,1.0,0.0,0.0,1.0,Taxi
21.700000000000003,0.04975179210541233,10.586316170883004,23.077381343770824,0.5648463707658914,-0.7569805216690999,61.48191280873982,21.4967668565453,0.0,1.0,0.0,0.0,1.0,Taxi
21.8,0.1139072400603882,-4.1790285140670775,23.150072307791007,0.30610591675967347,-0.40709262691126635,61.3607402162603,21.36506954406674,0.0,1.0,0.0,0.0,1.0,Taxi
21.900000000000002,0.004372713149098025,-46.26270811265088,23.1727104370363,0.09530967273271057,-0.09464020152450592,61.44523550360043,22.254632918827067,0.0,1.0,0.0,0.0,1.0,Taxi
22.0,-0.18156174845784212,-24.6342302981226,23.13811055807891,0.28100624664427487,0.6366725666059488,61.21577391312667,22.294014456680987,0.0,1.0,0.0,0.0,1.0,Taxi
22.1,-0.009263911430224833,26.86595332124433,23.4557860970395,0.17590627103948617,0.7979062933153928,61.589087349167926,21.132373062599775,0.0,1.0,0.0,0.0,1.0,Taxi
22.200000000000003,0.13870247975531966,28.38545685113527,24.021582025600665,0.4457330792324411,-0.8351115581902331,61.405128471185094,21.20575604738297,0.0,1.0,0.0,0.0,1.0,Taxi
22.3,-0.03963446420216579,30.12323564824523,23.615050756712474,0.06657347339489925,0.010190788653376632,61.51548152294009,21.946869252314585,0.0,1.0,0.0,0.0,1.0,Taxi
22.400000000000002,0.1413522668110013,-35.624587052833995,22.928375921310213,0.10362856790361694,-0.1951977277692992,61.41377780828287,22.295144526563448,0.0,1.0,0.0,0.0,1.0,Taxi
22.5,-0.03942045550885035,-28.5279772426976,22.76748797796321,0.022274014505743733,0.24129184398047937,61.40479484506676,21.414886853566916,0.0,1.0,0.0,0.0,1.0,Taxi
22.6,-0.18227435041565382,-50.127183108765486,23.073942654026933,0.22055226320144022,-0.20091160690356366,61.31012987365273,21.974546279939705,0.0,1.0,0.0,0.0,1.0,Taxi
22.700000000000003,-0.1092836487328262,45.94941918154757,22.015144750314835,0.16123066656553983,-0.37458560585832684,61.552096218066936,22.22783104169053,0.0,1.0,0.0,0.0,1.0,Taxi
22.8,0.19032664039888741,40.56708935891453,23.428239763125248,0.355479403430812,0.04955074305303809,61.48924746874951,22.43396022434463,0.0,1.0,0.0,0.0,1.0,Taxi
22.900000000000002,0.020561096378918724,-8.563564462677997,23.987276850659978,0.1302965486508616,0.4891341049927361,61.482804900321526,21.73960332908594,0.0,1.0,0.0,0.0,1.0,Taxi
23.0,-0.1521014710462163,-19.461258013262903,23.062887793539137,0.09274798894538136,0.5376089705080624,61.536814978616405,21.632398654130277,0.0,1.0,0.0,0.0,1.0,Taxi
23.1,0.0930203503325728,-8.214937849000862,22.35213652553389,0.395652437558663,-0.013144966480840037,61.425489914313914,22.09607393562107,0.0,1.0,0.0,0.0,1.0,Taxi
23.200000000000003,-0.02051359286608568,29.196289470129813,23.511616289167378,0.07268750929551557,-0.22988199181455868,61.38900938774765,22.402322685850198,0.0,1.0,0.0,0.0,1.0,Taxi
23.3,-0.0061200236955673,-17.48363852190004,22.429360156469542,0.021179453918312136,0.5412211897892847,61.48201640205343,22.713327212840458,0.0,1.0,0.0,0.0,1.0,Taxi
23.400000000000002,0.005602157723072519,16.01739262702727,22.861694663146178,0.09738401673832339,0.14172708416971555,61.34825541611349,22.22510206265257,0.0,1.0,0.0,0.0,1.0,Taxi
23.5,0.05957337026905059,-14.136726693966187,22.803981797340136,0.4572386330443964,-0.02873317324605982,61.32322765391979,22.241858303840164,0.0,1.0,0.0,0.0,1.0,Taxi
23.6,-0.07680365716539833,41.069460725085186,22.23701547621792,0.18828771453510956,0.540275409637672,61.46065015623731,21.580726486190937,0.0,1.0,0.0,0.0,1.0,Taxi
23.700000000000003,0.21094946134849835,-0.11417641375385774,22.937550912103966,0.23605414662583,-0.956851268650306,61.50741486770187,22.009178631276296,0.0,1.0,0.0,0.0,1.0,Taxi
23.8,0.05900248820028118,45.386109135433365,24.518915944898062,0.2121576635872037,0.378208476834487,61.52980294175927,22.272020918482568,0.0,1.0,0.0,0.0,1.0,Taxi
23.900000000000002,0.1501268885117684,-69.63578061629964,23.101591796507428,0.27391556948719004,0.2123945889506543,61.459404888069685,21.31807056266924,0.0,1.0,0.0,0.0,1.0,Taxi
24.0,-0.13722944173299997,5.587744203409969,23.89096980166216,0.10744751206998175,-0.7078192720050364,61.61970075970413,21.982790231773205,0.0,1.0,0.0,0.0,1.0,Taxi
24.1,0.08694120921733088,4.599945044966208,23.771627147177817,0.049335016317620634,0.049372673438688265,61.47145991073933,22.260925655985158,0.0,1.0,0.0,0.0,1.0,Taxi
24.200000000000003,0.1731266137365993,9.712477234114877,23.09306708274185,-0.051440629551026684,-1.2276227050241542,61.38904291464502,20.924598117612675,0.0,1.0,0.0,0.0,1.0,Taxi
24.3,-0.08866705556242568,-4.063570429260413,23.23570605602238,0.1973346131489066,-0.4028959236946494,61.41318732302642,22.097044244605602,0.0,1.0,0.0,0.0,1.0,Taxi
24.400000000000002,0.06662335707102872,-29.073145044761187,23.080570468099587,-0.0253173387262699,-0.6031480545315927,61.44707738164385,21.973664282903076,0.0,1.0,0.0,0.0,1.0,Taxi
24.5,0.02776088851279328,13.03890943337962,24.162227404739106,0.27793916650546474,0.19222356057816029,61.4536502724481,20.944967632469652,0.0,1.0,0.0,0.0,1.0,Taxi
24.6,-0.023472508395527697,20.300642893124216,23.25106084208509,0.1270018619908141,0.7516945198615046,61.594990154456525,21.470908238583732,0.0,1.0,0.0,0.0,1.0,Taxi
24.700000000000003,0.1681265715366497,32.23402595862924,22.97005538489818,0.3350764398217534,-0.6614374179314151,61.24801187454699,23.445206654776833,0.0,1.0,0.0,0.0,1.0,Taxi
24.8,0.18893101830593936,23.220029813478785,23.037033289000277,0.19915183390432814,0.41233718788855944,61.453203658854704,21.701854653803956,0.0,1.0,0.0,0.0,1.0,Taxi
24.900000000000002,0.09262764067186614,-51.18717610636558,22.93404643141602,-0.007638529267613464,0.7182361617083378,61.37117642894316,22.181554489153392,0.0,1.0,0.0,0.0,1.0,Taxi
25.0,-0.0878093089951783,-42.89972249268902,24.09106644311335,0.277956660364271,-0.23600606977548053,61.330610462210984,21.823362356918658,0.0,1.0,0.0,0.0,1.0,Taxi
25.1,-0.025567594157505855,-30.195425483307016,25.13985374619194,0.3410559081364286,-0.42521777581821574,61.60030846199618,21.842107108781562,0.0,1.0,0.0,0.0,1.0,Taxi
25.200000000000003,-0.058349486744669034,-18.36343434378519,22.48301651010941,0.3522352227437584,-0.4561802954660829,61.39999263217186,21.010810528605617,0.0,1.0,0.0,0.0,1.0,Taxi
25.3,-0.17962648071410434,10.183854883098084,23.49130890097309,0.30485800245791495,1.0183228087222507,61.316511500175466,20.88006560034621,0.0,1.0,0.0,0.0,1.0,Taxi
25.400000000000002,0.025351680257984472,-18.419120099953474,23.89598942834607,0.23582227245871323,-1.0996140464038804,61.48553536151513,21.872315217989325,0.0,1.0,0.0,0.0,1.0,Taxi
25.5,-0.1504450872444365,16.626197587007912,22.7838064753255,0.09901718315123526,0.3268488002892753,61.54715590811952,22.02972956323469,0.0,1.0,0.0,0.0,1.0,Taxi
25.6,-0.09649549277906488,3.3659609380036812,23.966977372407154,0.0582536216679336,0.007905624876278291,61.44898793462994,21.961435956755654,0.0,1.0,0.0,0.0,1.0,Taxi
25.700000000000003,0.04218148494800277,60.240335949366596,22.199834678301517,0.1293660535417725,-0.36637329283011083,61.42317673209885,22.223100629974546,0.0,1.0,0.0,0.0,1.0,Taxi
25.8,0.15075659250239637,4.629895714070481,23.506491682904613,0.15193507261159206,0.04895237981856026,61.57699322375396,21.941899463297204,0.0,1.0,0.0,0.0,1.0,Taxi
25.900000000000002,-0.07334601420871263,23.55200931282523,23.892925023398455,0.3255093667552888,0.5667450462256647,61.46732794278057,20.63291716745739,0.0,1.0,0.0,0.0,1.0,Taxi
26.0,0.15994153151212878,-18.830860459454332,24.062245916482073,0.2526661540230891,-0.2783580632839496,61.561042155324685,21.776324615808836,0.0,1.0,0.0,0.0,1.0,Taxi
26.1,0.056602290205124556,19.7793095220336,23.28342843817435,0.05568497552441126,-0.6958298255497138,61.43425240144569,22.45604015056282,0.0,1.0,0.0,0.0,1.0,Taxi
26.200000000000003,0.02555053340145526,-37.718186284417335,23.042021230892438,-0.003542699945785044,0.2859318020685585,61.36584740291943,22.232434178011783,0.0,1.0,0.0,0.0,1.0,Taxi
26.3,-0.028649399909958018,-38.84272907287487,23.948660890235995,0.41624481012630077,-0.823843670266459,61.49893129946764,21.917355072959733,0.0,1.0,0.0,0.0,1.0,Taxi
26.400000000000002,-0.1376113551592499,3.3690872029679326,23.356234989929057,0.14653782349674355,0.32282946704112125,61.52448818890531,22.42124743710503,0.0,1.0,0.0,0.0,1.0,Taxi
26.5,0.042395969416294824,-32.81694049401932,23.351989081382094,0.26880119178096784,0.8583353968714694,61.41466009786592,21.898659103603716,0.0,1.0,0.0,0.0,1.0,Taxi
26.6,-0.1927341023800547,38.245464064707505,24.609535318871746,0.10817176054938608,0.2583405197284564,61.560975435306375,22.185554233896053,0.0,1.0,0.0,0.0,1.0,Taxi
26.700000000000003,0.053615965164287516,18.67202603964009,24.00836540067904,0.4743438632156498,-0.10456964791736069,61.37510886433313,22.330650408471904,0.0,1.0,0.0,0.0,1.0,Taxi
26.8,0.13575609961449517,62.962273468313505,22.5800273077295,0.649731997050891,-0.04585132567127844,61.48761144576048,21.775363337371125,0.0,1.0,0.0,0.0,1.0,Taxi
26.900000000000002,0.12207726496151272,-6.926001414668832,23.78108927644508,0.5041169583243219,-0.6333658080519559,61.3651786830755,21.994701510027,0.0,1.0,0.0,0.0,1.0,Taxi
27.0,0.01898595809094327,-29.18900954533323,23.428168825855437,0.2949158045239311,0.1832505072037784,61.34028265612386,22.034991477471085,0.0,1.0,0.0,0.0,1.0,Taxi
27.1,-0.010188948112171095,-0.22770643106742247,22.651443549647986,-0.07451535890025646,-0.1233322490046433,61.44714208310546,21.322678628971612,0.0,1.0,0.0,0.0,1.0,Taxi
27.200000000000003,0.1209387328061755,-36.81171429000363,23.01169721033555,0.19008819593976856,0.050058775823932096,61.322332708682836,22.68614367082057,0.0,1.0,0.0,0.0,1.0,Taxi
27.3,-0.165072613359075,17.923831102552455,23.53680766705452,-0.0007686993368331008,0.652774389255153,61.51195813189457,21.98331469545917,0.0,1.0,0.0,0.0,1.0,Taxi
27.400000000000002,0.07943020740059109,-16.148313781093332,23.90237431268027,-0.026236998958715785,-0.5781073623340188,61.41486933214503,22.27481919449566,0.0,1.0,0.0,0.0,1.0,Taxi
27.5,0.040197163900708766,56.34986405578298,23.469370091279078,0.5424995630317677,0.5573124718648178,61.57986003372662,21.54169050371635,0.0,1.0,0.0,0.0,1.0,Taxi
27.6,0.11667670691983983,5.3983093949607595,22.574606452129736,0.17954857226264126,-0.45634483324079117,61.448450068797,22.341107900374524,0.0,1.0,0.0,0.0,1.0,Taxi
27.700000000000003,0.10642175437539479,21.029250388380664,23.536572426843577,-0.03056518019309251,0.13904366694152992,61.56825056376749,22.4221566988142,0.0,1.0,0.0,0.0,1.0,Taxi
27.8,0.14534341584261198,17.96649493007058,23.571035156367227,0.34233647958080493,-0.5724609160618945,61.43303759003686,21.343034595678407,0.0,1.0,0.0,0.0,1.0,Taxi
27.900000000000002,0.20650918157019263,-56.803076357814604,23.976616116118915,0.13692640372247422,-0.936328481379597,61.488304087510244,22.562069373085695,0.0,1.0,0.0,0.0,1.0,Taxi
28.0,-0.17759362741367835,-47.984832643757294,23.7404456189532,0.03545109313160186,0.41971108582062105,61.556001333161134,22.07137620800694,0.0,1.0,0.0,0.0,1.0,Taxi
28.1,-0.09458074737617456,-44.78956344537045,23.32859334520626,0.18055905449304213,0.34193644669992257,61.376437151209245,22.14020290445189,0.0,1.0,0.0,0.0,1.0,Taxi
28.200000000000003,-0.017438635656659724,57.571551698615,23.373492887595315,0.07991650861160643,0.34699535579875823,61.524142488332984,21.497774642168665,0.0,1.0,0.0,0.0,1.0,Taxi
28.3,0.11026413107939659,-0.8065438047070757,22.6816113655809,-0.02522270671680893,-0.5972032312147249,61.60887098086391,21.66474856130848,0.0,1.0,0.0,0.0,1.0,Taxi
28.400000000000002,-0.09861346639971003,-7.472029330461676,23.60743100053211,0.27999938465996477,-0.36520516923785085,61.41012911512206,22.425513977873358,0.0,1.0,0.0,0.0,1.0,Taxi
28.5,-0.05479878230896819,-26.3765369946897,23.460886038731523,0.03647217589782134,0.5574662391895183,61.471418753376724,22.59455430405461,0.0,1.0,0.0,0.0,1.0,Taxi
28.6,-0.02161855389405199,9.902837960647487,22.806744068559162,-0.21696930469640058,0.12338428998497737,61.28290121977028,21.20937643978002,0.0,1.0,0.0,0.0,1.0,Taxi
28.700000000000003,-0.04909927659647268,27.414907411064124,23.468735375052283,0.0826647200272437,0.014553750854811314,61.410994644091204,21.482179571628254,0.0,1.0,0.0,0.0,1.0,Taxi
28.8,0.08227575474635238,3.2412828405966203,24.135507676803183,0.03935205111632578,0.16642539671670784,61.59738079001886,22.114847527256597,0.0,1.0,0.0,0.0,1.0,Taxi
28.900000000000002,-0.005412139691068962,41.77429189488138,23.731031370413394,0.16645229313071158,-0.5389798110491613,61.579241762830065,21.346120898744918,0.0,1.0,0.0,0.0,1.0,Taxi
29.0,0.15977218287793415,-9.879649215268913,22.165207078897964,0.185839958208406,-0.8620612816191412,61.645983380301175,21.81265483877657,0.0,1.0,0.0,0.0,1.0,Taxi
29.1,0.03287750867000771,33.840090868104966,23.298757329456535,0.10325224069173455,1.1721610552233352,61.45260939566248,21.30463727185712,0.0,1.0,0.0,0.0,1.0,Taxi
29.200000000000003,0.16378831464945576,-44.75082061332811,23.478362038668834,0.12624970977524896,0.2761972858837577,61.54884619957181,21.805890674196316,0.0,1.0,0.0,0.0,1.0,Taxi
29.3,-0.0639819201887065,-15.567707070751467,22.732991488646764,0.03599212303089927,-1.1405942664454465,61.30226462182958,21.964519653676874,0.0,1.0,0.0,0.0,1.0,Taxi
29.400000000000002,-0.044961026683749725,-49.65775851654572,22.866470267793595,0.16163154226494392,0.2649702889700757,61.67514436376297,21.94615813642123,0.0,1.0,0.0,0.0,1.0,Taxi
29.5,-0.0845004779332729,-14.74989292076856,22.991347253059462,0.17452733458817374,-0.1536023017939677,61.490500104414025,21.85832648852842,0.0,1.0,0.0,0.0,1.0,Taxi
29.6,-0.1377313847925494,0.9275049770647049,22.470370266637495,0.322089044033111,0.5106767074749408,61.44254186140546,21.430717044317888,0.0,1.0,0.0,0.0,1.0,Taxi
29.700000000000003,-0.04032350179842629,-1.0137516891232596,23.97181838883149,0.15978712960618247,-0.32874721634779497,61.500964773362284,21.66740304619492,0.0,1.0,0.0,0.0,1.0,Taxi
29.8,-0.08956923637888929,25.09423024778593,21.59756153046166,0.5576400106985515,0.30968403383016474,61.491300364285735,20.846223835120618,0.0,1.0,0.0,0.0,1.0,Taxi
29.900000000000002,-0.012260233553619842,-2.3016834279911897,22.189001933178133,0.07448488463447345,0.2963873277146065,61.441905837172555,23.08888916822582,0.0,1.0,0.0,0.0,1.0,Taxi
30.0,-0.05183191893838233,13.086864736722703,22.7465166272121,0.42907822633826054,-0.049122117054569744,61.6019665897677,22.1277418524244,0.0,1.0,0.0,0.0,1.0,Taxi
30.1,-0.024134912695275856,9.103292822999618,24.17397074442651,0.31894966617077636,0.07581940969814426,61.31033618341803,21.912189061227874,0.0,1.0,0.0,0.0,1.0,Taxi
30.200000000000003,0.03325623056137816,27.62590679556487,23.822923406685693,0.2993099480473262,-0.2361627019355347,61.55498601193983,21.942063355201352,0.0,1.0,0.0,0.0,1.0,Taxi
30.3,0.08629761503944192,-6.843653073228235,22.822692055913308,0.30159312419365614,-0.03228881177301139,61.3589490372143,21.47578352460648,0.0,1.0,0.0,0.0,1.0,Taxi
30.400000000000002,-0.058353178061417134,3.94661094350298,22.827178775929237,0.12137125944197488,-0.3124244278782773,61.4144312415516,22.352245443719017,0.0,1.0,0.0,0.0,1.0,Taxi
30.5,0.05298928527889294,-3.384773460143318,23.66045988234501,0.17714292376721485,-0.5346524537480242,61.549562059430116,22.575247384484086,0.0,1.0,0.0,0.0,1.0,Taxi
30.6,0.0693737477387252,8.305344338142072,24.367904014127,0.6045367644741357,-0.27517785337326306,61.52443440077832,21.303850052318438,0.0,1.0,0.0,0.0,1.0,Taxi
30.700000000000003,-0.016826456370706896,-19.59783291829081,23.393640656172963,-0.06100095439665315,-0.3581346010005705,61.48717637505564,22.440696322000502,0.0,1.0,0.0,0.0,1.0,Taxi
30.8,-0.04499987931256121,-11.73086607784503,22.840452423320162,0.06982344630995552,-0.540958891794189,61.55181411493601,21.34496279563168,0.0,1.0,0.0,0.0,1.0,Taxi
30.900000000000002,0.01071941734949995,38.960798445011044,23.134203162891,0.1860699594981934,-0.2524688052893937,61.53452953354662,22.57617110760523,0.0,1.0,0.0,0.0,1.0,Taxi
31.0,0.1779775358543482,8.6500507051742,23.71963311367368,0.36236295544203223,0.8401263135707399,61.55197352677908,21.30248542903539,0.0,1.0,0.0,0.0,1.0,Taxi
31.1,-0.0017496257866903267,-5.045941151336248,23.382049610386904,0.5000460117593429,0.27163522874686186,61.56646365128438,22.144133132045788,0.0,1.0,0.0,0.0,1.0,Taxi
31.200000000000003,-0.014510288407181396,-66.51553414985288,22.992656465830727,-0.03625312390522151,0.8226765938594928,61.375573466983894,21.889102667963243,0.0,1.0,0.0,0.0,1.0,Taxi
31.3,-0.15460013489491625,-23.012541487102343,23.069987366011144,0.21708692688703227,-0.8051974871522155,61.45098516146038,22.132472925201224,0.0,1.0,0.0,0.0,1.0,Taxi
31.400000000000002,-0.11681233322220214,1.3891916605541728,23.448817535584087,0.15205644322076223,-1.6822163798319545,61.42651655242986,21.186221931857485,0.0,1.0,0.0,0.0,1.0,Taxi
31.5,-0.0075643301044106236,28.503450785674847,22.975449780430697,0.422313937111941,-0.4111009315752444,61.466360506600495,21.49645656203351,0.0,1.0,0.0,0.0,1.0,Taxi
31.6,-0.01208288096654211,1.9174921849290574,22.64214876280019,0.271551667431609,0.6109654003223063,61.48860255629364,22.244557739754512,0.0,1.0,0.0,0.0,1.0,Taxi
31.700000000000003,-0.10722487229755695,43.69168785716895,23.4421220694866,0.6217906998195877,-0.5858647222075817,61.51472382026611,21.82566111056646,0.0,1.0,0.0,0.0,1.0,Taxi
31.8,0.210894109181434,-14.008658546815544,23.525493775693757,0.39332801725019806,-0.08773959339031623,61.4691873434474,21.606678260084614,0.0,1.0,0.0,0.0,1.0,Taxi
31.900000000000002,-0.08212617370061998,2.0894930648911854,24.747744370922373,0.4656507369860564,0.03225199278965714,61.40786948366156,22.53134809560536,0.0,1.0,0.0,0.0,1.0,Taxi
32.0,-0.09677740697310117,-60.85193577433481,22.959309764541008,0.26933501201738375,0.04408398192579732,61.1974368871347,21.7718489688599,0.0,1.0,0.0,0.0,1.0,Taxi
32.1,-0.09336556969024017,23.2418175398309,22.357186802989784,0.04875229463167663,0.011201064376031048,61.452570529113586,22.15897236745407,0.0,1.0,0.0,0.0,1.0,Taxi
32.2,0.034082913998534484,20.085540137372934,21.720133857957638,0.13413163495271663,-0.0993574415816881,61.54023435404383,21.77914530863689,0.0,1.0,0.0,0.0,1.0,Taxi
32.300000000000004,0.0036502937137634695,14.982426751834566,22.593848478342316,0.29229071485205294,0.4462325511823035,61.4964625355376,22.424113398235182,0.0,1.0,0.0,0.0,1.0,Taxi
32.4,-0.01845343593106738,-8.129313215547704,24.202630330935403,-0.0967911657304053,0.06246862333452646,61.50618772505328,21.955887207952653,0.0,1.0,0.0,0.0,1.0,Taxi
32.5,-0.006563652079204098,34.07855553991866,23.517914127825023,0.20501843455127525,-0.3227651006619927,61.276807566737375,21.980997550621847,0.0,1.0,0.0,0.0,1.0,Taxi
32.6,0.17404307141335673,18.070520790867402,23.233309907278827,-0.18091580966152288,-0.47697775586424723,61.475593067066086,22.470139175450917,0.0,1.0,0.0,0.0,1.0,Taxi
32.7,0.07189916802326957,8.575432009975662,23.05742774518818,0.4173240479954233,-0.3480351546261194,61.45074765279287,21.647601635066266,0.0,1.0,0.0,0.0,1.0,Taxi
32.800000000000004,0.03631350797067415,-35.320339654268366,24.41617262305862,-0.006929446326421035,0.42745781105549197,61.50255994875772,20.615378087046167,0.0,1.0,0.0,0.0,1.0,Taxi
32.9,-0.0025586268579851513,-18.04288959925235,23.505921528015687,0.7560256880207662,-0.3018171063422801,61.35833427136879,22.01321345709364,0.0,1.0,0.0,0.0,1.0,Taxi
33.0,-0.01831527997299225,-4.303157729625909,24.055554566496888,0.06267529847158729,-0.00511699066224523,61.43681048885571,21.91514712387365,0.0,1.0,0.0,0.0,1.0,Taxi
33.1,0.014797719322544537,-3.031967740012701,24.132852598123606,0.38804994244270363,-0.40652773789427943,61.49467007884459,21.85654544840873,0.0,1.0,0.0,0.0,1.0,Taxi
33.2,-0.017718465558048725,35.34942958820695,23.225272543052327,0.04593817193000804,0.48333128466743536,61.49321303435539,22.341695773616834,0.0,1.0,0.0,0.0,1.0,Taxi
33.300000000000004,0.15843186796804243,-41.36001335538281,22.749562746048486,0.27122643947991176,-0.20304248333745167,61.179617582255105,21.764211907657852,0.0,1.0,0.0,0.0,1.0,Taxi
33.4,-0.19200234745436962,13.052792821049133,23.527718267686883,0.1529019999068582,-0.7474367048536716,61.53291178947535,22.433517202537846,0.0,1.0,0.0,0.0,1.0,Taxi
33.5,0.04754549854719689,-36.35850898177682,23.031917978440116,-0.030609035090137293,0.4437236326968734,61.43853808138914,22.133196511209523,0.0,1.0,0.0,0.0,1.0,Taxi
33.6,-0.023360676940841714,108.07397972176558,22.828242079007413,0.26371362463532866,-0.6288117724844146,61.37619669945104,21.556794409434637,0.0,1.0,0.0,0.0,1.0,Taxi
33.7,0.3483675511544583,4.602281294200556,23.39795221829978,0.08293021076453835,0.5119230720866915,61.32057442568595,22.323194571026054,0.0,1.0,0.0,0.0,1.0,Taxi
33.800000000000004,0.07055690501819961,17.500121906545417,23.348350188448865,0.32263162037681997,-0.19135681859148593,61.338638054534556,22.129148134566112,0.0,1.0,0.0,0.0,1.0,Taxi
33.9,0.06413993259188532,-56.68922365513358,22.958121564043083,0.4227661946284749,-0.825032168554456,61.60281714480544,21.297093358156896,0.0,1.0,0.0,0.0,1.0,Taxi
34.0,0.06492143287879033,13.943023833524165,23.357576726869727,0.12126636216953073,0.0119216998342011,61.580069434229074,21.46578244714859,0.0,1.0,0.0,0.0,1.0,Taxi
34.1,0.14027202418582038,-18.88784742852287,23.844393569295654,0.5927382094414808,-0.02427559095051138,61.50040434874563,21.1672412764744,0.0,1.0,0.0,0.0,1.0,Taxi
34.2,-0.03029930455072909,8.789627468983825,22.702419862095716,-0.0950684945797915,0.1780181706794034,61.361597563887415,21.2128436044488,0.0,1.0,0.0,0.0,1.0,Taxi
34.300000000000004,0.10886957022370942,-3.1636232736995695,23.457790081561377,0.44121035108541645,-0.2561355009853783,61.390769533065736,21.881620513022444,0.0,1.0,0.0,0.0,1.0,Taxi
34.4,0.12445390781732249,-4.6675094867940885,23.549381111313043,0.33758758429299274,0.0656150363930673,61.37995282965312,21.236768573135393,0.0,1.0,0.0,0.0,1.0,Taxi
34.5,-0.05363685198469958,-34.82705024194227,22.73939206989379,0.16112081741785864,0.6640991202214154,61.50555163789414,22.048537629250433,0.0,1.0,0.0,0.0,1.0,Taxi
34.6,-0.06526568098600195,-29.36248615484551,22.920228859318254,0.019192990487532924,0.10791996964177619,61.446463294411046,22.75007655147286,0.0,1.0,0.0,0.0,1.0,Taxi
34.7,-0.022358522956905085,23.761992637387692,23.05300797229895,0.364459589714925,-0.7043122909815821,61.42134094550704,22.25715397675399,0.0,1.0,0.0,0.0,1.0,Taxi
34.800000000000004,0.06517311120223883,13.967174914763527,21.40889751836167,0.42126737423170924,-0.29917233176458324,61.44477484987959,21.44519336209198,0.0,1.0,0.0,0.0,1.0,Taxi
34.9,0.004570193587815652,28.239681078338503,22.959886869750623,-0.17240374312596868,0.5534031179432763,61.46007548435392,21.825275199390465,0.0,1.0,0.0,0.0,1.0,Taxi
35.0,0.11883988243478741,-2.7481109505681496,23.855741284108714,-0.14582293861324458,-0.3853449977336771,61.4070135495532,22.33893628039752,0.0,1.0,0.0,0.0,1.0,Taxi
35.1,0.05143255644939807,4.066026517507772,23.381048808610565,0.3932569444546878,0.07340404274112265,61.56376247898447,21.77769088285265,0.0,1.0,0.0,0.0,1.0,Taxi
35.2,0.024900326175354492,-18.30633005615531,23.082964444373822,0.29283444181802454,-1.1698363959648992,61.544322305699495,21.68780588411371,0.0,1.0,0.0,0.0,1.0,Taxi
