time_s,altitude_ft,vertical_speed_fpm,ias_kt,pitch_deg,roll_deg,heading_deg,throttle_pct,afterburner_on,gear_down,flaps_deg,speedbrake_pct,weight_on_wheels,label
0.0,-0.11028534879030782,-20.531887538499213,9.990481333935728,0.0116577652314786,0.2613810669032983,28.130289596943783,20.27023346560427,0.0,1.0,0.0,0.0,1.0,Taxi
0.1,-0.17872497391863854,5.365324449092786,10.217157853546878,0.4061234128985717,0.40768994945311554,28.25270573098436,20.06694386129777,0.0,1.0,0.0,0.0,1.0,Taxi
0.2,-0.08345872654484389,24.492423737091055,9.330016827995712,0.4648593335353313,0.48307173069979364,28.120586620377367,19.900684690686873,0.0,1.0,0.0,0.0,1.0,Taxi
0.30000000000000004,0.012176769895147453,12.07396225876243,10.031270002376123,0.0971723191595519,-0.5543750165331187,28.259230649162987,20.43622883471559,0.0,1.0,0.0,0.0,1.0,Taxi
0.4,-0.11835516262482637,36.349786669635606,9.759512099317206,0.012630583062364198,-0.5194323853657457,28.021359316219446,20.431697208595974,0.0,1.0,0.0,0.0,1.0,Taxi
0.5,0.09829020680333415,-22.43672209946887,10.44272761194115,0.07012752315870835,-0.02717455389357035,28.17421044625155,20.636707535519804,0.0,1.0,0.0,0.0,1.0,Taxi
0.6000000000000001,-0.10000684060219689,-9.3683739625574,9.440674381105758,0.285226573828543,-0.05562275492997011,28.075249066421406,20.173737394688324,0.0,1.0,0.0,0.0,1.0,Taxi
0.7000000000000001,-0.16519703243761336,-19.644806564249,10.984205076510543,0.012856336445148248,0.009656924242548905,28.123620875067274,19.575523776806975,0.0,1.0,0.0,0.0,1.0,Taxi
0.8,6.617398208915547e-05,35.215816017511905,9.96810967050859,0.5024634290410218,-0.17830518023576974,28.44444079457145,20.729267313596896,0.0,1.0,0.0,0.0,1.0,Taxi
0.9,0.07607223948536261,62.890617762994175,9.689745084392541,0.15271656846233078,0.09291513312530883,28.077475178406587,19.808167370229285,0.0,1.0,0.0,0.0,1.0,Taxi
1.0,0.14925605637735756,-32.249179688107404,9.619560478602585,0.31895493963053917,-1.2770372782349406,28.13517259545381,19.79953537480888,0.0,1.0,0.0,0.0,1.0,Taxi
1.1,-0.16117972445844786,13.259349589076171,9.760768753574514,0.09705669258472416,0.3290403783301424,28.05805798451263,19.909457984347338,0.0,1.0,0.0,0.0,1.0,Taxi
1.2000000000000002,0.1423689874307435,-26.144545525802197,9.38767954485444,0.36250130234096634,0.7359429298507975,28.141732591562857,19.303639909665517,0.0,1.0,0.0,0.0,1.0,Taxi
1.3,0.018533328748346605,19.815858299870964,10.164905091795696,0.3788737833656773,-0.2765254251204413,28.157436049589307,20.066624872847992,0.0,1.0,0.0,0.0,1.0,Taxi
1.4000000000000001,-0.06210043295909301,-14.85754302106146,9.75772675320085,-0.0898652597935442,0.1011779973482038,28.098974900449093,20.485106371509193,0.0,1.0,0.0,0.0,1.0,Taxi
1.5,0.06808127232543623,23.40103329211712,10.931042532906353,0.10976395492594501,0.8403345590672902,28.330068703386132,19.958620060796743,0.0,1.0,0.0,0.0,1.0,Taxi
1.6,0.13553849520893224,-21.161286164311818,9.50488249010201,0.21437231823453803,0.016731918186581304,28.28794904240044,20.844534550909135,0.0,1.0,0.0,0.0,1.0,Taxi
1.7000000000000002,-0.16790686378065214,-22.234892417730645,9.692488046294415,0.1406619882425021,0.15271298439000863,28.077751294655513,20.81353788763574,0.0,1.0,0.0,0.0,1.0,Taxi
1.8,-0.04309318976321709,-38.00120023723674,9.50428933847104,0.4200127101521881,0.9208507634516391,28.25410292057171,20.620080585106475,0.0,1.0,0.0,0.0,1.0,Taxi
1.9000000000000001,-0.05446750597725152,46.101135018881955,10.886301245777279,0.12625794345358032,1.0182141226964576,28.124423223820372,19.207958516796666,0.0,1.0,0.0,0.0,1.0,Taxi
2.0,0.06259881131375762,37.81922651252041,8.89743774828222,0.38866682507412154,-0.5303826962739588,28.049501011166683,20.89229223700761,0.0,1.0,0.0,0.0,1.0,Taxi
2.1,0.14600294279938497,12.361501328960282,9.821060305735092,0.34262931624204407,-0.20574662215136857,28.100646686033315,20.056847709919605,0.0,1.0,0.0,0.0,1.0,Taxi
2.2,0.007340000667549908,-18.363534143749458,9.952665751825547,0.2241078096616808,0.4467945661328524,28.04683558354583,21.014641821199607,0.0,1.0,0.0,0.0,1.0,Taxi
2.3000000000000003,-0.029218859404989663,-20.2933720248465,9.08806214881263,0.3969665546855391,0.24855748801191463,28.266550937996726,19.873401990491484,0.0,1.0,0.0,0.0,1.0,Taxi
2.4000000000000004,0.04453608267515245,-6.157539335193718,11.350787951012556,-0.06188896642084779,0.3530209130100311,28.084792770878494,20.105531998208285,0.0,1.0,0.0,0.0,1.0,Taxi
2.5,-0.02344769600841866,-37.54723320286265,9.20653665861036,0.2333581781809881,-1.3107822098844923,28.301245439468858,20.220250517350372,0.0,1.0,0.0,0.0,1.0,Taxi
2.6,-0.2169550254193029,1.4333334600582646,9.78498987835102,0.0908497255973435,-0.9769391758890225,28.18651938537198,19.709260341333867,0.0,1.0,0.0,0.0,1.0,Taxi
2.7,0.0517027499754438,24.403055541492595,10.77529271437998,0.2243133488713716,0.892107557486079,28.13207459862491,19.36520356404418,0.0,1.0,0.0,0.0,1.0,Taxi
2.8000000000000003,0.09856758169904434,64.86493546673911,9.539836389592022,0.15181539802631028,0.3869368512631898,28.122222399451744,18.976621646880698,0.0,1.0,0.0,0.0,1.0,Taxi
2.9000000000000004,0.10736965191439268,-33.46043859729436,9.851052692043599,0.2576934805601237,0.1768209255033543,28.347696379820547,21.6518440351377,0.0,1.0,0.0,0.0,1.0,Taxi
3.0,-0.11559944301102797,-7.570353755373309,9.558011488310814,0.24759389354451788,-0.6211449124187906,28.17346279387192,19.341130388974214,0.0,1.0,0.0,0.0,1.0,Taxi
3.1,0.06071581292217786,9.181418836857103,9.732907350098953,0.27344748058656093,-0.20749401395300796,28.12199841427963,19.34801949735007,0.0,1.0,0.0,0.0,1.0,Taxi
3.2,0.15327674609867825,73.73223056322321,10.413750380948182,0.2813734029537572,0.28482605875599654,28.25777631607542,20.46143328013245,0.0,1.0,0.0,0.0,1.0,Taxi
3.3000000000000003,0.2530617098050882,-2.564515960182059,9.511931898194062,0.3603687397162576,-0.691540969347314,28.230986938262674,19.463519291295412,0.0,1.0,0.0,0.0,1.0,Taxi
3.4000000000000004,0.047893233121267614,-10.978130111528577,8.172201781690182,-0.006049574551963921,-0.352627010623708,28.07362287771673,19.370636963033636,0.0,1.0,0.0,0.0,1.0,Taxi
3.5,0.0983860955410354,-70.46483540615905,9.745103813219714,0.347569675163422,0.18770034917414058,28.172956765818583,18.738252474042817,0.0,1.0,0.0,0.0,1.0,Taxi
3.6,-0.09926246722570704,-32.04663750615128,9.80262638568487,-0.05683024831321892,0.29487127757276926,27.99156291229997,20.32179523657555,0.0,1.0,0.0,0.0,1.0,Taxi
3.7,-0.1123399544094887,0.06941431481303084,9.882138385267854,-0.31317605250937386,-0.26152426610134016,28.169086998166563,19.640406922940798,0.0,1.0,0.0,0.0,1.0,Taxi
3.8000000000000003,0.09873316711510062,-20.86520310149359,9.654892913786338,0.6401892105082398,0.4911339401755923,28.203852577008888,20.497130598927843,0.0,1.0,0.0,0.0,1.0,Taxi
3.9000000000000004,-0.20358848273317492,25.574963383559844,9.247353061703615,0.05792872714434724,0.47488872008176586,28.217218637350015,20.137533560789027,0.0,1.0,0.0,0.0,1.0,Taxi
4.0,0.015534862508310616,8.86534497337984,9.61778936190736,0.15608886491939927,-0.8963766475788151,28.072485078078046,20.218195939891697,0.0,1.0,0.0,0.0,1.0,Taxi
4.1000000000000005,0.14305989198199992,54.969422308226704,10.823990990160889,-0.12704943413380226,0.8189829768903203,28.098577091937727,19.948722801419873,0.0,1.0,0.0,0.0,1.0,Taxi
4.2,0.07125862880795873,11.01441431815366,9.739649150967766,0.15480562933439335,0.5832078816156167,28.197171571863805,20.03754092303463,0.0,1.0,0.0,0.0,1.0,Taxi
4.3,0.07060693409907902,-29.601396737215513,10.15662090898776,0.2870557154944414,0.10328435596045794,28.29748040747387,19.72803161216254,0.0,1.0,0.0,0.0,1.0,Taxi
4.4,-0.004947091704077567,-22.44946211771813,9.144637983494405,0.294252285765291,-0.06864984020616773,28.181638592139507,19.775397557127924,0.0,1.0,0.0,0.0,1.0,Taxi
4.5,-0.04098868178063186,28.974119634712988,9.59002315356512,0.004340704429437847,0.3946716015574452,28.116621411917833,19.62793880671283,0.0,1.0,0.0,0.0,1.0,Taxi
4.6000000000000005,0.21547753227264407,25.66230144788015,9.164508241552205,0.15696644929907022,0.26685941214056125,28.269454515576854,20.93242680304111,0.0,1.0,0.0,0.0,1.0,Taxi
4.7,0.12336441553532328,25.1228750754626,10.541079495397009,0.31944772653808423,-0.13577634255414667,28.185341206312444,19.97737352057592,0.0,1.0,0.0,0.0,1.0,Taxi
4.800000000000001,0.08462569359668126,-42.53859243468915,8.831408133710294,0.29340636229984857,0.8031354968342173,28.19030557785618,19.043027138076233,0.0,1.0,0.0,0.0,1.0,Taxi
4.9,0.0027845700991984247,-36.35527040923342,9.988316797234118,0.2713475461890501,-1.0523508235170937,28.252203542671452,20.304816435289336,0.0,1.0,0.0,0.0,1.0,Taxi
5.0,-0.05841193651084369,4.667566872171217,9.969323290739847,0.39778193071313406,-0.33244634112592314,28.162801838122107,19.773565884815774,0.0,1.0,0.0,0.0,1.0,Taxi
5.1000000000000005,0.10796352795753744,-6.694576744212171,9.930438680765082,0.2238985914824173,0.22388924151500125,28.079089566453035,20.15319586723767,0.0,1.0,0.0,0.0,1.0,Taxi
5.2,-0.03068831362186232,13.256506586097103,8.357946504842422,0.5241463825473138,-0.026051999892137172,28.156973624573084,20.040662138692948,0.0,1.0,0.0,0.0,1.0,Taxi
5.300000000000001,0.007870596419641912,-9.278855133213957,8.551113119620457,0.18706723912087284,0.349795220989847,28.283645865486847,20.920524086935067,0.0,1.0,0.0,0.0,1.0,Taxi
5.4,0.06156925229146774,10.326994959679576,9.835109477350708,0.3846003021109803,-0.6973199935295715,28.361699485963243,19.98362315551349,0.0,1.0,0.0,0.0,1.0,Taxi
5.5,0.02094666117653564,29.425771833736807,9.211004858321239,0.39172055741078515,-0.1272211417626038,28.050558420153266,20.583472944224003,0.0,1.0,0.0,0.0,1.0,Taxi
5.6000000000000005,0.15499945558832606,-38.71296709187279,9.379162438974447,-0.08213389372190738,0.5751842079058219,28.33615714992743,20.530686234355127,0.0,1.0,0.0,0.0,1.0,Taxi
5.7,-0.1319955831678961,-2.8426007866295464,9.510151814523265,0.3338774905520471,-0.7468533047130247,28.135741718315387,19.492157875381604,0.0,1.0,0.0,0.0,1.0,Taxi
5.800000000000001,0.006733657243388031,11.761395619273605,9.13309496331549,0.1176687377598602,-0.1202339948615684,28.174477915981242,20.269309208561435,0.0,1.0,0.0,0.0,1.0,Taxi
5.9,0.2138064336846942,44.3401847384258,9.029690050949046,0.04392659741120747,-0.26540925288398426,28.342419079604838,19.796272839845376,0.0,1.0,0.0,0.0,1.0,Taxi
6.0,0.08970534052423301,-5.2876143124718356,9.764842560911758,0.16081122152211197,0.18168170164922556,28.131461755860073,19.571107203678178,0.0,1.0,0.0,0.0,1.0,Taxi
6.1000000000000005,-0.01970441431897106,-26.784870941319696,8.62122638830971,0.27803428469170843,0.19654715038899026,28.14499244145435,19.57307608362344,0.0,1.0,0.0,0.0,1.0,Taxi
6.2,0.07988207897809578,-18.89582835092125,9.461394882769996,-0.06728290641716406,0.04854943615035332,28.10815329869314,20.586092199688412,0.0,1.0,0.0,0.0,1.0,Taxi
6.300000000000001,-0.0047738012303731436,33.268313078427624,9.364427107720202,0.2510733429889515,-0.14492705680383217,28.176219423360862,21.49694985380138,0.0,1.0,0.0,0.0,1.0,Taxi
6.4,0.14663715107316713,0.4486453340984535,9.750663868575344,0.2021812206502046,0.03163382630349517,28.203608276266777,19.772782322681234,0.0,1.0,0.0,0.0,1.0,Taxi
6.5,0.08212530564858811,-16.375573077258178,11.197183332305,0.45333223438323256,-0.08232523859679511,28.10372461628117,20.283306809037402,0.0,1.0,0.0,0.0,1.0,Taxi
6.6000000000000005,-0.08665166661666394,-24.560196098967268,9.17570682615325,0.118988342930923,-0.01623141312734908,28.31746818582451,20.330649111735237,0.0,1.0,0.0,0.0,1.0,Taxi
6.7,0.0238361705783309,-8.052547673202204,10.008697501252382,0.4836611160505426,0.728483552421927,28.097699374375054,19.910442015873457,0.0,1.0,0.0,0.0,1.0,Taxi
6.800000000000001,0.04186256728257717,26.692503597919423,9.897352091818886,0.3230563852158057,-0.6011289892254922,28.22227181458686,20.87923782101659,0.0,1.0,0.0,0.0,1.0,Taxi
6.9,0.04681085137293323,1.6077544026040773,10.100813544282468,0.23899833262968562,0.17082821839790033,28.175086669442067,21.273908833467456,0.0,1.0,0.0,0.0,1.0,Taxi
7.0,0.03187494259135136,2.922381271753968,9.636900857300787,0.500428910523105,-0.4710563751088389,28.296804376457374,19.876584394881952,0.0,1.0,0.0,0.0,1.0,Taxi
7.1000000000000005,0.056474473641347084,-0.9816627457745047,10.629749307716041,0.6302032082046739,0.9774959546842975,28.09203902237323,21.04263288598426,0.0,1.0,0.0,0.0,1.0,Taxi
7.2,0.04190253764406078,-20.79874469570228,10.176054408159688,0.20358686809479393,0.044539171779040515,28.229685422380214,19.902080146853827,0.0,1.0,0.0,0.0,1.0,Taxi
7.300000000000001,-0.07211878088715995,-20.42439234437126,10.185599186037765,0.09767919566535846,-0.6339365963164904,28.41454015142176,19.690309292761203,0.0,1.0,0.0,0.0,1.0,Taxi
7.4,-0.04564748808050914,-13.463832265480406,8.916326450177543,0.331493528284146,-0.11595669240443926,28.028270696848608,20.105769410110828,0.0,1.0,0.0,0.0,1.0,Taxi
7.5,-0.025416623683341175,16.3343687164735,9.82267968192156,-0.03890994874410458,-0.7294588322864197,28.082373520712565,20.609944680029127,0.0,1.0,0.0,0.0,1.0,Taxi
7.6000000000000005,0.009553062695207616,4.111485631832494,9.458962542771499,-0.014509219617814595,-0.31661572966190715,28.380829401021117,20.12332533148642,0.0,1.0,0.0,0.0,1.0,Taxi
7.7,-0.025090059921346594,27.140930877441523,9.247894239975121,0.5070711701962904,0.307876137371139,28.159015573487864,20.544333038368435,0.0,1.0,0.0,0.0,1.0,Taxi
7.800000000000001,0.1102880307038665,-21.113176119201324,9.388997108766187,0.3600686265930316,0.680618774320993,28.183791443515418,20.28872402704241,0.0,1.0,0.0,0.0,1.0,Taxi
7.9,-0.09601281790079898,-29.674564003238554,9.731324395250878,0.07406289885747053,0.5403429851550907,28.139205612429464,20.85185830746817,0.0,1.0,0.0,0.0,1.0,Taxi
8.0,-0.17346287993753934,17.279277600265782,10.038934477403064,0.8727060747215053,-0.052438223902237215,28.33785051432352,20.440761618082487,0.0,1.0,0.0,0.0,1.0,Taxi
8.1,0.19668441870519546,2.852502509161534,10.353837894201963,-0.030730233248935035,0.28502779679076873,28.01107227296103,20.940711461299976,0.0,1.0,0.0,0.0,1.0,Taxi
8.200000000000001,-0.08175030535499123,56.700124571546816,10.325692688317206,0.3696411983029423,0.40425317969009844,28.29613549594592,19.74664001094163,0.0,1.0,0.0,0.0,1.0,Taxi
8.3,0.11003774292019486,-27.165090117741553,9.940492554075238,0.08639682417220612,1.1248634161382634,28.024681380558206,20.073708179752725,0.0,1.0,0.0,0.0,1.0,Taxi
8.4,0.06085896811648777,0.7048129810215897,9.798249922661789,0.6019106960630858,-0.3019876405035439,28.015737246163667,20.1746688813378,0.0,1.0,0.0,0.0,1.0,Taxi
8.5,-0.07822624044988319,-24.666963211890277,9.570183530316674,0.13951096802291857,0.754695548835602,28.06373486755399,19.748495974174077,0.0,1.0,0.0,0.0,1.0,Taxi
8.6,-0.013297073139256418,-17.810874676678246,9.616319280532855,0.18877402443352417,-0.546019402226353,28.15964843124226,19.671885230184156,0.0,1.0,0.0,0.0,1.0,Taxi
8.700000000000001,-0.028195405266903357,22.772846631930804,9.296699853683862,-0.1160548230878739,0.5899685275050787,28.10100026764644,20.36649093296892,0.0,1.0,0.0,0.0,1.0,Taxi
8.8,0.03563799270977092,-12.689131256498321,9.507800222095796,0.6622257788974681,-0.31032748542173844,28.09506985955528,20.50806058550476,0.0,1.0,0.0,0.0,1.0,Taxi
8.9,-0.07674272942174794,2.1087548936051,9.977171798618139,0.1221065799103193,-0.3418656263443233,28.07967345788211,20.231754052203453,0.0,1.0,0.0,0.0,1.0,Taxi
9.0,-0.017651630798877778,-7.872637667483024,10.689087699831264,0.3417342910699993,-0.14232478811364763,28.081403021407027,20.70494709579902,0.0,1.0,0.0,0.0,1.0,Taxi
9.1,-0.0037251956276441144,37.38496209544004,9.675039731906264,0.24664171466152385,-0.38799683436863797,28.079147872987676,19.623777853995218,0.0,1.0,0.0,0.0,1.0,Taxi
9.200000000000001,0.11018208105545234,-4.691937220231324,9.280266514951578,0.13540532408752276,0.21302752200896008,28.195918277299427,19.979905757274054,0.0,1.0,0.0,0.0,1.0,Taxi
9.3,-0.041111316900034285,-18.768018503624187,10.346428282238962,-0.1998421315213561,0.6132708210888278,28.108841610613126,19.58550823556287,0.0,1.0,0.0,0.0,1.0,Taxi
9.4,-0.09756528814576496,-32.93070127174244,8.563426526733574,0.2000360261495761,-1.0557808123707273,27.905912252596295,20.24512916459201,0.0,1.0,0.0,0.0,1.0,Taxi
9.5,-0.054471425303259796,15.562849470854536,10.390765487740605,0.19135978616767177,-0.08730119578302777,28.168702838553145,20.419369945114717,0.0,1.0,0.0,0.0,1.0,Taxi
9.600000000000001,0.036702930454238475,-15.918731241857216,8.905172949008364,0.30945018889215364,-0.5432807763789675,28.247373894608756,20.846356924621155,0.0,1.0,0.0,0.0,1.0,Taxi
9.700000000000001,-0.17715894435505097,34.84058840507614,10.159171574057899,0.6747902629943017,0.45254121651955304,28.144550648767506,19.58680768712221,0.0,1.0,0.0,0.0,1.0,Taxi
9.8,0.11973151672212096,-6.947556134349249,9.479222276336365,0.374595237325401,0.7102013625830073,28.046353135735217,20.361647192154066,0.0,1.0,0.0,0.0,1.0,Taxi
9.9,0.0019651497824923025,44.09611035043639,9.957421463914407,0.41766890778633975,-0.08732116139793851,28.24693543314868,20.8934925212593,0.0,1.0,0.0,0.0,1.0,Taxi
10.0,0.04332160739713109,-19.56261626074767,11.0147655192621,0.18466232054529472,-0.35165207243861113,28.0351777870481,19.674591612230476,0.0,1.0,0.0,0.0,1.0,Taxi
10.100000000000001,0.021918435418382707,-13.740266136570161,9.262209830347535,-0.01695816525591498,-0.8076019991149358,28.140314511756912,19.55731268201424,0.0,1.0,0.0,0.0,1.0,Taxi
10.200000000000001,-0.06673618090035842,-30.308298586644458,9.164545283524046,0.18984363858346795,0.9743950240101961,28.170246183686686,19.43820270950585,0.0,1.0,0.0,0.0,1.0,Taxi
10.3,-0.1082198855360911,-18.39326343830521,9.81180287626384,0.09879924593333556,0.659465141206975,28.280347898529556,20.48767488071923,0.0,1.0,0.0,0.0,1.0,Taxi
10.4,-0.07004788177314324,-16.773353904254765,10.680072577875482,0.23568244098064975,-0.9892541100325187,28.230205626881627,19.812697441698372,0.0,1.0,0.0,0.0,1.0,Taxi
10.5,-0.15060295042163216,28.609036666983474,9.87237483033769,0.14686313107860455,0.3277370772554944,28.196275618134393,20.414462932010245,0.0,1.0,0.0,0.0,1.0,Taxi
10.600000000000001,0.03482529779882635,10.754511218191027,9.791645231827795,-0.08984229319652448,-0.556067568789073,28.2654916928131,20.067358919163123,0.0,1.0,0.0,0.0,1.0,Taxi
10.700000000000001,-0.016275325682187983,-0.5658551902350979,9.866323767663209,0.49909236888576947,-0.25426331703461535,28.05663186654533,21.07588766370453,0.0,1.0,0.0,0.0,1.0,Taxi
10.8,-0.15343222637280754,-19.29517738845479,9.162072616484679,0.21753918497245872,-0.6242378846255386,28.33042925100102,20.569366805266927,0.0,1.0,0.0,0.0,1.0,Taxi
10.9,-0.06165058914344748,16.297777613557447,9.87241236895789,0.17968930216273604,-1.0003980104197825,27.865928490264594,19.773531508696607,0.0,1.0,0.0,0.0,1.0,Taxi
11.0,0.06521356238559937,56.546901691433824,9.529177403530856,0.024740690889128003,-0.022793044922864884,28.31520906327728,20.024390612307055,0.0,1.0,0.0,0.0,1.0,Taxi
11.100000000000001,0.1293022820843617,-13.34755612476907,10.558352847613186,0.1506164272270609,0.9477062384251915,28.088306481318966,20.56937035999222,0.0,1.0,0.0,0.0,1.0,Taxi
11.200000000000001,-0.1283883697672927,30.18506372341589,10.24366847874325,0.07303511158571604,-0.46301778062795707,28.210450052157285,19.641116864995208,0.0,1.0,0.0,0.0,1.0,Taxi
11.3,0.2161388810026789,-45.048723125260686,8.970634743417586,0.006898492833930292,0.44565891241552347,28.3172784775615,20.766519222670283,0.0,1.0,0.0,0.0,1.0,Taxi
11.4,-0.09594133354194166,-8.41758423738664,9.594995834691726,0.2782409730042001,0.5241467069363124,28.22852659202988,20.050326196532197,0.0,1.0,0.0,0.0,1.0,Taxi
11.5,-0.17047629095422584,-8.07864613442346,10.081667366440616,0.1519322542923816,0.36087495344105935,28.20967399816203,20.579891125841478,0.0,1.0,0.0,0.0,1.0,Taxi
11.600000000000001,0.17574565033056166,-1.6284545543644147,9.175959170534401,0.39541706818896094,0.998228676753131,28.25906489643546,20.07737794765232,0.0,1.0,0.0,0.0,1.0,Taxi
11.700000000000001,-0.10408360631376366,64.57191471851442,9.117312172390054,0.17362511755493998,0.4776035523963402,28.024438171292786,19.913514627803224,0.0,1.0,0.0,0.0,1.0,Taxi
11.8,0.15238328263834636,-48.44705152676704,9.487687625319285,0.26865433988645526,0.9023274601445475,28.039437494660433,19.831693660088415,0.0,1.0,0.0,0.0,1.0,Taxi
11.9,-0.06648960730327341,14.954630302062617,9.971540437258538,0.26295383310780984,-0.5735332383552897,28.199567860528646,21.04162427163847,0.0,1.0,0.0,0.0,1.0,Taxi
12.0,-0.029310454803450466,-56.57892052711077,10.387167219670783,0.3226589527577582,0.37267898893165624,28.152671355223447,20.02787717941869,0.0,1.0,0.0,0.0,1.0,Taxi
12.100000000000001,-0.13051131999720736,38.8466980180489,9.90412041688094,0.07746451691145828,0.7554496552310348,28.141151144886692,21.715739294856657,0.0,1.0,0.0,0.0,1.0,Taxi
12.200000000000001,0.1277438827869712,28.66354672633915,11.242277592098944,0.42551998474087915,-0.38600124446985196,28.296252142002515,20.251353253454617,0.0,1.0,0.0,0.0,1.0,Taxi
12.3,0.11400727882824542,12.892472568864525,9.35881952646832,0.009695557915448239,-1.7430808923108054,28.28758023573465,19.750041390123414,0.0,1.0,0.0,0.0,1.0,Taxi
12.4,-0.06604895715288465,-27.046506514550128,10.209086750054382,0.25418383620551166,-0.6336680393797721,28.080358622673486,19.38280249124417,0.0,1.0,0.0,0.0,1.0,Taxi
12.5,-0.007488649785779351,-9.55959985490508,9.09941745909825,0.0047114808333870994,-0.3623845961618971,28.21667414556441,20.791827760608033,0.0,1.0,0.0,0.0,1.0,Taxi
12.600000000000001,0.06620927955372008,3.7815105537543823,10.73146189377392,0.22155098596604067,0.28059089028615597,28.01600001953409,20.078570832483727,0.0,1.0,0.0,0.0,1.0,Taxi
12.700000000000001,-0.04714140438411267,28.782152023448948,10.580522555537115,0.4238648852862029,-0.2832174180712876,28.013594699817816,20.586778106891593,0.0,1.0,0.0,0.0,1.0,Taxi
12.8,0.13642211033146545,-15.358885388410451,10.191780458777611,0.3567924296981025,0.0015601310927223458,28.083147397953496,21.336574196757837,0.0,1.0,0.0,0.0,1.0,Taxi
12.9,-0.010585147388332121,-0.9613212151018734,8.723075691507152,0.4574079145372483,-0.30216657213348136,28.167135013788766,20.50985415575751,0.0,1.0,0.0,0.0,1.0,Taxi
13.0,-0.05194801045962197,-58.94112333646671,10.186220549771573,0.18505159483496428,-0.06427104664060072,28.107126339047284,20.344085660501367,0.0,1.0,0.0,0.0,1.0,Taxi
13.100000000000001,-0.158283506350868,-23.75722520949107,9.273396162879564,0.4274816221085041,-0.0331123170112657,28.21755361580489,20.788589035458664,0.0,1.0,0.0,0.0,1.0,Taxi
13.200000000000001,-0.12937127343578744,22.160589552504508,10.037049050535709,0.10725141057631193,-0.3161886394822903,28.170898868313486,20.577493938240725,0.0,1.0,0.0,0.0,1.0,Taxi
13.3,0.0588549373029006,36.3656578024457,8.892087599456968,0.1540075815006457,0.4106270900794531,28.283841036540366,19.54406482220098,0.0,1.0,0.0,0.0,1.0,Taxi
13.4,0.023544782661360533,42.18845373300715,9.926865168287359,0.2717034425541893,0.6901575606935391,28.22699598386879,20.841761887999393,0.0,1.0,0.0,0.0,1.0,Taxi
13.5,0.08157099522924836,-23.02795197411953,9.55274348645181,0.41569665844277726,-0.5744354249654369,28.068579112841178,20.152457677506792,0.0,1.0,0.0,0.0,1.0,Taxi
13.600000000000001,-0.056284822567696985,-37.53503636907431,9.297935226564025,0.1362282459995297,0.10865800005217464,28.262494591616814,20.946114306959576,0.0,1.0,0.0,0.0,1.0,Taxi
13.700000000000001,-0.16413039918401093,-26.24044648478834,10.120436941662211,0.3847241233295061,-0.7147647761804697,28.08623674853942,20.42895928357078,0.0,1.0,0.0,0.0,1.0,Taxi
13.8,-0.04963123719469324,52.015449630919534,9.734096039176764,0.2919341019213024,-0.8763624723442482,28.213579110087267,20.771211469625033,0.0,1.0,0.0,0.0,1.0,Taxi
13.9,0.20379242558690078,13.529593661015213,9.641899332401193,0.3130726023195206,0.5182709663684602,28.123203284537453,20.06312952134824,0.0,1.0,0.0,0.0,1.0,Taxi
14.0,-0.09648243087893474,9.197688763303425,10.207191386673458,0.07477099502450227,1.0037028324012653,28.304840177692995,19.416782933800125,0.0,1.0,0.0,0.0,1.0,Taxi
14.100000000000001,-0.0036427933781759815,-89.02986877936262,10.907250675555686,0.16875510147114503,-0.16418251798857741,28.245550656711487,20.457292637479544,0.0,1.0,0.0,0.0,1.0,Taxi
14.200000000000001,-0.24135691830991216,8.899004688007091,9.930279996524886,0.2269699948922843,0.9166486536436036,28.10317008964398,20.663862136642297,0.0,1.0,0.0,0.0,1.0,Taxi
14.3,-0.05198740743889915,-7.550147454148255,8.681291703925398,0.3131961807874768,-0.3241001364742836,28.133830737843653,19.89697012144752,0.0,1.0,0.0,0.0,1.0,Taxi
14.4,-0.041393530648917126,54.90831183968957,8.829907895690384,0.0842143112304708,-0.11724201318338372,28.499363466985756,20.073783532772225,0.0,1.0,0.0,0.0,1.0,Taxi
14.5,0.03318464088853584,4.038538160863335,9.80622461854488,-0.012698705639504315,0.8338677645480874,28.04633695311651,19.06826037713234,0.0,1.0,0.0,0.0,1.0,Taxi
14.600000000000001,-0.03179471663458237,-22.092959914951212,10.380758080314092,-0.18085717428239545,-0.45633199387599227,28.100440913307693,20.097787573243963,0.0,1.0,0.0,0.0,1.0,Taxi
14.700000000000001,-0.15185833022367307,-19.915081370225995,9.845700635283295,0.39485883305760455,0.4583395562696825,28.105330525077136,19.550210070453133,0.0,1.0,0.0,0.0,1.0,Taxi
14.8,-0.06639076596259401,2.2794918941791367,10.071815150167899,0.4345145020430992,-0.17413876312855192,28.056538878273557,20.4340478892223,0.0,1.0,0.0,0.0,1.0,Taxi
14.9,-0.02039725716368657,10.448315916553371,9.729584059449335,-0.15624024271358822,-0.36035271968663635,28.06704677411932,20.342897532759217,0.0,1.0,0.0,0.0,1.0,Taxi
15.0,-0.0996167506409061,-3.7391145647850546,10.3421331888235,0.2608307761897019,-0.25440224278243356,28.16156560560728,20.1830363581188,0.0,1.0,0.0,0.0,1.0,Taxi
15.100000000000001,-0.08508633878651917,24.183099659250825,10.13483929815697,0.17026983710987062,-1.0841497077126476,28.220085432616315,20.836760863252344,0.0,1.0,0.0,0.0,1.0,Taxi
15.200000000000001,0.10051824113256767,7.42579135245614,9.153129711073435,0.4891027284132624,0.6305448400938667,28.013117633511058,20.295918568652183,0.0,1.0,0.0,0.0,1.0,Taxi
15.3,-0.06248779387862529,25.816369471918676,10.033556849234838,0.20364377942619938,0.11315009882027832,28.122288146031167,20.27216325147182,0.0,1.0,0.0,0.0,1.0,Taxi
15.4,0.04399550857307434,-23.642852916908556,8.839295843285495,0.3547988337358684,-0.07399967506944033,28.092033417592916,20.33624713650892,0.0,1.0,0.0,0.0,1.0,Taxi
15.5,-0.017696023451974977,-12.101733144060669,10.03369017617007,0.16064917890702377,-0.34647159801427874,28.05538362452137,19.884030869905207,0.0,1.0,0.0,0.0,1.0,Taxi
15.600000000000001,-0.12299645959892849,-15.458405192762752,9.595374904684913,0.10827772950204076,0.1558880274252249,28.272010850831577,20.67112801913953,0.0,1.0,0.0,0.0,1.0,Taxi
15.700000000000001,-0.03329651739073929,9.358920215197898,9.861292187367761,0.39914383975518664,0.4417254527639953,28.095930682794744,19.71725454555202,0.0,1.0,0.0,0.0,1.0,Taxi
15.8,0.029098577624014646,59.334920982672465,9.959285178097424,0.4613688519706094,-0.1372724514833397,28.035442847565662,20.386813187602357,0.0,1.0,0.0,0.0,1.0,Taxi
15.9,0.17367814531443398,-8.78557640151059,9.933858071074422,-0.008086446440397188,0.4817948879361643,28.260447062188973,20.78477728744757,0.0,1.0,0.0,0.0,1.0,Taxi
16.0,-0.07722439939829213,-7.52465975701561,10.615360571238115,0.4741849563354482,0.13754979911962026,28.29755619820139,19.66219917528895,0.0,1.0,0.0,0.0,1.0,Taxi
16.1,-0.008524721161063287,-16.55397391233219,9.785323644851925,0.05073782022226847,-0.04669003367769335,28.196197732924816,19.50424310342418,0.0,1.0,0.0,0.0,1.0,Taxi
16.2,0.09090827575277319,40.655355675857585,9.87822617367569,-0.22071562665918293,0.4561813695289485,28.07834720606934,19.653372120599798,0.0,1.0,0.0,0.0,1.0,Taxi
16.3,0.12605237898099594,-11.273325048801572,10.56276582691,0.24786028137354232,-0.2539575966530196,28.144665804653528,21.083964084681764,0.0,1.0,0.0,0.0,1.0,Taxi
16.400000000000002,-0.06489134640507102,-21.297509810888297,10.902956296841644,0.34713072098732645,-0.6257660934136694,28.106928507596592,19.87078263870328,0.0,1.0,0.0,0.0,1.0,Taxi
16.5,-0.015579273301668166,-2.956556719177238,9.75425020614336,-0.05744957840347015,-0.02654466288465112,28.167493005766175,19.575207078939833,0.0,1.0,0.0,0.0,1.0,Taxi
16.6,0.11126959538510986,23.207291019236994,9.457624489203905,-0.1508564786114303,0.01763937420289101,28.24402314510462,20.3586139093713,0.0,1.0,0.0,0.0,1.0,Taxi
16.7,0.05114510869111408,23.784737435876263,9.487367347306048,0.1467382383426545,-0.1111611263339286,28.16990936322088,18.813530783830803,0.0,1.0,0.0,0.0,1.0,Taxi
16.8,0.10334441387771326,1.174540397256343,10.035309026028765,0.1199840969431192,0.5949474019649315,28.17207938442988,19.6981409075848,0.0,1.0,0.0,0.0,1.0,Taxi
16.900000000000002,0.11714229737139169,0.8454251661248193,9.642843228132616,0.5196198730448576,0.2502462157505719,28.121123690183765,20.882473651647928,0.0,1.0,0.0,0.0,1.0,Taxi
17.0,0.05537223452173828,-17.79794855587103,8.715325413816164,0.24811507576684172,-0.05753185767275997,28.238918647002436,19.697752297134326,0.0,1.0,0.0,0.0,1.0,Taxi
17.1,0.01435467109835821,-36.84795585773572,10.438705052712658,0.39260550862564436,-0.0027546997408453584,28.209260741804144,20.045040699387606,0.0,1.0,0.0,0.0,1.0,Taxi
17.2,-0.0670974819172868,-15.958717067004214,10.254109083910334,0.28763467432879264,0.04031475952228533,27.988613212763426,20.322495409273127,0.0,1.0,0.0,0.0,1.0,Taxi
17.3,-0.02442135081328265,-6.428153288366192,10.452861684207793,0.5594353726790975,0.26302634480238546,27.994283609782542,20.322772533221208,0.0,1.0,0.0,0.0,1.0,Taxi
17.400000000000002,-0.017786095343472624,37.3994113533504,10.571351108088809,0.06735694914920243,0.026267184127453123,28.139267615413246,19.909175791051336,0.0,1.0,0.0,0.0,1.0,Taxi
17.5,0.11989957484946533,8.411110984859702,9.879243376059252,0.22810591973485608,-0.0772312295575028,28.26949937815175,20.4486279634509,0.0,1.0,0.0,0.0,1.0,Taxi
17.6,0.017634204111015975,7.273425725823632,9.92120756337661,-0.06811750272266354,-0.66710196206523,28.289096920820327,20.898548288520846,0.0,1.0,0.0,0.0,1.0,Taxi
17.7,0.018581033285645643,-43.860631554040886,10.368870790956459,0.40797562089835204,-0.35489791725358927,28.248727012609322,19.64461320941346,0.0,1.0,0.0,0.0,1.0,Taxi
17.8,-0.09940358292073902,20.56279455173915,9.035848349883675,0.4685012976693075,0.13850080615908728,28.157365370547495,19.93321765109894,0.0,1.0,0.0,0.0,1.0,Taxi
17.900000000000002,0.1204481768697119,-19.06287506422572,9.553391118829175,0.42025132617942784,0.09400215439064469,28.318922330102964,20.122861326419173,0.0,1.0,0.0,0.0,1.0,Taxi
18.0,-0.07673334203548278,14.186244006090567,9.729281457951796,0.22076040354434162,-0.7426656446307464,28.100182594750095,20.52536472172822,0.0,1.0,0.0,0.0,1.0,Taxi
18.1,-0.028472362890286002,2.0985092940655505,10.31803816019485,-0.0521908714370346,-0.2809585993506664,28.13832989487804,20.19199352012515,0.0,1.0,0.0,0.0,1.0,Taxi
18.2,0.13094072334003976,33.07883596805766,9.441711208707762,0.22841656938533797,-0.46487652637289795,28.030338769088132,20.111853413034765,0.0,1.0,0.0,0.0,1.0,Taxi
18.3,0.08866083780480559,-11.301079251529634,9.337586262199785,0.11015344420649278,0.6823168877354346,28.137898471872916,19.400751431778634,0.0,1.0,0.0,0.0,1.0,Taxi
18.400000000000002,-0.0849777591479341,-47.76463109732459,9.506295327496877,0.4302272148732754,0.1255665899722212,28.08626002087658,19.608907646725264,0.0,1.0,0.0,0.0,1.0,Taxi
18.5,-0.10788243214658311,-21.806772923893078,10.046653962274528,0.16035400842482012,0.21517393936661564,28.32621921711825,20.271774736044126,0.0,1.0,0.0,0.0,1.0,Taxi
18.6,-0.020373026814659707,5.46736386140158,9.723910338339339,0.15608488304319618,-0.03336028914278357,28.306532193041335,19.918516478360782,0.0,1.0,0.0,0.0,1.0,Taxi
18.7,-0.0576409398409261,-7.7717005620758774,8.89443489430079,0.680493278048016,-0.3131634509405477,28.17876010196926,20.00438834315383,0.0,1.0,0.0,0.0,1.0,Taxi
18.8,-0.14674093495696242,-10.991278295034936,9.012729678222058,0.40556060300300695,-0.22271995121636512,28.219126699192827,20.144499383330075,0.0,1.0,0.0,0.0,1.0,Taxi
18.900000000000002,-0.0753294182898343,-43.43275590712354,9.84683807615359,0.46088364000195037,0.24636179160750232,28.112011654972775,21.34627746578461,0.0,1.0,0.0,0.0,1.0,Taxi
19.0,-0.2748047193765437,47.42768485495361,9.86681733357452,0.14327542902686063,-0.13004863203986156,27.918767004094548,19.926695682279806,0.0,1.0,0.0,0.0,1.0,Taxi
19.1,0.09039748931780581,31.886626015383587,9.781426793278854,0.025624682072024507,0.2515430148765817,28.09618568263346,20.868912121559887,0.0,1.0,0.0,0.0,1.0,Taxi
19.200000000000003,0.08410371178708381,83.15477435750792,9.482448591434446,0.45905596721868225,0.07148658991598594,28.247228409260913,20.832352906411373,0.0,1.0,0.0,0.0,1.0,Taxi
19.3,0.14096915241099603,-11.014708145026235,10.237464274922354,0.5441171680708383,0.1477728159562033,28.216247828858343,20.577316307744677,0.0,1.0,0.0,0.0,1.0,Taxi
19.400000000000002,0.03532394859267474,-25.78675436411095,9.986264156645413,-0.011601953920489683,0.17327859540981203,28.133225029583855,19.751714819882817,0.0,1.0,0.0,0.0,1.0,Taxi
19.5,-0.04483006003347084,-7.725769270919552,9.965822269514224,0.14219849719243227,-0.26307766823241574,28.246382386948426,20.244026585067648,0.0,1.0,0.0,0.0,1.0,Taxi
19.6,0.10234030605639835,-21.09403138312945,9.987114113982539,0.06284505766797407,-0.15546020117610174,28.12534942423855,19.980190960672296,0.0,1.0,0.0,0.0,1.0,Taxi
19.700000000000003,-0.07014620832297244,-17.564494083793853,10.723324609302795,0.3419800192736967,0.4544233775578402,28.058270929196112,21.182644236099335,0.0,1.0,0.0,0.0,1.0,Taxi
19.8,-0.13265253045244002,-23.412603119219412,9.150312436716192,0.46296570598404607,0.9131803486920098,28.246391328400136,20.380762834959274,0.0,1.0,0.0,0.0,1.0,Taxi
19.900000000000002,-0.01472270953969859,22.25020814870854,9.512233544194185,0.17203500671476257,0.458996120008225,28.11124997029208,20.068845471836255,0.0,1.0,0.0,0.0,1.0,Taxi
20.0,0.04110483242057039,10.291298029048505,9.56307016504933,0.1714555854513961,-1.3944651869169897,28.275093342125615,21.067896293444576,0.0,1.0,0.0,0.0,1.0,Taxi
20.1,-0.08119604030719736,-18.005602024166976,10.519475292665302,-0.14565192507054125,-0.37899891640584477,27.97266554459884,19.999184322464703,0.0,1.0,0.0,0.0,1.0,Taxi
20.200000000000003,-0.10475071966053336,-16.557838463715246,9.54062368367666,0.054848252824268945,0.0573583980568341,28.115477786350425,20.45124056650442,0.0,1.0,0.0,0.0,1.0,Taxi
20.3,-0.04168435989800574,24.47737917918309,9.289400186594827,0.547159495261957,-0.5491086246472056,28.23214978212866,20.52664254739046,0.0,1.0,0.0,0.0,1.0,Taxi
20.400000000000002,0.041190855588718184,18.041557106967993,9.701390542617991,0.3442289500263241,-0.5725436673869768,28.22181863222005,20.349125788517544,0.0,1.0,0.0,0.0,1.0,Taxi
20.5,-0.014542934125693314,61.06681655550912,9.827620347914083,0.43095448737632225,-0.20935840810590073,28.150317935722228,20.122232991024866,0.0,1.0,0.0,0.0,1.0,Taxi
20.6,0.26364972287953997,-10.959569868930913,10.482705261328519,0.17266426182489952,0.17266135685849404,28.20116430304995,20.594196913511066,0.0,1.0,0.0,0.0,1.0,Taxi
20.700000000000003,-0.013606993755936287,17.921492753582747,9.537063922530761,0.19108429352194725,0.30876829091259145,28.18644804370598,19.86046221518461,0.0,1.0,0.0,0.0,1.0,Taxi
20.8,0.07506452964222055,-81.70496817335565,9.352405205566056,0.24942013939102234,-0.18367336193999723,28.02352847208698,20.732284046648076,0.0,1.0,0.0,0.0,1.0,Taxi
20.900000000000002,-0.14487511798723815,14.45925566895248,9.218968020144828,0.3105444017031629,-0.22206249223817395,28.13607001416767,20.034729073972795,0.0,1.0,0.0,0.0,1.0,Taxi
21.0,0.058689284588826246,-24.259903640929007,9.558304643573276,0.5209051536859213,-0.42184089163522365,28.195171231653887,20.84433376734143,0.0,1.0,0.0,0.0,1.0,Taxi
21.1,-0.046234988562424355,28.790619138015042,11.303068582492434,0.11114608355510949,0.2535484286366562,28.223053955038267,20.698578747535613,0.0,1.0,0.0,0.0,1.0,Taxi
21.200000000000003,-0.0009220222971628228,21.99822363675931,9.994326013026772,0.218079077864948,0.2199448989781119,28.165919945104292,20.450094722700918,0.0,1.0,0.0,0.0,1.0,Taxi
21.3,0.16868040277262292,1.8017046521786046,10.123842689007745,0.08704619996490351,0.45352275693088595,28.11723606073798,20.130336044649834,0.0,1.0,0.0,0.0,1.0,Taxi
21.400000000000002,-0.03722646530153121,-25.975913088665568,9.764701356901286,-0.14793636784184427,0.06487628160789081,28.038982421085336,20.72677308898997,0.0,1.0,0.0,0.0,1.0,Taxi
21.5,-0.13080158774049053,-56.77813449011837,9.847305762877708,0.42972449743209096,-0.6556023991328822,28.247710201787413,20.460983454000903,0.0,1.0,0.0,0.0,1.0,Taxi
21.6,-0.1152102696779688,10.90315541280276,10.236782675453274,0.5951870619911475,-0.17444446128208946,28.236716908235735,18.56717037158245,0.0,1.0,0.0,0.0,1.0,Taxi
21.700000000000003,0.017289311762482756,28.533577923183,10.102483051018925,0.3987886762733648,0.4284597921817538,28.271155519467754,19.76657997993899,0.0,1.0,0.0,0.0,1.0,Taxi
21.8,0.011866301875424624,24.584007507994112,9.974369308753646,0.29175445659833255,-0.8677398623880526,28.064595058475277,20.25980577379518,0.0,1.0,0.0,0.0,1.0,Taxi
21.900000000000002,0.007709767862001906,-29.16837584998613,9.77454773994528,0.6163843597600283,-0.042414131096011665,28.184633348168916,20.315299477874206,0.0,1.0,0.0,0.0,1.0,Taxi
22.0,-0.1285525674874478,38.15374408605536,9.553492034582293,0.3374721395555546,0.142575212670603,28.10320550813242,20.529014949866895,0.0,1.0,0.0,0.0,1.0,Taxi
22.1,0.20263502230570155,27.748257595949912,10.019480361827679,0.4062462496778525,1.0018437108102944,28.17707702605429,20.949859481322562,0.0,1.0,0.0,0.0,1.0,Taxi
22.200000000000003,0.14645105584175158,28.316987630131567,9.815010552916311,0.27389106163654725,-0.30055726336640737,28.463098356819614,20.46876328601956,0.0,1.0,0.0,0.0,1.0,Taxi
22.3,0.013032370663210172,-70.94956703405929,11.04453533199813,0.30443640368094843,-0.06083846569436225,28.26279674719177,19.133264015096433,0.0,1.0,0.0,0.0,1.0,Taxi
22.400000000000002,-0.15211281286459477,2.398895908288163,10.395232836502096,0.21910621440914316,0.8438008885757162,28.096868377265594,20.274259095428103,0.0,1.0,0.0,0.0,1.0,Taxi
22.5,0.15844553538319256,20.129987534748555,9.36030718506877,0.41221267808825324,-0.294161346536723,28.147169287872373,20.78333798634453,0.0,1.0,0.0,0.0,1.0,Taxi
22.6,0.1136823083369531,32.47885520516093,9.063145116417065,0.027440135248332886,0.5373528607857045,28.136223974152927,20.23123013496723,0.0,1.0,0.0,0.0,1.0,Taxi
22.700000000000003,0.010281463161210081,-7.713733559436993,9.52594754273946,0.32954863501322573,0.19633032890391344,28.184822953363778,20.277160468062018,0.0,1.0,0.0,0.0,1.0,Taxi
22.8,0.11987686758600775,-32.62290732664643,9.114936793330072,0.07508754904498799,-0.11050610690142351,28.020037419063158,19.928311237675285,0.0,1.0,0.0,0.0,1.0,Taxi
22.900000000000002,-0.04943222829627888,-21.26148741452919,9.48988895414975,0.34766863870220344,0.22580855860512883,28.20480234473621,20.650047483727917,0.0,1.0,0.0,0.0,1.0,Taxi
23.0,-0.09602597391143572,-20.827998961787852,9.183133530576573,0.7245219451883846,-0.07375594006630665,27.96067086677374,19.998847888818485,0.0,1.0,0.0,0.0,1.0,Taxi
23.1,0.015736872777068676,-21.168397559036787,9.568657782228506,0.3856669473171508,1.1289070731698663,28.005161634869182,20.471864407389916,0.0,1.0,0.0,0.0,1.0,Taxi
23.200000000000003,-0.15527421609146264,-2.997428536724653,9.575803264113095,0.480481303860372,-1.0327783107189632,28.372599595184,20.389708346821152,0.0,1.0,0.0,0.0,1.0,Taxi
23.3,-0.1110131165950588,7.73011575475834,9.853179211711051,0.42619199926426143,-0.14123328236683366,28.13635603971096,20.202546309306815,0.0,1.0,0.0,0.0,1.0,Taxi
23.400000000000002,0.054387451550860534,35.854502559199695,9.640749328219362,-0.21945583466938628,-0.12657811980675543,28.315056710038903,20.417483038214435,0.0,1.0,0.0,0.0,1.0,Taxi
23.5,0.023998296704536015,-5.43061423767908,9.223498375227681,0.2193577778746036,-0.06699635070029841,28.091415806987698,20.276272428747802,0.0,1.0,0.0,0.0,1.0,Taxi
23.6,-0.13816618778345405,-19.0574161693973,10.493816213748078,0.33527131646539265,0.5402123159740015,27.962281450183696,20.814091505302276,0.0,1.0,0.0,0.0,1.0,Taxi
23.700000000000003,-0.04089962929612579,-31.561038519727656,10.006668783658961,-0.17208089707475366,-0.22351841770401842,28.067364103143348,20.513795911226143,0.0,1.0,0.0,0.0,1.0,Taxi
23.8,-0.13380689589410208,17.861862893510107,9.438197524650105,0.18892326959568587,0.24602006640395482,28.441232104266078,20.695297435133387,0.0,1.0,0.0,0.0,1.0,Taxi
23.900000000000002,-0.04885687331590333,-3.7776406133725295,9.233199803585965,0.22984785028148913,0.11573326481523752,28.031363956934,19.793478643659874,0.0,1.0,0.0,0.0,1.0,Taxi
24.0,-0.059787832362988264,46.6059724081087,8.884538752957498,-0.0006214399753322886,0.41923822482830947,28.350080775257936,19.762126658433772,0.0,1.0,0.0,0.0,1.0,Taxi
24.1,0.0992229661464416,6.635439506448141,8.840593250542781,0.05175876336299526,-0.06859127109499198,28.206953522559672,20.20679252843003,0.0,1.0,0.0,0.0,1.0,Taxi
24.200000000000003,-0.01567967578366247,7.092450149467685,10.39335094216361,0.5131674875839813,0.16110367680490933,28.184415647430228,20.550164715530613,0.0,1.0,0.0,0.0,1.0,Taxi
24.3,-0.024325581615649683,-27.693281840264703,10.329643495500974,-0.47046933700738125,-0.061719864876098984,28.097572426809393,20.441171323386218,0.0,1.0,0.0,0.0,1.0,Taxi
24.400000000000002,-0.03924344305488174,-31.276524814831017,9.414320203716715,0.299990348410294,-0.49302678034209607,28.082310861308656,19.799802395746983,0.0,1.0,0.0,0.0,1.0,Taxi
24.5,-0.1720622998578174,2.892284725910585,10.58458393760369,0.4784108166919866,0.7995182531862861,28.228841586764247,20.565717270310582,0.0,1.0,0.0,0.0,1.0,Taxi
24.6,-0.00986415798609661,17.505270590078105,10.13493420562956,0.24026973849544808,-0.381091960845105,28.304359705543277,19.86151609865336,0.0,1.0,0.0,0.0,1.0,Taxi
24.700000000000003,0.04828290989550893,39.04435593637569,9.886827918462457,0.5274217970835633,-0.23924388168843116,28.19206121583602,20.512361577878586,0.0,1.0,0.0,0.0,1.0,Taxi
24.8,0.023159479824061215,15.825089348710016,10.282039595711964,0.1602211249009628,-0.42841112258304664,28.24638899666877,20.318712925933802,0.0,1.0,0.0,0.0,1.0,Taxi
24.900000000000002,0.06926128875745366,5.169245241628845,10.135952321020094,0.06468321689881096,0.20101072312141874,28.129873154723498,20.06287559792977,0.0,1.0,0.0,0.0,1.0,Taxi
25.0,0.07412913610365335,39.329840658699936,9.857082264420942,0.24380957140419338,-0.23908032504621304,28.389740603844643,19.907447356166585,0.0,1.0,0.0,0.0,1.0,Taxi
25.1,0.21980868311756108,-36.426984478398644,9.620849975453353,0.16938590478418425,0.7576210705558635,28.196290805142496,20.24202645976004,0.0,1.0,0.0,0.0,1.0,Taxi
25.200000000000003,-0.1128736336345394,-10.131389008207554,9.700558591890225,0.13133194679690452,0.2669753171693377,28.375752207740902,20.216959890511554,0.0,1.0,0.0,0.0,1.0,Taxi
25.3,0.023472191062615735,-37.02603309193638,8.80009093665613,0.20960355218619076,-0.13842288642681733,28.075911880639865,19.652154083452093,0.0,1.0,0.0,0.0,1.0,Taxi
25.400000000000002,0.03467851765787937,16.1787798511841,9.284438045774278,0.08729823064328915,-0.4548752661214002,28.16793106482146,20.47647292232608,0.0,1.0,0.0,0.0,1.0,Taxi
25.5,-0.03197973437861875,-17.344351738740727,10.844972526624211,0.0781192480566737,-0.05535337544124907,28.279581675273164,20.753778213099842,0.0,1.0,0.0,0.0,1.0,Taxi
25.6,-0.06324956763108774,3.0397296263623184,9.268399715234587,0.021299225242290803,0.2600152360842866,28.18663355372928,20.60572468108179,0.0,1.0,0.0,0.0,1.0,Taxi
25.700000000000003,0.04987716578969111,14.45185425884381,8.654481740548086,0.3290031902246518,-0.022942355001657307,28.22420582237197,20.332953721923342,0.0,1.0,0.0,0.0,1.0,Taxi
25.8,0.04027953691560046,-8.411634512849881,10.307253909316145,0.045900599152524396,-0.07017732527049707,28.074654253306733,19.95046796415714,0.0,1.0,0.0,0.0,1.0,Taxi
25.900000000000002,-0.10530774019533698,-45.92737602973256,9.91404431684447,-0.002713212390469011,-0.5102348842137421,28.131882783532888,20.23990727030515,0.0,1.0,0.0,0.0,1.0,Taxi
26.0,-0.1797597143589715,-17.887919845791544,9.947799333938674,0.030954347117865738,1.1215735767630997,28.084899872404037,20.109705357405826,0.0,1.0,0.0,0.0,1.0,Taxi
26.1,-0.049160062313357095,7.592884229598195,9.670361676439889,0.2868236556788594,-0.10055561598309969,28.163879415821498,20.237586776579924,0.0,1.0,0.0,0.0,1.0,Taxi
26.200000000000003,-0.06734331904734585,48.00652153539826,10.31133265246027,0.37957231000797775,-0.6872587178567728,28.153592122655823,20.643657788527726,0.0,1.0,0.0,0.0,1.0,Taxi
26.3,0.06027289331801995,-8.647599339569416,10.682680709123794,0.395903096792419,-0.5375233905530337,28.119528042676166,20.12142633218402,0.0,1.0,0.0,0.0,1.0,Taxi
26.400000000000002,-0.092398059011204,9.916349939665196,9.452006707567797,0.28855698094492166,-0.17205134813937545,28.235666773030857,19.256770974464576,0.0,1.0,0.0,0.0,1.0,Taxi
26.5,-0.017761569349019693,-46.192785684170246,10.144604810521018,0.35280432754376134,0.9723879258157184,28.065914850883132,20.57520976036085,0.0,1.0,0.0,0.0,1.0,Taxi
26.6,-0.17069103510283112,-12.550161331205127,10.435973602147346,0.23473882508216717,-0.08520126933279905,27.957512940506888,20.374039530262444,0.0,1.0,0.0,0.0,1.0,Taxi
26.700000000000003,-0.15514886566722946,-11.837407904554162,9.418217425533374,0.3368157200478331,-0.18740087513610237,28.115274917512522,20.250393264182346,0.0,1.0,0.0,0.0,1.0,Taxi
26.8,-0.07694860887179035,29.127579409000997,10.670622610154162,0.33374004234386273,0.4223461372406711,28.387672451748927,19.58824816361771,0.0,1.0,0.0,0.0,1.0,Taxi
26.900000000000002,-0.025053138057825965,14.633442861145939,10.43397612788792,0.09976878281954285,0.45884239838479013,28.22342194298716,19.759277503769066,0.0,1.0,0.0,0.0,1.0,Taxi
27.0,-0.0819816513614996,18.244422076275335,9.019668796920504,0.030567042486441487,0.3295438431997523,28.08780799735075,19.817742552242187,0.0,1.0,0.0,0.0,1.0,Taxi
27.1,0.014273501509586495,-29.014654526552032,10.721862547055203,0.5161276867565728,0.09993796897072789,28.216935677086212,19.88358499213754,0.0,1.0,0.0,0.0,1.0,Taxi
27.200000000000003,-0.17012641069058596,12.095722820146918,9.05112835358212,0.2707674253282734,-0.5521681546573184,28.15901736196912,19.930378673809958,0.0,1.0,0.0,0.0,1.0,Taxi
27.3,-0.02150303726076483,-6.923911351656058,9.352409104769297,0.4560545306248528,-0.37550838270476045,28.211194773081957,19.584577425919708,0.0,1.0,0.0,0.0,1.0,Taxi
27.400000000000002,-0.02034605524869362,5.068332485401697,10.17507420483206,0.02569882026865991,-0.7954639298606271,28.260505471181773,21.251262541088458,0.0,1.0,0.0,0.0,1.0,Taxi
27.5,-0.1447847482635773,8.868366323563356,10.389751617814987,0.1645856735871825,-0.11198141834364471,28.191783479193532,20.926482470522796,0.0,1.0,0.0,0.0,1.0,Taxi
27.6,0.022838794357052137,-39.31131008025532,9.824082771550621,-0.02962890849984856,-0.21232999577101544,28.184486931399533,20.314018378978105,0.0,1.0,0.0,0.0,1.0,Taxi
27.700000000000003,-0.21690260564997002,15.252859948529968,9.38695484709304,0.37496220351363385,-0.2642234327418487,28.32108230792727,20.15860748815531,0.0,1.0,0.0,0.0,1.0,Taxi
27.8,-0.06852044852092726,11.182017462572114,9.608807954213905,0.12279919812896478,0.139631495661076,28.226398869564775,21.08870165932634,0.0,1.0,0.0,0.0,1.0,Taxi
27.900000000000002,0.0787488816699129,-1.1206401568315603,9.537785240114852,0.13484092390392327,-0.328595052961041,28.191915977179235,20.987318685890482,0.0,1.0,0.0,0.0,1.0,Taxi
28.0,-0.22250580643412762,27.124344768102464,10.269608808079244,0.636857358778592,-0.17023256952698643,28.17665353667428,19.805477479778958,0.0,1.0,0.0,0.0,1.0,Taxi
28.1,0.06710127531958528,-39.06865116719957,9.521349468854448,0.3789527297332952,-0.24316613444979715,28.115842291487297,20.29927440457977,0.0,1.0,0.0,0.0,1.0,Taxi
28.200000000000003,-0.11659437416608476,32.69221702478845,9.373767812464363,0.3765139229912161,-0.015924906618661187,28.047878492955988,20.08423391353535,0.0,1.0,0.0,0.0,1.0,Taxi
28.3,-0.05904472131018519,14.710942992766405,8.878528064415756,0.005274481088096555,0.18231865650337953,28.239472060747858,20.040760012313044,0.0,1.0,0.0,0.0,1.0,Taxi
28.400000000000002,0.14065599028341744,10.780218923487928,9.408337825254899,-0.12581274558136107,-0.6722665725755063,28.30009088806048,20.092700575332263,0.0,1.0,0.0,0.0,1.0,Taxi
28.5,-0.06269327954864498,44.084290122748904,9.693853816387803,0.439823728034927,0.22660773586686497,28.215215534774984,20.132602312320586,0.0,1.0,0.0,0.0,1.0,Taxi
28.6,0.1613767293035595,-34.236532794747355,9.086636066385681,-0.2023795041093026,0.13212626237233427,28.229025523402925,20.28080437428495,0.0,1.0,0.0,0.0,1.0,Taxi
28.700000000000003,-0.03052667369031908,10.846372298476474,8.71804120708919,0.14538117338635656,0.20931312971297808,28.083722565064477,20.28363658574298,0.0,1.0,0.0,0.0,1.0,Taxi
28.8,-0.008461418056262373,-15.43015114970688,10.352850935051102,0.08336857354846855,0.06661566630360631,28.112812672725227,20.894526445932765,0.0,1.0,0.0,0.0,1.0,Taxi
28.900000000000002,0.0842259735550253,16.98668287055217,9.164625255343177,0.06066839007017938,0.1807819813247956,28.04425036462925,19.771991357551844,0.0,1.0,0.0,0.0,1.0,Taxi
29.0,0.05440674066244194,4.7741461229121676,8.979276825865567,0.1575073761540739,-0.20783304191500085,28.147480235897206,20.65889595745537,0.0,1.0,0.0,0.0,1.0,Taxi
29.1,0.015409312558298627,-26.111676993086917,10.706590665087356,0.03455233351452483,0.22168406031475452,28.27075257607447,19.637930424371298,0.0,1.0,0.0,0.0,1.0,Taxi
29.200000000000003,-0.04633241141040914,-41.898672555971345,10.274139597512011,0.0024946447232331304,0.5722834761594231,28.1026894949228,20.29385873613078,0.0,1.0,0.0,0.0,1.0,Taxi
29.3,-0.15508662211741464,-33.12553852413581,10.380167205330348,0.29671322752732643,-0.24769041842905823,28.164965888729057,20.697111090334563,0.0,1.0,0.0,0.0,1.0,Taxi
29.400000000000002,-0.1502183800623803,35.52974519143482,10.067996206704462,0.45896037020495306,-0.22954733924141588,28.242677451047143,20.459950948955797,0.0,1.0,0.0,0.0,1.0,Taxi
29.5,0.13131631454676504,65.0060900917329,10.551699873966882,-0.10155599166567625,0.3152525497271052,28.293244513869297,20.017250167240118,0.0,1.0,0.0,0.0,1.0,Taxi
29.6,0.16994382834124996,32.63523365563544,10.294917740637397,0.2848072221177324,-0.2770039208572865,28.007728792010766,20.317834154773838,0.0,1.0,0.0,0.0,1.0,Taxi
29.700000000000003,0.012957788215797003,-61.73708901767776,9.558211656165232,0.3539794516781384,-0.35961907925931985,28.124763452330967,21.001580744131886,0.0,1.0,0.0,0.0,1.0,Taxi
29.8,-0.1773691305416236,-49.434283209921205,9.125846831331947,0.3349991985953138,0.2110859746962466,28.098604260071,19.879586109287334,0.0,1.0,0.0,0.0,1.0,Taxi
29.900000000000002,-0.07722758770835593,-19.029433175623538,8.994988339439939,0.20145179053231593,-0.215233764583286,28.084762064154404,20.458712759002868,0.0,1.0,0.0,0.0,1.0,Taxi
30.0,-0.08218937766232055,24.35824570608713,9.681057212732748,0.12628250527715998,0.6108732242315618,28.13413609443205,20.65797972387761,0.0,1.0,0.0,0.0,1.0,Taxi
30.1,-0.0555779020111878,-2.2484626465230804,9.104879635201241,0.3974137751950395,-0.23310574590316793,27.977683845412116,19.981423878972898,0.0,1.0,0.0,0.0,1.0,Taxi
30.200000000000003,-0.0884699009409712,26.84977359941797,9.2862663297762,0.31275593599615953,-0.4095577663456876,28.135672103519028,21.04312161177827,0.0,1.0,0.0,0.0,1.0,Taxi
30.3,0.052059490334769434,16.06345049353052,9.673499986470306,-0.133163444544169,-0.002392874311719253,28.175933214220777,21.212049160818474,0.0,1.0,0.0,0.0,1.0,Taxi
30.400000000000002,0.024739350456464953,49.29523499542396,10.603603970508694,0.20148409289333827,0.21771515765607727,28.068118731012873,20.72245132265809,0.0,1.0,0.0,0.0,1.0,Taxi
30.5,0.1580062740361488,-18.194966284927343,8.85852927654493,0.25679424075848334,0.16015855000632437,28.12426109248952,20.72351316773703,0.0,1.0,0.0,0.0,1.0,Taxi
30.6,-0.03891534108986714,-0.9442240770914813,9.782711068903565,0.026951761129406893,0.26945636867097245,28.17438787183295,19.311084996872538,0.0,1.0,0.0,0.0,1.0,Taxi
30.700000000000003,0.020018230071007677,-16.778690009847228,9.014015939461213,0.19700791828388414,-0.2765780272469122,28.18441398546645,19.514974278163173,0.0,1.0,0.0,0.0,1.0,Taxi
30.8,0.07411282398691281,28.216499957423625,9.431069894002995,0.3440042186039545,0.5677467077812939,28.008990066413503,20.133214006531798,0.0,1.0,0.0,0.0,1.0,Taxi
30.900000000000002,0.10216715869725115,-28.70174819338929,10.322786729456524,0.08022981192433495,-0.8276740874564691,28.242457718505648,19.84655953584865,0.0,1.0,0.0,0.0,1.0,Taxi
31.0,-0.12349051089593864,-6.725685948272783,9.255874987366491,0.2922942449547878,-0.3904282479444726,28.24486264663716,20.48837512929142,0.0,1.0,0.0,0.0,1.0,Taxi
31.1,0.04048439424554902,-17.50026504335919,9.606853477754358,0.047790213869564946,0.019183791256515523,28.098188373124742,18.751774810043546,0.0,1.0,0.0,0.0,1.0,Taxi
31.200000000000003,0.014665833480455357,30.75402969609173,9.8494891114835,-0.0016395808002596102,-0.3485590851608987,28.340226951719558,20.48513973005317,0.0,1.0,0.0,0.0,1.0,Taxi
31.3,0.03027963758452017,-6.90414741036233,10.185582542027285,0.36881463557958954,-0.1548499541467501,28.218015110867384,20.087565681960598,0.0,1.0,0.0,0.0,1.0,Taxi
31.400000000000002,0.005963657193737509,31.32426826740407,9.43614033457774,0.4804962650872251,-0.4908298998301414,28.203559440746005,19.90453752148018,0.0,1.0,0.0,0.0,1.0,Taxi
31.5,0.17128717481747585,-23.872698683909466,10.521343806683724,0.008951431530253767,-0.10407838736314287,28.240738591392187,21.128733658049647,0.0,1.0,0.0,0.0,1.0,Taxi
31.6,-0.08908385583502705,-20.192801031732937,9.497796815812624,0.436301741595266,0.23153862691901603,28.06913264506227,20.0214028442353,0.0,1.0,0.0,0.0,1.0,Taxi
31.700000000000003,-0.09500034796492707,-50.676893170896825,10.05548768138699,0.24309205912831724,-0.26777508030233776,28.137088474040866,19.367054595741788,0.0,1.0,0.0,0.0,1.0,Taxi
31.8,-0.08209729103700815,12.01279927459636,9.650927071197765,-0.19699318601570087,-0.4394837145802052,28.23419217554965,20.40391671646736,0.0,1.0,0.0,0.0,1.0,Taxi
31.900000000000002,-0.029019859462045123,24.866409862097385,10.209419075410517,-0.041292718180808485,-0.23045914719172272,28.09265365710695,20.36652233978719,0.0,1.0,0.0,0.0,1.0,Taxi
32.0,0.029331701345559985,7.296612811793589,10.981380353319775,0.3673496067842893,0.5519337772293186,28.137188031654716,20.08846744068895,0.0,1.0,0.0,0.0,1.0,Taxi
32.1,-0.04561422697804006,25.93021346924897,9.598315879000367,-0.07909322042628664,0.5477867254206775,28.232534363531386,21.351082274258932,0.0,1.0,0.0,0.0,1.0,Taxi
32.2,0.10063120788419987,-5.936377761267271,9.75526647958936,0.12198498599755074,-0.23905497761362993,28.203417173493733,20.280485713007224,0.0,1.0,0.0,0.0,1.0,Taxi
32.300000000000004,-0.00035018746077622497,7.195323633217502,9.505659291382432,0.22942520286305057,0.25414347928909997,28.17452517783397,20.68283171634867,0.0,1.0,0.0,0.0,1.0,Taxi
32.4,-0.009637608811952407,-46.7310817251774,9.413307295358868,0.33530053248897806,-0.009167262188572169,28.17868944179429,20.336970068340445,0.0,1.0,0.0,0.0,1.0,Taxi
32.5,-0.13302420074168692,36.49183757150308,9.345297719324426,0.2826328923168672,0.6420242825930234,28.15494348761291,20.81071943601632,0.0,1.0,0.0,0.0,1.0,Taxi
32.6,0.18210900039673933,0.9784903693332675,9.753687703409698,0.5594082416489654,0.09578314434889683,28.257709682702966,20.009997668378034,0.0,1.0,0.0,0.0,1.0,Taxi
32.7,-0.004745156965285949,59.34693897369957,9.298688802822676,0.08253589123598881,-0.10077709170307952,28.38143848330327,19.64372705541355,0.0,1.0,0.0,0.0,1.0,Taxi
32.800000000000004,0.16371049412681107,-48.867087678975764,9.316895148793495,0.2654173117063095,0.7999387044292812,28.20169931633285,20.558305726488495,0.0,1.0,0.0,0.0,1.0,Taxi
32.9,-0.06222643799813937,17.56149601197593,7.865575128759145,0.33622076788215527,-0.46190057632553017,28.300634544887146,20.3250715805862,0.0,1.0,0.0,0.0,1.0,Taxi
33.0,0.08306232309459383,-43.99455733879665,10.595846545619649,0.38818326424817473,0.15960210718809484,28.128761445578505,20.57304735126584,0.0,1.0,0.0,0.0,1.0,Taxi
33.1,-0.05626229256717209,48.826129202664845,10.751157136036088,0.45595066385611016,0.6830362411008425,28.104275297297647,19.867080632401297,0.0,1.0,0.0,0.0,1.0,Taxi
33.2,0.18190420801518503,5.80296798252454,10.154130497342948,0.15888291670650123,0.33308011383024355,28.093613107000067,20.41553092643711,0.0,1.0,0.0,0.0,1.0,Taxi
33.300000000000004,0.1120771630072167,28.243218526750216,9.24054657806846,0.3759931175058784,-0.3814206181100147,28.08059773995666,19.378298755106645,0.0,1.0,0.0,0.0,1.0,Taxi
33.4,0.0849538000665792,-50.87515337832287,9.00678329589592,0.06052614849323368,-0.408334770643692,28.14307861071086,19.935543303629878,0.0,1.0,0.0,0.0,1.0,Taxi
33.5,-0.07247155887642916,15.717769876634796,8.826174538429779,0.23015723704572505,-0.7042440139921916,28.261043028388542,19.82310770269133,0.0,1.0,0.0,0.0,1.0,Taxi
33.6,0.19066601239039088,23.76877061849662,10.14837161575103,0.3459461424829167,0.7414607920209422,28.272725653717202,20.42341631865828,0.0,1.0,0.0,0.0,1.0,Taxi
33.7,0.2037976531590625,6.901455770305442,10.524054315110083,0.44077476790360137,-0.5664466672260798,28.121466882061725,19.933327673830657,0.0,1.0,0.0,0.0,1.0,Taxi
33.800000000000004,-0.03796428002490179,-34.89994473665851,9.864528079418852,0.35974144627815774,0.35670075101203985,28.140039764547964,19.48902260613355,0.0,1.0,0.0,0.0,1.0,Taxi
33.9,0.01616628870709846,-22.223300160339345,10.27957254232402,0.26380631859637393,-0.7132557001090344,28.17222768176225,19.891315063568324,0.0,1.0,0.0,0.0,1.0,Taxi
34.0,0.09268115235736592,-31.850726537784556,10.03178386255577,0.2297998168085838,1.278545458364658,28.195841595372144,20.474680487448868,0.0,1.0,0.0,0.0,1.0,Taxi
34.1,-0.19721791271382444,19.684145614269312,9.3023469455814,0.3554551896335519,-0.6764485626255161,28.2311030219887,20.24097783371445,0.0,1.0,0.0,0.0,1.0,Taxi
34.2,0.11458701677844518,1.937248969482993,10.37055621829768,0.6835396538827652,0.02126085709766267,28.132517538309287,19.80289460011359,0.0,1.0,0.0,0.0,1.0,Taxi
34.300000000000004,0.10236739720478105,28.180701948292064,10.332218453691477,0.41661465631168354,0.6060300199713485,28.15238977085926,20.59504310620295,0.0,1.0,0.0,0.0,1.0,Taxi
34.4,-0.05631440297236395,-66.7636945679276,9.170585478279557,0.32200660058450287,-0.3515364671607402,28.30790078213454,20.95813967757964,0.0,1.0,0.0,0.0,1.0,Taxi
34.5,-0.21923145606119268,-13.80983086105376,10.24913919017906,-0.028097416633036387,0.28188560047559813,28.14457350015192,20.62985016091338,0.0,1.0,0.0,0.0,1.0,Taxi
34.6,0.03331824289951243,-11.410363217451305,9.676312115737428,0.07680096673615017,-0.1409160027356404,28.114970833342625,19.021688832134426,0.0,1.0,0.0,0.0,1.0,Taxi
34.7,-0.1133662190596203,12.082207024662736,9.608342365837226,0.180881338627484,0.19409587035416687,28.16387872640132,20.294013665183826,0.0,1.0,0.0,0.0,1.0,Taxi
34.800000000000004,-0.15882042093787882,0.7505266533853264,9.999240868899763,0.42770083498990324,0.5403849659863489,28.180247023315076,20.104519030553035,0.0,1.0,0.0,0.0,1.0,Taxi
34.9,0.03707087616643922,49.032371359756276,9.98070360062091,0.05834412777688369,-0.214185044688372,28.018344242099488,19.157564924085932,0.0,1.0,0.0,0.0,1.0,Taxi
35.0,0.13179563773916123,27.385449116673204,10.298087131847437,0.37418693231503186,0.7484551839483491,28.128064150001762,19.530228834181266,0.0,1.0,0.0,0.0,1.0,Taxi
35.1,-0.021893175354512653,16.28861134111567,9.255293454422052,0.26963639320915356,0.17621448742324777,28.214428591066678,20.57496908172223,0.0,1.0,0.0,0.0,1.0,Taxi
35.2,0.11851393287201775,-13.076434376720753,10.104235246481272,0.3166828530677348,0.9742329365031202,28.372882004502117,20.268271329312565,0.0,1.0,0.0,0.0,1.0,Taxi
