time_s,altitude_ft,vertical_speed_fpm,ias_kt,pitch_deg,roll_deg,heading_deg,throttle_pct,afterburner_on,gear_down,flaps_deg,speedbrake_pct,weight_on_wheels,label
0.0,-1.881979069268484,-618.8391587152363,175.69779110595917,-0.4091166298415436,2.0408251141002522,308.63333832846865,30.221389561639153,0.0,1.0,12.606109845243935,8.500406695662559,0.0,Landing
0.1,-3.944776264985938,-807.7561320632238,173.4281291441073,-0.5291106233179435,1.9934583508293782,308.776818992612,30.575553065280126,0.0,1.0,12.606109845243935,8.500406695662559,0.0,Landing
0.2,-5.920759729584603,-1215.7233837212773,172.8734140911415,-0.1656291965054319,1.911194030952972,308.98293230051127,30.7907410115266,0.0,1.0,12.606109845243935,8.500406695662559,0.0,Landing
0.30000000000000004,-7.96059598787487,-1202.9297617490274,175.13520687015063,-0.6072175394991655,1.2363286243047407,308.7346076118065,30.169243983767675,0.0,1.0,12.606109845243935,8.500406695662559,0.0,Landing
0.4,-9.959425073731076,-1209.4009051776493,173.21450335250944,-0.8826387503316624,1.8134059830328142,308.61564286947714,30.341253773347656,0.0,1.0,12.606109845243935,8.500406695662559,0.0,Landing
0.5,-11.967764255472849,-1196.6154104808625,174.85184501667572,-0.29008408407662534,1.756375817903664,308.8043023917239,30.0657189011503,0.0,1.0,12.606109845243935,8.500406695662559,0.0,Landing
0.6000000000000001,-13.943673040279183,-1190.6042562076757,173.8493579634446,-0.6191002229265427,2.0021628573678547,308.36860044229707,30.24135581221348,0.0,1.0,12.606109845243935,8.500406695662559,0.0,Landing
0.7000000000000001,-15.912446354769456,-1192.7419532846743,174.77066589185236,-0.3082366653979599,1.858196775625155,308.8643338819463,30.646905649793,0.0,1.0,12.606109845243935,8.500406695662559,0.0,Landing
0.8,-17.93147402189622,-1186.5237147185242,175.1492417732386,-0.6514247356327239,1.7651735843046479,308.6692195551441,30.60314012199875,0.0,1.0,12.606109845243935,8.500406695662559,0.0,Landing
0.9,-19.876291613871803,-1183.9527185466106,173.79587300083068,-0.4931797399411596,1.8387815028694978,308.84441667629005,30.35709307999598,0.0,1.0,12.606109845243935,8.500406695662559,0.0,Landing
1.0,-21.83220994750251,-1172.9168267487423,174.4784508417335,-0.19875806717133232,1.4656360023526533,308.7238742957343,30.842255260149102,0.0,1.0,12.606109845243935,8.500406695662559,0.0,Landing
1.1,-23.796058155639933,-1177.8349793666187,175.8511405250419,-0.3248178053099363,1.712714901245334,308.4726713271175,30.040173545742462,0.0,1.0,12.606109845243935,8.500406695662559,0.0,Landing
1.2000000000000002,-25.765466510704897,-1180.8851449240365,175.50001517966277,-0.5662074983547203,1.7279165867587423,308.772003034464,30.837350792094053,0.0,1.0,12.606109845243935,8.500406695662559,0.0,Landing
1.3,-27.73663567212269,-1165.217710780442,173.48825789747502,-0.29225667527367194,1.468295222672147,308.8409677536614,30.65441920794487,0.0,1.0,12.606109845243935,8.500406695662559,0.0,Landing
1.4000000000000001,-29.622146709542143,-1166.3911675245217,174.52885423843264,-0.6876980192165975,1.8982560126431007,308.7423357050113,30.387429793009996,0.0,1.0,12.606109845243935,8.500406695662559,0.0,Landing
1.5,-31.597422348327505,-1177.3578957581756,173.97536258869474,-0.35775755668499265,1.9247334506862042,308.61117789873947,31.057879698176578,0.0,1.0,12.606109845243935,8.500406695662559,0.0,Landing
1.6,-33.62342515091357,-1199.2321232000934,174.89441714401036,-0.3915840456344271,1.8814371981120213,308.5428748802967,30.716585880975003,0.0,1.0,12.606109845243935,8.500406695662559,0.0,Landing
1.7000000000000002,-35.61830732554261,-1196.2778275974372,174.1963208052176,-0.2554740312859437,2.2020632208803863,308.6785477883509,30.798582321214482,0.0,1.0,12.606109845243935,8.500406695662559,0.0,Landing
1.8,-37.57881148631469,-1193.040660931743,173.0857491902828,-0.4536391522428143,1.7450227854607037,308.5360619359692,30.810720707143652,0.0,1.0,12.606109845243935,8.500406695662559,0.0,Landing
1.9000000000000001,-39.588628455572284,-1189.1367513035077,174.8437779608338,-0.59930375374828,1.4924275244787095,308.5833551395715,30.266178987505683,0.0,1.0,12.606109845243935,8.500406695662559,0.0,Landing
2.0,-41.56399108206015,-1176.1000325320394,175.17809714017642,-0.6363146102334999,1.9353151335409766,308.7917671712413,30.776024817591377,0.0,1.0,12.606109845243935,8.500406695662559,0.0,Landing
2.1,-43.45931164897489,-1174.669928747052,174.418707410575,-0.13712663475035597,1.885065264994375,308.98891450276665,30.4694310433804,0.0,1.0,12.606109845243935,8.500406695662559,0.0,Landing
2.2,-45.461978099307544,-1197.504425053802,174.4318327260458,-0.6833287647905514,1.7138105589286403,308.62272649322495,30.291609771374706,0.0,1.0,12.606109845243935,8.500406695662559,0.0,Landing
2.3000000000000003,-47.55151320732916,-1209.5890290756572,175.05174113366914,-0.6881423987676929,1.8318841173213753,308.65039529520004,30.599567019585393,0.0,1.0,12.606109845243935,8.500406695662559,0.0,Landing
2.4000000000000004,-49.507256794353175,-1209.1032949181424,173.22981523704087,-0.5152944933464689,1.7498808637649157,308.63224142740194,29.98662224762205,0.0,1.0,12.606109845243935,8.500406695662559,0.0,Landing
2.5,-51.507494573898256,-1189.9386412935883,174.7560921900391,-0.3487352095955112,2.014796652204037,308.7435498830282,30.137714355802682,0.0,1.0,12.606109845243935,8.500406695662559,0.0,Landing
2.6,-53.5012064137971,-1193.83225417169,174.43140153019363,-0.42003653182396505,1.9629011822723132,308.7902238165211,30.780879520148794,0.0,1.0,12.606109845243935,8.500406695662559,0.0,Landing
2.7,-55.476418065211625,-1182.3207170173816,174.1242857051983,-0.5322556959535767,1.6082167223594295,308.6802916981994,30.877918048419442,0.0,1.0,12.606109845243935,8.500406695662559,0.0,Landing
2.8000000000000003,-57.419098158985165,-1158.1262433547165,173.65282381176036,-0.4139715497151944,1.963237671809773,308.62305514349146,30.339036511981618,0.0,1.0,12.606109845243935,8.500406695662559,0.0,Landing
2.9000000000000004,-59.29183763057068,-1158.6104684552095,174.3612221479022,-0.2904924978637894,2.1565506328597253,308.76328210118515,31.020855922099106,0.0,1.0,12.606109845243935,8.500406695662559,0.0,Landing
3.0,-61.269470407487674,-1164.4727054782845,173.55351721663976,-0.46586747102296316,1.6546826265164494,308.79323785503664,31.39226960145335,0.0,1.0,12.606109845243935,8.500406695662559,0.0,Landing
3.1,-63.24146168637659,-1174.6465691234932,172.30893382153687,-0.451773280296484,1.9112939411171839,308.62531115871207,30.089452414729127,0.0,1.0,12.606109845243935,8.500406695662559,0.0,Landing
3.2,-65.16507047618815,-1170.8908063314766,172.5610011447097,-0.28060632761225546,1.8287864198156631,308.35131469806913,30.300259288403012,0.0,1.0,12.606109845243935,8.500406695662559,0.0,Landing
3.3000000000000003,-67.12392443914506,-1154.365530235903,174.07844736647073,-0.3735228776273169,1.4569856755771144,308.8011793652529,30.40495728625683,0.0,1.0,12.606109845243935,8.500406695662559,0.0,Landing
3.4000000000000004,-69.0132893375561,-1145.6577207475077,174.00357819406722,-0.5759763715558311,1.920840829354435,308.50367680426757,31.20160928531937,0.0,1.0,12.606109845243935,8.500406695662559,0.0,Landing
3.5,-70.89335907992569,-1155.253174750891,172.6160389720733,-0.17638320719628758,1.9378986511143448,308.6516297082436,31.287514516320734,0.0,1.0,12.606109845243935,8.500406695662559,0.0,Landing
3.6,-72.90019031289951,-1162.2546594415155,173.24838505229647,-0.776779015205209,1.7482732619657328,308.72505724117696,31.170819543390287,0.0,1.0,12.606109845243935,8.500406695662559,0.0,Landing
3.7,-74.82456263476368,-1185.0390513429404,175.4741608755666,-0.24076968640164573,1.808242595443285,308.6873308240522,30.24027869379139,0.0,1.0,12.606109845243935,8.500406695662559,0.0,Landing
3.8000000000000003,-76.81855433664039,-1168.750291715176,174.73482423001917,-0.580650658862997,1.9549184538446303,308.8900165531654,30.71489411447153,0.0,1.0,12.606109845243935,8.500406695662559,0.0,Landing
3.9000000000000004,-78.74394177147539,-1176.4494334106757,173.54381677336957,-0.05323814529218229,1.5702693513490975,308.50433350298135,30.704701615800232,0.0,1.0,12.606109845243935,8.500406695662559,0.0,Landing
4.0,-80.70680980181706,-1150.6981833262444,172.93794188391533,-0.3389831279215981,1.4759353575018135,308.694961345313,30.741677141249173,0.0,1.0,12.606109845243935,8.500406695662559,0.0,Landing
4.1000000000000005,-82.57204525327161,-1126.6868294915555,173.86645485171874,-0.2419743600734269,1.7415451126632704,308.8664289780321,30.512274753758085,0.0,1.0,12.606109845243935,8.500406695662559,0.0,Landing
4.2,-84.37737591893317,-1125.388150118789,174.20379752011223,-0.5423388878439405,1.3378640605338723,308.7354789709276,31.00588205484979,0.0,1.0,12.606109845243935,8.500406695662559,0.0,Landing
4.3,-86.333750552411,-1133.9887861369505,173.4103839226229,-0.29718675006296247,1.5794903886645648,308.72663276424885,30.564282572772576,0.0,1.0,12.606109845243935,8.500406695662559,0.0,Landing
4.4,-88.24198918395636,-1159.103355408314,174.12736059831138,-0.6468587057923206,1.7248603386314851,308.8005824412845,30.374801287707275,0.0,1.0,12.606109845243935,8.500406695662559,0.0,Landing
4.5,-90.17289269597474,-1153.6713037596967,174.15367897669827,-0.7381110116611493,1.6739801213428973,308.6328993821928,30.817521834940198,0.0,1.0,12.606109845243935,8.500406695662559,0.0,Landing
4.6000000000000005,-92.10210707120949,-1150.948204601579,174.17637233914328,-0.3292022706435007,1.9563793573700174,308.63157906749507,31.013690787331832,0.0,1.0,12.606109845243935,8.500406695662559,0.0,Landing
4.7,-93.99673020696426,-1149.5103781128903,175.28749721713464,-0.4716259434021523,1.8253989971698261,308.91029584779994,30.455633839930872,0.0,1.0,12.606109845243935,8.500406695662559,0.0,Landing
4.800000000000001,-95.92044458653919,-1149.4615005033636,175.1693645925813,-0.482661579513675,2.182685508323472,308.6781631195206,30.71307379253238,0.0,1.0,12.606109845243935,8.500406695662559,0.0,Landing
4.9,-97.8494145737263,-1139.946202683592,175.35925470488507,-0.7007462971897596,1.7703928958874933,309.0322957618839,30.726262879879158,0.0,1.0,12.606109845243935,8.500406695662559,0.0,Landing
5.0,-99.69646122038222,-1144.7707924269507,172.09889703880665,-0.6310628783547798,1.8881334548012703,308.7375477992008,30.39443221584824,0.0,1.0,12.606109845243935,8.500406695662559,0.0,Landing
5.1000000000000005,-101.64429854867394,-1165.3724989386917,174.31949191013192,-0.4202733498680691,1.8799474790259225,308.8189448619239,30.590633312255388,0.0,1.0,12.606109845243935,8.500406695662559,0.0,Landing
5.2,-103.67627706841976,-1175.498388593394,172.74166816072224,-0.41159248865809983,1.8035396040274907,308.7771484109279,30.765394781505087,0.0,1.0,12.606109845243935,8.500406695662559,0.0,Landing
5.300000000000001,-105.57395316334919,-1164.4758128174005,174.4186779187638,-0.7215608439650358,1.5372296747334175,308.84043627150857,30.303443668579,0.0,1.0,12.606109845243935,8.500406695662559,0.0,Landing
5.4,-107.46667761276095,-1126.0179767937445,173.5139305218837,-0.5466459615141067,1.6769350447868414,308.51464894679725,30.66051890489797,0.0,1.0,12.606109845243935,8.500406695662559,0.0,Landing
5.5,-109.30636695238849,-1127.6185325237805,173.62066422327575,-0.13776357140652834,1.7856693906995724,308.73285120840455,30.928194126811206,0.0,1.0,12.606109845243935,8.500406695662559,0.0,Landing
5.6000000000000005,-111.21204582596809,-1137.444340365266,172.7216138238444,-0.44676323723271394,2.330898157757327,308.6955118013377,30.387651958414015,0.0,1.0,12.606109845243935,8.500406695662559,0.0,Landing
5.7,-113.15389931458728,-1154.6369381240936,173.09326452069791,-0.5923603097858956,1.7252154980370247,308.74517349958865,30.619330937890695,0.0,1.0,12.606109845243935,8.500406695662559,0.0,Landing
5.800000000000001,-115.07955164300895,-1158.5093582227444,174.74257128930358,-0.3195730232613534,1.5265115769050708,308.81337443598864,30.721696990157852,0.0,1.0,12.606109845243935,8.500406695662559,0.0,Landing
5.9,-117.00459261708181,-1158.1553287327922,173.24210237105362,-0.4126018734736712,1.6361262912880778,308.84403283589484,30.79714946208984,0.0,1.0,12.606109845243935,8.500406695662559,0.0,Landing
6.0,-118.94467595825124,-1147.2759392056928,173.48301796012834,-0.6021873520173668,1.5314391929238993,308.7922524646656,30.348516274821563,0.0,1.0,12.606109845243935,8.500406695662559,0.0,Landing
6.1000000000000005,-120.81593133903742,-1151.151432758107,172.53897316801027,-0.7374230526919192,1.9063234134691163,308.67403200505396,30.46534794401287,0.0,1.0,12.606109845243935,8.500406695662559,0.0,Landing
6.2,-122.76034978087235,-1160.3708117355723,173.14842613914433,-0.44969867654933876,1.9265475954367781,308.69812584711804,31.492328493295723,0.0,1.0,12.606109845243935,8.500406695662559,0.0,Landing
6.300000000000001,-124.7465300169291,-1165.6033450257921,173.33196435796728,-0.8167975374370112,2.082790274901977,308.5305226482533,30.625522394760065,0.0,1.0,12.606109845243935,8.500406695662559,0.0,Landing
6.4,-126.64394806416638,-1165.2986927412458,173.3375210070016,-0.2138470030105583,1.9287738674876869,308.76982034204434,30.246252607880503,0.0,1.0,12.606109845243935,8.500406695662559,0.0,Landing
6.5,-128.58684324457857,-1150.4179828996682,175.50179938840188,0.023324992774845787,1.8899184854828224,308.71118686708405,30.645696926416083,0.0,1.0,12.606109845243935,8.500406695662559,0.0,Landing
6.6000000000000005,-130.49861993142744,-1154.1004962340537,173.38738463111306,-0.68192563484171,1.7884193069990386,308.8806246024858,30.6428000517383,0.0,1.0,12.606109845243935,8.500406695662559,0.0,Landing
6.7,-132.41445054533665,-1147.009323970974,172.92959951563554,-0.25280017170396496,1.9915519665057437,308.551294753134,30.328616137431528,0.0,1.0,12.606109845243935,8.500406695662559,0.0,Landing
6.800000000000001,-134.32188986443344,-1145.3818939429596,174.9122691664936,-0.2517763647265697,1.8373012682230025,308.6310318210087,30.944020261815183,0.0,1.0,12.606109845243935,8.500406695662559,0.0,Landing
6.9,-136.22552940114224,-1145.0528278827335,173.61702230733243,-0.8773446672307953,1.8188621882478355,308.7353818367833,30.9925961990347,0.0,1.0,12.606109845243935,8.500406695662559,0.0,Landing
7.0,-138.13971468475032,-1138.84316655309,173.38025401805754,-0.7724949002531218,1.6715567626755519,308.7323261013221,31.054951575662773,0.0,1.0,12.606109845243935,8.500406695662559,0.0,Landing
7.1000000000000005,-140.0161056971989,-1147.0306484351738,173.10665599859772,-0.3598383198691796,1.7286414634967873,308.62750641940715,30.377949421973362,0.0,1.0,12.606109845243935,8.500406695662559,0.0,Landing
7.2,-141.9606826433181,-1141.9232049479774,173.80619441936287,-0.4959163348692431,1.9350288279451402,308.5819544508747,30.954653481258905,0.0,1.0,12.606109845243935,8.500406695662559,0.0,Landing
7.300000000000001,-143.8493307094902,-1134.1132421502036,172.92133307344318,-0.3619176376777883,1.738532274330172,308.7025729797489,30.40955413594473,0.0,1.0,12.606109845243935,8.500406695662559,0.0,Landing
7.4,-145.68667190794991,-1137.4905881739892,173.55866578074773,-0.6108597859782268,1.9270315962195768,308.60455422230893,30.784217194138677,0.0,1.0,12.606109845243935,8.500406695662559,0.0,Landing
7.5,-147.64813558418805,-1167.388337331613,173.85974392551833,-0.6231048506098273,1.836063623126152,308.5429010888671,30.668374434886747,0.0,1.0,12.606109845243935,8.500406695662559,0.0,Landing
7.6000000000000005,-149.68627239614827,-1167.4983726695816,174.1128694140497,-0.538649859784884,2.1024833253577793,308.7951843229339,30.77772811317216,0.0,1.0,12.606109845243935,8.500406695662559,0.0,Landing
7.7,-151.52416377129782,-1146.3993170168123,172.15620567767934,-0.4461828601977819,1.9527332895342266,308.3284933217403,30.952717982966014,0.0,1.0,12.606109845243935,8.500406695662559,0.0,Landing
7.800000000000001,-153.38013216927212,-1117.589870119707,175.45300358066757,-0.32621465919387926,1.9166771807991514,308.7205058408564,30.84782763794374,0.0,1.0,12.606109845243935,8.500406695662559,0.0,Landing
7.9,-155.2742217467468,-1127.4456312268342,175.1765500818337,-0.44773464649165645,1.7127834636566428,308.6811697309454,30.544368084123775,0.0,1.0,12.606109845243935,8.500406695662559,0.0,Landing
8.0,-157.161391927432,-1141.5493367675936,172.79023881729486,-0.3374860891279692,1.6072995401424794,308.77724414402155,30.606669344827086,0.0,1.0,12.606109845243935,8.500406695662559,0.0,Landing
8.1,-159.08787885311008,-1140.0368994225005,174.314666707182,-0.47751410170005165,1.878791393582702,308.6210310211386,30.866951033078674,0.0,1.0,12.606109845243935,8.500406695662559,0.0,Landing
8.200000000000001,-160.9744062438593,-1133.9610202627227,174.66625965959946,-0.3719274599642487,1.675665460821885,308.6692819101843,30.129880355572475,0.0,1.0,12.606109845243935,8.500406695662559,0.0,Landing
8.3,-162.8311970287456,-1137.9507856588873,174.25926234890906,-0.4584469986436241,1.8387462762922173,308.8717773667595,30.200976776130243,0.0,1.0,12.606109845243935,8.500406695662559,0.0,Landing
8.4,-164.77763278140452,-1136.6476323467623,175.3252517555964,-0.14450867972097553,1.8849451128596573,308.6453409914052,30.27523919236295,0.0,1.0,12.606109845243935,8.500406695662559,0.0,Landing
8.5,-166.65764440559312,-1150.674242377596,174.67803351271365,-0.5103299169544204,1.7346605663061048,308.725601365295,30.961099009900796,0.0,1.0,12.606109845243935,8.500406695662559,0.0,Landing
8.6,-168.5845682406336,-1139.0278855786448,174.34085506294653,-0.5035620629184541,1.973216080131722,308.5788281542632,30.744053716966445,0.0,1.0,12.606109845243935,8.500406695662559,0.0,Landing
8.700000000000001,-170.47277220929774,-1136.7282460401839,175.41129873655913,-0.2461150976166005,1.7647770210914155,308.55894753119946,30.67282337801552,0.0,1.0,12.606109845243935,8.500406695662559,0.0,Landing
8.8,-172.34128563579404,-1114.0013198650538,173.63719977166159,-0.25513079002473904,1.9083034045530192,309.0943207080345,30.576525860252985,0.0,1.0,12.606109845243935,8.500406695662559,0.0,Landing
8.9,-174.15457483995885,-1103.3568980237476,173.59985499096697,-0.5517289677780829,1.9171862657630567,308.8739355850296,30.491696378417938,0.0,1.0,12.606109845243935,8.500406695662559,0.0,Landing
9.0,-175.98955669941648,-1091.7939693395851,173.94699711892804,-0.0626627530068492,2.211496105958867,308.79160018484833,30.36050293104406,0.0,1.0,12.606109845243935,8.500406695662559,0.0,Landing
9.1,-177.80025548249196,-1111.0719774912866,174.27254480008037,-0.18576356271741923,1.540101522922601,308.63254327087316,31.14257456784476,0.0,1.0,12.606109845243935,8.500406695662559,0.0,Landing
9.200000000000001,-179.7099347274153,-1112.5485597496436,175.10640501389787,-0.6034799164818294,1.7257159448585688,308.65902130986376,30.374836357303288,0.0,1.0,12.606109845243935,8.500406695662559,0.0,Landing
9.3,-181.5522994981647,-1135.999462413048,172.89120596132085,-0.4215446446493595,1.8194880895380003,308.54246190677827,30.469315794584215,0.0,1.0,12.606109845243935,8.500406695662559,0.0,Landing
9.4,-183.4802527945572,-1130.3587775699896,173.6100953930978,-0.7362196967356276,1.5975975893259893,308.76707680722416,30.474979518241398,0.0,1.0,12.606109845243935,8.500406695662559,0.0,Landing
9.5,-185.36172861526524,-1128.137203097799,174.4766704659142,-0.4635812187878405,1.7578377529448728,308.68870741087744,30.298817737150262,0.0,1.0,12.606109845243935,8.500406695662559,0.0,Landing
9.600000000000001,-187.1929855136537,-1109.1655393577755,174.6548717486431,-0.24885478999476185,1.9650992690326274,308.6354817861968,30.044135693704483,0.0,1.0,12.606109845243935,8.500406695662559,0.0,Landing
9.700000000000001,-189.02608049134608,-1100.5809201657257,174.82872078719151,-0.4266471533658782,1.7198455330449531,308.5351556996168,30.301058978722573,0.0,1.0,12.606109845243935,8.500406695662559,0.0,Landing
9.8,-190.86463321609386,-1114.081483666314,174.93158898544098,-0.8280438922737459,1.9102376988827119,308.7391428128951,30.51728386972006,0.0,1.0,12.606109845243935,8.500406695662559,0.0,Landing
9.9,-192.76339293198527,-1116.8415024968738,174.80323244091682,-0.6248423902835232,1.793801407834087,308.81797376998634,31.043166976094575,0.0,1.0,12.606109845243935,8.500406695662559,0.0,Landing
10.0,-194.61028800383045,-1120.0156766537702,175.20884676032537,-0.5566154244804098,1.923348237757478,308.89875161173245,30.620802571522905,0.0,1.0,12.606109845243935,8.500406695662559,0.0,Landing
10.100000000000001,-196.46471159936272,-1102.635492155514,174.5083433366885,-0.638804904327144,1.8051563044849106,308.46792013254185,30.62059700048072,0.0,1.0,12.606109845243935,8.500406695662559,0.0,Landing
10.200000000000001,-198.27657039276284,-1096.075565326555,175.17126163173393,-0.12712924365011402,1.933220768154706,308.5786991820206,30.69218671573042,0.0,1.0,12.606109845243935,8.500406695662559,0.0,Landing
10.3,-200.09066583046322,-1092.6788940681888,175.29236734250748,-0.3360836260581076,1.5101173596756665,308.95928671145305,30.74052925118499,0.0,1.0,12.606109845243935,8.500406695662559,0.0,Landing
10.4,-201.92810606970366,-1102.5918963943298,172.30306606590418,-0.6416010906314114,1.5743873229261924,308.7902723289594,30.398961993988166,0.0,1.0,12.606109845243935,8.500406695662559,0.0,Landing
10.5,-203.78952987473448,-1114.0214145226594,175.29732689888377,-0.3035216349979132,1.9645404718816795,308.83246966040406,30.619754208936623,0.0,1.0,12.606109845243935,8.500406695662559,0.0,Landing
10.600000000000001,-205.66077290307652,-1130.0855005934295,174.03271893808082,-0.09889071389856802,2.1286585843188752,308.6521871424229,30.875138097461846,0.0,1.0,12.606109845243935,8.500406695662559,0.0,Landing
10.700000000000001,-207.5785335726708,-1120.0124741019067,173.0249508708021,-0.4295795455212087,2.0450762694938036,308.49927323202655,30.73540435428337,0.0,1.0,12.606109845243935,8.500406695662559,0.0,Landing
10.8,-209.38959224524402,-1117.837892753954,175.5142217380925,-0.8560836538452321,2.0122365447926756,308.5988671230674,31.07390305166229,0.0,1.0,12.606109845243935,8.500406695662559,0.0,Landing
10.9,-211.2499623668463,-1097.151304923267,172.74972543879196,-0.5998060159729901,1.7442289596008522,308.64192994640746,30.241498393634227,0.0,1.0,12.606109845243935,8.500406695662559,0.0,Landing
11.0,-213.06429009728714,-1110.208509883165,172.50592258255003,-0.08682385239703394,1.8985773332607174,308.72172661468244,30.476772816601752,0.0,1.0,12.606109845243935,8.500406695662559,0.0,Landing
11.100000000000001,-214.94063479465984,-1122.8722633965617,173.4317543001741,-0.6506772498570836,1.6474338434708227,308.7230324841712,30.86270257681117,0.0,1.0,12.606109845243935,8.500406695662559,0.0,Landing
11.200000000000001,-216.8643236838291,-1120.8707933541689,173.68110178402483,-0.6257629391151008,1.7205769164915559,308.4298174171297,30.262579454394015,0.0,1.0,12.606109845243935,8.500406695662559,0.0,Landing
11.3,-218.668644064058,-1111.2828683101554,176.3943134236282,-0.4334185037708149,1.815186666412614,308.63278358732646,30.331191011630548,0.0,1.0,12.606109845243935,8.500406695662559,0.0,Landing
11.4,-220.49704913621062,-1090.944452828279,174.0602731806523,-0.4781170979201002,2.069520188615165,308.81966121752976,30.10610520799976,0.0,1.0,12.606109845243935,8.500406695662559,0.0,Landing
11.5,-222.3190459479705,-1121.0362593591867,174.29501401342245,-0.08288886934139483,1.8248246578621827,308.7765809238431,30.616335011978425,0.0,1.0,12.606109845243935,8.500406695662559,0.0,Landing
11.600000000000001,-224.27382536085392,-1141.7298992127257,174.23809951131736,-0.4460628755387326,1.8089847617257755,308.8437019297296,30.062313760761093,0.0,1.0,12.606109845243935,8.500406695662559,0.0,Landing
11.700000000000001,-226.20569863227425,-1141.7249602249456,174.51961777699103,-0.2993539373415005,1.9423752053190868,308.74940629637786,30.44225096374628,0.0,1.0,12.606109845243935,8.500406695662559,0.0,Landing
11.8,-228.02767074909522,-1133.6896211403655,173.85850562469997,-0.16080371905864943,1.900019254922711,308.7474354787903,30.725871025705178,0.0,1.0,12.606109845243935,8.500406695662559,0.0,Landing
11.9,-229.94227346655575,-1128.9490565073436,173.49842542204385,-0.32542488027705685,1.8535032807073715,308.5325018822341,30.989675665765432,0.0,1.0,12.606109845243935,8.500406695662559,0.0,Landing
12.0,-231.85044391481097,-1143.457510522387,172.3617943118299,-0.3900954557901723,1.9097702310568534,308.6377476472327,30.403464755315554,0.0,1.0,12.606109845243935,8.500406695662559,0.0,Landing
12.100000000000001,-233.74495830170716,-1104.34619430589,176.43099502021403,-0.3319929692061169,1.548134145811047,308.36364320868097,30.48033969216715,0.0,1.0,12.606109845243935,8.500406695662559,0.0,Landing
12.200000000000001,-235.4640044380852,-1084.7348598550182,173.97527370863395,-0.3346082894940311,2.104995051018772,308.61310409837165,30.774873160459975,0.0,1.0,12.606109845243935,8.500406695662559,0.0,Landing
12.3,-237.27411821408606,-1053.1052773799672,174.57045857454892,-0.6202589602351068,1.724062722113697,308.69632493773224,30.588034603465204,0.0,1.0,12.606109845243935,8.500406695662559,0.0,Landing
12.4,-239.010484688607,-1048.1148112483936,176.1073483336571,-0.6129256658564686,1.944706291401892,308.6501578649252,30.166355900396727,0.0,1.0,12.606109845243935,8.500406695662559,0.0,Landing
12.5,-240.70457849432717,-1031.8241540006568,172.75563431109686,-0.29968164524285756,1.966725026337456,308.56653706396924,30.64532073456673,0.0,1.0,12.606109845243935,8.500406695662559,0.0,Landing
12.600000000000001,-242.43323898408934,-1056.1218493082436,172.2552666431134,-0.42137794640388154,1.626669392501793,308.919400127106,30.565772414818255,0.0,1.0,12.606109845243935,8.500406695662559,0.0,Landing
12.700000000000001,-244.2910939351482,-1062.815876341955,173.48383950121294,-0.4141163146119956,1.607144298631322,308.7499443957579,30.96495747997533,0.0,1.0,12.606109845243935,8.500406695662559,0.0,Landing
12.8,-246.01865787603694,-1069.0797850122863,174.2623451436608,-0.6372702839263529,1.9980917758488355,308.78399765084055,30.31499710134616,0.0,1.0,12.606109845243935,8.500406695662559,0.0,Landing
12.9,-247.77863790915077,-1067.0566792131467,174.35700511514875,-0.5918000840550713,1.8863643441479931,308.5935144422052,30.537029436900706,0.0,1.0,12.606109845243935,8.500406695662559,0.0,Landing
13.0,-249.62637733121394,-1088.5352534995548,174.78988546060515,-0.6410792165132654,1.8428608589723487,308.7770811577773,30.332016787148014,0.0,1.0,12.606109845243935,8.500406695662559,0.0,Landing
13.100000000000001,-251.4613341435347,-1116.0305639823434,172.97431391722793,-0.46651123293878116,1.6917556466022305,308.7836754614798,30.32924532781661,0.0,1.0,12.606109845243935,8.500406695662559,0.0,Landing
13.200000000000001,-253.3587907290625,-1111.691161288752,174.21268103015933,-0.4361385471865729,1.8142956383348128,308.57526265398997,30.406264588804273,0.0,1.0,12.606109845243935,8.500406695662559,0.0,Landing
13.3,-255.1848331376577,-1118.2082741807335,175.2103486339101,-0.4802744819082507,1.9212870109050664,308.6816754486922,30.082829118397473,0.0,1.0,12.606109845243935,8.500406695662559,0.0,Landing
13.4,-257.0523755144384,-1091.6072884590903,172.78002295003304,-0.5615477168333439,2.029144983884707,308.73445633310746,30.494995133543487,0.0,1.0,12.606109845243935,8.500406695662559,0.0,Landing
13.5,-258.81682717135794,-1067.8691116796074,174.63881718789887,-0.5128284431449,2.00279023165515,308.57230176444705,30.857869790755444,0.0,1.0,12.606109845243935,8.500406695662559,0.0,Landing
13.600000000000001,-260.52417869605574,-1050.2148600296662,173.611409641217,-0.49333474460591864,1.6160919174266732,308.5922865614227,30.459477198934646,0.0,1.0,12.606109845243935,8.500406695662559,0.0,Landing
13.700000000000001,-262.3034498145867,-1048.3708269079898,173.5894702617048,-0.7000460467563698,2.2978898266138867,308.61342772308717,30.73938778805902,0.0,1.0,12.606109845243935,8.500406695662559,0.0,Landing
13.8,-264.0586813058979,-1059.9192619946507,174.04472849166132,-0.43127970898483514,1.769405883296962,308.7672738468559,30.86969512571291,0.0,1.0,12.606109845243935,8.500406695662559,0.0,Landing
13.9,-265.823775006029,-1070.250682422079,174.20422041544484,-0.5624087298081848,2.165316230500082,308.459053355572,30.78531574915104,0.0,1.0,12.606109845243935,8.500406695662559,0.0,Landing
14.0,-267.6547032266971,-1070.018066659918,172.9167651890483,-0.5613913025688984,1.680839605189071,308.82238337052036,30.52267937376931,0.0,1.0,12.606109845243935,8.500406695662559,0.0,Landing
14.100000000000001,-269.4087716391975,-1061.0764927803868,174.0111894190734,-0.6715957857953716,1.9143579457809368,308.8527987786342,30.425855013832187,0.0,1.0,12.606109845243935,8.500406695662559,0.0,Landing
14.200000000000001,-271.12915746993093,-1058.5363795949777,174.1645918594624,-0.4660372509584612,1.9186222199468481,308.58310473116194,30.74344560155763,0.0,1.0,12.606109845243935,8.500406695662559,0.0,Landing
14.3,-272.947385124672,-1053.9120720137817,173.92670973904777,-0.3180468985420747,1.5477648352655564,308.4117989898609,30.56583561980952,0.0,1.0,12.606109845243935,8.500406695662559,0.0,Landing
14.4,-274.6783319992664,-1073.7268430163228,173.61507475230584,-0.23726987181534165,1.6449860687836253,308.72360111011767,30.163319364525073,0.0,1.0,12.606109845243935,8.500406695662559,0.0,Landing
14.5,-276.49779168501254,-1083.8404619655876,174.4564481600874,-0.32238479312609336,1.7761311296145643,308.8514423694098,30.37320139719745,0.0,1.0,12.606109845243935,8.500406695662559,0.0,Landing
14.600000000000001,-278.36658743449993,-1112.2946454760383,171.654076455181,-0.6522728510598781,1.9014113220268347,308.6527801169075,31.05679703514631,0.0,1.0,12.606109845243935,8.500406695662559,0.0,Landing
14.700000000000001,-280.2398052266466,-1108.0829765970975,175.96582703086162,-0.42755648171104443,1.5067417950439035,308.6298953086689,30.7545230907422,0.0,1.0,12.606109845243935,8.500406695662559,0.0,Landing
14.8,-282.03820656799803,-1077.2941656323383,174.3258855588853,-0.6399847507075813,1.782260225423788,308.8076733387286,30.719767158242746,0.0,1.0,12.606109845243935,8.500406695662559,0.0,Landing
14.9,-283.7530582626616,-1064.8688152561474,175.12595341251944,-0.3543548648714482,1.798067012448805,308.9246892703345,30.861671553060877,0.0,1.0,12.606109845243935,8.500406695662559,0.0,Landing
15.0,-285.5641493029273,-1063.8618584512753,172.57162587500943,-0.7483104364996527,2.185610774825788,308.5234299714821,30.37315664908877,0.0,1.0,12.606109845243935,8.500406695662559,0.0,Landing
15.100000000000001,-287.3575158602544,-1073.9569972826303,173.3607660354605,-0.38325410382252706,1.6798074729493269,308.47791775050916,30.586401199592327,0.0,1.0,12.606109845243935,8.500406695662559,0.0,Landing
15.200000000000001,-289.1228432490748,-1065.6598857191173,174.7096702865369,-0.6657595663543485,1.423495804778589,308.91655513590615,30.590452646229465,0.0,1.0,12.606109845243935,8.500406695662559,0.0,Landing
15.3,-290.8924487315229,-1064.9986317605114,174.01358960392977,-0.8394343468992691,1.9157330849861278,308.4065018301919,30.685833443923904,0.0,1.0,12.606109845243935,8.500406695662559,0.0,Landing
15.4,-292.68250901905697,-1066.0952870506662,173.56080598525475,-0.3505096990750074,1.934722606858057,308.5013710689491,31.19801886516188,0.0,1.0,12.606109845243935,8.500406695662559,0.0,Landing
15.5,-294.4533196843281,-1061.7870553412897,174.04884707204195,-0.13531904302842324,1.9216177890013042,308.8228046272327,30.786868932928705,0.0,1.0,12.606109845243935,8.500406695662559,0.0,Landing
15.600000000000001,-296.20138400822935,-1045.7879495710242,174.22073988117384,-0.42917373636174844,1.678826903548893,308.8447713639939,30.64732962138126,0.0,1.0,12.606109845243935,8.500406695662559,0.0,Landing
15.700000000000001,-297.9114487669121,-1041.6062980070249,173.55410275009862,-0.6012455257793244,1.4969419928670422,308.57777059946443,29.96448837321716,0.0,1.0,12.606109845243935,8.500406695662559,0.0,Landing
15.8,-299.66135117436323,-1044.6868302204737,175.37245692501776,-0.6626665394836699,1.9606566767582418,308.7993479506313,30.253538433025124,0.0,1.0,12.606109845243935,8.500406695662559,0.0,Landing
15.9,-301.4248181593317,-1065.4704195835054,172.3054799457494,-0.481046551100666,1.4022674920778577,308.7625832776341,30.470065727360385,0.0,1.0,12.606109845243935,8.500406695662559,0.0,Landing
16.0,-303.2388008648296,-1077.1678484902056,173.05661659109686,-0.6386611687399241,1.657869179210979,308.7168622598854,30.3934556664316,0.0,1.0,12.606109845243935,8.500406695662559,0.0,Landing
16.1,-305.04719041681426,-1087.9150994968425,173.844634461878,-0.711440685739016,1.8254743052759845,308.51531581524785,30.64217984958366,0.0,1.0,12.606109845243935,8.500406695662559,0.0,Landing
16.2,-306.86439365681593,-1061.5012168992391,174.13477453992346,-0.7066949137215897,2.01081120856089,308.7000920276985,30.439691585624125,0.0,1.0,12.606109845243935,8.500406695662559,0.0,Landing
16.3,-308.5463069493258,-1071.277634193427,175.0827167222313,-0.5311897531612719,2.1232021902244114,308.5794334409866,31.126261218899096,0.0,1.0,12.606109845243935,8.500406695662559,0.0,Landing
16.400000000000002,-310.4035785877814,-1071.859220122258,174.968084219317,-0.18804523143592772,1.8082885924344974,308.7833032767745,30.475900603986293,0.0,1.0,12.606109845243935,8.500406695662559,0.0,Landing
16.5,-312.2236897574272,-1086.5264559552315,174.84771351395568,-0.8261867534361013,1.6165491628367177,308.59849722604554,30.491863193034067,0.0,1.0,12.606109845243935,8.500406695662559,0.0,Landing
16.6,-313.97893922910197,-1073.8966503578922,175.61452048495806,-0.3999277110460485,1.9595632322898329,308.77297302003535,30.287498341789615,0.0,1.0,12.606109845243935,8.500406695662559,0.0,Landing
16.7,-315.77306183957086,-1075.6874111889485,172.572908877712,-0.557734334216434,1.7950529586513415,308.92821773218486,30.427491839456785,0.0,1.0,12.606109845243935,8.500406695662559,0.0,Landing
16.8,-317.60212681337197,-1063.638287475851,175.01575276065412,-0.21527052332030122,1.5390565050162577,308.5063949770213,30.726752802486065,0.0,1.0,12.606109845243935,8.500406695662559,0.0,Landing
16.900000000000002,-319.2971306664812,-1048.3986426019899,174.55039390647087,-0.7166165794182038,2.014423886530084,308.967468495528,30.761721077188035,0.0,1.0,12.606109845243935,8.500406695662559,0.0,Landing
17.0,-321.0150550525808,-1048.660959241306,175.90442623315525,-0.5939746393759612,1.8289364344784245,308.83172808277686,30.73283855100653,0.0,1.0,12.606109845243935,8.500406695662559,0.0,Landing
17.1,-322.8454316095785,-1056.5979990345568,175.31949166733514,-0.5153607468489386,2.12036786617467,308.6423923474706,30.795715279766117,0.0,1.0,12.606109845243935,8.500406695662559,0.0,Landing
17.2,-324.580120661654,-1063.2175261796988,173.90944028022423,-0.8681179204158801,1.9734344741715804,308.8243071667331,30.539085269092624,0.0,1.0,12.606109845243935,8.500406695662559,0.0,Landing
17.3,-326.3311426834793,-1060.8011066113932,174.5290566951888,-0.37976586934580603,1.9650841193795725,308.73784713135433,30.33020920502159,0.0,1.0,12.606109845243935,8.500406695662559,0.0,Landing
17.400000000000002,-328.14943714263546,-1056.5558799633777,175.03372089742305,-0.2396445493316578,1.7720326376042446,308.83806267168666,30.622714499013945,0.0,1.0,12.606109845243935,8.500406695662559,0.0,Landing
17.5,-329.8629000614709,-1070.741206444984,175.27997903999506,-0.7076175279228483,1.882657388110502,308.52163520123315,31.111253933560004,0.0,1.0,12.606109845243935,8.500406695662559,0.0,Landing
17.6,-331.6848487157042,-1041.2593065252963,173.0353561207263,-0.4877561038558926,1.7423567744480786,308.8156113004802,30.125665919280866,0.0,1.0,12.606109845243935,8.500406695662559,0.0,Landing
17.7,-333.35573367526194,-1055.5598025362315,173.79169122581544,-0.3370347228433319,1.96760092760735,308.6859784071529,30.498748444558597,0.0,1.0,12.606109845243935,8.500406695662559,0.0,Landing
17.8,-335.14069907415205,-1048.7974817330723,173.38891904806152,-0.6332952777766041,2.0380375000233126,308.6184197192184,30.88874701776401,0.0,1.0,12.606109845243935,8.500406695662559,0.0,Landing
17.900000000000002,-336.9288361243696,-1058.287479736157,174.36773373388945,-0.5945390090607459,1.4613305899812126,308.65539407147753,30.589901816127536,0.0,1.0,12.606109845243935,8.500406695662559,0.0,Landing
18.0,-338.64717107394273,-1026.4540193313678,174.15750257833923,-0.6687659281531495,1.9244401534938052,308.5846776535079,30.344248777949186,0.0,1.0,12.606109845243935,8.500406695662559,0.0,Landing
18.1,-340.2729691708089,-1035.366436718084,173.92742183574669,-0.4637029935530769,1.9314662745880062,308.69682106977007,30.779557454775766,0.0,1.0,12.606109845243935,8.500406695662559,0.0,Landing
18.2,-342.10566830796,-1051.7310355599534,173.9327168263959,-0.5516278989479146,1.706826484692258,308.4156686740971,30.75755328239809,0.0,1.0,12.606109845243935,8.500406695662559,0.0,Landing
18.3,-343.9058262517425,-1062.462039673619,173.33181422551286,-0.8610727382770919,1.5788814928618464,308.7373131118409,30.638264225224457,0.0,1.0,12.606109845243935,8.500406695662559,0.0,Landing
18.400000000000002,-345.585279369177,-1035.0454334800247,174.6336960571824,-0.5417790161596472,1.8039671569028535,308.76362026953575,29.99400426611393,0.0,1.0,12.606109845243935,8.500406695662559,0.0,Landing
18.5,-347.2808954753601,-1009.0154199249923,175.22560677137713,-0.5120859700641538,1.7256380049310416,308.6196277502181,30.890793025826476,0.0,1.0,12.606109845243935,8.500406695662559,0.0,Landing
18.6,-348.95090335136746,-1016.5207366044683,175.35815482393872,-0.23878870259490292,1.626718653583021,308.6376824613126,30.39351675094913,0.0,1.0,12.606109845243935,8.500406695662559,0.0,Landing
18.7,-350.66788305219933,-1029.2611613097733,173.2077451252788,-0.4765961072320633,1.8263778501801773,308.3831753867473,30.557213340753822,0.0,1.0,12.606109845243935,8.500406695662559,0.0,Landing
18.8,-352.427201281909,-1049.6767659618854,174.03175239837003,-0.5717011173750638,2.046404454552742,308.61795403752535,30.348482814448328,0.0,1.0,12.606109845243935,8.500406695662559,0.0,Landing
18.900000000000002,-354.1992871811769,-1039.0495052184406,175.34979073012178,-0.3751824827756606,1.5337222744184567,308.62168098445113,30.763521013338114,0.0,1.0,12.606109845243935,8.500406695662559,0.0,Landing
19.0,-355.86313057829153,-1029.8772707887338,173.91452924529725,-0.10040948917561243,1.5837461436138494,308.60207820901087,30.87824995020984,0.0,1.0,12.606109845243935,8.500406695662559,0.0,Landing
19.1,-357.57658763585266,-1018.8555901280324,173.67174878597856,-0.4942596302196966,1.8057565276060012,308.4365724033032,30.625922010735643,0.0,1.0,12.606109845243935,8.500406695662559,0.0,Landing
19.200000000000003,-359.29356513181705,-1020.6053628980044,174.36543277300223,-0.44954739752864875,1.597081425932062,308.2864340762437,30.26314308986394,0.0,1.0,12.606109845243935,8.500406695662559,0.0,Landing
19.3,-360.96615739278155,-1009.5866277332107,174.45626366416835,-0.20767598222591627,1.9626279501549968,308.6167087805786,30.62251791625142,0.0,1.0,12.606109845243935,8.500406695662559,0.0,Landing
19.400000000000002,-362.6245207745187,-1009.255742061282,173.98895936422906,-0.21983237084846746,2.015246503964158,308.5874859044933,30.69912271044474,0.0,1.0,12.606109845243935,8.500406695662559,0.0,Landing
19.5,-364.33984384212346,-1007.1229897672083,173.2688044009614,-0.46134599242570257,1.6584471289270644,308.73315976649474,30.750564971038983,0.0,1.0,12.606109845243935,8.500406695662559,0.0,Landing
19.6,-366.0017723416176,-1004.3860073895075,175.10437083228675,0.021011720755605423,1.8463745630348047,308.6584392215075,31.156575051829105,0.0,1.0,12.606109845243935,8.500406695662559,0.0,Landing
19.700000000000003,-367.64645081146625,-991.9077320955012,173.6389793355125,-0.534052451510386,2.2042462952564947,308.74633649060615,30.666856149271506,0.0,1.0,12.606109845243935,8.500406695662559,0.0,Landing
19.8,-369.29938250260096,-989.9964078347239,175.37935436492302,-0.3089456938424976,1.592403090875815,308.61780272352144,30.468068494003088,0.0,1.0,12.606109845243935,8.500406695662559,0.0,Landing
19.900000000000002,-370.9517543807912,-977.1542196896348,174.35614803424951,-1.0254413990019744,1.8545524064768995,308.50357780120385,30.6546983364804,0.0,1.0,12.606109845243935,8.500406695662559,0.0,Landing
20.0,-372.5322219099144,-975.7785077881749,173.43244048290788,-0.21588571424692804,1.7850035287507513,308.7968879541295,30.719193292635058,0.0,1.0,12.606109845243935,8.500406695662559,0.0,Landing
20.1,-374.17827504154184,-988.7475356574896,174.6313626865332,-0.8784008908022455,2.100736004926151,308.7855376761737,30.44511915230716,0.0,1.0,12.606109845243935,8.500406695662559,0.0,Landing
20.200000000000003,-375.89549205907866,-1012.7645988939662,174.43212964466287,-0.5554951801050712,1.9769255440049613,308.63632084593564,30.092019602249955,0.0,1.0,12.606109845243935,8.500406695662559,0.0,Landing
20.3,-377.59604490438426,-1045.390008546451,173.95148825816744,-0.26219069130980915,1.8742220956158433,308.54881042932595,30.250892719806384,0.0,1.0,12.606109845243935,8.500406695662559,0.0,Landing
20.400000000000002,-379.4052250842741,-1039.2732873681211,174.37237674566632,-0.506325301076118,1.610058961000109,308.8244495748462,30.092165368766562,0.0,1.0,12.606109845243935,8.500406695662559,0.0,Landing
20.5,-381.09185849591927,-1027.9335941891645,175.30044281560393,-0.48322810552752643,1.9100537798313126,308.65218522002965,30.408150494959386,0.0,1.0,12.606109845243935,8.500406695662559,0.0,Landing
20.6,-382.7357128753301,-1016.83845322857,173.30176873613254,-0.5919951108137604,1.9883819684056405,308.44678100060287,30.42439243279751,0.0,1.0,12.606109845243935,8.500406695662559,0.0,Landing
20.700000000000003,-384.48941735041694,-1015.2874670885581,173.64367593663098,-0.4857725580831201,1.9276295111156916,308.8453335721358,30.328105379017135,0.0,1.0,12.606109845243935,8.500406695662559,0.0,Landing
20.8,-386.16829583136206,-1024.1980387270928,173.37333429514862,-0.4499668281455133,1.8666348887452495,308.5106083085317,30.22180993807004,0.0,1.0,12.606109845243935,8.500406695662559,0.0,Landing
20.900000000000002,-387.85670306896554,-1010.56279022647,174.81962003718058,-0.633116955124209,1.5830297388381953,308.4760961760958,30.517673368962544,0.0,1.0,12.606109845243935,8.500406695662559,0.0,Landing
21.0,-389.5422313015493,-1024.381200909204,173.12048491832272,-0.5300429974523168,2.1742661339947142,308.4672597949965,30.252028920922235,0.0,1.0,12.606109845243935,8.500406695662559,0.0,Landing
21.1,-391.2902018359081,-1026.7586576311828,174.94619369227257,-0.25581627537734886,2.0151187357721936,308.86100062106107,30.594380299624266,0.0,1.0,12.606109845243935,8.500406695662559,0.0,Landing
21.200000000000003,-392.99049635712146,-1020.2694276954276,172.7549540389839,-0.24832831460752627,1.9346774847713502,308.8004102103863,30.842977627316436,0.0,1.0,12.606109845243935,8.500406695662559,0.0,Landing
21.3,-394.64357844002643,-1017.6549222906715,172.33795043432076,-0.4472421938318366,2.091077083062904,308.9708010680978,30.572601555227322,0.0,1.0,12.606109845243935,8.500406695662559,0.0,Landing
21.400000000000002,-396.37847644736144,-1019.974111629449,175.38721105914422,-0.04938923252562144,1.9887755679981813,308.2815990328254,31.082022933480694,0.0,1.0,12.606109845243935,8.500406695662559,0.0,Landing
21.5,-398.0903669152687,-1023.5852287413877,173.7656679579882,-0.38653320303678596,1.9125944494310243,308.7425187214129,30.25063128276191,0.0,1.0,12.606109845243935,8.500406695662559,0.0,Landing
21.6,-399.76150458373337,-994.4864689387941,176.3132467429257,-0.38115618260518747,1.8474550167602228,308.68777788120747,31.021035154414566,0.0,1.0,12.606109845243935,8.500406695662559,0.0,Landing
21.700000000000003,-401.3509087920554,-986.015965387503,173.75647394484068,-0.39130455164938127,1.8518702768422926,308.84480753405296,31.216784874058686,0.0,1.0,12.606109845243935,8.500406695662559,0.0,Landing
21.8,-403.0204467422062,-990.3182818291043,174.1004170760856,-0.3748614427202502,1.635014898948371,308.5654124408268,30.562203818557197,0.0,1.0,12.606109845243935,8.500406695662559,0.0,Landing
21.900000000000002,-404.7130959928789,-998.3496408668202,173.54612530667558,-0.4222660108518509,1.7816835424505626,308.57182656998214,30.27206363832737,0.0,1.0,12.606109845243935,8.500406695662559,0.0,Landing
22.0,-406.3426569963895,-1009.4975908600873,174.40960588023654,-0.4302539904624621,1.8583334682818013,308.6056179153595,30.970879681871597,0.0,1.0,12.606109845243935,8.500406695662559,0.0,Landing
22.1,-408.06793469650665,-1004.2636565873636,174.5718674787803,-0.5725753689716873,1.8813390366193832,308.8546877912984,30.438796371677135,0.0,1.0,12.606109845243935,8.500406695662559,0.0,Landing
22.200000000000003,-409.7344142758157,-1017.2281954763548,174.40520674140203,-0.49935875327922935,1.657978279114829,308.56941586616404,30.179228479794403,0.0,1.0,12.606109845243935,8.500406695662559,0.0,Landing
22.3,-411.4287979737713,-994.3385605221692,174.121842341772,-0.7406742577721989,1.7425528433605026,308.77364476068,30.81137646289657,0.0,1.0,12.606109845243935,8.500406695662559,0.0,Landing
22.400000000000002,-413.0396274991175,-1004.4782149993011,172.85968630939303,-0.0810312159086829,1.8755203022971125,308.6282993041111,30.808360411695013,0.0,1.0,12.606109845243935,8.500406695662559,0.0,Landing
22.5,-414.7568053508122,-1008.2147640049129,173.86366646443975,-0.5538555897236733,1.583659059627353,309.04741246901995,30.376053012454925,0.0,1.0,12.606109845243935,8.500406695662559,0.0,Landing
22.6,-416.46987179379585,-1000.5661717556677,172.8883905913471,-0.385314799131661,1.8360443470815706,308.7683270006578,31.088169999079856,0.0,1.0,12.606109845243935,8.500406695662559,0.0,Landing
22.700000000000003,-418.04245835789584,-971.4051409781518,174.65338805044738,-0.4037652485136415,1.746219220936515,308.94156602087025,30.838046200553798,0.0,1.0,12.606109845243935,8.500406695662559,0.0,Landing
22.8,-419.613831055703,-958.2782985257381,173.27213855020142,-0.6770244287135849,2.099207048310686,308.8121513196563,30.726426626930564,0.0,1.0,12.606109845243935,8.500406695662559,0.0,Landing
22.900000000000002,-421.26126328642454,-972.921122692901,175.41123944173796,-0.07904022300002495,1.6624162761096404,308.6083528055053,30.360151972095323,0.0,1.0,12.606109845243935,8.500406695662559,0.0,Landing
23.0,-422.90706397136034,-985.3234374068506,173.40023708352007,-0.6645292740808499,2.0263642361249015,308.60415647731907,31.249208879872317,0.0,1.0,12.606109845243935,8.500406695662559,0.0,Landing
23.1,-424.5404482427372,-990.3547980298185,172.5464116568733,-0.8859146446898957,1.725826278361223,308.4975551767193,30.71518179837962,0.0,1.0,12.606109845243935,8.500406695662559,0.0,Landing
23.200000000000003,-426.21303727657363,-975.8252989927314,174.62976934901587,-0.4637819875785204,2.2680147499650847,308.61689428363684,30.01637915615983,0.0,1.0,12.606109845243935,8.500406695662559,0.0,Landing
23.3,-427.786190466324,-980.1667844727262,174.73879200668412,-0.14510820977396421,1.7739238575765799,308.63850908087875,30.330858358335345,0.0,1.0,12.606109845243935,8.500406695662559,0.0,Landing
23.400000000000002,-429.44128216510086,-977.133327505419,173.5717257298029,-0.47712587517529426,1.6077968091980146,308.5417953560818,30.521783045747892,0.0,1.0,12.606109845243935,8.500406695662559,0.0,Landing
23.5,-431.0987039141007,-1009.7368468572881,174.0583744592664,-0.6543238707790834,2.2762694715714407,308.6027435228664,30.759112267276866,0.0,1.0,12.606109845243935,8.500406695662559,0.0,Landing
23.6,-432.83487470061044,-1009.9686318927183,175.0774291164803,-0.2175565135182349,1.7747918716416506,308.56613449091924,30.846178437279015,0.0,1.0,12.606109845243935,8.500406695662559,0.0,Landing
23.700000000000003,-434.49112532456445,-998.4966118436773,174.76498445754396,-0.3575032308343543,2.212964363372896,308.4554660957382,30.771695268326457,0.0,1.0,12.606109845243935,8.500406695662559,0.0,Landing
23.8,-436.0911869733191,-958.1545549871294,173.4811013622462,-0.5396805782730685,1.9432362399701069,308.65009581421907,30.1936407995788,0.0,1.0,12.606109845243935,8.500406695662559,0.0,Landing
23.900000000000002,-437.6256474755461,-969.9102238959654,173.2814259015746,-0.2399266919185064,1.8222993390207967,308.6170044022608,30.56781857888315,0.0,1.0,12.606109845243935,8.500406695662559,0.0,Landing
24.0,-439.3406764440443,-973.8980953734881,174.77582559097155,-0.34565413834861697,1.739286007162052,308.79468914537756,30.752603325326557,0.0,1.0,12.606109845243935,8.500406695662559,0.0,Landing
24.1,-440.96067745018655,-967.5980368650698,174.09773329078925,-0.39250309658785343,1.6941521972245146,308.99630124295345,30.642772818844545,0.0,1.0,12.606109845243935,8.500406695662559,0.0,Landing
24.200000000000003,-442.46363765987144,-939.771387046801,174.09929994031037,-0.3442548110132918,1.9301127522821258,308.7394436241266,30.35600953951033,0.0,1.0,12.606109845243935,8.500406695662559,0.0,Landing
24.3,-444.0395333792783,-941.7078049623456,173.73100610176047,0.02720519373670993,1.681366700212525,308.87200895373087,30.8384880451953,0.0,1.0,12.606109845243935,8.500406695662559,0.0,Landing
24.400000000000002,-445.6692164749983,-987.0350637084925,175.04862081021184,-0.8223763040226708,1.4089464582121058,308.33846409224566,30.290597034278054,0.0,1.0,12.606109845243935,8.500406695662559,0.0,Landing
24.5,-447.3988129784139,-995.0727986038828,173.8791116979574,-0.33065208094512594,1.7913267985008645,308.8285085434063,29.947091260172982,0.0,1.0,12.606109845243935,8.500406695662559,0.0,Landing
24.6,-449.0148973722977,-1007.9064950983479,174.63392322901495,-0.14572514975587186,1.8012956250426486,308.8773881575719,30.62610533270044,0.0,1.0,12.606109845243935,8.500406695662559,0.0,Landing
24.700000000000003,-450.70874895049,-982.8028159182736,174.07017171341323,-0.8740138162001362,2.2751056824127756,308.65290355856496,30.51868502003029,0.0,1.0,12.606109845243935,8.500406695662559,0.0,Landing
24.8,-452.31282705800527,-996.6579976416369,174.81187381059863,-0.11681280441112601,1.5007987338670807,308.63924939703315,30.515984729950702,0.0,1.0,12.606109845243935,8.500406695662559,0.0,Landing
24.900000000000002,-453.9981873605059,-986.5963477217178,176.15566368049724,-0.5263836904898729,1.3324602013381972,308.84611332134,30.209797591127092,0.0,1.0,12.606109845243935,8.500406695662559,0.0,Landing
25.0,-455.6417306890986,-974.734387895478,173.9509699827488,-0.864340801967407,1.8580868049990966,308.8607708327413,30.616051117870573,0.0,1.0,12.606109845243935,8.500406695662559,0.0,Landing
25.1,-457.18649899748266,-951.8583038562269,174.410146179172,-0.47005468846842385,1.6615821657707204,308.68173763329537,30.58930280618472,0.0,1.0,12.606109845243935,8.500406695662559,0.0,Landing
25.200000000000003,-458.757478879787,-959.638839349202,171.26115099447765,-0.8616584857142007,1.6892838942982908,308.7403859595115,30.639621629006538,0.0,1.0,12.606109845243935,8.500406695662559,0.0,Landing
25.3,-460.4399248858446,-962.9761086995018,173.35270328917062,-0.752569264519916,1.6489749437626415,308.4461920475826,29.85035830444591,0.0,1.0,12.606109845243935,8.500406695662559,0.0,Landing
25.400000000000002,-462.00137954098017,-963.3497835263256,174.36503560275233,-0.42138541448020655,1.1618301992546693,309.02628484079594,30.803630191579085,0.0,1.0,12.606109845243935,8.500406695662559,0.0,Landing
25.5,-463.57422779741864,-952.3439128479026,173.29670593176428,-0.2960057698694002,2.154517209382818,308.85620004023383,30.758282330417234,0.0,1.0,12.606109845243935,8.500406695662559,0.0,Landing
25.6,-465.20164445008413,-985.6273226427788,173.59516092973175,0.2569814511149833,2.029703270102715,308.69241932181615,30.573108032730488,0.0,1.0,12.606109845243935,8.500406695662559,0.0,Landing
25.700000000000003,-466.92951615419406,-997.7133741631405,174.14588638624875,-0.6403272158866304,2.046091217526074,308.57950103999724,30.617437510335765,0.0,1.0,12.606109845243935,8.500406695662559,0.0,Landing
25.8,-468.56279466823435,-997.5049883272277,173.7877179930615,-0.5046726063786668,1.447574247798148,308.52110785197647,30.67537456634078,0.0,1.0,12.606109845243935,8.500406695662559,0.0,Landing
25.900000000000002,-470.18916939172027,-972.8536872370796,172.27105257901286,-0.6173746960138831,2.147495800723442,308.62978855468305,30.352909892154724,0.0,1.0,12.606109845243935,8.500406695662559,0.0,Landing
26.0,-471.79378459037946,-961.8416838505141,173.06703295565805,-0.426156138553041,1.5671898134089282,308.3460329989632,30.767598932415627,0.0,1.0,12.606109845243935,8.500406695662559,0.0,Landing
26.1,-473.3720030874869,-964.0679222724089,174.76621856739064,-0.7662241477261809,1.8872137370901108,308.9083166887415,30.352976647177517,0.0,1.0,12.606109845243935,8.500406695662559,0.0,Landing
26.200000000000003,-475.0095090030823,-975.3954346942464,174.42719641005496,-0.4396155713237553,1.4480759424896352,308.6325615906169,31.03653486758128,0.0,1.0,12.606109845243935,8.500406695662559,0.0,Landing
26.3,-476.6707617638507,-994.6043386677616,175.12860572284333,-0.5942667422386125,2.1413645957526306,308.7254429573304,30.622674935592084,0.0,1.0,12.606109845243935,8.500406695662559,0.0,Landing
26.400000000000002,-478.3450247808257,-982.6375347910471,173.86796220127397,-0.5911174611862067,1.8971435188557813,308.49272071135897,30.64053571714743,0.0,1.0,12.606109845243935,8.500406695662559,0.0,Landing
26.5,-479.92269667703755,-984.392504490279,173.937798823268,-0.5887383671425226,1.8790856417280415,308.93614505664743,30.385580471332638,0.0,1.0,12.606109845243935,8.500406695662559,0.0,Landing
26.6,-481.5927242863021,-967.1120292765067,175.67480660677768,-0.3124680519657802,1.9846986274193925,308.5616287786195,30.644271281384135,0.0,1.0,12.606109845243935,8.500406695662559,0.0,Landing
26.700000000000003,-483.18058492720826,-973.0026538117158,175.72211279010207,-0.3292633247897183,1.6984723786995872,308.64400178442224,30.94997264797258,0.0,1.0,12.606109845243935,8.500406695662559,0.0,Landing
26.8,-484.78770994609613,-954.9287386523474,173.5263001434526,-0.41152829489286114,1.9000489032279142,308.55254736779216,30.86382123708509,0.0,1.0,12.606109845243935,8.500406695662559,0.0,Landing
26.900000000000002,-486.3673679795638,-955.9075348693568,173.60246850948997,-0.4423465765510849,2.1747268034731935,308.60642723769706,30.29988769752355,0.0,1.0,12.606109845243935,8.500406695662559,0.0,Landing
27.0,-487.96012260155504,-948.6387657976024,174.34234293658298,-0.3343686503233842,1.742067300167938,308.52129755121166,30.187704902734197,0.0,1.0,12.606109845243935,8.500406695662559,0.0,Landing
27.1,-489.53090377508414,-951.6092977295557,173.37787349200835,-0.6547509478210072,1.7119398777208314,308.88094585512545,30.07471498250692,0.0,1.0,12.606109845243935,8.500406695662559,0.0,Landing
27.200000000000003,-491.1254144682116,-935.3024817558435,173.6897647814084,-0.6054959048336929,1.6166042061528225,308.56224383490905,30.573119887087874,0.0,1.0,12.606109845243935,8.500406695662559,0.0,Landing
27.3,-492.63663501033426,-927.196826281488,173.48667101242145,-0.627312163121349,1.5374261992728935,308.6174258766507,30.616664573557173,0.0,1.0,12.606109845243935,8.500406695662559,0.0,Landing
27.400000000000002,-494.1668879064916,-930.5207082294487,173.6998815140286,-0.22327314577741703,1.6893797886821387,308.58519359824004,30.69300176489596,0.0,1.0,12.606109845243935,8.500406695662559,0.0,Landing
27.5,-495.77801800935885,-931.5236936582437,174.56202757206285,-0.1749925719706243,1.8265853435598778,308.74781777438307,30.725877491544455,0.0,1.0,12.606109845243935,8.500406695662559,0.0,Landing
27.6,-497.2942534786255,-947.9165391476499,174.75044520015763,-0.30076883490245304,1.677006275236149,308.68958098039275,30.34112796111004,0.0,1.0,12.606109845243935,8.500406695662559,0.0,Landing
27.700000000000003,-498.90647060222983,-959.5589839732497,173.8747352828524,-0.49267268668189224,1.926559151778121,308.6909521271276,30.585865104659852,0.0,1.0,12.606109845243935,8.500406695662559,0.0,Landing
27.8,-500.5758129292251,-988.7374494983305,175.3807792781061,-0.2862115859982616,2.011519821319805,308.5256417189735,30.47744031067093,0.0,1.0,12.606109845243935,8.500406695662559,0.0,Landing
27.900000000000002,-502.23794072611713,-951.8354571253326,174.3612847321404,-0.49856211178284476,1.983070380727637,308.7048916976162,29.916771883298804,0.0,1.0,12.606109845243935,8.500406695662559,0.0,Landing
28.0,-503.6656478878565,-939.2848237264957,174.62168169310885,-0.6471999873915415,1.7141286781924785,308.39777675569076,30.526026657227337,0.0,1.0,12.606109845243935,8.500406695662559,0.0,Landing
28.1,-505.2722370478576,-937.1276340756594,174.61626709216668,-0.16536222959677083,1.6620834016060781,308.63125559839614,30.113180448390573,0.0,1.0,12.606109845243935,8.500406695662559,0.0,Landing
28.200000000000003,-506.9235788964954,-965.8555419094682,172.81705056572252,-0.43295808563659216,1.6830800963349448,308.54121988874385,30.140075490571565,0.0,1.0,12.606109845243935,8.500406695662559,0.0,Landing
28.3,-508.49492559740384,-972.9609486015761,175.19612780827157,-0.4090561470333477,1.6432083128669588,308.5896426132515,30.43191111926406,0.0,1.0,12.606109845243935,8.500406695662559,0.0,Landing
28.400000000000002,-510.13704179086545,-951.5574914763647,173.05345897814442,-0.8950429059266063,1.6374643271941067,308.691105556196,30.73537051785474,0.0,1.0,12.606109845243935,8.500406695662559,0.0,Landing
28.5,-511.68136635387725,-944.8170871840375,171.42059065034076,-0.41185732452153234,1.97101832600694,308.40868662413027,30.845651932178217,0.0,1.0,12.606109845243935,8.500406695662559,0.0,Landing
28.6,-513.219011033324,-924.3265666214825,175.64266942194135,-0.6909572130038346,2.109581310666127,308.60186582025017,31.278797274569143,0.0,1.0,12.606109845243935,8.500406695662559,0.0,Landing
28.700000000000003,-514.7586746239729,-947.6580514050966,173.78274484850033,-0.6783791162681666,1.7645961334109879,308.61758297776737,30.728649052109198,0.0,1.0,12.606109845243935,8.500406695662559,0.0,Landing
28.8,-516.4196566109027,-955.7373447346436,172.80939405392735,-0.254639400275019,1.9015830481928597,308.89370664187163,31.10684777465182,0.0,1.0,12.606109845243935,8.500406695662559,0.0,Landing
28.900000000000002,-517.9976977569972,-959.9075003422968,173.08669959679682,-0.22030572734234932,1.496571915590816,308.57173959020076,30.340189513239757,0.0,1.0,12.606109845243935,8.500406695662559,0.0,Landing
29.0,-519.5582121256843,-959.2888298701382,174.30245539840465,-0.6698602557584145,1.7977259593450972,308.7283870739377,31.00485838996611,0.0,1.0,12.606109845243935,8.500406695662559,0.0,Landing
29.1,-521.2161007602534,-970.396397343211,173.99952521333998,-0.6038353110540235,1.7775230610133441,308.60359453388276,30.598950510293303,0.0,1.0,12.606109845243935,8.500406695662559,0.0,Landing
29.200000000000003,-522.8496797437133,-947.9372369282828,174.15131571668832,-0.42031354213234534,1.4547342346491194,308.642102649701,30.152654916266023,0.0,1.0,12.606109845243935,8.500406695662559,0.0,Landing
29.3,-524.2978983103258,-930.5343808097405,173.94180294219174,-0.43140500796823794,1.89119073415351,308.8468043302287,30.460798788452646,0.0,1.0,12.606109845243935,8.500406695662559,0.0,Landing
29.400000000000002,-525.8687726643021,-914.7554334712595,175.25457370173865,-0.3092246930243547,1.7731176905028343,308.8655973121422,30.206635898156968,0.0,1.0,12.606109845243935,8.500406695662559,0.0,Landing
29.5,-527.4234569110696,-923.3775116048946,174.13741786691602,-0.6463869779034144,1.9954393051339514,308.78082587168205,30.228298945022722,0.0,1.0,12.606109845243935,8.500406695662559,0.0,Landing
29.6,-528.9147858683502,-921.3891826337886,174.26901385853336,-0.2232849807400949,1.7159262663676444,308.7902477905277,30.923072678739867,0.0,1.0,12.606109845243935,8.500406695662559,0.0,Landing
29.700000000000003,-530.4757185774711,-927.8576574380168,173.9684730429715,-0.6941030706350512,1.6210019095062154,308.844120890725,30.464443534497335,0.0,1.0,12.606109845243935,8.500406695662559,0.0,Landing
