time_s,altitude_ft,vertical_speed_fpm,ias_kt,pitch_deg,roll_deg,heading_deg,throttle_pct,afterburner_on,gear_down,flaps_deg,speedbrake_pct,weight_on_wheels,label
0.0,0.0816535715851518,-66.20502940933291,9.82196544689519,0.045720400346872636,0.6889605422347338,171.1171647843089,15.578626845526763,0.0,1.0,0.0,0.0,1.0,Taxi
0.1,-0.13902985977929122,-45.146809090298426,10.964008586172056,-0.20723591207865683,-0.2505974877538332,171.31557924267543,14.866910627858912,0.0,1.0,0.0,0.0,1.0,Taxi
0.2,-0.1440804738663403,-0.8002250247848792,9.974946937808078,-0.31377375096183463,-0.8457642747573547,171.50856960766203,14.69694099393073,0.0,1.0,0.0,0.0,1.0,Taxi
0.30000000000000004,0.07765244646122739,21.121698516590758,10.889372960861984,-0.4933765660616066,-0.743637465181523,171.3763936642756,14.167254075506284,0.0,1.0,0.0,0.0,1.0,Taxi
0.4,-0.03342136719633745,4.850624238616518,11.618483756935852,-0.4688450011312766,0.3585773162529489,171.29643359012357,14.871564099653218,0.0,1.0,0.0,0.0,1.0,Taxi
0.5,-0.11982735267325773,-21.163513207302568,10.402383842021024,-0.4654174644321382,-0.4534699520667984,171.28808218067434,15.30536632712887,0.0,1.0,0.0,0.0,1.0,Taxi
0.6000000000000001,-0.028165119575285433,-8.049515003490779,11.246115316050119,-0.2748373976582551,0.8403946437232832,171.343781264247,14.656748420542776,0.0,1.0,0.0,0.0,1.0,Taxi
0.7000000000000001,-0.07366894221379133,34.976128114264604,11.028910654504465,-0.18150796608791508,-0.4057384407807653,171.29550696814215,14.198684722239468,0.0,1.0,0.0,0.0,1.0,Taxi
0.8,0.055053287898065295,13.457213405998154,11.425263986719271,-0.13193733298443747,0.5961606501307098,171.2534906029415,14.39014685377374,0.0,1.0,0.0,0.0,1.0,Taxi
0.9,0.039120947454705346,9.72472941086589,10.464358403172907,-0.6908990293550669,-1.0145258469383474,171.26349206233,14.797199228573687,0.0,1.0,0.0,0.0,1.0,Taxi
1.0,-0.02504529515946187,4.583399612135994,10.37929591240018,-0.6545799418102598,-0.4749311074661856,171.27166234937658,14.57025628314396,0.0,1.0,0.0,0.0,1.0,Taxi
1.1,0.07797028595874528,3.879115237980283,11.975728326421345,-0.34058858619286486,0.29568683414206265,171.1460779245857,14.80663907120008,0.0,1.0,0.0,0.0,1.0,Taxi
1.2000000000000002,0.05851652364460678,18.927369690673935,9.8861741836681,-0.3849523322648327,-0.2679919406281011,171.15454380596407,14.936266647644116,0.0,1.0,0.0,0.0,1.0,Taxi
1.3,0.06959155329390783,5.2754590250608935,10.931524235811608,-0.2138631006621661,0.17244141273843813,171.245954802499,14.076118460224434,0.0,1.0,0.0,0.0,1.0,Taxi
1.4000000000000001,0.10434758108404976,-8.857047505962107,10.538554306027844,-0.6320172038151117,-0.1599645833396355,171.35283352354725,13.830266639407581,0.0,1.0,0.0,0.0,1.0,Taxi
1.5,0.01423128611479625,-52.705727655782546,11.490293845493918,-0.21918669620533823,-0.5359665640015003,171.2174327404407,14.324973759704386,0.0,1.0,0.0,0.0,1.0,Taxi
1.6,-0.19393708498500492,-9.070294525242835,10.868573914781026,-0.3847992462184097,-0.6697549423114005,171.328223125539,14.628043095300445,0.0,1.0,0.0,0.0,1.0,Taxi
1.7000000000000002,0.05899610845783564,-18.837209269700633,11.755813819639634,-0.4851613406799709,0.5039654905372707,171.20831457409759,15.471137617966779,0.0,1.0,0.0,0.0,1.0,Taxi
1.8,-0.07995476023370689,43.89545554834461,10.58200350728264,-0.05951776095906813,-0.08725091467790229,171.26731137436332,14.436196554269863,0.0,1.0,0.0,0.0,1.0,Taxi
1.9000000000000001,0.025540192756718136,-9.716863814464997,9.797599069613474,-0.24297456064605893,-0.2153071194654151,171.31272903829972,15.167813899456165,0.0,1.0,0.0,0.0,1.0,Taxi
2.0,0.01041178938551067,-5.2886591800422975,10.478737183318668,-0.6810253158907904,-0.7627729163139576,171.2538432725944,15.188328839414533,0.0,1.0,0.0,0.0,1.0,Taxi
2.1,-0.10639805613391834,1.4747527814135803,11.27756701159798,-0.499298414409847,0.26308546766363294,171.25349364693966,15.289085167608388,0.0,1.0,0.0,0.0,1.0,Taxi
2.2,0.032913956663786055,-9.072206647084913,10.216330746202871,-0.4806094028091787,0.29923225451310587,171.49929290949467,13.801862719072355,0.0,1.0,0.0,0.0,1.0,Taxi
2.3000000000000003,-0.03494924384991386,13.9894747174259,11.415851902942652,-0.28464799970115,1.0231990847718164,171.32402747468427,15.346621320245218,0.0,1.0,0.0,0.0,1.0,Taxi
2.4000000000000004,-0.03645068254678882,-8.143668883610754,11.31824555634085,-0.37753196214527773,0.4054130611351764,171.36087754679363,13.971944605689814,0.0,1.0,0.0,0.0,1.0,Taxi
2.5,-0.0078043877542677,-43.58656863829676,11.335987315593629,-0.292215959125898,-0.45009412747011995,171.31328123315427,15.545391368339635,0.0,1.0,0.0,0.0,1.0,Taxi
2.6,-0.25288208704139764,6.131185499230838,10.005769081540711,0.09971229954726318,0.7311567691072312,171.2005831527182,14.3356316346264,0.0,1.0,0.0,0.0,1.0,Taxi
2.7,-0.005794755050634596,11.36965522328768,11.230236544324567,-0.18741867775616172,0.6145955179926641,171.25526142482715,14.848636545724398,0.0,1.0,0.0,0.0,1.0,Taxi
2.8000000000000003,0.04904388836217074,38.98698350119054,10.447221345710563,-0.23976975059797395,0.2623432695286984,171.29931823864013,14.752275071543458,0.0,1.0,0.0,0.0,1.0,Taxi
2.9000000000000004,-0.05794716953544491,13.289198730986408,11.411082699846732,-0.27259806639415235,-1.3457293395498497,171.31748825311752,14.637695607678491,0.0,1.0,0.0,0.0,1.0,Taxi
3.0,0.06065123860429747,12.593278977317892,10.453003170176224,-0.39832367410351677,0.1079340094185337,171.42176745671964,14.27414065552113,0.0,1.0,0.0,0.0,1.0,Taxi
3.1,0.11201028324876022,-6.887502004011391,10.430129486092918,-0.4036255779095804,0.28454840951231447,171.2278886736549,15.196296184557141,0.0,1.0,0.0,0.0,1.0,Taxi
3.2,-0.09238467955550184,-9.098016693045253,11.379616128718753,-0.18570031032085427,0.03353369067817395,171.2221946157017,15.168366661517473,0.0,1.0,0.0,0.0,1.0,Taxi
3.3000000000000003,0.015161155139071226,-50.889721757204796,11.541786894719023,-0.15577279660797524,-0.6061269881092445,171.3055259901107,15.341883102885552,0.0,1.0,0.0,0.0,1.0,Taxi
3.4000000000000004,-0.14243832553726374,2.881199454093256,11.352645112240811,-0.25212480327390724,0.2951887779872212,171.23134186267782,14.597133790844783,0.0,1.0,0.0,0.0,1.0,Taxi
3.5,-0.07797868228503552,-22.078285981029335,11.086781112083822,0.06626971255037328,-0.3616722118329349,171.40699957081347,14.872946368696054,0.0,1.0,0.0,0.0,1.0,Taxi
3.6,-0.0952302747660754,37.18118076515744,10.379869450323893,-0.49165225070216745,0.8569498201369773,171.31665173002818,14.341113964680487,0.0,1.0,0.0,0.0,1.0,Taxi
3.7,0.04346757828852352,-4.548679276661848,11.039314875089275,-0.5391503061444323,0.2512960854578764,171.16121951124774,15.72119842987712,0.0,1.0,0.0,0.0,1.0,Taxi
3.8000000000000003,-0.10072207866834476,9.792032098200663,11.589233035180413,-0.26894840897926636,1.030112972212269,171.40633342773071,15.393931612910956,0.0,1.0,0.0,0.0,1.0,Taxi
3.9000000000000004,-0.046270114275072084,-27.978632706635285,10.836706165247488,-0.4022527188490768,-0.5233191349810081,171.33961769661732,13.922878947073002,0.0,1.0,0.0,0.0,1.0,Taxi
4.0,-0.0964255852446529,20.6015688526405,10.8023729494479,-0.07011658539860766,0.09093090296065238,171.34217851469168,14.813540339946492,0.0,1.0,0.0,0.0,1.0,Taxi
4.1000000000000005,0.0022857655948577676,2.423052856562549,10.223913340495741,-0.356713316922683,-0.3769688859387733,171.2006740823159,15.47712581177222,0.0,1.0,0.0,0.0,1.0,Taxi
4.2,-0.03415484999225932,30.5526852732397,11.076562232181637,-0.36540702664717606,0.017363546341791623,171.1353190248234,14.177992834033068,0.0,1.0,0.0,0.0,1.0,Taxi
4.3,0.0563378411215456,12.299009474155168,11.40395734324315,-0.4941160536926644,0.021182587999018426,171.21994168402773,14.459275174184427,0.0,1.0,0.0,0.0,1.0,Taxi
4.4,0.06378081296563363,35.68732089136753,10.468515207035505,-0.17931164817529788,1.1622773057538276,171.19429953453505,15.003302027865473,0.0,1.0,0.0,0.0,1.0,Taxi
4.5,0.14428175446457833,15.320153377116986,11.028846473955822,-0.06781258677010116,-0.06365499249216457,171.18243613335358,15.182690675908592,0.0,1.0,0.0,0.0,1.0,Taxi
4.6000000000000005,0.13293860800713056,-10.348797306876827,11.199071732884692,-0.4125774290286365,0.18309808563314453,171.33178137920902,15.153058398235087,0.0,1.0,0.0,0.0,1.0,Taxi
4.7,0.012036826431249537,-49.04310865891669,10.13761321188689,-0.6471122917375021,0.43743561341955983,171.25657059337027,14.835391871434432,0.0,1.0,0.0,0.0,1.0,Taxi
4.800000000000001,-0.10093378883000503,-0.1672926125790184,10.571821091573021,-0.09709988346608142,1.452517503737657,171.34549649573148,15.67801168002668,0.0,1.0,0.0,0.0,1.0,Taxi
4.9,0.13210214494423553,23.32705298872835,10.853817977393152,-0.6371613902283342,-1.2791439295539462,171.24697390041615,15.502465734813814,0.0,1.0,0.0,0.0,1.0,Taxi
5.0,0.1286720913748913,22.37029597843922,12.061682393110033,-0.3747928390335273,-0.1263897318243725,171.35531675285483,14.10386863500323,0.0,1.0,0.0,0.0,1.0,Taxi
5.1000000000000005,0.01091769106219107,7.531909297011471,11.120798302348557,-0.43534822427702824,0.4008205281812862,171.36509098504632,14.857543187045488,0.0,1.0,0.0,0.0,1.0,Taxi
5.2,0.16976169142929287,-30.731702271959644,11.044364255837824,-0.15464683855356598,0.4046397437553749,171.2826947108034,14.152501344540275,0.0,1.0,0.0,0.0,1.0,Taxi
5.300000000000001,-0.024986419984906916,-17.54911025132806,10.090704667373013,-0.34645795049552647,0.45491787162356917,171.24201382105275,14.532117923315102,0.0,1.0,0.0,0.0,1.0,Taxi
5.4,-0.07682786019444922,-20.651629214778783,10.284241503345019,-0.1550920910796063,-0.5640987855418282,171.25860346450702,14.437509942357343,0.0,1.0,0.0,0.0,1.0,Taxi
5.5,0.06650354535539897,15.257751676545416,10.744914748221165,-0.4095073820497747,-0.19463437386877708,171.37892972262796,15.228648837969539,0.0,1.0,0.0,0.0,1.0,Taxi
5.6000000000000005,0.05130233839782015,-0.14538941215811008,12.065122592230722,-0.44368030833434857,-0.7806566749962577,171.10956508281504,15.366977332746435,0.0,1.0,0.0,0.0,1.0,Taxi
5.7,-0.07755480725523978,19.23983401305435,10.690554087692401,-0.3623226300956805,0.6679662051962044,171.4217791401736,14.621457144548105,0.0,1.0,0.0,0.0,1.0,Taxi
5.800000000000001,0.16270271542067072,-38.28937165192239,10.741988610837291,-0.22437626303262032,-0.035090021332760526,171.30909653330968,14.798396356360652,0.0,1.0,0.0,0.0,1.0,Taxi
5.9,-0.14014451986179177,14.63679279260902,10.985458387895147,-0.40756237407905416,-0.32226953164241384,171.130651381912,15.06440305000095,0.0,1.0,0.0,0.0,1.0,Taxi
6.0,-0.0043708432921946705,-39.245016153949216,10.074631185298577,-0.13393507660831694,-0.031289228042946864,171.2159457421019,14.495263129821035,0.0,1.0,0.0,0.0,1.0,Taxi
6.1000000000000005,-0.033522365349075336,36.55575108893451,11.037861967657543,-0.5790915688990691,0.345839314445651,171.27773656006866,14.436409188769238,0.0,1.0,0.0,0.0,1.0,Taxi
6.2,0.042634235582880736,10.309200581862076,11.474395937905234,-0.3717140421067267,-0.13389123099701744,171.2231806968873,14.50714157362139,0.0,1.0,0.0,0.0,1.0,Taxi
6.300000000000001,0.0471751596171157,-32.40369858500893,10.027648396287285,-0.41621120277483625,-0.7705279599834647,171.309857215693,14.110717399680041,0.0,1.0,0.0,0.0,1.0,Taxi
6.4,-0.19554085827412,-17.871880104224648,10.519475405079495,-0.21855548701152383,0.04533284607519646,171.35801088778624,15.521167727739085,0.0,1.0,0.0,0.0,1.0,Taxi
6.5,-0.046725164938242525,-20.702310458507785,11.362159126588416,-0.4899569704033939,0.3019243600409672,171.21869595801923,14.079554033769218,0.0,1.0,0.0,0.0,1.0,Taxi
6.6000000000000005,-0.056336392675423244,18.147259505835407,10.970956638676006,-0.3978720601269159,0.004646533456365829,171.18818690983267,14.619378372512482,0.0,1.0,0.0,0.0,1.0,Taxi
6.7,-0.104804560744943,22.131775842510574,11.585591427972435,-0.7904400752261168,-0.5144826812983744,171.37846540452256,15.707156798069374,0.0,1.0,0.0,0.0,1.0,Taxi
6.800000000000001,0.06393371427431031,22.809920451102357,10.279564579799342,-0.27693833166468396,-0.15787170549618124,171.21077857026603,15.536960346783536,0.0,1.0,0.0,0.0,1.0,Taxi
6.9,0.05771320958008851,14.737054632944115,11.1669036526366,-0.5475147000126714,-1.0376107276885498,171.2039940110742,15.1466051545319,0.0,1.0,0.0,0.0,1.0,Taxi
7.0,-0.031119287580222456,-7.100174290550934,10.76333790923252,-0.22457872585893177,0.33886681747213043,171.20312170698287,14.510955796992844,0.0,1.0,0.0,0.0,1.0,Taxi
7.1000000000000005,0.02843284282155561,-30.8742853851052,12.88866333563897,-0.2586693815242829,0.6484047936147252,171.2518442293716,15.630548748306628,0.0,1.0,0.0,0.0,1.0,Taxi
7.2,-0.09665821734543754,-18.853457740884263,10.744405910603176,-0.23906926199941889,0.11894261676906064,171.18323055274254,13.977669459771777,0.0,1.0,0.0,0.0,1.0,Taxi
7.300000000000001,-0.1253865762846438,-4.6520389956216475,10.561864457629689,-0.2776420509092755,0.5104786600527611,171.41298145075677,15.545374116597399,0.0,1.0,0.0,0.0,1.0,Taxi
7.4,0.005172647843447344,26.420519220810586,10.374437947917801,-0.5448936770109971,0.291777192772361,171.30170867918116,13.9073447103316,0.0,1.0,0.0,0.0,1.0,Taxi
7.5,0.035444378758615364,4.530619695349505,10.408031269298279,-0.4723161810923697,0.06021872881473349,171.34058040589832,15.335763876455994,0.0,1.0,0.0,0.0,1.0,Taxi
7.6000000000000005,-0.10273347780789632,-8.049483297883988,11.521401096695394,-0.630274681130731,-0.5499114987107936,171.3039059483499,14.964484890111663,0.0,1.0,0.0,0.0,1.0,Taxi
7.7,-0.03507476864597264,-23.665128459083927,11.417613804425153,-0.37924759559510923,-0.03844553122035605,171.37049076151743,14.828970065935556,0.0,1.0,0.0,0.0,1.0,Taxi
7.800000000000001,-0.0828812635368043,13.662059566351,10.920940420609739,-0.3666974540446851,-0.22798149292119854,171.36647165415218,13.781990756079258,0.0,1.0,0.0,0.0,1.0,Taxi
7.9,-0.03442317997614138,29.84419341665686,11.393420439144512,-0.5994745231183601,-1.0636228047415486,171.10836336972943,14.670312986941866,0.0,1.0,0.0,0.0,1.0,Taxi
8.0,0.11414619843731158,-25.894373043306132,10.9738601664968,-0.5224096941352262,-0.7102969244282141,171.2113492944045,14.765354278308012,0.0,1.0,0.0,0.0,1.0,Taxi
8.1,-0.21235312875333504,18.85979604088635,10.27392826306198,-0.06450305991341287,0.8042683929301071,171.1613574874034,14.509076090812217,0.0,1.0,0.0,0.0,1.0,Taxi
8.200000000000001,0.0598758002282903,-8.604602358730252,10.948785430634839,-0.2813525999346162,-0.3388949913480485,171.24147877401901,15.400776716429643,0.0,1.0,0.0,0.0,1.0,Taxi
8.3,0.07112318664366026,77.58103890469512,9.794842283209636,-0.34805332219063245,-0.16423848329207427,171.19943289582056,14.61852110775713,0.0,1.0,0.0,0.0,1.0,Taxi
8.4,0.1755520657701405,-5.812900314177426,10.66684803272846,-0.2683412025695436,-0.04437242138000259,171.519062979453,14.331374336757227,0.0,1.0,0.0,0.0,1.0,Taxi
8.5,0.030811298657403105,-29.276225043918743,11.059125355693672,-0.5967134135905395,-0.7074318977528087,171.2319469657749,14.557834223114943,0.0,1.0,0.0,0.0,1.0,Taxi
8.6,-0.0752579385759335,-26.495877538960872,11.119676531070393,-0.5068456638235697,-0.7181683962391232,171.3280796660655,14.559665623578553,0.0,1.0,0.0,0.0,1.0,Taxi
8.700000000000001,0.04307267807533606,-35.82721946874694,11.45961198839739,-0.3203242213327965,-0.4685914788104026,171.18713198998284,13.792224920611114,0.0,1.0,0.0,0.0,1.0,Taxi
8.8,-0.1483247986863317,2.9365518395707277,11.092302573624124,-0.30253642318592355,-0.22451965812806537,171.1378045777127,15.441053576108319,0.0,1.0,0.0,0.0,1.0,Taxi
8.9,-0.06057517937807996,3.3603570461650656,10.167886502252976,-0.3732543496284243,-0.05200326752043209,171.30231613007322,14.267950700055291,0.0,1.0,0.0,0.0,1.0,Taxi
9.0,0.05987446330616128,36.5236941379144,10.708037676111672,-0.5288615287982816,0.4665187513744539,171.27096823672878,14.98369960082513,0.0,1.0,0.0,0.0,1.0,Taxi
9.1,0.034293672003240225,-14.084900258737145,11.494265446493758,-0.46385448293734366,-0.6535366637350236,171.26087142450046,15.316462141966442,0.0,1.0,0.0,0.0,1.0,Taxi
9.200000000000001,-0.1309996806717658,-28.05454696996276,10.638039895326958,-0.21588405942733271,0.022507683758378586,171.2370326184148,15.639193501689752,0.0,1.0,0.0,0.0,1.0,Taxi
9.3,-0.08039827154365264,4.16271492755062,10.29242597288914,-0.25215836782627676,-0.611390243064486,171.32459871647018,14.85726998970001,0.0,1.0,0.0,0.0,1.0,Taxi
9.4,0.055107246640993195,69.8847982277253,10.300524504485763,-0.41801176111014965,0.2503405478333965,171.234033416815,15.292093627653772,0.0,1.0,0.0,0.0,1.0,Taxi
9.5,0.2184243104668606,28.34439107412282,12.195369718866441,0.006069589396648312,-0.09871658235300057,171.16409704747298,14.527030780743202,0.0,1.0,0.0,0.0,1.0,Taxi
9.600000000000001,0.06132368382696135,-22.569227998482987,11.60446422405296,-0.27438436720897186,-0.051891570802101425,171.16563694623665,14.89261976157036,0.0,1.0,0.0,0.0,1.0,Taxi
9.700000000000001,-0.05773889335142185,-52.005533867183495,11.279118496988302,-0.2729351858190481,0.15634829406580197,171.4164466086711,14.854444406376816,0.0,1.0,0.0,0.0,1.0,Taxi
9.8,-0.041603358869056965,-24.2121185445335,11.711260124870849,-0.5397594777117634,0.21755459917387693,171.22648770496755,14.806865049235524,0.0,1.0,0.0,0.0,1.0,Taxi
9.9,-0.05973690889570626,46.779548865798176,12.063504250852027,-0.07653480484812963,0.24541559011042094,171.2517977957217,14.47784638398693,0.0,1.0,0.0,0.0,1.0,Taxi
10.0,0.1761588509775689,9.807949165857039,11.363584387547885,-0.5041243480786297,-0.47731456705108233,171.24819102297,14.29989336950708,0.0,1.0,0.0,0.0,1.0,Taxi
10.100000000000001,0.0074363869602281476,-3.6864120812499195,9.84183761830339,-0.516138073890647,-0.20086120950406294,171.41754467391615,14.36850022815431,0.0,1.0,0.0,0.0,1.0,Taxi
10.200000000000001,-0.07816896930195594,-18.933816351269716,11.38197569726026,-0.02247571584228958,-0.352366143034091,171.40265344079626,14.3090385676424,0.0,1.0,0.0,0.0,1.0,Taxi
10.3,0.08148976922122023,22.32761184462908,11.415755080224292,-0.13512072829315833,-0.22021182491461563,171.2715170366739,15.42103620860986,0.0,1.0,0.0,0.0,1.0,Taxi
10.4,0.11907444618337344,28.966030325677224,11.056063859199762,-0.36219086050646454,0.013148914314010806,171.32318396724486,13.56417420891831,0.0,1.0,0.0,0.0,1.0,Taxi
10.5,0.06666118232643008,25.48382554090075,11.576694038152427,-0.3720862535484714,0.27430951849678,171.19179692901696,14.46039439021738,0.0,1.0,0.0,0.0,1.0,Taxi
10.600000000000001,0.2089088969257239,-10.888642858881516,10.814727574193466,-0.19622429231894326,-0.4118777268059057,171.16402703068934,13.571325515799305,0.0,1.0,0.0,0.0,1.0,Taxi
10.700000000000001,0.0646312318889658,-10.437541328600831,11.501870505327252,-0.24470464746900408,-0.8046841288481931,171.32207259846712,14.4165274314965,0.0,1.0,0.0,0.0,1.0,Taxi
10.8,0.014473475683425866,-45.91278141511764,10.983742376813954,-0.49270811019583516,0.4281486317322505,171.21124456810344,14.481329958331065,0.0,1.0,0.0,0.0,1.0,Taxi
10.9,-0.020655010149864404,-8.194221924724156,11.366432980546803,-0.34713608714542316,-0.7499599046115503,171.30741137607026,14.853226435009399,0.0,1.0,0.0,0.0,1.0,Taxi
11.0,0.02366012226534492,-18.787977517142266,11.546701384490374,-0.199459285233467,0.21952941142997368,171.35575267855597,13.504178263081007,0.0,1.0,0.0,0.0,1.0,Taxi
11.100000000000001,-0.07946641190228557,34.56491925928062,9.846400606806291,-0.24441127050096964,-0.24380238347594863,171.1121196449127,15.139093642487634,0.0,1.0,0.0,0.0,1.0,Taxi
11.200000000000001,0.15216958614653864,18.232914917021684,11.365134200040186,-0.671234719938262,0.8134929767035571,171.20189390045743,14.561460645868042,0.0,1.0,0.0,0.0,1.0,Taxi
11.3,0.11482469685045327,-7.069642125898649,10.029543208920463,-0.41444868724720163,0.33485841457532917,171.33745645039926,15.32166586989156,0.0,1.0,0.0,0.0,1.0,Taxi
11.4,-0.11481462253177886,3.0923166218765537,10.81090403854263,-0.5414530312490867,-0.9644602437507008,171.35204707374646,15.778345638339259,0.0,1.0,0.0,0.0,1.0,Taxi
11.5,0.1676311692559213,-7.594783413906939,11.714584709975023,-0.23503761731937273,0.9599375473500315,171.31347422746876,14.708883510493353,0.0,1.0,0.0,0.0,1.0,Taxi
11.600000000000001,0.07685077978091848,41.49716981134498,11.009061439968244,-0.08192186874247159,-0.24090951262481608,171.24171980496658,14.938759651843197,0.0,1.0,0.0,0.0,1.0,Taxi
11.700000000000001,0.09267122652494593,-15.792008884944858,10.288744567620427,-0.16443708601083673,-0.2448237327575117,171.24464952896687,14.720293569916862,0.0,1.0,0.0,0.0,1.0,Taxi
11.8,0.0886711248311969,-2.321823776769225,10.452254580675648,-0.37514574348974467,0.4627416113552611,171.31105307680593,15.017656901050362,0.0,1.0,0.0,0.0,1.0,Taxi
11.9,0.06524166089707224,7.427473925484942,11.136152656809529,-0.3336323042296491,0.048216933188308615,171.2640369172184,14.48675339573202,0.0,1.0,0.0,0.0,1.0,Taxi
12.0,0.12980859615237053,-12.013708219463558,9.981775374976953,-0.21404249418914137,0.22780407497199023,171.296508552432,14.446267444112117,0.0,1.0,0.0,0.0,1.0,Taxi
12.100000000000001,0.028602583733878997,22.05873969022834,11.101345628651053,-0.22390211417004363,0.7666798566380014,171.47355776695804,15.532742210131158,0.0,1.0,0.0,0.0,1.0,Taxi
12.200000000000001,0.17553535934821382,-31.330876963624238,11.295761930835589,-0.5550106558666279,-0.3441098195881985,171.18714357217334,14.560130081874961,0.0,1.0,0.0,0.0,1.0,Taxi
12.3,-0.02684578866575076,4.787712312258418,12.09701353726484,-0.6573741172823874,0.4771772637582607,171.29883378115687,14.97569807579666,0.0,1.0,0.0,0.0,1.0,Taxi
12.4,0.052541145295171,-36.08390065622846,11.410927972271462,-0.23809840073730204,-0.033628037065947435,171.1038765311663,14.476079635829725,0.0,1.0,0.0,0.0,1.0,Taxi
12.5,-0.004884143932928554,20.485334749076273,11.216657621192931,-0.099844844536428,-0.5072985839567355,171.244330847622,15.094895985030416,0.0,1.0,0.0,0.0,1.0,Taxi
12.600000000000001,0.0755808850796305,15.564403782518726,10.71987195382687,-0.37724952475309315,-0.9242908282442437,171.57155286637874,15.185037896172014,0.0,1.0,0.0,0.0,1.0,Taxi
12.700000000000001,0.13036316420776453,-3.3106761099474036,10.922585047770475,-0.20265875088874843,0.9099705535129947,171.27561811894554,15.905782147253607,0.0,1.0,0.0,0.0,1.0,Taxi
12.8,-0.021437524482665705,-15.301769470977584,10.709112516265241,-0.10941958866201129,-0.2776775681672238,171.45739797316628,15.353828504907407,0.0,1.0,0.0,0.0,1.0,Taxi
12.9,-0.0009279622752575384,-33.25179670624619,11.665532520231297,-0.19058174084957333,0.20069970107076843,171.2852823432995,14.361865524114595,0.0,1.0,0.0,0.0,1.0,Taxi
13.0,-0.03589581932346652,-21.587241675031947,11.50436010583886,0.005546622530488876,0.0988300364181357,171.41942670179776,14.817205176177827,0.0,1.0,0.0,0.0,1.0,Taxi
13.100000000000001,-0.12937373285782552,18.81173675804324,10.394779228217738,-0.324684540752894,0.3287665960360686,171.1980160584128,14.455066978209038,0.0,1.0,0.0,0.0,1.0,Taxi
13.200000000000001,0.09313072151495856,0.09746815191788016,11.344243954760666,-0.20033022689250082,-0.8734089123258665,171.27163701903976,14.334972109254245,0.0,1.0,0.0,0.0,1.0,Taxi
13.3,-0.03540847856387724,19.174713989399407,10.478684069642956,-0.5552501712427088,-0.4907845095670831,171.28864457708585,14.494134064627843,0.0,1.0,0.0,0.0,1.0,Taxi
13.4,-0.0335001629108286,-19.14854154699132,11.687375582088997,-0.1269616258486778,-0.16812477110508034,171.30752805147722,15.550209182587036,0.0,1.0,0.0,0.0,1.0,Taxi
13.5,-0.002611986219998119,1.460956516599288,10.93449147439998,-0.6562683454790177,0.54260638431307,171.26115452654312,14.322966799183003,0.0,1.0,0.0,0.0,1.0,Taxi
13.600000000000001,-0.028103695980880868,5.142216157915311,10.171930671044857,-0.3422193927570373,0.8132935289282602,171.25851595030497,13.936670476339131,0.0,1.0,0.0,0.0,1.0,Taxi
13.700000000000001,-0.007789082121252113,-9.874326403647544,10.790627225774235,-0.2088871654780358,-0.4209540373384123,171.3411464367167,14.311671546116703,0.0,1.0,0.0,0.0,1.0,Taxi
13.8,-0.05198361823823591,-13.813572049628922,11.720812761776257,-0.18776321267361562,0.03892304579782277,171.27435372809248,14.688331038810318,0.0,1.0,0.0,0.0,1.0,Taxi
13.9,-0.09717155622902555,19.971539491079454,11.713738676360089,-0.41663856482614614,0.5265410305532461,171.2517853558545,15.015841550210798,0.0,1.0,0.0,0.0,1.0,Taxi
14.0,0.09206861533414507,15.666718425848517,11.24865594567281,-0.7093236734623208,0.28497298515021247,171.2861819606652,14.25020098167831,0.0,1.0,0.0,0.0,1.0,Taxi
14.100000000000001,0.026349973891006587,19.5998318551678,10.278427128655727,-0.37542574203477175,-0.473866100294435,171.5598491575147,15.775105314118354,0.0,1.0,0.0,0.0,1.0,Taxi
14.200000000000001,0.0008276030468133564,-67.68487635845145,9.962395436907274,-0.3864146964590557,-0.60526052814724,171.2831479239344,14.972268057406891,0.0,1.0,0.0,0.0,1.0,Taxi
14.3,-0.24635576645811225,-12.067447438879137,11.214885196337136,-0.30696189833964715,-0.619540494509831,171.52271234188424,15.331939017018307,0.0,1.0,0.0,0.0,1.0,Taxi
14.4,-0.03398726330338916,11.33121254240769,10.481511044126286,-0.08191614119983831,-0.30953980749055204,171.25637715949267,14.878345792541968,0.0,1.0,0.0,0.0,1.0,Taxi
14.5,0.057483665758851756,72.96708165094435,10.358017761985323,0.21666398702047995,-0.08109049354273268,171.30531593131707,14.475124237241278,0.0,1.0,0.0,0.0,1.0,Taxi
14.600000000000001,0.1184796417966094,0.044708448094733434,10.057045801833576,0.02390610760360845,0.03983169758265018,171.25310090245898,15.174117309695397,0.0,1.0,0.0,0.0,1.0,Taxi
14.700000000000001,-0.03376372106291553,-52.97965974464174,10.994991685050012,-0.1438311731998228,-0.21129523715820145,171.2954285319098,14.652044830784234,0.0,1.0,0.0,0.0,1.0,Taxi
14.8,-0.20741463296435697,-40.237569586625625,10.316270481161185,-0.2723951770641768,0.18937820437170527,171.32993228794635,14.602799852745672,0.0,1.0,0.0,0.0,1.0,Taxi
14.9,-0.08270820613651879,-1.9593602561966357,11.261487095999666,-0.18910816306746436,-0.28913815528560843,171.1560503797557,15.681372478712024,0.0,1.0,0.0,0.0,1.0,Taxi
15.0,-0.04356052234389878,52.71710512116198,10.552734672697618,-0.3092121207466276,0.3666570272106542,171.380836342586,15.194440146385539,0.0,1.0,0.0,0.0,1.0,Taxi
15.100000000000001,0.056170892641452835,21.004445038561077,12.859659006766362,-0.2957482062015869,-1.1613129992224538,171.35416190015326,15.420493167760448,0.0,1.0,0.0,0.0,1.0,Taxi
15.200000000000001,0.022314019056286508,-9.763474848202321,11.698724303205214,-0.05881877381837025,0.1320640577919601,171.33476557102472,14.651307191508938,0.0,1.0,0.0,0.0,1.0,Taxi
15.3,-0.09237789658491047,-13.589773872617561,11.772943927766786,-0.06652895814102217,-0.24779083493851328,171.25832245266736,14.450811783635046,0.0,1.0,0.0,0.0,1.0,Taxi
15.4,-0.011777976721635018,-19.036765428785667,12.192123936556078,-0.008609236730388992,0.28623711370488175,171.33597079241213,14.686130390594883,0.0,1.0,0.0,0.0,1.0,Taxi
15.5,-0.07286980808764186,17.048171981787878,10.431609502130096,-0.21572863314595864,-0.4979014060743066,171.46650857551424,15.193098614319748,0.0,1.0,0.0,0.0,1.0,Taxi
15.600000000000001,-0.007137036675971137,24.545935851598045,11.208688968700653,-0.02066558022882692,-0.5590827308048122,171.16121229138503,14.717008217410843,0.0,1.0,0.0,0.0,1.0,Taxi
15.700000000000001,0.11095170253635517,-1.825647862630575,11.328938243997856,-0.3930285332755295,0.34848147597354073,171.36217103312538,14.586722334579898,0.0,1.0,0.0,0.0,1.0,Taxi
15.8,-0.0819980474007948,-18.099393930850535,10.530104449792406,-0.578292534043562,-0.20855709879427606,171.4027909416402,14.294446296842903,0.0,1.0,0.0,0.0,1.0,Taxi
15.9,-0.09763400633022389,-60.7026887913012,11.089190150546646,-0.2547693299603641,-0.5464609596947534,171.28303028950472,14.76958936262541,0.0,1.0,0.0,0.0,1.0,Taxi
16.0,-0.19256174142015092,10.071121444118338,11.537425243641977,-0.5680804438546084,-0.22061858011349342,171.2069489211592,14.494388864102813,0.0,1.0,0.0,0.0,1.0,Taxi
16.1,-0.031642440180203214,11.841254613097844,9.447560056141912,-0.1031756146898063,-0.1763178551815828,171.47187385257405,15.29392013958762,0.0,1.0,0.0,0.0,1.0,Taxi
16.2,-0.03842773326473477,4.188905981383826,10.88950628665276,-0.39845439342771344,0.5414572508684812,171.18818664920752,14.24280106552024,0.0,1.0,0.0,0.0,1.0,Taxi
16.3,-0.17161721151323192,13.341715097436444,11.121422122979565,-0.005256140012864952,-0.6396607002177963,171.19298712852913,15.249070641648942,0.0,1.0,0.0,0.0,1.0,Taxi
16.400000000000002,0.03506613530697888,38.331900572841896,11.24506670711279,-0.37368884564811944,-0.20413141092982015,171.20086280496434,14.84236867981736,0.0,1.0,0.0,0.0,1.0,Taxi
16.5,0.1532317695994746,27.640965480257776,10.41010331041996,-0.35101100739716884,0.45648504961400455,171.1734321843246,15.17099155577881,0.0,1.0,0.0,0.0,1.0,Taxi
16.6,-0.03341238411194313,4.018098944801854,11.02799260578358,-0.25486787061230415,-0.34897356864528895,171.42729998345146,14.416582302812929,0.0,1.0,0.0,0.0,1.0,Taxi
16.7,0.055156630030988064,-28.82899558556686,10.348855191697469,-0.3090593466620345,0.029957759710538594,171.20867943681344,13.810999415241882,0.0,1.0,0.0,0.0,1.0,Taxi
16.8,0.009086791671640193,7.65085208630839,10.911882776788618,-0.18682814189536215,0.34116524303314505,171.2641490943072,16.41507792864162,0.0,1.0,0.0,0.0,1.0,Taxi
16.900000000000002,0.004841876319598725,-16.082301166400885,10.31497364325118,-0.043820430693186696,0.0962455589875048,171.28691257680418,14.530888936540467,0.0,1.0,0.0,0.0,1.0,Taxi
17.0,-0.02525487580101647,-0.17670045402502885,11.02149538813194,-0.308487199955053,-0.0929709630875417,171.47733228381446,14.394595986278137,0.0,1.0,0.0,0.0,1.0,Taxi
17.1,0.008203289401514956,-20.400623956141047,9.95035831258171,-0.06104771031510792,-0.7173001221846288,171.4295553431955,15.029329845809011,0.0,1.0,0.0,0.0,1.0,Taxi
17.2,-0.09716124346110658,16.01458423722008,10.568114441437046,-0.20329291763097584,0.11982486128616761,171.21448561408897,14.593497789943267,0.0,1.0,0.0,0.0,1.0,Taxi
17.3,0.05481804538508387,8.863991011604,11.76979914452995,-0.14571053930681865,0.5169154938467471,171.31947938899623,14.778629746221437,0.0,1.0,0.0,0.0,1.0,Taxi
17.400000000000002,0.05252324445953488,19.80561367216222,11.364979242911614,-0.3497992805522168,0.14424551519865553,171.42934354054807,14.214574975049093,0.0,1.0,0.0,0.0,1.0,Taxi
17.5,0.0018668248997044151,9.188696818915941,10.409134711553556,-0.3987865676586418,-0.6320327957395991,171.29475400746298,15.234670560107215,0.0,1.0,0.0,0.0,1.0,Taxi
17.6,0.10076152947966346,-31.383883688139168,11.63570382875325,-0.561740068892181,0.47412529727289504,171.17956931109984,14.720309769973756,0.0,1.0,0.0,0.0,1.0,Taxi
17.7,-0.10439617398116106,33.527600054285415,11.330674074337963,-0.40662022214458543,-0.4806045307943282,171.25000041614567,14.641732583695948,0.0,1.0,0.0,0.0,1.0,Taxi
17.8,0.1695048251711314,-20.279620483483985,11.337693286588479,-0.4020662297363359,0.8329934045566733,171.5024575474407,14.876988615191696,0.0,1.0,0.0,0.0,1.0,Taxi
17.900000000000002,-0.00063657293775655,58.88686121408258,10.646493952797297,-0.32717423723015815,0.7266254320474125,171.26845647500966,14.355175994375394,0.0,1.0,0.0,0.0,1.0,Taxi
18.0,0.19003813208925177,-43.53521942697015,10.10619737879654,-0.4774836199338254,-0.023977620475330128,171.27299737059298,13.849747657560407,0.0,1.0,0.0,0.0,1.0,Taxi
18.1,-0.04817127196371939,-4.010311552531726,11.607440437161381,-0.14400231310255307,0.5371835206993154,171.41404805113143,14.974793278078524,0.0,1.0,0.0,0.0,1.0,Taxi
18.2,-0.020688130700415204,-88.01933456936278,10.724629064598336,-0.5756283736477382,0.4234988798156739,171.19316923551924,14.887357642442076,0.0,1.0,0.0,0.0,1.0,Taxi
18.3,-0.2500585407575621,-13.434899180855808,11.6855063621306,-0.4786459375743097,-0.08642578407646999,171.50204311606808,14.849802055422668,0.0,1.0,0.0,0.0,1.0,Taxi
18.400000000000002,-0.11534576786799844,-22.51548027103733,10.83239507502579,-0.33322314427412936,0.49078467543510446,171.3123660481939,14.277030310826053,0.0,1.0,0.0,0.0,1.0,Taxi
18.5,-0.13326553205560185,51.05862510495592,10.398478607574907,-0.41337943773113073,0.3982885755741483,170.97197579650617,14.650471457291562,0.0,1.0,0.0,0.0,1.0,Taxi
18.6,0.005234584767217467,19.980309139060438,9.875045371902536,-0.18397714991905317,1.1900847666418357,171.26247279375457,14.167509974322861,0.0,1.0,0.0,0.0,1.0,Taxi
18.7,-0.015444222172696281,-6.192061641370425,10.753302763721663,-0.4260303253819648,0.07453468523686436,171.3438846782393,13.83321630042403,0.0,1.0,0.0,0.0,1.0,Taxi
18.8,-0.16422584026245401,1.3927829298141177,10.405956125012557,-0.2987669354510222,0.21907909319115879,171.33365923826204,13.438069525067128,0.0,1.0,0.0,0.0,1.0,Taxi
18.900000000000002,0.012198499416288006,-15.038365345564502,11.495069441408043,-0.31453291604136485,-0.261805268172468,171.2245964858115,14.159423323072932,0.0,1.0,0.0,0.0,1.0,Taxi
19.0,-0.09063604890051885,18.35860271571607,10.525473863353618,-0.4547828529931016,0.03578182116650413,171.09492815405054,14.97629637146062,0.0,1.0,0.0,0.0,1.0,Taxi
19.1,-0.07243282668387371,19.249391763059585,10.72796503653529,-0.11075723982034946,0.26819461318927856,171.1784122466729,15.475190902500941,0.0,1.0,0.0,0.0,1.0,Taxi
19.200000000000003,0.10844545823158587,8.524658529931534,11.254648738360265,-0.6377027883199338,-1.5072943773173932,171.3358598696957,13.558179950540982,0.0,1.0,0.0,0.0,1.0,Taxi
19.3,-0.04801275625086123,19.4838763901169,11.056022209754344,0.024938290401106733,-0.3340192210791256,171.41658743365326,15.342489698528416,0.0,1.0,0.0,0.0,1.0,Taxi
19.400000000000002,0.02498655526671073,-30.7031453986352,10.9352231381311,-0.4149074625828597,-0.34357597743334084,171.31437929873994,14.393712897080627,0.0,1.0,0.0,0.0,1.0,Taxi
19.5,-0.045070268761590176,16.46575506686826,11.260502314110042,-0.021659736355014614,0.8579231875102454,171.36653682484757,14.155158987240375,0.0,1.0,0.0,0.0,1.0,Taxi
19.6,0.034316019083480025,-47.50943389358786,10.926806332509196,-0.6897359666699779,-0.5441488855192723,171.2628182976905,14.917535069087478,0.0,1.0,0.0,0.0,1.0,Taxi
19.700000000000003,-0.2125606142012286,11.068248623824374,11.040823510612322,-0.1472953847543026,0.8575309746192619,171.2991492876996,15.432266660274843,0.0,1.0,0.0,0.0,1.0,Taxi
19.8,0.010270974357531647,-29.836330201732533,10.680596050244558,0.2385305075867341,0.1850386706545941,171.33682245497732,14.157087618150356,0.0,1.0,0.0,0.0,1.0,Taxi
19.900000000000002,-0.11486563192518268,23.130511317407453,11.20338914152262,-0.33410176325413854,0.6331332203219164,171.2872787113189,15.15422566487248,0.0,1.0,0.0,0.0,1.0,Taxi
20.0,-0.09690805761419137,30.550279871041734,11.816145185325368,-0.599056368536603,-0.09778136845753883,171.32010476810842,14.792581684113562,0.0,1.0,0.0,0.0,1.0,Taxi
20.1,0.16302237371274023,28.827833874894036,10.995277628201324,-0.3202896385678366,-0.655738197199001,171.3447025153315,15.025510012804235,0.0,1.0,0.0,0.0,1.0,Taxi
20.200000000000003,0.029273537449287415,-15.518455905986167,11.617785325727578,-0.6349650133939511,-0.07697951269552734,171.23380226972472,14.533846468304397,0.0,1.0,0.0,0.0,1.0,Taxi
20.3,-0.17450033714412233,-45.5024975883858,10.549507206568164,-0.4335835191916163,0.24098449538198952,171.28124044392985,13.80833501998614,0.0,1.0,0.0,0.0,1.0,Taxi
20.400000000000002,-0.06449011422918884,-3.1809593580310747,11.165247399245697,-0.24736931825996572,1.0787917478923437,171.51120978162078,15.784812767137891,0.0,1.0,0.0,0.0,1.0,Taxi
20.5,0.013368740659131998,32.789587262267375,10.172071464123315,-0.46342282790429934,0.4111876267516373,171.1589313775645,13.904484356070824,0.0,1.0,0.0,0.0,1.0,Taxi
20.6,-0.010552400832785473,18.22888900864627,10.962417479742413,-0.15592178208115073,-0.26411521941741195,171.30047464845825,14.768073898890936,0.0,1.0,0.0,0.0,1.0,Taxi
20.700000000000003,0.02665433081404249,-7.604110853987799,11.312432489937411,0.08567563357928482,0.05302776078411557,171.49551081149013,14.258886342205075,0.0,1.0,0.0,0.0,1.0,Taxi
20.8,-0.024651813610807018,47.31676304480528,11.098713995224635,-0.026932242510650406,-0.3936292604372391,171.25254661892097,15.06959845825307,0.0,1.0,0.0,0.0,1.0,Taxi
20.900000000000002,0.22603141439124086,-23.43941480323339,10.900026756093185,-0.19517413883468693,-0.5762652920612918,171.50064570705513,14.63261126375856,0.0,1.0,0.0,0.0,1.0,Taxi
21.0,-0.09054274320212453,11.191618100457026,10.35509905908093,-0.18922209893703518,-0.8211487494096668,171.27227416731876,15.247457583745398,0.0,1.0,0.0,0.0,1.0,Taxi
21.1,0.03130627689147804,-31.086284727004113,9.845247617406596,-0.4366702198584865,0.3730148958483965,171.18217970605428,15.556977068951252,0.0,1.0,0.0,0.0,1.0,Taxi
21.200000000000003,0.07059999075622028,26.303924579996828,11.180078272905302,-0.2510380153451376,-0.11990236437077535,171.37104615625765,14.676574495231222,0.0,1.0,0.0,0.0,1.0,Taxi
21.3,0.04097687969785957,-5.985685662787591,11.434384805061626,-0.14244359436870124,-0.1610254628897084,171.3467222658726,15.098356944535658,0.0,1.0,0.0,0.0,1.0,Taxi
21.400000000000002,0.0013778485775400669,-14.418231761706153,10.144001975904635,-0.456869967378987,0.45835865436262185,171.3964732557455,15.405322185708606,0.0,1.0,0.0,0.0,1.0,Taxi
21.5,-0.0014911680523105066,3.998154663883368,11.245659396021688,-0.5346889465079699,0.3178652905613669,171.24631002255705,14.24903561192685,0.0,1.0,0.0,0.0,1.0,Taxi
21.6,0.060967653017276385,-9.52190237646517,11.356588667589705,-0.9857236801196839,-0.4559606937493874,171.16912644319189,15.415435082305997,0.0,1.0,0.0,0.0,1.0,Taxi
21.700000000000003,-0.046231663304785814,5.007124896793754,11.714654122274654,-0.45287738080494805,-0.050664825924872973,171.3064891128273,15.77735171031287,0.0,1.0,0.0,0.0,1.0,Taxi
21.8,0.02354445643165822,2.127863728686181,11.650358242669855,-0.534853987732423,0.21396845813409915,171.30290241125795,14.280921146539068,0.0,1.0,0.0,0.0,1.0,Taxi
21.900000000000002,0.07160697166070724,21.912185166733767,11.15941127331146,-0.3031443160801309,0.13851163519128948,171.26217517366808,13.98087313982472,0.0,1.0,0.0,0.0,1.0,Taxi
22.0,0.063329262528883,-20.911168491688507,11.450526556559412,-0.49885531225969887,0.2032554137375272,171.11834234116577,15.252129833129011,0.0,1.0,0.0,0.0,1.0,Taxi
22.1,-0.08101138602678433,-18.610411831361642,10.851393852966,-0.25484313622481714,0.7553672019843545,171.226700240456,14.570650568281472,0.0,1.0,0.0,0.0,1.0,Taxi
22.200000000000003,-0.021445087496100964,-44.50283919350034,10.72337677384702,-0.1933807992776589,-0.2979123389538323,171.11564084758163,14.697084017944297,0.0,1.0,0.0,0.0,1.0,Taxi
22.3,-0.15918493343861873,23.802371305192292,11.322685236223457,-0.23855495271161997,-0.009845501162822396,171.22955735954406,14.45282937927335,0.0,1.0,0.0,0.0,1.0,Taxi
22.400000000000002,0.03800047049917712,-8.562908031553514,11.57680483159859,-0.1520410765093091,0.5175148674643957,171.25803435066416,15.634657352747594,0.0,1.0,0.0,0.0,1.0,Taxi
22.5,-0.06425962765386853,29.134176510028805,10.928959050769928,-0.20538855855289098,-0.14160377270181335,171.19902164480254,14.064564922922935,0.0,1.0,0.0,0.0,1.0,Taxi
22.6,-0.013514050888474686,-5.916214407692945,11.708925022062493,-0.317414248274197,0.5728525991260786,171.39145844246787,15.261167125419265,0.0,1.0,0.0,0.0,1.0,Taxi
22.700000000000003,0.008419398460712399,28.917117466558466,9.368979430706776,-0.40000214413740487,-1.000485541876008,171.28578237133866,14.10889741348588,0.0,1.0,0.0,0.0,1.0,Taxi
22.8,0.08032595967892378,4.473246985623781,10.52422218180762,-0.3167818737120465,0.8863104515599558,171.25325222452022,14.575851765621687,0.0,1.0,0.0,0.0,1.0,Taxi
22.900000000000002,0.008852184039644195,8.402506090719072,10.803720005586001,-0.23752670019772681,0.8709588301400415,171.34234922194162,13.951905249704087,0.0,1.0,0.0,0.0,1.0,Taxi
23.0,0.05043192891430773,-62.52584085404123,11.547598798777397,-0.44344122987487977,-0.45379878246056043,171.22702654483817,15.814214888650971,0.0,1.0,0.0,0.0,1.0,Taxi
23.1,-0.23230324459128232,-0.9383526990944233,11.593017116664722,-0.469706458664111,-0.3107310046426918,171.31938983275336,14.94019476685441,0.0,1.0,0.0,0.0,1.0,Taxi
23.200000000000003,0.00416042054417211,-2.1731180860360104,10.599759570060241,-0.3816248625731684,-0.13773096803778503,171.33621014674554,14.375556942993612,0.0,1.0,0.0,0.0,1.0,Taxi
23.3,0.03956633848412769,38.78795503958526,12.335883832653145,-0.36967267295667733,0.11446861201212923,171.13991392251899,14.487004301958967,0.0,1.0,0.0,0.0,1.0,Taxi
23.400000000000002,-0.03836346939335603,1.03002074865235,11.117824831384674,-0.5234109216512447,0.6765344966424535,171.38532503902718,14.8491189783247,0.0,1.0,0.0,0.0,1.0,Taxi
23.5,0.009310524287433841,-21.02031782119195,10.122497970783222,-0.3351650731623107,-1.0435394781355698,171.42094831850682,14.698032286566864,0.0,1.0,0.0,0.0,1.0,Taxi
23.6,-0.06553525062183208,24.67201166583907,9.532215755304417,-0.5891829895120188,-0.608889081400845,171.36706679841132,14.52474928567232,0.0,1.0,0.0,0.0,1.0,Taxi
23.700000000000003,0.08499658893583933,-2.7611660637453803,12.278131190298774,-0.6163072241256731,-0.7411978671912157,171.21897233713298,14.82762302178358,0.0,1.0,0.0,0.0,1.0,Taxi
23.8,-0.004495306031293041,21.652403721249076,12.183756018416139,-0.3088168530782639,0.5354572120622693,171.30691318955053,14.633990556342019,0.0,1.0,0.0,0.0,1.0,Taxi
23.900000000000002,0.04272676798441333,-8.322024392160799,11.353778491548333,-0.4112832979314732,-0.23199338057862376,171.32008751800595,15.312552596941108,0.0,1.0,0.0,0.0,1.0,Taxi
24.0,0.04338646697503533,17.706656828532005,11.33631788238719,-0.38680429121789517,-0.8035024825032897,171.3035271488319,16.11431789813563,0.0,1.0,0.0,0.0,1.0,Taxi
24.1,0.08403797811136697,-0.6817156209615334,10.066319501193476,-0.3972479414077371,0.8404440756797311,171.35808664408057,15.046717249002466,0.0,1.0,0.0,0.0,1.0,Taxi
24.200000000000003,0.03931818987960564,-16.496007114275148,10.884653674529176,-0.2800818229939054,0.5434939514297472,171.3520673374951,15.738575118683501,0.0,1.0,0.0,0.0,1.0,Taxi
24.3,-0.03909356859634043,7.2073686896244835,10.737208630444366,-0.04029842883022816,0.7448355534801845,171.23394272983114,14.828507224371057,0.0,1.0,0.0,0.0,1.0,Taxi
24.400000000000002,0.12007482155948937,-0.714483373171601,12.0230554306767,-0.5095761847723577,-0.09041541576207056,171.24727545833946,15.056204337541287,0.0,1.0,0.0,0.0,1.0,Taxi
24.5,0.035745773013747616,28.27995745135907,11.003477857844995,-0.52529732640034,-0.36356726758272867,171.31114162063818,14.451513633968844,0.0,1.0,0.0,0.0,1.0,Taxi
24.6,0.10230621866045492,-50.365516089663885,9.656179127423693,-0.5774602209583494,-0.34581713961995647,171.3462320839651,14.745926701280428,0.0,1.0,0.0,0.0,1.0,Taxi
24.700000000000003,-0.13175275888883006,-19.789395064631993,10.02937395123264,-0.5735464038034102,0.6177409056666714,171.35007266608181,15.374591160803439,0.0,1.0,0.0,0.0,1.0,Taxi
24.8,-0.06320120230941235,-9.412198455232405,10.766308221827503,-0.3042396551175881,-0.1197129176907342,171.28892574718475,14.590276427043099,0.0,1.0,0.0,0.0,1.0,Taxi
24.900000000000002,0.05524522638429289,24.03384244969742,10.220141563833824,-0.5357129772730944,0.6694290241743209,171.27534958098136,15.721848532443927,0.0,1.0,0.0,0.0,1.0,Taxi
25.0,-0.011583546640342965,-30.668254200744588,10.84692268697874,-0.30144235038875644,0.07654223741232742,171.4025921301752,15.107351969120575,0.0,1.0,0.0,0.0,1.0,Taxi
25.1,-0.21654247331313534,-26.215493817595803,11.254775922313682,-0.2595386482705013,0.2850823596577064,171.34694287343655,14.80358253011394,0.0,1.0,0.0,0.0,1.0,Taxi
25.200000000000003,-0.07583224270368617,3.9826180552506116,10.654227795155965,-0.3309723194187728,-1.3575606192662957,171.29677798846637,14.156840491791101,0.0,1.0,0.0,0.0,1.0,Taxi
25.3,0.008329543635910033,53.67640148481536,12.057797731009297,-0.43564224112986105,0.9751410054901968,171.29460233463112,14.925117858396026,0.0,1.0,0.0,0.0,1.0,Taxi
25.400000000000002,0.051839534110941415,21.041088840855995,9.686786261392307,-0.10615584714510806,-0.016894116908244487,171.19512075921057,14.435455692960875,0.0,1.0,0.0,0.0,1.0,Taxi
25.5,0.029373201500593794,-22.53328045131326,10.592058844551426,-0.7125776124733737,-0.6793313433170552,171.21467972573714,14.694983240196736,0.0,1.0,0.0,0.0,1.0,Taxi
25.6,-0.10433685862065628,-18.833151185119537,12.22312043211141,-0.3024174059863015,-0.08171367559106137,171.1557179902917,15.269871090091659,0.0,1.0,0.0,0.0,1.0,Taxi
25.700000000000003,-0.04232622181465629,-22.34462033194002,11.557758821301203,-0.14821481100526335,0.46233689115508597,171.25749346835232,14.384155605794115,0.0,1.0,0.0,0.0,1.0,Taxi
25.8,-0.08234990015910632,30.94496953663182,10.789597007025346,-0.35151461254060884,-0.04254846720368994,171.40596040408843,14.847994520700313,0.0,1.0,0.0,0.0,1.0,Taxi
25.900000000000002,0.05038798906250283,17.762504798924642,10.413110488143387,-0.4993540534862182,1.1045493791649952,171.54106423202552,15.135683471861862,0.0,1.0,0.0,0.0,1.0,Taxi
26.0,0.04648630217996691,-39.46461432344935,11.685905501302862,-0.23126240998959186,0.46445012804459457,171.5306631624635,14.51273092479228,0.0,1.0,0.0,0.0,1.0,Taxi
26.1,-0.27967297177635303,-15.968446755974782,10.811389511709379,-0.5337544330554851,-0.32939279435480795,171.11016184154664,14.759960024926785,0.0,1.0,0.0,0.0,1.0,Taxi
26.200000000000003,-0.029454244717371042,-16.615514573315107,11.666431124894357,-0.3294575869221451,0.38238267760782824,171.2592880958739,14.512385049740018,0.0,1.0,0.0,0.0,1.0,Taxi
26.3,-0.03659127068660858,12.102807013170173,11.114205920941606,-0.31155571807568294,0.5809734654431117,171.2958612615439,14.623491797763162,0.0,1.0,0.0,0.0,1.0,Taxi
26.400000000000002,-0.21915893671050216,-5.022795619295725,11.730565539273783,-0.253854841127044,-0.038117458847281904,171.12374680493417,14.474599583143476,0.0,1.0,0.0,0.0,1.0,Taxi
26.5,-0.0545682228138497,44.29000187386233,11.001706908540555,-0.6049097962507606,0.5012637861421835,171.30724655527092,15.336494619323506,0.0,1.0,0.0,0.0,1.0,Taxi
26.6,0.18485873868270303,19.593729424881626,10.7832898954887,-0.3721409256819121,0.13261084507689752,171.47165365797832,14.096429780526508,0.0,1.0,0.0,0.0,1.0,Taxi
26.700000000000003,-0.12119028958609407,12.245183101802079,10.414230256501599,-0.05399617423546382,-0.3253346038342916,171.4719092593275,14.228517908982012,0.0,1.0,0.0,0.0,1.0,Taxi
26.8,0.006657692695160664,-32.346914112908166,10.726936452100833,-0.4182072379835742,-0.4088465952396168,171.31489572851274,14.977257186443753,0.0,1.0,0.0,0.0,1.0,Taxi
26.900000000000002,0.023124168118162154,40.279790626107236,10.299248619997963,-0.0629923309737806,0.4837773118021679,171.45502481567894,14.321718136981508,0.0,1.0,0.0,0.0,1.0,Taxi
27.0,0.0802086635444421,-3.069497734202372,12.219565897508442,-0.44657612664939406,-0.2117166758676738,171.38349918442384,15.132328575069801,0.0,1.0,0.0,0.0,1.0,Taxi
27.1,-0.008689795975851218,-1.987511014939475,11.196316839131986,-0.6309320006300879,-0.5076292978395883,171.26530580472752,15.102994063203376,0.0,1.0,0.0,0.0,1.0,Taxi
27.200000000000003,0.013186613043464754,-15.682054197871432,10.551259973375473,0.09471444592866252,0.7548354878810458,171.31062428560995,14.51171969116427,0.0,1.0,0.0,0.0,1.0,Taxi
27.3,0.001798392555084908,-35.25990968707922,11.245854082490135,-0.5460364600651897,-0.12614004030624468,171.49541324813265,14.363603511814073,0.0,1.0,0.0,0.0,1.0,Taxi
27.400000000000002,-0.18498934441124737,-12.984591967001753,11.681659684001932,-0.48120311013250616,0.03587739705177454,171.27590516564692,14.720611002198916,0.0,1.0,0.0,0.0,1.0,Taxi
27.5,-0.051736346791544034,31.021596074557664,10.869601619010519,-0.3494290683827591,0.8566419997447774,171.14038621813972,14.553928313000347,0.0,1.0,0.0,0.0,1.0,Taxi
27.6,0.1569063729278732,-1.671945891008401,10.989029062740673,-0.11752740577782814,0.6525132486245989,171.30981812790083,14.946518794854994,0.0,1.0,0.0,0.0,1.0,Taxi
27.700000000000003,-0.19334907386628944,38.18735962568318,10.411718018802464,-0.5706933594466282,0.19381391165259917,171.27581956003087,14.510377981016823,0.0,1.0,0.0,0.0,1.0,Taxi
27.8,0.13920045133687187,-56.22850738390556,12.17098386317595,-0.4763061160430967,-0.47234528830187195,171.2035433018533,14.572909333910498,0.0,1.0,0.0,0.0,1.0,Taxi
27.900000000000002,-0.12423616399165456,79.60845409261064,11.020574506469732,-0.595350218622438,0.6108173602498744,171.04263197920125,15.322296678713926,0.0,1.0,0.0,0.0,1.0,Taxi
28.0,0.20469319659676383,-48.60855310462899,11.430997836014997,-0.15964895662792744,-0.012389112054844918,171.1514218065072,14.500461687147888,0.0,1.0,0.0,0.0,1.0,Taxi
28.1,-0.10384231418627309,8.826151420911673,11.291857783875352,-0.578128300651803,0.06717358785655263,171.3553039791202,14.677944164094503,0.0,1.0,0.0,0.0,1.0,Taxi
28.200000000000003,-0.08010540688709616,-51.924472063838856,11.034207227599632,-0.5170426547473272,0.4312476899281208,171.06392855120134,14.607988133831798,0.0,1.0,0.0,0.0,1.0,Taxi
28.3,-0.054929163722430466,61.90553788988327,10.539900732266517,-0.5531463755809214,1.2051231283365802,171.2212373837574,15.086263708816594,0.0,1.0,0.0,0.0,1.0,Taxi
28.400000000000002,0.20568537526314318,-17.84336185190614,10.898447719212166,-0.6493729561692918,0.7647590522362083,171.16700971616592,14.821711491045553,0.0,1.0,0.0,0.0,1.0,Taxi
28.5,-0.1693222161466269,18.95436245410707,12.357398337331983,-0.6024720934633805,0.9965055610054697,171.21248197878708,15.31731034427584,0.0,1.0,0.0,0.0,1.0,Taxi
28.6,0.03984264854810483,-53.44229326299037,10.876098868959302,-0.17273617219401335,0.621262547888114,171.18397494498367,14.655559523489835,0.0,1.0,0.0,0.0,1.0,Taxi
28.700000000000003,-0.06152609105180871,44.3149454669126,11.17175524050394,-0.6438398330141094,0.40370182638582425,171.3112052973446,14.630385409144024,0.0,1.0,0.0,0.0,1.0,Taxi
28.8,0.05225251118793598,-27.927670237302355,11.66643581971637,-0.42694253128996695,-0.5526776748545498,171.20363204554508,14.524282924466949,0.0,1.0,0.0,0.0,1.0,Taxi
28.900000000000002,-0.09979570263840704,19.10169905114644,10.906545793850254,-0.2476515057590892,-0.07879944967436897,171.3241789002907,14.840341675157552,0.0,1.0,0.0,0.0,1.0,Taxi
29.0,0.03398240420392339,-19.412109396342274,11.522596515068706,-0.5459730519233034,0.0982616427651201,171.2568322109439,14.973393085033255,0.0,1.0,0.0,0.0,1.0,Taxi
29.1,-0.04480803579377546,23.698126721733463,10.610294199297451,-0.371660890081266,0.43012705990766387,171.3071050403728,14.833707976730405,0.0,1.0,0.0,0.0,1.0,Taxi
29.200000000000003,0.018694930970260187,14.075105737038967,11.267167091646634,-0.46556473708468443,0.055293720149563,171.32706525377205,15.103648561159424,0.0,1.0,0.0,0.0,1.0,Taxi
29.3,0.10435793288911817,20.662773921118415,10.497478975750488,-0.2722215159835444,0.27468104486215816,171.20188310854246,14.985260216952758,0.0,1.0,0.0,0.0,1.0,Taxi
29.400000000000002,0.058505833811816545,0.5176400457840545,11.442033541910583,-0.6807873409281308,-0.33402635059780145,171.30516012631688,15.0892108150079,0.0,1.0,0.0,0.0,1.0,Taxi
29.5,0.02128313119918039,-4.796071523095523,11.213932383467359,-0.5020378868968617,1.2423186875952448,171.36353347033912,15.83747959574034,0.0,1.0,0.0,0.0,1.0,Taxi
29.6,0.08037757527364048,-2.289768687481813,11.197675363044008,-0.16092198105132027,0.22579505107605594,171.325714540739,14.662425272661313,0.0,1.0,0.0,0.0,1.0,Taxi
29.700000000000003,0.04705699037440742,11.251141027280463,10.577425452270303,-0.5041702186523069,0.17375941515036206,171.31969078561144,15.180087266003623,0.0,1.0,0.0,0.0,1.0,Taxi
29.8,0.07753883633558264,13.363844458524605,10.41961147660401,-0.25473923933007286,0.0959786878540652,171.30043584757277,14.356405955256157,0.0,1.0,0.0,0.0,1.0,Taxi
29.900000000000002,0.14719679756626344,9.365561160220178,10.616728273603172,-0.4902540982277369,-0.8869745158376621,171.1634779220184,15.594547679014132,0.0,1.0,0.0,0.0,1.0,Taxi
30.0,0.09388479617550825,1.2294585659500383,11.221503682651678,-0.6661544993899499,0.8109689971900479,171.12521743555726,14.822804207942244,0.0,1.0,0.0,0.0,1.0,Taxi
30.1,0.08368612916533277,-23.847988696286762,11.253977265550526,0.05204608990486348,0.40251807969654557,171.18752668579305,14.972916856647775,0.0,1.0,0.0,0.0,1.0,Taxi
30.200000000000003,0.02795685408482956,-43.74504936072341,10.928151721890146,-0.2832055393956011,-0.5551591815489905,171.31501699274486,15.313726683979612,0.0,1.0,0.0,0.0,1.0,Taxi
30.3,-0.12484045062810885,-26.810693027341653,10.167407262640364,-0.39175335843993475,-0.7393942632302748,171.13073636095464,15.523960769199103,0.0,1.0,0.0,0.0,1.0,Taxi
30.400000000000002,-0.050367335971375576,-23.02659976698919,11.11148083065143,-0.15808054314617842,-0.666002697604795,171.38471218546294,14.728448697141678,0.0,1.0,0.0,0.0,1.0,Taxi
30.5,-0.08717614475011645,51.20506903879893,9.994904854062796,-0.40716012144032326,0.05772938784451285,171.17786914804913,14.522502694596302,0.0,1.0,0.0,0.0,1.0,Taxi
30.6,0.13118489456588578,16.28832399756643,12.181314220026541,-0.32659478382942103,1.402768460705561,171.409929891091,13.978146796345817,0.0,1.0,0.0,0.0,1.0,Taxi
30.700000000000003,0.031074284016456517,6.1549958676251535,9.840813345796828,-0.005567510608572024,0.15460511671821078,171.46527204775168,15.491022891513309,0.0,1.0,0.0,0.0,1.0,Taxi
30.8,-0.05640116541199073,-34.55284556722911,10.833227980944692,-0.24253148925301266,0.38950653952664777,171.2051404154288,14.586926332715981,0.0,1.0,0.0,0.0,1.0,Taxi
30.900000000000002,-0.041579333270259845,-1.6564453890245687,11.678697116185859,-0.4304471656990185,1.0105724126948823,171.15257812939524,14.089827996946962,0.0,1.0,0.0,0.0,1.0,Taxi
31.0,0.022792057071333596,6.040897692127573,11.301765764638324,-0.211312032955342,-0.33440152386076855,171.37052635067687,14.219504202544208,0.0,1.0,0.0,0.0,1.0,Taxi
31.1,-0.02619667695135294,-16.822075457582425,11.614382821062005,-0.6896318818229532,-0.8958925569680517,171.3589715836415,15.097942336794878,0.0,1.0,0.0,0.0,1.0,Taxi
31.200000000000003,-0.12568971055817205,-0.816087847917809,11.067861767133309,-0.7888996066233818,-1.0313940757774633,171.2361308311539,14.902459611485169,0.0,1.0,0.0,0.0,1.0,Taxi
31.3,0.0187116178317445,30.074504284228993,10.497040077993018,-0.5221208387993325,0.12665295823633502,171.4315551487615,15.457844022728068,0.0,1.0,0.0,0.0,1.0,Taxi
31.400000000000002,0.12417584446979196,38.59903537406903,12.712328531166957,-0.89077001911822,0.12159043128920026,171.40274921498872,15.193581040349951,0.0,1.0,0.0,0.0,1.0,Taxi
31.5,0.06730546631217305,15.05788229854334,10.989141663607866,-0.6492882646065379,0.08807590112367283,171.3577673919956,14.921168665032946,0.0,1.0,0.0,0.0,1.0,Taxi
31.6,0.09400102932446112,-34.08495216425012,10.7925407900506,-0.4672671222844161,-0.36850419951159885,171.40130633319177,14.968303531140055,0.0,1.0,0.0,0.0,1.0,Taxi
31.700000000000003,-0.04624891635145867,8.89541865034225,10.471326590456062,-0.15339691130927752,-0.46080931228945693,171.3153306298351,15.325786628121149,0.0,1.0,0.0,0.0,1.0,Taxi
31.8,0.11178255956388422,4.351519686861992,11.455676717334397,-0.5239693491152494,0.4898753253028519,171.36529072354426,14.821098775217854,0.0,1.0,0.0,0.0,1.0,Taxi
31.900000000000002,0.11575862775877102,-4.919381443174345,11.554410678152557,-0.28117341759251846,0.3640534278640764,171.32381382010215,13.589639475657002,0.0,1.0,0.0,0.0,1.0,Taxi
32.0,-0.07084582356733049,-37.94424645988962,10.92516615433191,-0.5195170416829628,0.5088266433863384,171.27310791630407,14.904055717755552,0.0,1.0,0.0,0.0,1.0,Taxi
32.1,-0.07793867273556396,-35.096824628031214,10.89379815316302,-0.37131796535170863,0.31981181064059455,171.42647420807748,14.10708967834178,0.0,1.0,0.0,0.0,1.0,Taxi
32.2,-0.05972549538138514,20.367337393144474,11.92301114676968,-0.3916537494363709,-0.08684083719914829,171.29770662319766,15.581978793090906,0.0,1.0,0.0,0.0,1.0,Taxi
32.300000000000004,0.030990863398391806,-6.142607082274968,11.373081970606965,-0.3185681954728541,1.1729483588775569,171.3132726548655,15.207297064452446,0.0,1.0,0.0,0.0,1.0,Taxi
32.4,-0.10865170814693888,3.8433714157672583,10.307485839871772,-0.8631981145969916,0.2022908208858404,171.52476585563488,15.683378293162132,0.0,1.0,0.0,0.0,1.0,Taxi
32.5,-0.04050863830254892,1.8857212394990175,10.757931820260778,-0.35927513009508294,0.06162017743557893,171.29858722740983,14.293256096148534,0.0,1.0,0.0,0.0,1.0,Taxi
32.6,0.04041946959588682,61.373152850208264,11.313071531481429,-0.20484814792337938,0.14002536214994912,171.37236779296177,14.974716366701111,0.0,1.0,0.0,0.0,1.0,Taxi
32.7,0.19821405610410237,-1.541860518761439,10.969775130571396,-0.47366330650413735,0.4719678857734735,171.24866497596759,13.813000486002982,0.0,1.0,0.0,0.0,1.0,Taxi
32.800000000000004,-0.04821794089635622,-30.87493658956768,10.66351117362575,-0.5161114379162266,0.678242914415368,171.06163825278657,15.248224715771027,0.0,1.0,0.0,0.0,1.0,Taxi
32.9,-0.11395521335195172,-36.58073057762292,10.87888303871517,-0.2664208288869207,-0.10888920641210773,171.45260063848605,14.599449005620903,0.0,1.0,0.0,0.0,1.0,Taxi
33.0,0.015310403215987624,5.726503240014385,10.001772950992544,-0.28467356412995926,0.52040975807695,171.3193603791368,14.5865526042109,0.0,1.0,0.0,0.0,1.0,Taxi
33.1,-0.01958542469628437,1.0623858895166265,11.127313388373913,-0.2044513615142814,0.02618290750555186,171.28567514928147,13.973577283568462,0.0,1.0,0.0,0.0,1.0,Taxi
33.2,-0.10864328390436864,-4.973915538925131,11.629150833088639,-0.4486503987467668,-0.1098351891965655,171.3957014053683,14.804694816668844,0.0,1.0,0.0,0.0,1.0,Taxi
33.300000000000004,-0.009559174478638098,5.804360029494069,12.421391424597273,-0.6136414025063035,-0.4204365191160647,171.2533127801005,14.787229853959417,0.0,1.0,0.0,0.0,1.0,Taxi
33.4,0.009436375451185933,33.966288968131316,10.602288090636883,-0.45710195152892436,0.685707241809128,171.32106497942596,15.010488427027653,0.0,1.0,0.0,0.0,1.0,Taxi
33.5,0.0611881609362879,-13.726792649197868,10.242728438050975,-0.5373720613046717,-0.4042047910770373,171.24883508632354,15.454031548718248,0.0,1.0,0.0,0.0,1.0,Taxi
33.6,-0.07819313772462749,31.267046922336757,10.69518474705899,-0.30485831926474416,0.7596625417325561,171.26961201831784,14.423474011153358,0.0,1.0,0.0,0.0,1.0,Taxi
33.7,0.16577161006286964,-30.099896520046098,10.658221614792351,-0.30501035604593596,0.2147181064389392,171.33355272341532,15.354969476022188,0.0,1.0,0.0,0.0,1.0,Taxi
33.800000000000004,-0.08931132166394262,35.622666672932226,11.48289704498632,-0.5277361036257604,-0.3238596514455894,171.3352210346527,14.746372553890797,0.0,1.0,0.0,0.0,1.0,Taxi
33.9,0.0999201956400336,-32.958888969128424,11.302568592720965,-0.7877808407623492,-0.0877704495354679,171.29426075946674,15.381180327441163,0.0,1.0,0.0,0.0,1.0,Taxi
34.0,0.0009771652172274974,39.89727283768105,9.49400713225611,-0.31937466245321366,0.0022225060890797748,171.30068901906566,14.945079125013212,0.0,1.0,0.0,0.0,1.0,Taxi
34.1,0.11017504252446259,2.5769372279340472,10.265923048531745,-0.3628897320476368,-0.3096478212653503,171.25115748129622,14.647794194513748,0.0,1.0,0.0,0.0,1.0,Taxi
34.2,0.11280488177970378,-19.17361225318112,10.520926898508046,-0.17532881965378,-0.07468907464092324,171.18869038041885,14.626503254889457,0.0,1.0,0.0,0.0,1.0,Taxi
34.300000000000004,-0.09489089604867817,-18.29463952635146,12.058480949851875,-0.2780277619416837,0.2696258170042147,171.1251079039357,15.319193124515964,0.0,1.0,0.0,0.0,1.0,Taxi
34.4,0.01870184489270521,2.9157732879374407,10.42558759573916,-0.42170404910370596,0.6940207857144195,171.05021366548385,14.996667304951043,0.0,1.0,0.0,0.0,1.0,Taxi
34.5,0.1273837482193909,28.609899271467835,9.82199569523781,-0.708760404665133,-0.1247122413848147,171.10361510933353,14.325475525063151,0.0,1.0,0.0,0.0,1.0,Taxi
34.6,0.048158600308660954,-12.392708705905305,11.655705554025003,-0.10138042830291372,1.1320323612495404,171.26137327669107,14.70077986101846,0.0,1.0,0.0,0.0,1.0,Taxi
34.7,-0.04326169863682136,-27.68823029470434,10.277111124719838,-0.3795422542935804,-0.4246608070967831,171.24674906958558,15.259575146923105,0.0,1.0,0.0,0.0,1.0,Taxi
34.800000000000004,-0.011057403254130828,-32.318841294249275,12.346449313124863,-0.42061202679106807,-0.6447978883769768,171.35831404833175,14.637718026857089,0.0,1.0,0.0,0.0,1.0,Taxi
34.9,-0.11343560616258547,-3.6256989496857286,11.365377282428659,-0.32381738560571816,-0.33829488833692034,171.42289528795254,15.159875304827358,0.0,1.0,0.0,0.0,1.0,Taxi
