time_s,altitude_ft,vertical_speed_fpm,ias_kt,pitch_deg,roll_deg,heading_deg,throttle_pct,afterburner_on,gear_down,flaps_deg,speedbrake_pct,weight_on_wheels,label
0.0,-0.14433208673248102,22.731942026864512,6.464557659929927,1.221850573611291,0.7616867663829693,245.1324948125026,24.124789549700523,0.0,1.0,0.0,0.0,1.0,Taxi
0.1,-0.06855894664293265,37.001194044799156,6.567970609621504,1.4306595701054137,0.24194235516578516,245.19267375987738,23.436028340552383,0.0,1.0,0.0,0.0,1.0,Taxi
0.2,0.040673883491514747,5.610593791406444,6.6931025153415025,1.4366257593146077,0.5493711359624376,245.27940977127696,25.20063436251127,0.0,1.0,0.0,0.0,1.0,Taxi
0.30000000000000004,-0.11627911777544882,-2.487472386764219,6.934308009199053,0.9662902873635323,-0.567575584438273,245.16110428022603,25.55256214490157,0.0,1.0,0.0,0.0,1.0,Taxi
0.4,-0.08099630857675376,2.1004447638433987,6.695467557271452,1.0738193339016062,-0.37432461749289564,245.14291061500705,24.482604640478737,0.0,1.0,0.0,0.0,1.0,Taxi
0.5,0.05117610731073174,48.6446771193859,5.478432966983068,1.1760531058646708,-0.018376167019595636,245.1392091658597,24.78492872009886,0.0,1.0,0.0,0.0,1.0,Taxi
0.6000000000000001,0.1269442678214807,19.41007845984763,8.001366109535866,1.2600978594000538,0.01724073517570048,245.32228008392065,24.991866524367214,0.0,1.0,0.0,0.0,1.0,Taxi
0.7000000000000001,0.016054083722484402,-1.3273686675824312,7.722087577499623,1.46274879623834,0.21220454245914266,245.1508432951,25.065400592518223,0.0,1.0,0.0,0.0,1.0,Taxi
0.8,0.04453926397281959,4.6009933317396206,7.810324459799114,1.3021314787380678,-0.40586607804555175,245.06406749360679,24.920206974862467,0.0,1.0,0.0,0.0,1.0,Taxi
0.9,0.1499492344801788,-10.152609927638844,6.346431250457244,1.2237582751450022,0.3894626926866953,245.173253278865,25.489234247487968,0.0,1.0,0.0,0.0,1.0,Taxi
1.0,-0.034708965915709815,-17.148986679895106,6.288030019486585,1.1406155791271968,0.7455111182343473,245.0446510325104,25.23812825426491,0.0,1.0,0.0,0.0,1.0,Taxi
1.1,-0.04120566942665593,-42.9837040856219,7.73766624349669,1.0107845298340037,0.1179260031544218,245.36641368835103,24.77420929258193,0.0,1.0,0.0,0.0,1.0,Taxi
1.2000000000000002,-0.0649692859479307,-18.627869474153645,6.670607948423241,1.3982997110489321,-0.3093411776726014,245.35336692625197,25.141604685977004,0.0,1.0,0.0,0.0,1.0,Taxi
1.3,-0.12784831328647803,-5.444592129459103,7.031821568534592,1.1605308363044633,0.4543453793282333,245.3526775851659,24.39701640557712,0.0,1.0,0.0,0.0,1.0,Taxi
1.4000000000000001,-0.06842863007395143,43.54466902361731,6.660567714609696,1.4129537092628184,1.987262930607073,245.15555208594947,25.91203160707895,0.0,1.0,0.0,0.0,1.0,Taxi
1.5,0.15275405917015591,1.8727573853921626,7.078153443541625,1.0603912277103762,-0.19715866362959425,245.18035824495905,24.451501075322813,0.0,1.0,0.0,0.0,1.0,Taxi
1.6,-0.11848452635951712,-7.592950379532243,6.730857227955514,1.3835953118975404,-0.2908136633345864,245.17553281576193,25.051499208852384,0.0,1.0,0.0,0.0,1.0,Taxi
1.7000000000000002,-0.10639338197161258,-23.686019705495806,6.4084408484409074,1.0813679336809963,-0.5681061975647486,245.22897104170625,25.44690714778597,0.0,1.0,0.0,0.0,1.0,Taxi
1.8,0.034323960642676954,9.011053896185794,7.122001591630758,1.5242452558807027,0.21438629363646794,245.2790787583209,24.980946041592702,0.0,1.0,0.0,0.0,1.0,Taxi
1.9000000000000001,-0.0734292568785881,41.95353205074591,6.297107960769079,1.6172071564511534,0.8683824299257342,245.08378560265908,25.214366358760817,0.0,1.0,0.0,0.0,1.0,Taxi
2.0,0.10337427828211701,1.4083127629227832,7.460744526540632,1.2953380965673191,-0.05689449631587933,245.0746298746542,24.9729862553533,0.0,1.0,0.0,0.0,1.0,Taxi
2.1,0.04136552445729089,42.30496225737619,7.791179236047152,1.0989697698576806,-0.17256693993086458,245.08652491079647,24.927077858882036,0.0,1.0,0.0,0.0,1.0,Taxi
2.2,0.13809555440829285,-46.016310436496404,7.746347934717961,1.4982729167243092,-0.023614653759842563,245.25024224042818,24.601272535530377,0.0,1.0,0.0,0.0,1.0,Taxi
2.3000000000000003,-0.126707273900365,-10.955278825336682,7.005083974018649,1.5201004080655418,0.17607873624184608,245.2354451618262,24.547396829912145,0.0,1.0,0.0,0.0,1.0,Taxi
2.4000000000000004,-0.013410869669392523,-41.04750756060876,6.6710986727312145,1.3084762828884793,-0.5432095490351768,245.08874834965377,25.02775477275774,0.0,1.0,0.0,0.0,1.0,Taxi
2.5,-0.0671419833947509,9.482378803210992,6.356744188734221,1.1745570103552652,-0.008327696540719381,245.33137541659926,24.74739669806337,0.0,1.0,0.0,0.0,1.0,Taxi
2.6,-0.07929537988431001,4.017275485536167,8.369133183777747,1.3598554284647537,-0.14179347943855558,245.4538099860972,24.621885960990042,0.0,1.0,0.0,0.0,1.0,Taxi
2.7,0.006675507758288348,9.548802500784957,7.411859882339937,0.9945351392423141,-0.621184683305531,245.36462461250653,24.799399166316785,0.0,1.0,0.0,0.0,1.0,Taxi
2.8000000000000003,-0.019397970890826094,24.340562951454256,8.14088059750251,1.42282813731825,0.1543955650701517,245.20636066537577,25.65069460535638,0.0,1.0,0.0,0.0,1.0,Taxi
2.9000000000000004,0.042407434872961274,5.589595700103817,6.7962637951835125,1.388807238908825,-0.08591073524348819,245.1284955004969,24.927290049580506,0.0,1.0,0.0,0.0,1.0,Taxi
3.0,0.03462348625880745,16.50871265905617,6.471167454336343,1.2363628753821017,-0.2446882341854686,245.36365987343117,24.327814157494494,0.0,1.0,0.0,0.0,1.0,Taxi
3.1,0.06314559240445476,4.083703975234857,7.153179152854013,1.4929183491128708,-0.10695002483735243,245.245954029284,25.230614055333223,0.0,1.0,0.0,0.0,1.0,Taxi
3.2,0.06282595474913558,-55.14329238945015,6.594350062809307,1.4412245760077942,-0.8529074910735446,245.16752450903618,24.675991352628106,0.0,1.0,0.0,0.0,1.0,Taxi
3.3000000000000003,-0.2410929756884433,-11.639769724799143,7.896038363837721,1.1076833242084467,0.629137924666055,245.18265249063916,25.163635041732423,0.0,1.0,0.0,0.0,1.0,Taxi
3.4000000000000004,0.0049467437804590975,-5.801384008996241,6.957532102351405,0.9516420651191293,0.7930516276579453,245.28275850382488,24.67810373502286,0.0,1.0,0.0,0.0,1.0,Taxi
3.5,0.03381903470415443,74.5977214941884,7.71560462398846,1.3925550068793013,0.1892212066740327,245.13443674008113,24.952788660118685,0.0,1.0,0.0,0.0,1.0,Taxi
3.6,0.13189563178249875,26.447571959267574,7.315334357755456,0.956721497052175,-0.2844940886835873,245.3093489465266,24.691381659913695,0.0,1.0,0.0,0.0,1.0,Taxi
3.7,0.13718460357679702,-29.249801226530806,6.975703659586528,1.343107475505711,0.18164291315078718,245.37039268685555,24.881707324753737,0.0,1.0,0.0,0.0,1.0,Taxi
3.8000000000000003,-0.1124299714284996,-38.94946971544534,8.419904400013273,1.5790556195102126,-0.04003787194047623,245.09877639799174,25.343384335748013,0.0,1.0,0.0,0.0,1.0,Taxi
3.9000000000000004,-0.06285171679472794,-39.49722039662503,6.843089841909276,1.1741558714431513,-0.04955180427602392,245.2230776501276,24.94714251998555,0.0,1.0,0.0,0.0,1.0,Taxi
4.0,-0.06030149840632814,35.294681270215335,6.834193118704606,1.0581369969409282,0.4430094647732915,245.06784264798387,25.17442811322567,0.0,1.0,0.0,0.0,1.0,Taxi
4.1000000000000005,0.06404343492257711,42.91039123360951,7.1420460558111385,1.0958353776267546,-0.2671919845486508,245.16045568823313,24.432863721286598,0.0,1.0,0.0,0.0,1.0,Taxi
4.2,0.15170023937331964,11.061993894516894,6.665271799954287,1.5228237729699745,-0.28331030835123033,245.1458278852981,24.692083439272164,0.0,1.0,0.0,0.0,1.0,Taxi
4.3,-0.004991528933743643,-36.64512341480283,6.883543395398071,1.2335619712294403,0.23858512645829402,245.23291553507806,24.742726358576565,0.0,1.0,0.0,0.0,1.0,Taxi
4.4,-0.11918218215143701,-44.19430588967456,6.7392212262390085,1.1936276651022684,0.4921922840245684,245.130368620691,26.00583666614759,0.0,1.0,0.0,0.0,1.0,Taxi
4.5,-0.06927129007505314,-7.437929538086917,6.616779073802084,1.1788549882481174,0.9085106378289154,245.19670472048188,24.53082573946212,0.0,1.0,0.0,0.0,1.0,Taxi
4.6000000000000005,-0.042181176624178175,2.9705525190787108,6.848527591978627,1.1657858921545443,0.5409986814969774,245.26875627781192,24.498641865250107,0.0,1.0,0.0,0.0,1.0,Taxi
4.7,-0.10432941955604341,45.197084561419835,7.062717455884258,1.6056760118723274,0.1578543791291037,245.18026598779818,25.469669412101947,0.0,1.0,0.0,0.0,1.0,Taxi
4.800000000000001,0.15671413273204604,6.418097523859458,6.042824705437617,0.8394169551823139,0.0709919673989699,245.22530259691916,25.095180929837312,0.0,1.0,0.0,0.0,1.0,Taxi
4.9,-0.010090689004880846,-4.60008391790618,7.8960291484385134,1.573166027921391,0.47709242579046307,245.4574595845255,25.373830273595892,0.0,1.0,0.0,0.0,1.0,Taxi
5.0,-0.12732983914557428,-49.75278635516835,7.772460073696144,0.9493388051909142,0.348212233972757,245.15548477869004,24.8865818497788,0.0,1.0,0.0,0.0,1.0,Taxi
5.1000000000000005,-0.09204979904379568,-25.144059585196377,6.084002521803039,1.5494221718828456,0.5589265163384205,245.26203236020365,24.947469240614435,0.0,1.0,0.0,0.0,1.0,Taxi
5.2,-0.1358109869308627,53.203630227252575,6.626859096686299,1.2499073226432134,-0.7231805579589763,245.10930964712725,24.904707104609116,0.0,1.0,0.0,0.0,1.0,Taxi
5.300000000000001,0.13868831199068862,-3.452603748921414,7.630626810461596,1.4742587946999146,1.5239581504711495,245.08924497333032,24.54674148024356,0.0,1.0,0.0,0.0,1.0,Taxi
5.4,-0.10931281778840274,30.33136356145543,6.591592097585315,1.2220468509028823,0.1288897375550527,245.13164192408271,23.703070960779566,0.0,1.0,0.0,0.0,1.0,Taxi
5.5,0.01584583087641445,-45.37313752626584,6.251148074482036,1.0085558276772362,-0.25642438231989967,245.10261949053017,25.036951815414472,0.0,1.0,0.0,0.0,1.0,Taxi
5.6000000000000005,-0.08817737564064054,14.924662635150312,7.669059675004207,1.6811805655522913,-0.7029632984307835,245.33784489835944,26.39193571524005,0.0,1.0,0.0,0.0,1.0,Taxi
5.7,-0.0346895046126511,3.5357178444082535,6.887514326941531,1.1421005487234424,-0.1583663445824194,245.27883684112112,23.84681410261966,0.0,1.0,0.0,0.0,1.0,Taxi
5.800000000000001,0.03352442009845579,1.8454961452193384,5.875924817592545,1.2634247759890875,0.16117694744959046,245.29748956576145,24.791723228423443,0.0,1.0,0.0,0.0,1.0,Taxi
5.9,-0.07894989491454378,-35.764933724406326,7.327169053890887,1.2982826296477419,0.5553810968701757,245.0541926431091,25.191049289699613,0.0,1.0,0.0,0.0,1.0,Taxi
6.0,-0.2135141732346827,-30.489606817069575,7.268436117650273,0.9112491934254552,0.5124248093014422,245.3218073317198,25.945605905926516,0.0,1.0,0.0,0.0,1.0,Taxi
6.1000000000000005,-0.11892361398689205,26.95718217579838,7.116130172893392,1.2482065485737444,-0.8650744374805351,245.22378954746273,23.932479201269334,0.0,1.0,0.0,0.0,1.0,Taxi
6.2,0.05583601596444815,49.40073441738082,6.624134704441069,1.3166026643538948,-0.9993166534959946,245.3377058252936,25.606787870705016,0.0,1.0,0.0,0.0,1.0,Taxi
6.300000000000001,0.03348949885222142,7.55773823297297,6.920997507101967,1.364001726322036,0.2908510976300539,245.268794431929,24.42528955093363,0.0,1.0,0.0,0.0,1.0,Taxi
6.4,-0.08113492282202715,-10.765968091621488,7.725827138777089,1.2911086606355358,-0.647426825337994,245.1734675817371,24.834963744711835,0.0,1.0,0.0,0.0,1.0,Taxi
6.5,0.002006175506340761,10.09693085140545,7.010414095499915,1.168618663844664,0.3732325208586701,245.2038419957106,25.10695925454787,0.0,1.0,0.0,0.0,1.0,Taxi
6.6000000000000005,0.08397415310924872,2.784773391453124,5.719257390215091,1.4252421667181019,0.10191149816048373,245.12474568238554,25.670443775576295,0.0,1.0,0.0,0.0,1.0,Taxi
6.7,-0.06721105586476152,11.000205492292954,7.772363888996212,1.2947254286112408,-0.23198155500729334,245.0666347297588,25.732063385246015,0.0,1.0,0.0,0.0,1.0,Taxi
6.800000000000001,0.05700720296780553,-14.171025016504297,6.875470395981664,1.4124102024811165,0.32463763470915746,245.2565641163851,25.071737998711317,0.0,1.0,0.0,0.0,1.0,Taxi
6.9,0.013119028026727235,29.73032660476197,6.4272510915631935,1.2417423980760882,-0.05466916125868175,245.1521612478,25.47401013962209,0.0,1.0,0.0,0.0,1.0,Taxi
7.0,0.08144057715904834,2.8698439114111256,6.6210309169672685,1.3228693882906708,0.9306623178491675,245.3027687380636,25.125260857870387,0.0,1.0,0.0,0.0,1.0,Taxi
7.1000000000000005,0.07135642252486118,-7.194939361827285,7.234444983902667,1.568022706869243,0.4051159925081347,245.10567119666678,25.16871043709491,0.0,1.0,0.0,0.0,1.0,Taxi
7.2,-0.022855668782409168,-21.04417929310951,5.406003617636842,1.3728551770756456,0.6288074622670694,245.25515483862125,24.052966715234767,0.0,1.0,0.0,0.0,1.0,Taxi
7.300000000000001,-0.023780319306499178,-35.00710564660309,6.442981327146679,1.203025823599069,-0.2501280036849045,245.01452820294958,24.723885792358146,0.0,1.0,0.0,0.0,1.0,Taxi
7.4,-0.1036791057081542,-13.511996810009586,6.8282810980029005,1.28234374851728,0.38554150259139286,245.31374476766337,24.698655261405243,0.0,1.0,0.0,0.0,1.0,Taxi
7.5,-0.09041565283245706,20.350889202399987,6.386712918099204,1.0185446483433174,-0.4820452814338128,245.30763486990622,24.396225460549104,0.0,1.0,0.0,0.0,1.0,Taxi
7.6000000000000005,0.0779741267055008,27.919324436371568,6.699386584203513,1.3993154796327925,-0.1908780137246234,245.3175584362192,24.562299988100314,0.0,1.0,0.0,0.0,1.0,Taxi
7.7,0.03591751647370369,5.189218911020362,6.807564022446215,1.1768308579339266,-0.19816540289561355,245.31898957463136,24.87505750014665,0.0,1.0,0.0,0.0,1.0,Taxi
7.800000000000001,-0.0644695582773552,-25.57582654322104,7.05116575831988,1.1571348159646606,-0.06469401824590641,244.9454823583319,24.84213477040529,0.0,1.0,0.0,0.0,1.0,Taxi
7.9,-0.04990500601060436,5.489450231055069,7.356678028689917,1.2753040257336565,0.14668697024906321,245.24812099488406,25.390671384405195,0.0,1.0,0.0,0.0,1.0,Taxi
8.0,0.06336476762897907,4.092091305725229,6.26543560679348,1.616450444891675,-0.6778072096037712,245.0612945919827,24.664156770893698,0.0,1.0,0.0,0.0,1.0,Taxi
8.1,-0.04400910174872903,27.458724147074992,6.85551448873604,1.3850899170713653,0.15684342121358094,245.26770317765295,25.240513132507168,0.0,1.0,0.0,0.0,1.0,Taxi
8.200000000000001,0.08738861472477066,29.913066176407188,6.744553227920833,1.4461060611179444,-0.03747380809224696,245.35735834380307,25.696669628180608,0.0,1.0,0.0,0.0,1.0,Taxi
8.3,0.2129300985110151,37.026103924277706,6.986949799490369,1.2018107545369547,0.02039800582846328,245.20416670934094,25.21917689582119,0.0,1.0,0.0,0.0,1.0,Taxi
8.4,0.1411214178726596,-11.734472129216945,7.132972520151857,1.3312824857194119,0.47983316084286387,245.24520988630604,24.059376211837705,0.0,1.0,0.0,0.0,1.0,Taxi
8.5,0.028716254078686013,-41.44764058928321,7.4782948062910455,1.1688196015689287,0.8362228628025224,245.11308699909273,24.766042337291942,0.0,1.0,0.0,0.0,1.0,Taxi
8.6,0.00569189556459911,-0.09527423616667836,6.149077533457114,1.284886480369245,-0.6791299341578858,245.2188045790865,25.148784746884026,0.0,1.0,0.0,0.0,1.0,Taxi
8.700000000000001,0.1406450466918263,-14.650923897129596,8.310339020533322,0.7823864451830245,-0.04318765072559364,245.26914150233085,25.599644141216633,0.0,1.0,0.0,0.0,1.0,Taxi
8.8,-0.044538365406961905,-4.995103081474654,7.061629102191174,1.01867814820383,0.4242580780421944,245.2654263737511,24.902472390114582,0.0,1.0,0.0,0.0,1.0,Taxi
8.9,-0.019283619842774102,-4.811259501487366,6.550453103217224,1.1189076031951353,0.4075555306658712,245.25224729386935,24.82250406361858,0.0,1.0,0.0,0.0,1.0,Taxi
9.0,0.11658874918438951,27.272650520241417,6.756073514741683,1.599837075903762,-0.1961735815920425,245.19883059982078,24.91227646785667,0.0,1.0,0.0,0.0,1.0,Taxi
9.1,0.09182488719424522,-12.276492354232593,6.95527642376825,1.205757048755959,-0.06754616562865733,245.19475537391907,25.46795396672214,0.0,1.0,0.0,0.0,1.0,Taxi
9.200000000000001,-0.08066608161393701,-33.16773849085058,7.4176561462600175,1.0457402259381468,0.19061714538513544,244.99597321497367,24.954578139548627,0.0,1.0,0.0,0.0,1.0,Taxi
9.3,-0.049249943269863344,-34.562852155190114,7.992455180423447,1.5391580364659505,-0.0818666465036979,245.22056139065444,25.212474836391916,0.0,1.0,0.0,0.0,1.0,Taxi
9.4,-0.0809893735817053,10.339523908208198,6.57107091188147,1.3839678971017666,0.2758200836562609,245.17589498541338,24.60526003828237,0.0,1.0,0.0,0.0,1.0,Taxi
9.5,-0.028968462072895974,51.8710011603263,7.34340741818979,1.3275588914909549,-0.26724664071970383,245.23265293197983,25.14076752797639,0.0,1.0,0.0,0.0,1.0,Taxi
9.600000000000001,0.2101050625317682,19.112782143602534,8.298047633808565,1.1028005851163687,0.1383641507908362,245.1198693592769,24.43069276886713,0.0,1.0,0.0,0.0,1.0,Taxi
9.700000000000001,0.01457453713630743,-21.730757889606746,6.111890836075934,1.149769805608729,-0.1100356118386233,245.19599607457155,25.5421941864428,0.0,1.0,0.0,0.0,1.0,Taxi
9.8,-0.13762225152092966,-69.33070983773486,6.738194760906107,1.4956734937776013,-0.23980203372798933,245.16241269755596,25.32460337653648,0.0,1.0,0.0,0.0,1.0,Taxi
9.9,-0.136548486656906,-16.846823139578543,7.255219913773696,1.3677631515211433,-0.7158277090135287,245.16860546726537,25.798297330817455,0.0,1.0,0.0,0.0,1.0,Taxi
10.0,-0.06965957856158521,10.243521818396173,7.605656693360487,0.9590333089105296,-0.501967344423588,245.31579736492756,25.084327266459088,0.0,1.0,0.0,0.0,1.0,Taxi
10.100000000000001,-0.08640464242894874,5.310948170595275,8.185822015850558,1.4730505474808033,1.401200050345624,245.06383907078384,24.382514371362983,0.0,1.0,0.0,0.0,1.0,Taxi
10.200000000000001,-0.10999374580392957,20.536716188497532,6.147865564373052,1.5094455334320238,-0.576494965111593,245.1674246429393,25.066088260623275,0.0,1.0,0.0,0.0,1.0,Taxi
10.3,0.033024002380902535,11.243414636662012,5.937764810419717,0.8835764051901145,0.11337483748499787,245.28880559732,24.195536737606343,0.0,1.0,0.0,0.0,1.0,Taxi
10.4,-0.030187569245638604,27.758399888446053,6.847483900044694,1.111599326958099,0.7326906892848396,245.25244333978299,25.144976524690026,0.0,1.0,0.0,0.0,1.0,Taxi
10.5,0.028798253638300797,21.25769960021516,7.866361740557717,1.2263830508373734,-0.2857585780294481,245.2261999097119,25.349823710334245,0.0,1.0,0.0,0.0,1.0,Taxi
10.600000000000001,0.13931250038197837,-13.274028567892515,7.271663954890505,1.2876314278511825,0.4961596075905427,245.18366333244148,25.185931721133,0.0,1.0,0.0,0.0,1.0,Taxi
10.700000000000001,-0.0965577120851012,-13.512575213764045,7.310134390199285,1.0419175512846377,-0.014993250558211333,245.24818345382585,24.79509344012642,0.0,1.0,0.0,0.0,1.0,Taxi
10.8,-0.03876462243051943,-25.893643929109867,7.008636185902898,1.24708641754381,-0.3913513038052578,245.29990531558724,24.6772429526696,0.0,1.0,0.0,0.0,1.0,Taxi
10.9,0.009844280736429078,16.661064389864435,7.568974149777345,1.3559072613112462,0.558934657372738,245.00422644068203,25.498188362160878,0.0,1.0,0.0,0.0,1.0,Taxi
11.0,-0.013252390135778955,11.577637461966816,6.5613151428694545,1.2781029042514582,0.1529525622648597,245.32954683338426,25.90960183856141,0.0,1.0,0.0,0.0,1.0,Taxi
11.100000000000001,0.019123564879314704,6.54391013152627,6.676473467186789,1.4735634781482934,0.7022344518533002,245.1960163536245,25.263953330991367,0.0,1.0,0.0,0.0,1.0,Taxi
11.200000000000001,0.04256383139406048,-8.756486870398861,6.771461196951151,1.1525083090843988,-0.1685698506366819,245.30769791065097,25.36918651590676,0.0,1.0,0.0,0.0,1.0,Taxi
11.3,-0.05703482448777322,17.771431387211916,6.850797713704313,1.8352832809982527,-0.29736851156197464,245.3193552372062,25.09583742771673,0.0,1.0,0.0,0.0,1.0,Taxi
11.4,0.10798072181537433,-4.051732941261586,6.125558179206022,1.0329063338790598,0.736694667359558,245.32815635691236,24.869626101403803,0.0,1.0,0.0,0.0,1.0,Taxi
11.5,0.0223051666877526,10.33457070299988,7.223731309503062,0.8719550456420784,-0.48353884388312157,245.3463967872858,25.906198305350788,0.0,1.0,0.0,0.0,1.0,Taxi
11.600000000000001,-0.005361970972773764,1.9494369375084706,7.048059184511553,1.7328342671487007,-0.10096312948241834,245.14921549616452,24.6367121129062,0.0,1.0,0.0,0.0,1.0,Taxi
11.700000000000001,0.11772790650291676,-34.606870840514866,6.7959290117786155,0.7431504651028578,-0.002918096244085729,245.13164500254595,25.193730049250103,0.0,1.0,0.0,0.0,1.0,Taxi
11.8,-0.15072918751482167,-16.523722656072103,7.301006547533099,1.3694484280690515,0.1477059643443523,245.1744154890457,24.947284401537676,0.0,1.0,0.0,0.0,1.0,Taxi
11.9,-0.08798058425313422,18.692821050725495,7.515304526852511,1.291198254063818,0.8624770336749698,245.23477627055354,24.764309871451925,0.0,1.0,0.0,0.0,1.0,Taxi
12.0,0.21119201175654428,20.606119748419435,6.53601050248238,1.037107105488258,0.9928566561101901,245.29224238882762,24.229500495160405,0.0,1.0,0.0,0.0,1.0,Taxi
12.100000000000001,-0.04769858877272444,16.132333882881824,7.468527496171199,1.1641165782834912,-0.19404640276949056,245.18421788977537,25.078233904392228,0.0,1.0,0.0,0.0,1.0,Taxi
12.200000000000001,-0.007318914838725045,-28.187457017596945,6.476188670109222,1.3308214883079295,0.0277386013018823,245.14046400587108,24.605318620084976,0.0,1.0,0.0,0.0,1.0,Taxi
12.3,0.07025472666855957,28.501254065826675,7.3051403999091304,1.4001322562628717,-0.35920881088335305,245.19076112611833,25.482118718271856,0.0,1.0,0.0,0.0,1.0,Taxi
12.4,0.09480768155640901,-12.290615777397669,7.463964593968946,1.281294761967679,-0.13239740309029438,245.39426018291738,24.417427339826354,0.0,1.0,0.0,0.0,1.0,Taxi
12.5,-0.06877199372571337,-47.16213075593533,5.731927856923389,1.4490367168811304,0.7186959383742411,245.1575407406699,24.49118482867104,0.0,1.0,0.0,0.0,1.0,Taxi
12.600000000000001,-0.16555592711111708,-50.28772943052644,7.192097460399052,1.4230979953546679,-0.14680448705750881,245.0926534005116,25.275523823659448,0.0,1.0,0.0,0.0,1.0,Taxi
12.700000000000001,-0.15663096559622317,38.02587104844584,7.4035664346907355,1.0354703989729217,-0.1476069702243451,245.24777216044822,25.84323655312137,0.0,1.0,0.0,0.0,1.0,Taxi
12.8,0.12135736151651583,59.73883502959311,6.149499485614432,1.4088975500582366,0.02258070076102628,245.18279826290313,24.878363598539877,0.0,1.0,0.0,0.0,1.0,Taxi
12.9,0.1331382480368485,60.26706945692112,7.191887460023508,1.1320839203909532,-0.3225008486522235,245.237913407747,25.179146485538833,0.0,1.0,0.0,0.0,1.0,Taxi
13.0,0.14470438168838246,-40.06146919784317,7.111753359517258,1.1815881338559797,-0.7758720468657258,245.1857735991938,25.30328640717561,0.0,1.0,0.0,0.0,1.0,Taxi
13.100000000000001,-0.07894998447269996,25.499544944660585,6.9868356622910515,1.329898904556233,-0.1684139722009064,245.0788655724166,24.97750739738386,0.0,1.0,0.0,0.0,1.0,Taxi
13.200000000000001,0.26063597276015144,-25.899387423584955,6.836445828332588,1.3471956755146746,0.06441631022919145,245.20321010257862,25.374529792197787,0.0,1.0,0.0,0.0,1.0,Taxi
13.3,0.015207444570457694,65.23854422480956,7.962776423276766,1.262882133240953,0.6315201285837777,245.38889954711556,25.4854420671601,0.0,1.0,0.0,0.0,1.0,Taxi
13.4,0.24724273665134786,-35.05934337933414,6.298772780427297,1.2884107536914255,-0.30064560617123337,245.212825698291,23.264406192255027,0.0,1.0,0.0,0.0,1.0,Taxi
13.5,0.08533925586348079,-2.745882885583119,7.462373066760345,1.0261368128158244,0.8020322029766269,245.2337142755165,24.867425104694796,0.0,1.0,0.0,0.0,1.0,Taxi
13.600000000000001,0.0014780301425421321,-64.6360562208927,6.760924796612871,1.373057239982211,-0.11892805594247502,245.23575787443792,24.57020480641469,0.0,1.0,0.0,0.0,1.0,Taxi
13.700000000000001,-0.07593754445311558,-35.59257439891544,6.660083841336263,1.330622246013133,0.14950319984830285,245.33290666160747,24.88702307160466,0.0,1.0,0.0,0.0,1.0,Taxi
13.8,-0.09262361613109639,-11.872145421301584,7.817535714711298,1.2553233001430886,-0.6575878711916234,245.10635213749663,25.845594565732156,0.0,1.0,0.0,0.0,1.0,Taxi
13.9,-0.05788269696396575,35.423935074499845,6.107106187300269,1.1539830898698165,-0.26065144904971044,244.96341946357325,26.116825329181992,0.0,1.0,0.0,0.0,1.0,Taxi
14.0,0.10118213091938365,32.806514883992726,6.024648892813263,1.4619308855775268,-0.40664431549390373,245.24127991518185,24.59735321700649,0.0,1.0,0.0,0.0,1.0,Taxi
14.100000000000001,0.07140895828886727,5.721824863198819,6.847283592770532,1.5636469809502984,-0.46749940640298,245.38921014688196,25.490464162959167,0.0,1.0,0.0,0.0,1.0,Taxi
14.200000000000001,-0.029273572647971664,7.365917052399638,7.1304468730340576,1.4655319534765932,-0.14383841127960276,244.92246647374645,25.039902905582668,0.0,1.0,0.0,0.0,1.0,Taxi
14.3,0.13801171618138183,-24.321324560389872,8.128989204815563,1.423723464426189,0.865055509588985,245.2650126937266,24.308252136857856,0.0,1.0,0.0,0.0,1.0,Taxi
14.4,-0.050197664513082066,-4.154518269981426,7.4459925874542865,1.1152732983153644,-0.1917103514298937,245.3689706232508,24.311909579120318,0.0,1.0,0.0,0.0,1.0,Taxi
14.5,-0.05004616399787877,-32.021669372362474,7.382544664406883,1.2663231238526629,-0.7588399922119725,245.18598907469686,24.024637096686202,0.0,1.0,0.0,0.0,1.0,Taxi
14.600000000000001,-0.022096630680430534,0.31912454597005535,8.801281887490148,1.2432342712559559,0.09036270128400163,245.07075565487526,24.253985009141346,0.0,1.0,0.0,0.0,1.0,Taxi
14.700000000000001,-0.04860204178323179,32.47420973248036,7.256061182820762,1.6362999189130107,0.01128618753967843,245.16977888113888,24.643780044769215,0.0,1.0,0.0,0.0,1.0,Taxi
14.8,0.11232488466452302,2.903756158606091,6.401988199519039,1.1370660263163461,0.3274257242500419,245.13527121283823,25.07932513133883,0.0,1.0,0.0,0.0,1.0,Taxi
14.9,-0.007577849887400078,2.1455733887118917,6.111173202518307,1.4534746442219273,-0.8989061622556193,245.1663154909079,24.54732542099861,0.0,1.0,0.0,0.0,1.0,Taxi
15.0,-0.03787417483967233,-24.3681402027669,7.964500175724341,1.1977107474373698,-0.17089764666966706,245.17518127342385,24.36173046566699,0.0,1.0,0.0,0.0,1.0,Taxi
15.100000000000001,-0.009515816349311446,-2.2994844514357786,7.1530854563696415,1.407582969698535,0.20787710885137478,245.18272037614872,25.18899941506917,0.0,1.0,0.0,0.0,1.0,Taxi
15.200000000000001,-0.019075272144578964,13.949686776922084,6.640634681622972,1.2840468060191936,0.11730600165176723,245.08969092029304,24.934724416900167,0.0,1.0,0.0,0.0,1.0,Taxi
15.3,0.03187425904493809,0.24603138882039013,6.333772829653234,1.526039104955852,1.299107245644146,245.2802042306248,24.517225319423684,0.0,1.0,0.0,0.0,1.0,Taxi
15.4,-0.008285659405209481,-25.707929105900295,6.92589159284656,0.9706438630157259,-0.711690123872992,245.04276799506874,24.51673117174132,0.0,1.0,0.0,0.0,1.0,Taxi
15.5,-0.14761491767408041,-0.6524663054806012,6.878975037205027,1.3271221611507449,-0.2282272506530904,245.3083346821844,24.490963872705336,0.0,1.0,0.0,0.0,1.0,Taxi
15.600000000000001,0.028611927517535114,-8.65366355585745,6.843432468820264,1.4172577812960374,-0.15541563668466488,245.11527085167086,24.901683431552637,0.0,1.0,0.0,0.0,1.0,Taxi
15.700000000000001,-0.051553977184496724,51.17760288571256,6.50097464314645,1.1382213778664936,0.8361542251611079,245.2276222852189,25.307589850225586,0.0,1.0,0.0,0.0,1.0,Taxi
15.8,0.10827309675448236,-23.4928149528524,6.036664195130835,1.4236337569995836,0.16177207159864349,245.2100589640546,25.0247221012701,0.0,1.0,0.0,0.0,1.0,Taxi
15.9,-0.08885214724672692,37.69953293190567,6.566789074325488,1.6102769142127789,0.1665550177265621,245.1921941793621,24.867582630127643,0.0,1.0,0.0,0.0,1.0,Taxi
16.0,0.13694368747503155,14.419457098096439,5.237207938031802,1.372521374007714,-0.2374302726868202,245.18253203762913,25.199781674084242,0.0,1.0,0.0,0.0,1.0,Taxi
16.1,0.18037038224496452,-11.843698101353178,6.3305247445048245,0.9017041847948606,-0.9373863111419656,245.09532088582932,25.431899206201482,0.0,1.0,0.0,0.0,1.0,Taxi
16.2,-0.14807063775349286,-66.50855351778343,5.370554929521906,1.2565318941131536,-0.46418995889307496,245.27298864315196,25.149390990253252,0.0,1.0,0.0,0.0,1.0,Taxi
16.3,-0.19559908011388555,-32.548931435323915,6.93758943721685,1.4288314546361245,-0.7485124566701067,244.99955623036374,24.771224435638086,0.0,1.0,0.0,0.0,1.0,Taxi
16.400000000000002,0.01762572506834492,20.349572172396076,5.914893646516805,1.191083187665376,-0.15256140098202536,245.20888547157847,24.757467294116825,0.0,1.0,0.0,0.0,1.0,Taxi
16.5,-0.046322776891512485,-14.721067770233555,5.58170378369774,1.1255137934443609,-0.4184564401810466,245.22201145210875,24.598939292364992,0.0,1.0,0.0,0.0,1.0,Taxi
16.6,-0.2692044189650533,32.2453740975612,6.844386329048043,1.2944423963046607,0.2954866747407767,245.20188543021186,24.325099992832875,0.0,1.0,0.0,0.0,1.0,Taxi
16.7,0.17885259555615096,35.4942190032185,7.47733182474189,1.4951320113268447,-0.5169585327937376,245.14748338150798,25.049946191457853,0.0,1.0,0.0,0.0,1.0,Taxi
16.8,0.13114831812458003,90.60094740223052,7.9439151950941564,1.4126254528467201,-0.37418896123826406,245.15722414193328,24.551285054843703,0.0,1.0,0.0,0.0,1.0,Taxi
16.900000000000002,0.1838003180460993,-16.574268218879382,7.20043026531571,1.0356433233888866,-0.4272003483475966,245.05954797135348,25.454277375652364,0.0,1.0,0.0,0.0,1.0,Taxi
17.0,0.09598125446175407,-29.215596025733092,6.971794284772733,1.325900120865239,-0.42033345175990866,245.12871920420014,24.916013668531257,0.0,1.0,0.0,0.0,1.0,Taxi
17.1,-0.014929662004085412,-63.10568600444651,6.575897239904871,0.935727850468111,0.23643791576799247,245.06596630396007,24.640733546635207,0.0,1.0,0.0,0.0,1.0,Taxi
17.2,-0.1317281119761332,-24.645748152071608,6.526957520181994,0.9320081231706019,0.00364887335659651,245.12468010218151,24.284598201282588,0.0,1.0,0.0,0.0,1.0,Taxi
17.3,-0.02724748629860399,19.06693332896737,6.423475347556932,1.0057075866112173,-0.7124278887580777,245.20513590844666,25.125718569717492,0.0,1.0,0.0,0.0,1.0,Taxi
17.400000000000002,0.08040500464075145,17.808718052890057,7.2753973644535135,1.3679350602675502,-0.7651950989388431,245.12105394267655,24.776354515731548,0.0,1.0,0.0,0.0,1.0,Taxi
17.5,-0.04268452171168292,22.10264470646257,7.162951762950423,1.2230664913854146,-0.6184121548319317,245.15644367847563,25.543367309416606,0.0,1.0,0.0,0.0,1.0,Taxi
17.6,0.08326573723370886,-36.09740622848847,6.682094048848586,1.3464325126785883,0.09358110151917379,245.09723610498668,25.09003820301787,0.0,1.0,0.0,0.0,1.0,Taxi
17.7,-0.10008202650169087,27.939852816085082,8.229026819233972,1.1969141433021206,0.06780438421432074,245.25213022885362,25.019874874683463,0.0,1.0,0.0,0.0,1.0,Taxi
17.8,0.09701474236874252,-22.329562349824158,7.883240025085751,1.3013827666178228,-0.317160893761187,245.3011559553297,25.1129833184636,0.0,1.0,0.0,0.0,1.0,Taxi
17.900000000000002,-0.0283820745154119,18.116874225687344,6.652222271432108,1.0734683927488284,0.2553543633528822,245.16668380804674,25.57928473344807,0.0,1.0,0.0,0.0,1.0,Taxi
18.0,-0.009497655373254123,-7.080185669713349,8.302231577831426,1.4902502956053536,-0.14869585873758467,245.12817266573302,24.902317980935564,0.0,1.0,0.0,0.0,1.0,Taxi
18.1,0.06161381402017579,-5.018374473748182,6.786320851678816,1.41018958416674,0.00682104895132396,245.23381089594682,24.63646339069931,0.0,1.0,0.0,0.0,1.0,Taxi
18.2,-0.05347394688415278,-4.405711966767558,8.238750727550473,1.0683015804571296,-0.30741400272978286,245.04546421890848,25.463167446948372,0.0,1.0,0.0,0.0,1.0,Taxi
18.3,-0.03152621520709188,6.294938680910484,6.4645057304392015,1.3655088330801872,-0.8449092513321891,245.0420187242039,25.026074372885358,0.0,1.0,0.0,0.0,1.0,Taxi
18.400000000000002,0.09308850742472824,-7.5691920998418425,6.9332883012257245,1.516874137466658,-0.3225366913052816,245.1454689311098,24.87964208739642,0.0,1.0,0.0,0.0,1.0,Taxi
18.5,-0.09131990738336197,5.7876608402256124,6.994023900106182,1.5368347374984006,0.07735317124213721,245.22656151170372,24.72878962994214,0.0,1.0,0.0,0.0,1.0,Taxi
18.6,-0.0025879110059637885,-42.4337146565094,6.569473382652555,1.732598402373045,-0.10705295160459673,245.40069718818359,24.465686189827302,0.0,1.0,0.0,0.0,1.0,Taxi
18.7,-0.11908006585781875,-14.499357631645168,7.555754796447467,1.3402104376105919,-0.1715560889718859,244.96444959266978,24.7256973996234,0.0,1.0,0.0,0.0,1.0,Taxi
18.8,-0.1638166955415878,5.695964314224322,6.463451274154839,1.5578538482370992,-0.06609459888313567,245.2129852152409,25.161630071627446,0.0,1.0,0.0,0.0,1.0,Taxi
18.900000000000002,0.025891910565157814,40.61863677888061,6.332352192234885,1.571473792274958,-0.0693907688129163,245.23508454346688,24.415128539961955,0.0,1.0,0.0,0.0,1.0,Taxi
19.0,0.08401311803658428,-1.391383229626759,7.553406743648753,1.1664475046183855,0.013059178519723387,245.27981192722564,24.50853354948618,0.0,1.0,0.0,0.0,1.0,Taxi
19.1,-0.1707736116897216,24.691230455359364,6.604759486814148,1.5550915507044072,-0.32972204634646823,245.21645107989752,24.17269376598826,0.0,1.0,0.0,0.0,1.0,Taxi
19.200000000000003,0.14934806284195468,-13.563936961588935,6.313295097451485,1.508097093031873,0.42098877368894017,245.31858584521137,25.72391817212672,0.0,1.0,0.0,0.0,1.0,Taxi
19.3,0.016193433228639646,21.46353780570372,6.03064588598147,1.0985689909098646,0.7554805334573984,245.03942782930073,24.832730674094748,0.0,1.0,0.0,0.0,1.0,Taxi
19.400000000000002,-0.06345592266120297,-13.090681549443895,7.080743256834041,1.1365057336857964,0.29998665828816684,245.1596047875936,25.323992359911998,0.0,1.0,0.0,0.0,1.0,Taxi
19.5,0.0838946550947352,-17.79675717068163,7.600348475002214,1.6404968817859336,-0.5601996723757705,245.2712508131949,26.50109382701975,0.0,1.0,0.0,0.0,1.0,Taxi
19.6,-0.0727903526247685,7.413339124820271,7.882259897858415,1.1772205292792637,0.29123196886782654,245.0843190088492,25.362988497568665,0.0,1.0,0.0,0.0,1.0,Taxi
19.700000000000003,-0.02638922703710161,-34.136132620297325,7.799881734893084,1.409568785034967,-0.11919097852462912,245.19100360328036,24.526305073141675,0.0,1.0,0.0,0.0,1.0,Taxi
19.8,-0.0867860080067514,1.6769620119915487,8.627364184187254,1.3603614729826259,0.39581547056019034,245.31148505880378,24.142708133237697,0.0,1.0,0.0,0.0,1.0,Taxi
19.900000000000002,-0.06440554256481075,-3.466699247429825,6.346019581541654,1.0429571232452186,-0.25350562461009524,245.24177385978646,25.41335902112241,0.0,1.0,0.0,0.0,1.0,Taxi
20.0,-0.043722723274250724,30.51727423259092,7.3240656579880845,1.5024413074474439,-0.19532423610175267,245.08606832374744,24.362784282767954,0.0,1.0,0.0,0.0,1.0,Taxi
20.1,0.06580036315620322,5.672037434974125,7.448430180809236,1.3028837570567529,0.2102159445857576,245.02097322388659,25.19687402587009,0.0,1.0,0.0,0.0,1.0,Taxi
20.200000000000003,-0.036045355389940116,-25.990926272510944,6.874400430685337,1.343725879603768,-0.29787398734462417,245.2086081793393,25.407044459132027,0.0,1.0,0.0,0.0,1.0,Taxi
20.3,-0.17367735463680542,0.5446942010808868,7.254231850832581,1.0909236184181808,-0.29027951567203364,245.22732948630278,24.795505428639483,0.0,1.0,0.0,0.0,1.0,Taxi
20.400000000000002,0.06852383416160772,-14.321657897710821,6.764374572538772,0.8448410550482843,-0.4578766638775456,245.17657266224842,23.710372185870806,0.0,1.0,0.0,0.0,1.0,Taxi
20.5,-0.10765364487849419,49.09552629450828,7.617480019350429,1.1786936058930844,0.10906226369575199,245.12262254582367,25.50468876146404,0.0,1.0,0.0,0.0,1.0,Taxi
20.6,0.07180027683573598,8.767788923241316,7.607746533744607,1.1309821935179247,0.03929849766049009,245.22500383218392,24.932691458612243,0.0,1.0,0.0,0.0,1.0,Taxi
20.700000000000003,0.11236277877781427,18.877309156750083,6.391048023091359,1.683621454461469,-0.4660870472970742,245.19876123766926,25.874747867623682,0.0,1.0,0.0,0.0,1.0,Taxi
20.8,-0.013267099094743749,-10.132601210401623,6.197604609481878,1.256130517150638,0.1881290043991792,245.34112033258896,25.34510656276241,0.0,1.0,0.0,0.0,1.0,Taxi
20.900000000000002,0.021137270783727874,-60.1887926486365,6.239592486226852,1.3388230348552235,-0.2555958223547911,245.2172258161271,25.308077464555264,0.0,1.0,0.0,0.0,1.0,Taxi
21.0,-0.1885811844653682,21.88512431108664,6.706965847137413,1.3774565685734335,0.06818594435121568,245.1830448361343,24.968132656025354,0.0,1.0,0.0,0.0,1.0,Taxi
21.1,0.09615852246068947,28.516980131566147,7.514399556495217,1.615321578429198,0.07332224731020823,245.070918635182,25.377561152698902,0.0,1.0,0.0,0.0,1.0,Taxi
21.200000000000003,0.16372217144155865,53.288258949741156,7.201184606944154,1.5032011312720055,0.654657250281572,245.23981224008708,24.100481649116052,0.0,1.0,0.0,0.0,1.0,Taxi
21.3,0.07786011028333756,-41.86886066744552,7.011870434513185,1.4326712751335824,-0.7293490887033538,245.2615209371604,24.588714039497532,0.0,1.0,0.0,0.0,1.0,Taxi
21.400000000000002,-0.11318578087653815,2.0362910794681,7.272205509034364,1.3207734275510552,-0.33853311198939623,245.34578078874597,24.251337732509594,0.0,1.0,0.0,0.0,1.0,Taxi
21.5,0.17390362683889912,-9.380164987519573,7.139865220256723,1.096130042308272,0.7322867121876845,245.15013277731782,24.68016621152114,0.0,1.0,0.0,0.0,1.0,Taxi
21.6,0.03095928534573967,12.595707680218538,7.094851264092337,1.1450016103987855,0.009373617681415378,245.2957176565999,25.343340642725337,0.0,1.0,0.0,0.0,1.0,Taxi
21.700000000000003,-0.05020724247544546,-22.067558034283937,6.909296553235653,1.5383566937795314,0.16237568726923443,245.2240170394931,25.483758011678226,0.0,1.0,0.0,0.0,1.0,Taxi
21.8,0.06356583666747943,9.981038655133768,5.588789613487445,1.4336671155827763,0.4004105312169326,244.99921182382582,25.567374698709315,0.0,1.0,0.0,0.0,1.0,Taxi
21.900000000000002,0.0808644786214085,-10.637124970808964,7.545240177945648,1.3752393596877819,-0.010407705197923769,245.33380389178524,24.57123388515651,0.0,1.0,0.0,0.0,1.0,Taxi
22.0,-0.1033928673294903,-15.28594679605643,7.943040402501378,1.29005617897514,-0.8865361232338757,245.43932718000895,24.230844990197006,0.0,1.0,0.0,0.0,1.0,Taxi
22.1,-0.012863897312802748,-5.334423849598553,7.671672131150031,1.2364527388076738,0.5613652910605725,245.20876472862642,25.13109028160218,0.0,1.0,0.0,0.0,1.0,Taxi
22.200000000000003,0.05419235937341571,25.80724594847145,7.255441943735073,1.3880183443467988,-0.14483681891115266,245.1736531848395,25.299374380988734,0.0,1.0,0.0,0.0,1.0,Taxi
22.3,0.025643362412866955,39.94128729672397,6.745883977005368,1.3467138709668691,-0.21804930422011942,245.24751751006193,25.287829518306253,0.0,1.0,0.0,0.0,1.0,Taxi
22.400000000000002,0.18684253917081706,-16.201688410122717,6.941665857130963,1.3809622284393466,0.4996804322261843,244.99443197901462,24.399090474671222,0.0,1.0,0.0,0.0,1.0,Taxi
22.5,-0.026816082677197935,21.130020047193295,6.504702800959569,1.1829503066972644,0.2696761388469355,245.37138536117436,26.378671681189036,0.0,1.0,0.0,0.0,1.0,Taxi
22.6,0.1312934626488334,-18.940443997500676,7.563459704357935,1.0565663942782144,-0.15662140810322178,245.22869236252677,25.045826138330902,0.0,1.0,0.0,0.0,1.0,Taxi
22.700000000000003,0.09214031918331367,24.123004359009155,6.690585898221612,1.2989836560129913,-0.2451039680557575,245.07231948166668,25.153985547809725,0.0,1.0,0.0,0.0,1.0,Taxi
22.8,0.09379893911784781,-14.596537858720788,5.971144066681787,1.1823296650791282,-0.5172767681530204,245.1800666174131,24.36172486959179,0.0,1.0,0.0,0.0,1.0,Taxi
22.900000000000002,0.05831077335522941,-14.346236619982141,7.208866803460399,1.0370582405184314,0.9602644160412073,245.12680590100376,25.71687327737724,0.0,1.0,0.0,0.0,1.0,Taxi
23.0,0.020409136083402914,-15.32446828438571,6.954702538957088,1.3242512322225373,0.030203994269913072,245.2753666510398,25.381475136600272,0.0,1.0,0.0,0.0,1.0,Taxi
23.1,0.017176597695919206,-39.315688909504466,7.01287593813327,1.182592991806693,0.036047386595750644,245.2651251615864,25.01642517454993,0.0,1.0,0.0,0.0,1.0,Taxi
23.200000000000003,-0.13826767119229297,-14.059192195431867,7.553530144905146,1.3840054861649622,0.0014916907694519327,245.32800100794861,25.658691312585617,0.0,1.0,0.0,0.0,1.0,Taxi
23.3,-0.04988682489375647,-39.89515531266401,6.670786529710599,1.0793894737806804,-0.47728698236830874,245.3472707236316,24.65773527560962,0.0,1.0,0.0,0.0,1.0,Taxi
23.400000000000002,-0.18229917886740088,52.53201270196928,8.359992455569362,1.4307443250183811,-0.7012965661410079,245.18069873298145,25.337433997476484,0.0,1.0,0.0,0.0,1.0,Taxi
23.5,0.12439239231755335,-12.267868095629325,6.783545839956537,1.756322846337507,-0.15171334895744856,245.17546175037046,24.891836205808463,0.0,1.0,0.0,0.0,1.0,Taxi
23.6,-0.1112261653719032,66.34499360609114,5.981051845464054,1.3577862030495214,-0.37124819302781265,245.253595601381,24.881603449698535,0.0,1.0,0.0,0.0,1.0,Taxi
23.700000000000003,0.14942578916305468,-39.46469911023973,7.381797014186394,0.8403191070397253,0.6059775323673289,245.2576309509359,25.886005199285297,0.0,1.0,0.0,0.0,1.0,Taxi
23.8,-0.0729311032336454,-3.2060525346997437,5.557741556271834,1.3512726456408548,0.6377275180609048,245.13614969497212,24.72576352325856,0.0,1.0,0.0,0.0,1.0,Taxi
23.900000000000002,-0.12725642804540202,-29.628017931980732,6.944596507221035,1.0669766532246898,-0.28151104689688433,245.47787023727835,25.349767356249107,0.0,1.0,0.0,0.0,1.0,Taxi
24.0,0.0012856995031509198,19.382306560548418,7.1902482450891725,1.4027401323528321,0.47868567351893665,245.07432858862433,23.80756373861263,0.0,1.0,0.0,0.0,1.0,Taxi
24.1,0.02398042956909657,6.05252004395975,7.429232451669386,1.2091022720036748,-1.2346292947728854,245.19840658914302,24.921155678730766,0.0,1.0,0.0,0.0,1.0,Taxi
24.200000000000003,-0.09699382782560338,-11.049807048205599,6.722929765103833,1.1221505430213907,0.5334642462538626,245.119249168721,25.290045963369604,0.0,1.0,0.0,0.0,1.0,Taxi
24.3,-0.053963335737877184,27.43501273894923,6.368252816893952,1.5086090802809413,-0.5874405868028384,244.9140515564269,24.94068803573585,0.0,1.0,0.0,0.0,1.0,Taxi
24.400000000000002,0.1611554932638426,23.615962675012224,5.831848590102418,1.0896858928764193,0.8892615999274758,245.2140937100769,25.889114324214297,0.0,1.0,0.0,0.0,1.0,Taxi
24.5,0.02108598554945762,-2.9082395853447167,7.732484062629688,1.531860570583991,-0.7448992127799486,245.06359034557863,24.951848091675675,0.0,1.0,0.0,0.0,1.0,Taxi
24.6,-0.0685045336646009,-65.77852467389268,7.657552237502662,1.4386005130583017,-0.7282540243237171,245.23760998042314,24.51685597868514,0.0,1.0,0.0,0.0,1.0,Taxi
24.700000000000003,-0.16773713010562089,38.59492964694238,7.644619782976989,1.1486103593104495,-0.5258621899911932,245.3180497368096,24.527872114014915,0.0,1.0,0.0,0.0,1.0,Taxi
24.8,0.21406063378416942,35.16448060131764,6.60397724257624,1.1944182213856587,0.25646334811314137,245.05865869246395,25.267516243916436,0.0,1.0,0.0,0.0,1.0,Taxi
24.900000000000002,0.10731786934198716,35.50462961690207,7.261521180313626,0.9994200840591052,0.1777984540246147,245.18439331696447,25.018727453652627,0.0,1.0,0.0,0.0,1.0,Taxi
25.0,0.00978601797888932,-56.13527747135361,6.990672702300276,1.1605511462468587,-1.3928573599613467,245.3453083680779,24.417571396933898,0.0,1.0,0.0,0.0,1.0,Taxi
25.1,-0.0666157535725987,-33.71751939018335,5.7855986398649355,1.5234971717413641,0.5989532546332188,245.37426965660006,24.69695713773088,0.0,1.0,0.0,0.0,1.0,Taxi
25.200000000000003,-0.06126972760892968,7.993918757161093,7.174560705384007,1.0069950313916243,0.1962004167713864,245.30934947616845,24.581692151679704,0.0,1.0,0.0,0.0,1.0,Taxi
25.3,0.04975561176469469,-26.14991888000283,7.304801317852373,1.11487741947479,0.3828055354905784,245.48164642773895,23.750154971722463,0.0,1.0,0.0,0.0,1.0,Taxi
25.400000000000002,-0.19736534797261296,-29.233816458503167,6.498912394764907,1.4087751279546774,-0.6991343165713646,245.40581422326136,25.942436648190732,0.0,1.0,0.0,0.0,1.0,Taxi
25.5,-0.20743880990144561,-18.274421879060966,7.9134845713735675,1.5268795004621318,-0.486312201738956,245.28184988882333,24.482522287609253,0.0,1.0,0.0,0.0,1.0,Taxi
25.6,-0.04161649763061022,10.619183443596976,7.317809927835121,1.4200379230787052,0.15858827284466293,245.22667235444646,24.92889298142688,0.0,1.0,0.0,0.0,1.0,Taxi
25.700000000000003,-0.14426943075462814,52.48436033024751,6.840562544965645,1.0172523612165816,-0.06619519036629175,245.12126781840539,25.344732541985255,0.0,1.0,0.0,0.0,1.0,Taxi
25.8,0.054982991749791855,-1.8760524597538957,7.109974755299414,1.1527898526803169,-0.5170709276382525,245.29113916134497,25.28621172779085,0.0,1.0,0.0,0.0,1.0,Taxi
25.900000000000002,-0.0509967599293798,36.731654535728076,6.496662754177537,1.4617380771975244,0.3525980358013314,245.1503565077653,24.702948645331052,0.0,1.0,0.0,0.0,1.0,Taxi
26.0,0.039388841924012125,9.344025167396621,8.121354389015464,1.4478415529439108,0.3187942338080667,245.1946633352511,25.090246996811732,0.0,1.0,0.0,0.0,1.0,Taxi
26.1,0.10170311758677485,8.254615416910326,6.993999890251692,1.1128464732398498,-0.07339794441955928,245.20752474802543,24.498434091852562,0.0,1.0,0.0,0.0,1.0,Taxi
26.200000000000003,-0.009723682844828255,-0.02264192582882411,7.051705570960415,1.3766485702295004,0.7207582431404248,245.2819658145338,24.407610995757057,0.0,1.0,0.0,0.0,1.0,Taxi
26.3,0.039275632294867927,-6.840075202967608,6.722242396657404,1.2370195341471368,-0.6348579784394175,245.18786460279136,25.225685644441068,0.0,1.0,0.0,0.0,1.0,Taxi
26.400000000000002,0.06750274157193673,3.127655611652815,7.065814089876241,1.387565797409676,-0.09889136914622393,245.20397114003094,25.16370928138707,0.0,1.0,0.0,0.0,1.0,Taxi
26.5,0.005914595213435724,27.401731403591302,7.095626657732292,1.2574707109943122,-0.5413345087900799,245.26431748711934,25.083976355515812,0.0,1.0,0.0,0.0,1.0,Taxi
26.6,0.17628428931282436,-8.374247193369891,6.038686565910809,0.6451883067134583,-0.1989331041986744,245.37830359725706,25.334308143024277,0.0,1.0,0.0,0.0,1.0,Taxi
26.700000000000003,0.02563150560508718,-26.713786797413125,7.8047749063617555,1.1885910306040757,0.3053695501348731,245.19341853630874,24.387761515096336,0.0,1.0,0.0,0.0,1.0,Taxi
26.8,-0.12765433877363,-49.96620876906218,8.077617210633361,1.4399511368425153,-0.4720692762583771,245.14785961512814,25.499389970597733,0.0,1.0,0.0,0.0,1.0,Taxi
26.900000000000002,-0.07354675453248667,9.928657518570452,6.779079817727252,1.6302952541508584,0.3544949275119416,245.0939734080846,25.29596449787585,0.0,1.0,0.0,0.0,1.0,Taxi
27.0,0.07527479319793932,71.63825893847074,6.15923232828947,1.08559639013403,0.49418914906683453,245.10313712273603,24.952257676364585,0.0,1.0,0.0,0.0,1.0,Taxi
27.1,0.23053695591872356,32.90882360416648,7.512115475116541,1.2623906233827504,0.09392867902423677,245.22264654568255,25.39253753771154,0.0,1.0,0.0,0.0,1.0,Taxi
27.200000000000003,0.09099736348834563,-45.22352704022418,7.62955835799939,1.023483002007518,-0.39271490096980577,245.17045676911152,25.207640132893022,0.0,1.0,0.0,0.0,1.0,Taxi
27.3,-0.1508428420031816,-55.99262987288174,7.2161377187103595,1.25877860252525,-0.5407017145387268,245.2097751170529,26.114820430305247,0.0,1.0,0.0,0.0,1.0,Taxi
27.400000000000002,-0.0494261934456852,-14.039019368436028,7.55245634983326,1.2318812885079915,-0.1500489213715288,245.1170531284472,24.195369221786663,0.0,1.0,0.0,0.0,1.0,Taxi
27.5,0.02080226664616544,-3.4856476127339753,7.236097948812324,1.540850348389289,0.1979764428951902,245.18642359991463,24.862294447253078,0.0,1.0,0.0,0.0,1.0,Taxi
27.6,-0.16827108006685154,4.440657641410449,6.694797864727133,1.3481727342407002,0.2772351942628895,245.32870655165584,25.247658796584076,0.0,1.0,0.0,0.0,1.0,Taxi
27.700000000000003,-0.02722290523863302,16.323542011100052,6.36363870491972,1.5530030428924881,-0.19523405072895453,245.22732643724453,24.56907560749087,0.0,1.0,0.0,0.0,1.0,Taxi
27.8,0.10241997670166565,19.84226426697614,6.770473558918554,1.4683027449801527,0.48944642645174136,245.12347109041923,25.6465476690373,0.0,1.0,0.0,0.0,1.0,Taxi
27.900000000000002,-0.06905975873197089,21.150712499632544,8.04768767378333,1.3283822298334091,-0.10569701674234534,245.11777962858264,25.18085618666786,0.0,1.0,0.0,0.0,1.0,Taxi
28.0,0.07853065725952962,20.423408297970965,6.633128352930808,1.4047507562266377,-0.21970190980983736,245.32984845615033,25.36530521449376,0.0,1.0,0.0,0.0,1.0,Taxi
28.1,0.20453701819152037,7.405629892065842,6.501186792469473,1.4357691920757343,0.44334413549586493,245.2716979596696,24.66266725677195,0.0,1.0,0.0,0.0,1.0,Taxi
28.200000000000003,-0.032031609271641816,-4.401955350327472,6.382675398277783,0.8403428600702058,-0.354308294408283,245.29214984268629,24.39822565270655,0.0,1.0,0.0,0.0,1.0,Taxi
28.3,0.05652088050789213,-58.137870787872394,6.590903891354764,1.3356145275500486,0.30726630181214276,245.18334629953085,24.576261041910836,0.0,1.0,0.0,0.0,1.0,Taxi
28.400000000000002,-0.0861523357478417,16.83421709175052,7.092073642427838,1.1752842097408556,-0.2787797218642605,245.2647053478995,24.700929936033965,0.0,1.0,0.0,0.0,1.0,Taxi
28.5,0.05213947618711069,-16.063964814306857,7.506309594283172,1.6414315385868037,0.49401668193262666,245.14739998327275,25.078565837355274,0.0,1.0,0.0,0.0,1.0,Taxi
28.6,-0.023798943563642243,30.130432796442808,6.512829462872859,1.0658666631894855,1.1423472205672887,245.07659232203002,24.79228971654195,0.0,1.0,0.0,0.0,1.0,Taxi
28.700000000000003,0.06449982823437227,-8.185724045982115,8.057602684878638,1.2579494335065828,0.9203300080072351,245.19146127947533,25.0765315144748,0.0,1.0,0.0,0.0,1.0,Taxi
28.8,0.011210855957200042,29.275916250122652,5.698410781449457,1.4043555872300577,-0.9453030365631206,245.14410544834232,24.3263626962836,0.0,1.0,0.0,0.0,1.0,Taxi
28.900000000000002,0.12258063768697094,-15.314458053612055,6.800527143380071,1.496885070109405,0.44669521680103447,245.2358652050366,25.165012987527007,0.0,1.0,0.0,0.0,1.0,Taxi
29.0,-0.01207246203368809,-5.012191627070178,7.1571959507274014,1.211353783508941,0.23747514441765175,245.0932921586367,24.74266846798276,0.0,1.0,0.0,0.0,1.0,Taxi
29.1,-0.013850102178150935,-45.766187222986815,6.462490547892833,1.0720255419411604,0.3313580340796067,245.15842993117576,24.157015820796712,0.0,1.0,0.0,0.0,1.0,Taxi
29.200000000000003,-0.10625029842796324,24.215369824306006,7.388035165483768,1.1224223179875135,-0.8987827684205687,245.3766800349539,25.883283009229668,0.0,1.0,0.0,0.0,1.0,Taxi
29.3,0.10900438708784183,18.30422068199529,7.078512157487044,1.1579744452877296,0.10890106208302858,245.22057992843543,24.755526140269616,0.0,1.0,0.0,0.0,1.0,Taxi
29.400000000000002,0.07767100123182541,11.163563209566155,6.7498770036441424,1.4924943856236188,0.22805932427782388,245.20390638161484,25.46616192154749,0.0,1.0,0.0,0.0,1.0,Taxi
29.5,-0.050432482380132586,-19.04564040590713,7.239776712304033,1.2406250215369559,-0.07164415414941055,245.19724140679205,24.889771102363408,0.0,1.0,0.0,0.0,1.0,Taxi
29.6,0.013776185058306073,-43.19901542895051,7.659851851940364,1.2085617210446566,-0.43567777235459654,245.24570403801954,25.08861045374461,0.0,1.0,0.0,0.0,1.0,Taxi
29.700000000000003,-0.13832407591292722,13.591941366044281,5.710895768571602,1.2967723297691152,0.337783434141119,245.24996871338772,24.85248040740503,0.0,1.0,0.0,0.0,1.0,Taxi
29.8,0.01752722445008872,-28.244961056369288,6.75927122919742,1.3346273086256537,-0.5358428976222592,245.33732331828003,24.420460137271377,0.0,1.0,0.0,0.0,1.0,Taxi
29.900000000000002,-0.12744862022354048,27.548092195261287,6.912857938044164,1.2464555655384604,0.19911535867982244,245.19652862276644,24.51521545737206,0.0,1.0,0.0,0.0,1.0,Taxi
30.0,-0.0005836149366209034,17.21728699805567,7.992027719674129,1.285618875967193,-0.12539477853847877,245.22802531239586,25.108314338432038,0.0,1.0,0.0,0.0,1.0,Taxi
30.1,0.10361365944036696,-7.956262799537559,6.928448253908211,1.358092090883801,0.7164350491216558,245.18903493215498,26.323227934479462,0.0,1.0,0.0,0.0,1.0,Taxi
30.200000000000003,-0.16722993422122845,12.086925165529456,6.2634242026648534,1.3297589322562464,-0.9076911858545074,245.24162968277074,24.872729540621524,0.0,1.0,0.0,0.0,1.0,Taxi
30.3,0.05985101089102621,4.393820199610313,7.5268600962231,1.481331438331298,0.20207673460022194,245.07116625654203,25.374155774931946,0.0,1.0,0.0,0.0,1.0,Taxi
30.400000000000002,0.12558276043841837,52.90835443981725,7.162328792404463,1.6115094499712717,-0.9304516978295354,245.196119986579,24.259763730308364,0.0,1.0,0.0,0.0,1.0,Taxi
30.5,0.09731183797785771,-20.272336910088644,7.229625257261931,1.3900844476358054,-0.2076590759789616,245.12624995345936,24.81435437277944,0.0,1.0,0.0,0.0,1.0,Taxi
30.6,-0.04151067365941713,-10.943021362810816,7.7559284556436845,1.4731883620605761,-0.014115637593872524,245.21746255454661,24.553607928934873,0.0,1.0,0.0,0.0,1.0,Taxi
30.700000000000003,0.07086765362436416,-13.547859116931589,7.115440154660856,1.2452547644937795,0.0014705348584335303,245.17397488615904,24.717775187337764,0.0,1.0,0.0,0.0,1.0,Taxi
30.8,0.029572542393199633,40.26570144879113,7.110785783296325,1.1419665738878408,0.1320367070002112,245.0663339808567,24.80653588045925,0.0,1.0,0.0,0.0,1.0,Taxi
30.900000000000002,0.1598178335845384,18.52217526371404,7.43204288801157,1.4426548700018063,0.5869430074604188,245.39574707014526,25.05010080804792,0.0,1.0,0.0,0.0,1.0,Taxi
31.0,0.16347852994293427,-20.474596217826946,6.406639578094861,1.3136188488884621,-0.45995162229077086,245.21028355774604,24.939116446092868,0.0,1.0,0.0,0.0,1.0,Taxi
31.1,-0.07280043869593518,-30.847646743106793,7.468699841521048,1.032199636966861,0.06701841969026262,245.19177163381505,25.867869132497443,0.0,1.0,0.0,0.0,1.0,Taxi
31.200000000000003,0.005579599869004328,-28.153347571314864,6.609959671658635,0.8205621215338996,0.42018877295811324,245.02452470495268,25.833418202505403,0.0,1.0,0.0,0.0,1.0,Taxi
31.3,0.022711792086359858,-18.16346077576596,6.042588018085146,0.9872552682637606,0.1541647418923304,245.33583294300252,24.898046306689057,0.0,1.0,0.0,0.0,1.0,Taxi
31.400000000000002,-0.16361774257476508,-5.556412590283704,6.203929218220025,1.1909221140274857,0.3276185274316252,245.32768006376295,24.414417844945643,0.0,1.0,0.0,0.0,1.0,Taxi
31.5,-0.022202463082414286,7.868535668487302,6.734401818087831,1.3448846852580179,-0.10066784741669867,245.13828641954683,24.896249924379966,0.0,1.0,0.0,0.0,1.0,Taxi
31.6,0.0620544704287963,53.402680800307756,7.2234663343855745,1.292123573128228,0.2983100046840012,245.34669409526555,25.10571775250138,0.0,1.0,0.0,0.0,1.0,Taxi
31.700000000000003,0.10339566142677362,7.5614920132085315,7.412042399623338,1.3811979059469166,0.33092786016432707,245.25008254204806,24.37140961288789,0.0,1.0,0.0,0.0,1.0,Taxi
31.8,0.015604996983628284,-21.844356804781366,7.08514037924373,1.0813908857168328,-0.817942787734962,245.09059856800218,25.432412508730046,0.0,1.0,0.0,0.0,1.0,Taxi
31.900000000000002,-0.04716731359511064,-0.272674262735175,7.306953191666359,1.2468944268741287,0.8993699773320387,245.28999216239674,24.558830944061835,0.0,1.0,0.0,0.0,1.0,Taxi
32.0,0.10203229011309763,-9.354382171284541,6.6957418613231505,1.1351873637122316,-1.0482366806180456,245.2512558726321,24.42647861539445,0.0,1.0,0.0,0.0,1.0,Taxi
32.1,-0.03116691387279454,52.24114381769643,7.235890866345898,0.8628473549934605,-0.051493535024437265,245.1309728168037,24.97482294495387,0.0,1.0,0.0,0.0,1.0,Taxi
32.2,0.2140384054933714,7.889980894711873,6.914397154964589,1.0768238221185498,-0.17561449346476873,245.16585389302372,25.028955161941,0.0,1.0,0.0,0.0,1.0,Taxi
32.300000000000004,0.14148219458665692,-2.21103977517537,6.652788903282323,1.1396590606768668,0.4325725759664935,245.3095761515142,25.508120279623107,0.0,1.0,0.0,0.0,1.0,Taxi
32.4,-0.042222112748671436,-47.83442880047178,7.984481343066566,1.4500907127658578,-0.02793268235480936,245.29448152666077,24.57717163408233,0.0,1.0,0.0,0.0,1.0,Taxi
32.5,-0.02513373850898755,-41.668618491635044,7.012769262979649,1.1827222339367458,0.6298473775296397,245.1776084690182,25.03568764732733,0.0,1.0,0.0,0.0,1.0,Taxi
32.6,-0.06686089787151835,16.952940420320875,7.141354790301245,1.2583657050006878,-0.03305850991363469,245.1273980569472,25.278190078935836,0.0,1.0,0.0,0.0,1.0,Taxi
32.7,0.042542589352932876,19.159655101642127,5.652235244681494,1.5379089289350065,-0.7211679919309132,245.2851731704112,24.55550310880685,0.0,1.0,0.0,0.0,1.0,Taxi
32.800000000000004,0.07066453699922302,25.829104621761896,7.926376193344268,1.4046454825737167,-0.07918249320052982,245.2975966954043,24.62912884455366,0.0,1.0,0.0,0.0,1.0,Taxi
32.9,0.06228462523729106,6.195923518987091,7.446584244324947,1.0627851420411418,-0.3311441156258575,245.2326991453267,25.30533679359581,0.0,1.0,0.0,0.0,1.0,Taxi
33.0,0.07352220694786826,14.272451838153657,6.943536273349133,1.3048934743725855,0.31040887064925327,245.28338674020313,25.81222318727016,0.0,1.0,0.0,0.0,1.0,Taxi
33.1,0.14202679618999123,-5.212427783760859,6.852322939723509,1.3923906664319532,0.9843971291201332,245.26018995279287,25.890340376125327,0.0,1.0,0.0,0.0,1.0,Taxi
33.2,0.03622248631848667,-15.2561048688297,6.465381313543488,0.9138707917252247,0.2210715764439374,245.3610472033995,25.602429074961947,0.0,1.0,0.0,0.0,1.0,Taxi
33.300000000000004,-0.0027583173962803242,-5.867537513639145,6.99865570922555,1.2453906202483125,-0.6324324968656992,245.12392014709712,24.049101951494585,0.0,1.0,0.0,0.0,1.0,Taxi
33.4,0.11268910862179544,-29.41464406424778,6.862968701794735,1.3223156242500222,0.07021974019753305,245.11001086337274,24.69754126765688,0.0,1.0,0.0,0.0,1.0,Taxi
33.5,-0.11085073400275228,33.49191155901961,7.6828396450907075,1.2904081339936893,-0.9133914590282795,245.1667830145634,25.85038692136227,0.0,1.0,0.0,0.0,1.0,Taxi
33.6,0.16470124039881773,-2.5796611053143557,6.294837082468454,1.4298687608576666,0.05738046428598167,245.37408316206063,25.250506599971917,0.0,1.0,0.0,0.0,1.0,Taxi
33.7,0.09979080309522363,28.17068802077041,7.384051941125999,1.3722768052711514,-0.905354667070562,245.24896595982216,24.958777716337497,0.0,1.0,0.0,0.0,1.0,Taxi
33.800000000000004,0.030002706101099716,-21.946006338449248,6.2863204136687525,1.0349894550891265,0.12236662099743881,245.1227232750723,25.516758207181265,0.0,1.0,0.0,0.0,1.0,Taxi
33.9,0.05497120870657142,-8.484045797736696,7.490349784203651,1.2339339502009903,-0.5021504445928554,245.14614055919174,24.62644498192424,0.0,1.0,0.0,0.0,1.0,Taxi
34.0,0.05737057410654009,-21.25919280068672,5.992790399530264,1.2451979854494835,-0.0576601433634613,245.097535928173,24.858966223404238,0.0,1.0,0.0,0.0,1.0,Taxi
34.1,-0.07629325790233393,-17.2121240444302,6.226041497421831,0.9029730243776741,0.0805065580264789,245.14513727681458,25.501502203840563,0.0,1.0,0.0,0.0,1.0,Taxi
34.2,-0.031089411515579642,1.1295247904115773,7.597936052916767,0.9268705505116137,0.32666078189363834,245.21057585607218,24.9093073496799,0.0,1.0,0.0,0.0,1.0,Taxi
34.300000000000004,0.06301819805859792,-17.846100740797265,7.370521876286422,1.1708142442432854,0.5136937790959402,245.1861929081166,24.401817233925314,0.0,1.0,0.0,0.0,1.0,Taxi
34.4,-0.16552376160632032,-4.291029608894765,6.259863505894993,1.2914995227847716,0.6935852173710627,245.16644946579447,25.451001343583794,0.0,1.0,0.0,0.0,1.0,Taxi
34.5,-0.05254455956005354,-58.18721103633675,7.3838868768102985,1.193658711718263,-0.06040503125803632,245.30708158030438,24.958759006916708,0.0,1.0,0.0,0.0,1.0,Taxi
34.6,-0.2279178571230859,53.79684523271015,6.474532246249252,1.325345174416018,0.148440452066853,245.21870169507463,24.324735246493187,0.0,1.0,0.0,0.0,1.0,Taxi
34.7,0.10346046455723035,3.6255178191399438,8.157820440848182,1.1642100724351885,0.030600844020862657,245.1371537484198,25.80770405051556,0.0,1.0,0.0,0.0,1.0,Taxi
34.800000000000004,-0.03441697046435389,79.82563430713435,7.661230128108796,1.4871053087766937,-0.013902898410997401,245.2277982718159,25.01666320895138,0.0,1.0,0.0,0.0,1.0,Taxi
34.9,0.1712103144125858,-30.582213031449697,6.792577773388894,1.0877242958810058,0.326868382063041,245.03208205244437,25.69905656670499,0.0,1.0,0.0,0.0,1.0,Taxi
35.0,-0.04945060060001824,16.584783999574977,7.394584895237287,1.571035912432738,0.3199683699490015,245.0099087224603,24.528352031604847,0.0,1.0,0.0,0.0,1.0,Taxi
35.1,0.0485069495335209,-59.054021390677285,7.562585840720308,1.2728443801597438,-0.6486580556823324,245.44883617221967,25.445049770315602,0.0,1.0,0.0,0.0,1.0,Taxi
35.2,-0.12405979254080068,22.02263428354505,7.223001102546735,1.4938455958635584,0.5118377058918109,245.38663277988167,25.185135960804466,0.0,1.0,0.0,0.0,1.0,Taxi
35.300000000000004,0.06066257081770696,6.430413301636683,7.530935205136046,1.128804358235908,-0.03863750496747395,245.22868692758493,24.143465216174413,0.0,1.0,0.0,0.0,1.0,Taxi
35.4,0.08065901604170427,-21.383465641336993,7.1057008610347685,1.1154019399718,-0.6019334979162857,245.17699707189036,25.229862564475223,0.0,1.0,0.0,0.0,1.0,Taxi
