time_s,altitude_ft,vertical_speed_fpm,ias_kt,pitch_deg,roll_deg,heading_deg,throttle_pct,afterburner_on,gear_down,flaps_deg,speedbrake_pct,weight_on_wheels,label
0.0,-0.12381792458856114,61.5195922229909,19.10124042196831,1.9235815340176212,-0.9035951813342474,185.256093623521,22.723622421557618,0.0,1.0,0.0,0.0,1.0,Taxi
0.1,0.0812473828214085,0.6639196371790396,18.299365649342313,1.8129394823891312,-0.8672095180082656,185.40067183385543,22.87605339531236,0.0,1.0,0.0,0.0,1.0,Taxi
0.2,-0.12049832640266595,20.102320673036704,18.64682541168344,1.8746185432839617,0.3511667108414384,185.32961496777352,21.976519634577073,0.0,1.0,0.0,0.0,1.0,Taxi
0.30000000000000004,-0.023306321223377606,-43.4530838418352,19.07596892123819,2.1635017175802975,0.1324303920952325,185.3096689848353,22.401447613555717,0.0,1.0,0.0,0.0,1.0,Taxi
0.4,-0.13601803638776747,0.11068130868987147,20.40905441800843,2.0977700649396787,0.35863021059865696,185.29556817549292,22.122920285974015,0.0,1.0,0.0,0.0,1.0,Taxi
0.5,-0.11994491985921658,10.574717618267348,20.140543874269603,1.7689328846028234,0.27509999311815103,185.34654049845028,23.03840759217713,0.0,1.0,0.0,0.0,1.0,Taxi
0.6000000000000001,0.02956726686795913,46.521030210521225,20.715650506541245,1.962698607400216,0.02473226003199676,185.2975636757376,22.02242400695131,0.0,1.0,0.0,0.0,1.0,Taxi
0.7000000000000001,0.09658711466483869,12.670961999348833,19.631575378930215,1.7265764595825224,-0.09746578651630584,185.34493358945178,23.414689999785402,0.0,1.0,0.0,0.0,1.0,Taxi
0.8,-0.0565901098624724,-25.451317778308283,19.0580200168099,1.8848605816486914,0.5270204239401359,185.15491369384392,22.57053792661731,0.0,1.0,0.0,0.0,1.0,Taxi
0.9,-0.09768932202358227,0.6272248368124403,19.66159184051902,1.8092481071405189,-0.2248667781331341,185.19722410646204,21.92060138540162,0.0,1.0,0.0,0.0,1.0,Taxi
1.0,0.09972323884890091,23.314850331972327,19.045767571895603,1.807785144006396,-0.3148201364920367,185.43475178520998,22.219917143068734,0.0,1.0,0.0,0.0,1.0,Taxi
1.1,0.05998414179738926,22.03665939446388,19.302031575553755,1.9849027542402156,0.001646535338437324,185.1694752041335,22.257484122352555,0.0,1.0,0.0,0.0,1.0,Taxi
1.2000000000000002,0.012493974948737118,-33.13661068536155,19.824022224945033,1.9889055378414582,-1.0062100526269278,185.16193235201217,23.264266235466376,0.0,1.0,0.0,0.0,1.0,Taxi
1.3,-0.06595981457790685,-16.275303061656114,20.0483213992322,2.0346178190267556,0.387795781734475,185.42313714871943,20.97250918730515,0.0,1.0,0.0,0.0,1.0,Taxi
1.4000000000000001,-0.021392373510891315,-12.267414255996195,20.223976420446608,1.6113527654423727,0.573785597127334,185.29855693617594,22.85741875619382,0.0,1.0,0.0,0.0,1.0,Taxi
1.5,-0.04884309633124386,56.064187820725614,20.322809876512796,2.3134438314554,-0.0886589676581297,185.2303891439842,21.36743631484882,0.0,1.0,0.0,0.0,1.0,Taxi
1.6,0.21436112452572123,7.440254558499717,20.07539335841378,2.0475035652552216,-0.11152550823245566,185.37084115520258,22.809647374296222,0.0,1.0,0.0,0.0,1.0,Taxi
1.7000000000000002,0.015808899281607287,14.95227855508035,18.986593346163303,1.6105535090373855,0.39910174048102726,185.22223878478746,23.123752828558125,0.0,1.0,0.0,0.0,1.0,Taxi
1.8,0.02591829644415791,-60.65923208508087,20.085477152804152,2.2059468879441244,0.17075854764273926,185.33220049114732,21.6390998095276,0.0,1.0,0.0,0.0,1.0,Taxi
1.9000000000000001,-0.08893503589968307,-11.390853896816578,20.232807944621,1.9006088560825554,-0.2619014653332377,185.2781267609298,23.074178630386054,0.0,1.0,0.0,0.0,1.0,Taxi
2.0,-0.04114537020247557,0.6129685160521964,18.967519378518336,1.8067944511601977,0.8866693269884345,185.2287583052555,22.589421015395136,0.0,1.0,0.0,0.0,1.0,Taxi
2.1,0.028983139024418902,43.024573210042185,19.20643548085071,1.497171304121415,-0.9045246994067331,185.331515748078,22.10339162547688,0.0,1.0,0.0,0.0,1.0,Taxi
2.2,0.1261878301505279,43.466361666939314,19.587089872264126,1.9158384526169718,0.31126639682561325,185.20684439149704,22.934955032868093,0.0,1.0,0.0,0.0,1.0,Taxi
2.3000000000000003,0.176186438132221,0.6527263430912408,20.616284896452292,1.8659739303111216,-0.9381264415104548,185.10778990821734,23.252221865249496,0.0,1.0,0.0,0.0,1.0,Taxi
2.4000000000000004,0.03224677073987515,-50.60133050640402,19.682082880870723,1.9053183097458222,-0.3079295813201785,185.21118493325275,22.61416991998524,0.0,1.0,0.0,0.0,1.0,Taxi
2.5,-0.12681882238149217,-18.72722373709108,19.502593087459218,1.683168309676565,0.4198673509187057,185.15922297575798,22.290344717448942,0.0,1.0,0.0,0.0,1.0,Taxi
2.6,0.08255031944676566,-5.057174995481735,19.663438732252164,1.9216449324308307,-0.3388190265539733,185.2991503672415,22.2437795726626,0.0,1.0,0.0,0.0,1.0,Taxi
2.7,0.006960895762466487,9.326291307054872,18.554283715918896,2.205073091112751,-0.1745929866850047,185.16229047663933,22.69618248339375,0.0,1.0,0.0,0.0,1.0,Taxi
2.8000000000000003,-0.08018736584621779,-11.105819745843027,19.434685968345804,2.3804270276200006,-0.597037291835871,185.26387112690816,22.010447079618334,0.0,1.0,0.0,0.0,1.0,Taxi
2.9000000000000004,0.02702122071755053,-0.8020969012611273,19.974267500104833,1.8642972734763372,0.3990568233753503,185.2256999947224,21.579217722946204,0.0,1.0,0.0,0.0,1.0,Taxi
3.0,0.002950411256160825,5.713213720015797,19.379703457942615,2.0382072235341075,-1.0011652319146573,185.37144711203666,22.28195024756417,0.0,1.0,0.0,0.0,1.0,Taxi
3.1,-0.051621297246138835,-43.06456081588167,20.51124164328466,1.5963806363629112,-0.9197894891774547,185.3035884894232,22.479469540874767,0.0,1.0,0.0,0.0,1.0,Taxi
3.2,-0.18830158336185787,-2.220857412286359,20.243463660835783,1.9784259582615733,-0.5243839398177078,185.33117911281352,21.844435179588274,0.0,1.0,0.0,0.0,1.0,Taxi
3.3000000000000003,-0.008153875805271004,-38.93196134861492,19.916133333178944,2.092687645718126,0.2440304182375993,185.41425300361243,21.6076221782057,0.0,1.0,0.0,0.0,1.0,Taxi
3.4000000000000004,-0.2462811039892134,29.50731348808858,20.173571608916543,2.14473505920871,0.2095834162641844,185.21992360533568,22.604517550261754,0.0,1.0,0.0,0.0,1.0,Taxi
3.5,-0.04076501592141495,0.7250444080263717,18.515011139691183,1.8565035061629944,-0.42927690449637423,185.16791010446764,22.521154813442898,0.0,1.0,0.0,0.0,1.0,Taxi
3.6,-0.004528653765139114,26.0037199175037,18.19062315465287,2.1467980735784353,0.7022418652513955,185.47991312268778,21.855291988772667,0.0,1.0,0.0,0.0,1.0,Taxi
3.7,-0.1162625044016949,43.15002219394728,19.450522967433162,1.7452751901824597,1.0002431868271273,185.4499109184227,21.266751922503325,0.0,1.0,0.0,0.0,1.0,Taxi
3.8000000000000003,0.1749850950483214,26.723545840071196,20.16755835262796,1.6646374786283142,0.014771382164100684,185.28681129810684,22.34711546305067,0.0,1.0,0.0,0.0,1.0,Taxi
3.9000000000000004,0.12908907543521683,18.675780134326605,19.172893390092703,1.9548257695923177,0.63794177909386,185.3440035589532,22.13584296746931,0.0,1.0,0.0,0.0,1.0,Taxi
4.0,-0.022883603730061885,-63.18530054460812,18.956877386460775,2.060512771068312,-0.5809336605046711,185.09439247731416,22.46401611566393,0.0,1.0,0.0,0.0,1.0,Taxi
4.1000000000000005,-0.14094140767471916,-27.065771592264113,19.59090152909447,2.1731917385118025,-0.3468684078038454,185.22154874851458,23.12932080101419,0.0,1.0,0.0,0.0,1.0,Taxi
4.2,-0.00623978252610375,-25.28977010350225,19.56868778274248,1.8604827626018712,-0.05335359006581455,185.25783333036725,22.34137496812392,0.0,1.0,0.0,0.0,1.0,Taxi
4.3,-0.1493324542475731,0.5466964824595367,19.137588308438893,2.1108470292139456,0.9073882264092739,185.09715257876405,22.25253789691495,0.0,1.0,0.0,0.0,1.0,Taxi
4.4,-0.13820792526242145,-9.091406159197637,18.786373236664794,2.2826318535252863,0.3638644829742662,185.20652769646995,22.378062488306536,0.0,1.0,0.0,0.0,1.0,Taxi
4.5,-0.05169681332209191,23.23234038357512,18.381371138723996,1.9853613313406828,0.34710786008267425,185.3175537558725,22.464376597795663,0.0,1.0,0.0,0.0,1.0,Taxi
4.6000000000000005,-0.03317075232969748,-5.459701621918934,19.42945619007703,2.028382818324359,0.49836275294685944,185.17399659013108,22.614986813094642,0.0,1.0,0.0,0.0,1.0,Taxi
4.7,-0.1655064333720161,-4.355720520223713,18.914147424425877,1.88981061181737,-0.2975946384913963,185.32665653830009,21.863012114709367,0.0,1.0,0.0,0.0,1.0,Taxi
4.800000000000001,-0.07347541592321044,31.459467398333327,19.557343785110103,2.1189175636266624,-0.5882491787979187,185.3685209486066,22.892570646429473,0.0,1.0,0.0,0.0,1.0,Taxi
4.9,0.1241265846619692,31.18875589235954,19.397937975354072,1.7630341973114114,-0.27369603906989265,185.266164305605,22.173139685848692,0.0,1.0,0.0,0.0,1.0,Taxi
5.0,-0.009562653910218363,41.06419703474692,19.153960886778354,2.0314819536833597,-0.8144555916592988,185.2095562344964,21.883377350129493,0.0,1.0,0.0,0.0,1.0,Taxi
5.1000000000000005,0.13184556925052424,-20.45485168054773,18.885509040949195,1.950541909074021,-0.2478419116503231,185.30695567914972,22.35332333250545,0.0,1.0,0.0,0.0,1.0,Taxi
5.2,0.021852326259230614,19.909329584827145,19.155859010598107,2.2698361588075913,-0.9056617512574415,185.29032864225815,21.398024689515562,0.0,1.0,0.0,0.0,1.0,Taxi
5.300000000000001,0.08998399401391742,-21.560443456163654,19.398485631740247,2.2784098923260174,0.7870134158007344,185.41056205080554,22.596909332873242,0.0,1.0,0.0,0.0,1.0,Taxi
5.4,0.024043351969706,1.243470750697256,19.441331996766923,2.0475496238082544,-0.9360967463139864,185.36537493796868,22.663333963956624,0.0,1.0,0.0,0.0,1.0,Taxi
5.5,0.02806968001271691,-13.494799101227516,20.437548144185342,2.051027060587088,-0.12693153865416373,185.22961298189387,21.858609347075348,0.0,1.0,0.0,0.0,1.0,Taxi
5.6000000000000005,0.02250999850777986,5.105846001616711,20.175161820992717,1.66985881723781,0.5635226382360746,185.3755147176587,22.42790005578225,0.0,1.0,0.0,0.0,1.0,Taxi
5.7,0.04957258197778958,17.037128379647665,19.800613720343538,1.7479932132509008,0.44608289503149406,185.28416499929835,22.483768561949525,0.0,1.0,0.0,0.0,1.0,Taxi
5.800000000000001,0.11325532191095525,-44.98906432746085,19.821028607454622,2.0746710460479285,-0.44610265107330827,185.45264366858987,22.704948133938174,0.0,1.0,0.0,0.0,1.0,Taxi
5.9,-0.2024353231295244,-30.393553199453667,19.795486041302908,2.290339183157366,0.8714614538481895,185.18840199597673,22.990559612914176,0.0,1.0,0.0,0.0,1.0,Taxi
6.0,-0.10239518401947872,-42.083699249365786,20.09498455611863,2.2886227423280525,-0.33845716539173437,185.33949142458482,21.8183719638433,0.0,1.0,0.0,0.0,1.0,Taxi
6.1000000000000005,-0.09716317433587364,36.19800582870082,20.6635566954601,1.6187913275272943,-0.12624644173328495,185.11184550050643,21.971571082566427,0.0,1.0,0.0,0.0,1.0,Taxi
6.2,-0.02144529398602021,-6.469860760289781,20.2727279193552,2.0363708602300106,0.029669086180572346,185.36769584678564,22.214642694749994,0.0,1.0,0.0,0.0,1.0,Taxi
6.300000000000001,-0.1347444878209276,-1.3885139786412328,20.077277370744916,2.0527618725765664,1.0729898166609328,185.34500010810086,21.823705760276848,0.0,1.0,0.0,0.0,1.0,Taxi
6.4,-0.10410574422907977,16.053579441189267,19.08986472473152,2.115670187070031,0.14056143339825034,185.31223353196185,22.441454317285974,0.0,1.0,0.0,0.0,1.0,Taxi
6.5,0.058822603219926134,47.12983382290658,20.730491521996868,1.8843075705921635,-0.4613743814230289,185.24257670697784,22.189014979876045,0.0,1.0,0.0,0.0,1.0,Taxi
6.6000000000000005,0.10090468129360533,-8.80526861671369,19.070376337773112,1.9128653465105199,-0.7206526879682056,185.3034451151592,22.11554364588665,0.0,1.0,0.0,0.0,1.0,Taxi
6.7,-0.1481320873126482,-16.02193834968568,19.174499198630173,2.1158976356393087,0.24724948196900984,185.29013812688413,22.680859906356883,0.0,1.0,0.0,0.0,1.0,Taxi
6.800000000000001,-0.021287088528502213,-12.922197315601736,19.168883922331137,2.332369955232777,0.4955811486279266,185.26282086955825,22.473614845348674,0.0,1.0,0.0,0.0,1.0,Taxi
6.9,0.0362936947155967,25.08908572823992,20.03891953585917,2.188819755897088,0.6362803677276556,185.3820328316615,22.27574951379972,0.0,1.0,0.0,0.0,1.0,Taxi
7.0,-0.022686658671448565,15.041522165476186,18.505867303029945,1.3456387904570244,-0.5281522037596149,185.3194930785411,22.285310153808336,0.0,1.0,0.0,0.0,1.0,Taxi
7.1000000000000005,0.05392052229887876,-1.9589104853111874,19.873404327360095,1.658413654863832,-0.35952487471737665,185.25519396471225,22.739060005611055,0.0,1.0,0.0,0.0,1.0,Taxi
7.2,0.026499142289040812,20.10756978507879,20.2364777659799,2.15142799770698,0.7090423073574897,185.19264259375814,23.545469032703565,0.0,1.0,0.0,0.0,1.0,Taxi
7.300000000000001,0.07785119025394543,1.3681100318690824,20.0883143080342,2.166755298960404,0.2788096841155524,185.23898655352377,22.71796395552885,0.0,1.0,0.0,0.0,1.0,Taxi
7.4,0.06076107245822422,7.298404191667642,20.025470822712983,2.145997896677735,0.18544400137930914,185.3106460488318,21.938534455160532,0.0,1.0,0.0,0.0,1.0,Taxi
7.5,0.06299116324737906,-31.328038304890814,19.395448793123226,2.0198485900916423,1.1539593629863187,185.25825395761467,22.7272062994962,0.0,1.0,0.0,0.0,1.0,Taxi
7.6000000000000005,-0.07878900127050861,-52.27176710725112,19.390052270671806,2.1097653294253056,-0.41392988281655085,185.4600594493694,21.825458545401407,0.0,1.0,0.0,0.0,1.0,Taxi
7.7,-0.20059776307803134,-11.360603092469608,19.400003657494455,1.8893788715943765,-0.1683509341182355,185.3030222275961,23.27100156362477,0.0,1.0,0.0,0.0,1.0,Taxi
7.800000000000001,0.0061881477850310555,-2.6477988305976936,19.40908893612501,2.3112085285630646,-0.15872379318778979,185.12525546773736,22.771198719729096,0.0,1.0,0.0,0.0,1.0,Taxi
7.9,-0.09202799542349702,41.23499980149702,19.32958521660913,1.8911647600877204,0.5880087203358673,185.33564029274567,22.778304485603506,0.0,1.0,0.0,0.0,1.0,Taxi
8.0,0.005577235929453825,16.27978031932158,19.1894915482912,2.197978213822205,0.1303357385244818,185.29683223185748,22.505402565705758,0.0,1.0,0.0,0.0,1.0,Taxi
8.1,0.08758704938163901,15.787522044245074,18.6506982636206,1.8618298633113308,0.9990655661475019,185.1138040447496,22.370345002646634,0.0,1.0,0.0,0.0,1.0,Taxi
8.200000000000001,-0.013090385202271591,-50.59211380982877,20.71723391291123,1.7503722899835992,0.22058784653088806,185.13226292157958,21.80072871035382,0.0,1.0,0.0,0.0,1.0,Taxi
8.3,-0.24738333311968996,-34.4386000666081,19.201199183371997,1.897899034212971,0.08669429506375298,185.3916495557313,23.28041131204271,0.0,1.0,0.0,0.0,1.0,Taxi
8.4,-0.08460595095140143,8.279581920495785,19.31678372808671,1.8613281761917797,0.06935239761174086,185.381700320586,23.03878095597604,0.0,1.0,0.0,0.0,1.0,Taxi
8.5,0.02830752440020742,68.07038494960024,19.646058871070867,2.2087913484892816,-0.36621087290218013,185.22020470288612,22.473100817689037,0.0,1.0,0.0,0.0,1.0,Taxi
8.6,0.09296859162831134,48.83306982660639,19.89209368335816,2.1272291626607918,0.08919203236100155,185.27035508467293,21.62863565580212,0.0,1.0,0.0,0.0,1.0,Taxi
8.700000000000001,0.15955939818163056,0.08851239005529028,19.94901738526892,1.8196352800120246,0.6361295138694011,185.32297789259223,22.415736782213624,0.0,1.0,0.0,0.0,1.0,Taxi
8.8,0.028750086350483935,15.054519727184973,19.043370891633675,1.59122537642779,0.1853401786639706,185.21295362444084,22.608709117726608,0.0,1.0,0.0,0.0,1.0,Taxi
8.9,0.16824119026423626,6.758908713820855,19.729516126136257,1.903891991340799,-0.13199660139497904,185.10189892669314,22.70584628554395,0.0,1.0,0.0,0.0,1.0,Taxi
9.0,0.1933539417507349,-47.10455402673589,20.535423349535854,2.1411077659157516,-0.028145479710791354,185.28018457963844,22.897006660315967,0.0,1.0,0.0,0.0,1.0,Taxi
9.1,-0.20677268378319547,-28.71885986313446,18.990691120382614,1.8951373316280158,0.24650090659474014,185.20415992238782,22.156974339349162,0.0,1.0,0.0,0.0,1.0,Taxi
9.200000000000001,0.024646890948564072,-37.94907379876398,19.793500782870076,1.8499668711894568,-0.4087316567337805,185.4912252365798,22.55664469799465,0.0,1.0,0.0,0.0,1.0,Taxi
9.3,0.0036085727569151026,60.173430301664496,20.000586354405623,1.840050688246823,0.29923149838544594,185.26676418012528,21.724174937327156,0.0,1.0,0.0,0.0,1.0,Taxi
9.4,0.09409446772512711,21.296486037052826,19.16564138125936,2.0709173843710036,-0.3819896869731405,185.2017109455337,21.7025242767532,0.0,1.0,0.0,0.0,1.0,Taxi
9.5,0.13112932113382825,-15.838134451900663,19.957340849424185,2.1792698216265007,0.09455598656713456,185.448602107527,21.846823834018785,0.0,1.0,0.0,0.0,1.0,Taxi
9.600000000000001,-0.07558209950258814,17.37183786020982,19.90038439667952,1.9775153308432265,0.4751357463689184,185.36141738899425,21.930048672327896,0.0,1.0,0.0,0.0,1.0,Taxi
9.700000000000001,0.18095365702617622,-24.94943681709273,20.038285378114214,2.1533336444042273,-0.14677418690751767,185.12913353482827,22.26316604490008,0.0,1.0,0.0,0.0,1.0,Taxi
9.8,0.006382137048364631,6.825802936043586,20.227501511539284,1.6862273541077335,0.002799038835623956,185.2838981191229,21.586971496759148,0.0,1.0,0.0,0.0,1.0,Taxi
9.9,-0.041453084822370194,-7.3495268062913555,18.90216282470502,1.9199353045775691,0.18983232056737134,185.3346033550256,21.699145170695935,0.0,1.0,0.0,0.0,1.0,Taxi
10.0,0.14420602299471952,1.6604943599791397,19.0917001063988,1.5686969889736602,0.07229826717702538,185.24014210058942,22.794036165200502,0.0,1.0,0.0,0.0,1.0,Taxi
10.100000000000001,0.01468460884826038,-7.655316770310617,19.51445440272377,2.0185199920586436,0.48021165598943666,185.32926606475849,21.642801269840103,0.0,1.0,0.0,0.0,1.0,Taxi
10.200000000000001,-0.07972966867392323,-50.66407674489252,20.41517201621328,1.7338325596585964,-0.7183619227606185,185.24614427961524,22.807332176596347,0.0,1.0,0.0,0.0,1.0,Taxi
10.3,-0.10911436072974301,-7.786252774938281,19.71235231721159,2.0245032844296373,0.31288933356249693,185.27749541393064,22.203604328793247,0.0,1.0,0.0,0.0,1.0,Taxi
10.4,-0.024246655026430974,42.918723262311296,19.251116534996665,1.671347333413773,0.05851589346585496,185.3192761666794,21.854229667339286,0.0,1.0,0.0,0.0,1.0,Taxi
10.5,0.1348639476376333,5.166079510488108,19.812709718075215,2.1317752414316633,-0.3548633399671446,185.33910278859764,22.758290315975795,0.0,1.0,0.0,0.0,1.0,Taxi
10.600000000000001,-0.08328396317730244,-13.379850553907888,19.786865155435088,2.2554437540214236,-0.4103658672562798,185.27171589353634,22.307992285264316,0.0,1.0,0.0,0.0,1.0,Taxi
10.700000000000001,-0.0911459077959704,-48.44802001014707,19.677075989131737,1.7356229580170044,-0.17552192854830023,185.29361018266138,22.429532404020573,0.0,1.0,0.0,0.0,1.0,Taxi
10.8,-0.10737615241310204,36.973750109907385,18.72497608547349,1.7664335818733103,-0.06215054865851732,185.32693154161984,22.14657779385841,0.0,1.0,0.0,0.0,1.0,Taxi
10.9,0.10158478737223456,9.97807020726214,19.805014134424614,2.104664379837045,0.6052330131353407,185.41575018063918,22.039549440309248,0.0,1.0,0.0,0.0,1.0,Taxi
11.0,-0.04125555675965964,9.187416073700456,19.91004134029983,1.8824193674700385,-0.12015332130044633,185.23637582013203,21.424330314608685,0.0,1.0,0.0,0.0,1.0,Taxi
11.100000000000001,-0.061439072044599696,0.27719760115498104,19.601296611027454,1.9616478694276034,-0.2707638221771736,185.1887558366518,22.11724536799134,0.0,1.0,0.0,0.0,1.0,Taxi
11.200000000000001,0.10297077537800947,31.390834433614497,19.834779451243698,1.8178790863408634,0.3808520538464058,185.51191425057038,22.101725008865916,0.0,1.0,0.0,0.0,1.0,Taxi
11.3,0.11569861540841286,-21.295613490573263,19.950206600880886,1.6304433178839712,-0.02366049504507623,185.3795227563794,22.080669522998917,0.0,1.0,0.0,0.0,1.0,Taxi
11.4,-0.167917139497466,-17.971752439488778,18.973871453633063,2.157509180824511,0.5072888606460244,185.2517855039091,22.16842336939057,0.0,1.0,0.0,0.0,1.0,Taxi
11.5,0.013112013180565641,16.486194218974834,20.652264925600445,2.014558878629238,0.6801649578670312,185.24875535951446,21.93693150568805,0.0,1.0,0.0,0.0,1.0,Taxi
11.600000000000001,0.19812958650328708,37.84833586345518,19.87968014892631,1.9741144181104404,-0.21436800813338466,185.06387506246506,22.369914113498666,0.0,1.0,0.0,0.0,1.0,Taxi
11.700000000000001,0.021324539819809946,-10.997226721313915,20.15840834507566,1.7449766500216461,-0.055718961239302894,185.2141035788611,23.89456696205964,0.0,1.0,0.0,0.0,1.0,Taxi
11.8,-0.04187412042600388,-24.481605439318262,18.48701828960949,1.9224551668226417,-0.10815526738631456,185.32441167976958,23.14569675158975,0.0,1.0,0.0,0.0,1.0,Taxi
11.9,0.0757215593066958,-23.452804491213232,19.865288434813987,1.8032517786273736,-0.01617867381300493,185.4059839273334,23.032276468137045,0.0,1.0,0.0,0.0,1.0,Taxi
12.0,-0.09593948263625621,-7.6927465426256605,19.503897953215052,2.191647073714725,0.31958542393792544,185.25018185811336,23.06489784215271,0.0,1.0,0.0,0.0,1.0,Taxi
12.100000000000001,-0.08033785313913218,-66.95713200888683,20.174149108845427,2.274983767599368,0.09434167485898892,185.3865091144021,21.315040084583224,0.0,1.0,0.0,0.0,1.0,Taxi
12.200000000000001,-0.25906410073773833,6.689977425337072,19.062267011208764,2.183301673477946,-0.40948164787821717,185.26282355768183,22.379476291164696,0.0,1.0,0.0,0.0,1.0,Taxi
12.3,-0.06248959550957081,-36.04108638112063,19.685638738643878,2.1558450444690567,-0.2825280117810733,185.35864427855108,21.910159010790295,0.0,1.0,0.0,0.0,1.0,Taxi
12.4,-0.2605432850447353,53.7275081459722,20.157605152960585,2.0743037700432705,0.17663948915844996,185.22321190138496,23.695657190585788,0.0,1.0,0.0,0.0,1.0,Taxi
12.5,0.00957343999212268,32.81107407000254,19.69750409405427,1.8393809919490511,0.3626584094860413,185.26647052176236,21.914141942686715,0.0,1.0,0.0,0.0,1.0,Taxi
12.600000000000001,0.1015657748404419,80.90910462378308,19.712279818027724,1.9237723844785368,-0.3748939779563368,185.21677839426184,22.304269466373295,0.0,1.0,0.0,0.0,1.0,Taxi
12.700000000000001,0.14400223807418008,7.669273225974209,19.767319053987624,1.5603658087004368,-0.8673338996069865,185.38640077407854,23.337588307835606,0.0,1.0,0.0,0.0,1.0,Taxi
12.8,0.04791980612199373,-51.82755021549702,20.533283179314317,1.7594583578162108,-0.4918428999282414,185.21983543243505,22.424488306907612,0.0,1.0,0.0,0.0,1.0,Taxi
12.9,-0.1575719762370432,-35.56506236810976,19.33334779183065,2.1482232342889507,0.7021277253753325,185.3630201131043,22.258171097259744,0.0,1.0,0.0,0.0,1.0,Taxi
13.0,-0.03382307376636867,-43.80435624899655,19.427283806351003,1.7220092657222765,0.12240932950950514,185.2451684113703,22.4008686065125,0.0,1.0,0.0,0.0,1.0,Taxi
13.100000000000001,-0.17110197512298897,58.83827478890752,19.219429042285938,1.6461517115782396,0.10699991537070883,185.38902363284217,23.025616652590728,0.0,1.0,0.0,0.0,1.0,Taxi
13.200000000000001,0.1366193977074944,20.574067128773564,18.877590852140653,1.962173879551108,-0.2870976916233949,185.3425693225231,23.02067888917499,0.0,1.0,0.0,0.0,1.0,Taxi
13.3,0.06904726187749916,37.65297823603095,20.020325270003987,2.103029937615437,-0.12327498818693997,185.13585393696349,22.21945624635294,0.0,1.0,0.0,0.0,1.0,Taxi
13.4,0.017162916057165793,-13.768247772892636,19.71407391763406,2.102729409308869,-0.32205285314269644,185.28300490987488,22.192371426169565,0.0,1.0,0.0,0.0,1.0,Taxi
13.5,0.06777815884303123,-41.97387855607573,19.919551513234133,1.8345072510474112,0.16198648131020768,185.29476454389317,23.164794185336454,0.0,1.0,0.0,0.0,1.0,Taxi
13.600000000000001,-0.14082213090287948,-30.607317196631357,19.837124656091714,1.9171864779464156,0.662700924588971,185.31646793329696,22.82045619989404,0.0,1.0,0.0,0.0,1.0,Taxi
13.700000000000001,-0.13587366992599098,-39.62294185475373,19.852830262074306,1.8260054371589822,-0.40180373967158656,185.23206559024254,21.87541240111739,0.0,1.0,0.0,0.0,1.0,Taxi
13.8,-0.1303365504307374,46.42508699825098,19.48101910791784,1.8075709858680127,0.8184425046524321,185.3096009888476,21.780371013867413,0.0,1.0,0.0,0.0,1.0,Taxi
13.9,0.0913033040883754,14.075336624735646,19.701481135358584,2.2117321437158983,0.25255675399758853,185.34860038011072,22.10418298703256,0.0,1.0,0.0,0.0,1.0,Taxi
14.0,-0.06549698680231279,23.882426835740336,19.18207009007748,1.9989876512107685,-0.7512642298583306,185.26749854740876,21.93320980152556,0.0,1.0,0.0,0.0,1.0,Taxi
14.100000000000001,-0.01092441625203576,1.1633227263891446,19.618088485252194,2.4545822419760968,0.09456082046537244,185.44779423351656,22.262468787897518,0.0,1.0,0.0,0.0,1.0,Taxi
14.200000000000001,0.09711991772032115,7.9400477515129255,17.793366137354102,1.8504000365491744,-0.8064891589123829,185.23114287958924,22.143672638404965,0.0,1.0,0.0,0.0,1.0,Taxi
14.3,-0.025796748044748158,-19.4554814354297,19.540591598787937,1.9954910113951747,-0.5542235213194192,185.35862444325903,22.73935735868229,0.0,1.0,0.0,0.0,1.0,Taxi
14.4,-0.10820182342918426,-50.95960706166867,19.3613858879292,2.0079679787022,0.6364773427721306,185.3260214994349,21.540978117666235,0.0,1.0,0.0,0.0,1.0,Taxi
14.5,-0.15767811758802222,4.210244431163962,20.041830802705157,2.030126721604621,-0.21152706637698956,185.28670644827685,22.876920804490805,0.0,1.0,0.0,0.0,1.0,Taxi
14.600000000000001,-0.00474552588892832,-2.605174553782696,18.959022377904414,2.0212412088252427,-1.0020376201573131,185.16701420964307,22.2035608757139,0.0,1.0,0.0,0.0,1.0,Taxi
14.700000000000001,-0.1212276961980977,10.051516806329195,19.06026257658421,2.283317825365808,-0.11031709542688897,185.24500258501928,21.524508510014577,0.0,1.0,0.0,0.0,1.0,Taxi
14.8,-0.10742053355637621,4.331137127168215,19.64329439658699,1.9408784272972277,-0.06614793079529976,185.34802561700178,22.719314743974728,0.0,1.0,0.0,0.0,1.0,Taxi
14.9,0.0169101597469128,48.855569157010585,20.115056739462922,1.8742938479367637,-0.36370828906356983,185.13115579224768,22.249257407966223,0.0,1.0,0.0,0.0,1.0,Taxi
15.0,0.12305014958695526,13.326468008250265,20.931167193081713,1.813591579774286,-0.19951107731287387,185.29914109222352,22.793697883112596,0.0,1.0,0.0,0.0,1.0,Taxi
15.100000000000001,-0.04078819351512483,-13.174774797534512,19.42076051577938,1.9483791430851845,-1.6688497181037463,185.2286171335469,22.463817125621805,0.0,1.0,0.0,0.0,1.0,Taxi
15.200000000000001,-0.04896371424075971,2.7870078889462633,19.435397601868154,2.0145959255818484,1.0509812539913896,185.4001648303688,21.88971426630134,0.0,1.0,0.0,0.0,1.0,Taxi
15.3,0.13698518903168663,34.166783142727766,19.36598478001048,2.0063630987842065,0.5884979371655482,185.1543718755737,22.67781572924547,0.0,1.0,0.0,0.0,1.0,Taxi
15.4,0.13004572219851404,-21.498873975431664,19.976508122689417,1.9172191657355955,0.3717369586104364,185.38858435668976,21.9020384925341,0.0,1.0,0.0,0.0,1.0,Taxi
15.5,-0.15645808411791798,-76.80117290532105,19.682960489391274,1.8635236647363889,0.5163258098307404,185.39114186904453,22.867449436115105,0.0,1.0,0.0,0.0,1.0,Taxi
15.600000000000001,-0.2470206754949186,-24.740320344395787,19.903436331553724,2.05543532255654,0.1117162345494568,185.4491573057237,22.642126137210848,0.0,1.0,0.0,0.0,1.0,Taxi
15.700000000000001,0.0063441204765350995,15.00110926894969,18.88713848775321,1.851165888184775,0.04522431174128604,185.34177510150232,22.408454691132555,0.0,1.0,0.0,0.0,1.0,Taxi
15.8,-0.08145253777316953,56.22425971907855,19.924565650209722,1.9342694188158696,-0.4483001676471116,185.25291790152573,21.79722461234216,0.0,1.0,0.0,0.0,1.0,Taxi
15.9,0.034100623100474126,-34.986926581615705,19.181764472078598,2.033982661268609,-0.39550006248715935,185.3881881922781,22.322329675828055,0.0,1.0,0.0,0.0,1.0,Taxi
16.0,-0.1685905124315434,9.253842515528603,19.638252289687195,2.0927687443156398,0.46201858630363957,185.13297889134356,22.60282735645544,0.0,1.0,0.0,0.0,1.0,Taxi
16.1,-0.03518332519552649,9.999476280628732,19.41885786273271,2.0026141798695805,0.6944181924837441,185.22717665200253,23.460386712780988,0.0,1.0,0.0,0.0,1.0,Taxi
16.2,0.08409800450361782,49.37890942140765,19.514801782482383,1.727533233709508,-0.3303022162379063,185.30340838237737,22.366021429819078,0.0,1.0,0.0,0.0,1.0,Taxi
16.3,0.07830403467549488,39.41310740497578,19.06454461582802,1.6642466747191056,-0.02379302340168234,185.28385619899188,22.055057529221756,0.0,1.0,0.0,0.0,1.0,Taxi
16.400000000000002,0.16188221182935247,-15.10420154906509,18.96724862131201,1.8856443258229039,0.08785323059527686,185.42004665778177,21.942044369195177,0.0,1.0,0.0,0.0,1.0,Taxi
16.5,0.008576996758292429,-34.04759350607544,19.899064939551586,1.8662481086037415,-0.12907366109218418,185.16333868829952,22.849093070433007,0.0,1.0,0.0,0.0,1.0,Taxi
16.6,-0.09193393285488222,-30.437722528448063,21.193251089429552,1.891269840150396,0.2311134304857775,185.2053659652538,22.35307673602429,0.0,1.0,0.0,0.0,1.0,Taxi
16.7,0.009693599187112214,-24.926131631447195,20.491570092685212,1.6037457480136945,0.673057404427142,185.31907135780511,22.64522884903583,0.0,1.0,0.0,0.0,1.0,Taxi
16.8,-0.11605366139894349,-8.136769431794082,19.153885436111654,2.18249254633866,0.3066625395317325,185.15610505094105,22.494809577845476,0.0,1.0,0.0,0.0,1.0,Taxi
16.900000000000002,-0.13261778001385258,7.0315738363500015,19.794829010091377,1.906769200402217,-0.564700682769016,185.3132649294904,22.013855358294467,0.0,1.0,0.0,0.0,1.0,Taxi
17.0,0.04485146836886227,17.79651725292647,20.362546949122603,2.073027349554916,0.4601083889996548,185.3721878339162,22.520388189119938,0.0,1.0,0.0,0.0,1.0,Taxi
17.1,-0.02707107513431108,0.6679490923736916,19.738579721624838,2.0122288460291284,-0.16793197540792273,185.02913996221298,22.7450211477708,0.0,1.0,0.0,0.0,1.0,Taxi
17.2,-0.12927803455198406,-3.213926376411782,19.50454916160877,1.7489909575152076,-0.28352056642725604,185.2196607662297,22.817674853220247,0.0,1.0,0.0,0.0,1.0,Taxi
17.3,0.028781836486803433,0.6565834663829418,19.25725900312096,2.112048821945759,0.18366398773172554,185.43618657362026,21.60624314655959,0.0,1.0,0.0,0.0,1.0,Taxi
17.400000000000002,-0.02378815780239633,7.217180110591943,20.546461532175588,2.0046399278705116,-0.4877514905810273,185.10032759909848,22.860530222441753,0.0,1.0,0.0,0.0,1.0,Taxi
17.5,-0.09319213399902432,13.737465077670725,19.893648434679047,1.2449583302227323,-0.7498891275288101,185.27040435800052,21.350397328165137,0.0,1.0,0.0,0.0,1.0,Taxi
17.6,0.09746916187515707,19.31562928353834,19.75221605800957,2.0714163568634447,-0.3281325902029503,185.25094530478384,22.532315374954962,0.0,1.0,0.0,0.0,1.0,Taxi
17.7,0.07278998861529538,24.14412542212429,19.117577781945702,1.8480378324541933,-0.26589430279796683,185.4439367286567,21.860170539206255,0.0,1.0,0.0,0.0,1.0,Taxi
17.8,0.027528493111597135,-40.36422407658374,19.674767440322707,1.580592649047087,0.29103130118824183,185.27958024120858,22.18510227979957,0.0,1.0,0.0,0.0,1.0,Taxi
17.900000000000002,-0.1043519585077616,-43.76279817976603,19.70987744325017,1.6350753814799552,0.4137823337254253,185.35102047188263,21.92811542118556,0.0,1.0,0.0,0.0,1.0,Taxi
18.0,-0.14602400228353474,-21.956634088871137,19.49269125240488,1.8363960080855073,0.15031307554129067,185.3950365355347,22.1894413230739,0.0,1.0,0.0,0.0,1.0,Taxi
18.1,-0.08225467733275851,16.416926441641724,18.600313882636147,2.164533151612226,0.5613275349945575,185.23980849212626,23.18989710437352,0.0,1.0,0.0,0.0,1.0,Taxi
18.2,-0.022267326299552956,46.96545331545872,19.78355222493273,2.015017980882799,0.4194810211115586,185.3656204630796,22.425072766735465,0.0,1.0,0.0,0.0,1.0,Taxi
18.3,0.08880326429375884,21.462566415162225,18.51584372713917,1.5772101203361673,0.08705672732985283,185.151971170509,21.610047268053744,0.0,1.0,0.0,0.0,1.0,Taxi
18.400000000000002,0.025058154743052636,5.358433094849436,19.279959554552295,1.9931362575944278,1.1024111089991622,185.15441020381036,22.488559011294424,0.0,1.0,0.0,0.0,1.0,Taxi
18.5,0.004524839174694256,-1.5356255252849895,19.957680992617693,2.0605522610904576,-0.09912154012161421,185.35084603305688,23.724861326904918,0.0,1.0,0.0,0.0,1.0,Taxi
18.6,0.08112513666733394,-39.559743859404875,20.005776153547238,2.187691630205397,-0.45966470779302265,185.24284499988403,21.95312543440317,0.0,1.0,0.0,0.0,1.0,Taxi
18.7,-0.1727405645539717,-20.53587756148675,20.19541088077027,2.0062965799682004,-0.5058796880505434,185.15059900857034,22.079397452963857,0.0,1.0,0.0,0.0,1.0,Taxi
18.8,-0.09815454863273945,-18.40950833359951,18.90978375441215,2.1192127171858224,-0.04639643725574486,185.2569950499792,22.577116778785186,0.0,1.0,0.0,0.0,1.0,Taxi
18.900000000000002,-0.010922405000663583,4.744183323144213,19.116608490137413,1.720838511694921,-0.13314232246126306,185.23341397964657,21.708895965713026,0.0,1.0,0.0,0.0,1.0,Taxi
19.0,-0.1490196479382506,-19.626832283311902,20.386597210526325,1.6843997643666617,0.04600636543704743,185.22000083720025,22.36823230241893,0.0,1.0,0.0,0.0,1.0,Taxi
19.1,-0.19628871004929893,0.3210142072828243,20.571610767891944,2.0388562834512896,0.6758849148430459,185.28725275291208,22.569229980241023,0.0,1.0,0.0,0.0,1.0,Taxi
19.200000000000003,-0.009317333964249433,56.89646954329357,19.383955893910993,1.7708593215029516,-0.856670549848497,185.27089502416322,22.403897400901975,0.0,1.0,0.0,0.0,1.0,Taxi
19.3,0.1354626997782173,54.74366100809711,19.680761474962452,2.576273273499958,-0.32121938680036893,185.3665986126623,22.367029265088394,0.0,1.0,0.0,0.0,1.0,Taxi
19.400000000000002,0.07742959499118664,11.476136548690654,20.254878045549773,2.2120927139456823,0.0376168451484228,185.21548797261812,22.633454374715182,0.0,1.0,0.0,0.0,1.0,Taxi
19.5,0.04806334877920388,-22.98059889848174,19.073241845940643,1.9428548481584804,0.5932753421290087,185.39255492349275,22.561989902184582,0.0,1.0,0.0,0.0,1.0,Taxi
19.6,0.02055970528580866,-17.838508811238302,19.232168551433134,1.9881450178280933,0.10734653761889693,185.14861520625402,23.13490745467587,0.0,1.0,0.0,0.0,1.0,Taxi
19.700000000000003,-0.01176294906500483,-44.5655520250343,18.89848234026557,1.8823350745743546,-0.7237798809937943,185.23003288717678,22.230884713934486,0.0,1.0,0.0,0.0,1.0,Taxi
19.8,-0.1747644113459676,-38.05227735487889,19.160648030035873,1.9606755171332257,0.5811905631330222,185.18581274938117,22.0455253139855,0.0,1.0,0.0,0.0,1.0,Taxi
19.900000000000002,-0.16970168148858575,-33.432236094915204,20.498788501962355,1.885155288039061,-0.44272220420573233,185.43762485680384,21.391261987666944,0.0,1.0,0.0,0.0,1.0,Taxi
20.0,-0.1789241295395808,0.60599980870435,19.654827787011136,2.2718017494392546,-0.04895280576311402,185.22456264541518,23.201497266928698,0.0,1.0,0.0,0.0,1.0,Taxi
20.1,-0.17173441230244582,33.18043751932982,18.958366162749392,1.6180119622397084,-0.13296752642149293,185.24844937390412,21.64946205097966,0.0,1.0,0.0,0.0,1.0,Taxi
20.200000000000003,-0.003799493891936581,21.554254277047306,19.961590384264913,2.3283890525811617,-0.6080725774139452,185.37145408036486,22.17907936060577,0.0,1.0,0.0,0.0,1.0,Taxi
20.3,-0.07115285815434423,14.558148788495899,19.74224423522197,1.7554466999352556,-0.5951563008163866,185.1890905526261,22.785997996578324,0.0,1.0,0.0,0.0,1.0,Taxi
20.400000000000002,-0.09894366835996626,-16.079913031799013,19.095919641393156,1.7060718493616653,-0.20169836878076855,185.26699626331038,21.86082248861866,0.0,1.0,0.0,0.0,1.0,Taxi
20.5,-0.08419905905093161,31.040313176897797,19.814884792441173,1.8074409949419166,-0.4893369338078813,185.23368848250539,22.04796169878303,0.0,1.0,0.0,0.0,1.0,Taxi
20.6,0.08404870773014478,-3.752560048760889,19.487145671288417,1.7797581443024388,-0.559945763028167,185.47793506045423,22.33334104741267,0.0,1.0,0.0,0.0,1.0,Taxi
20.700000000000003,-0.11770646860377071,-4.090353696918485,20.43933566993631,1.9887200251093828,0.08794767226307748,185.20491722822703,22.346278304748495,0.0,1.0,0.0,0.0,1.0,Taxi
20.8,-0.10465082753552404,-13.982848716584366,19.372566342258374,1.9883121675027504,-0.5694029917361395,185.17429855324667,22.45924803897201,0.0,1.0,0.0,0.0,1.0,Taxi
20.900000000000002,0.014134464147222935,81.28034528206862,19.511491280943005,1.8123540198296704,0.7915998423184285,185.3350172266679,23.0887024520774,0.0,1.0,0.0,0.0,1.0,Taxi
21.0,0.2886952578065724,30.062737635730894,17.919385518067195,1.9584465439336787,-0.4115585472877795,185.3521700416029,23.287459723632054,0.0,1.0,0.0,0.0,1.0,Taxi
21.1,0.04566286064313039,-16.260317834287736,20.155233157722105,1.7471014123433397,-0.42305193138531133,185.3388716706918,22.890070460441642,0.0,1.0,0.0,0.0,1.0,Taxi
21.200000000000003,-0.06716712502421578,-45.02090386457771,20.591017543987746,2.351193911387388,0.7538776487283827,185.34579117683643,22.9536487421112,0.0,1.0,0.0,0.0,1.0,Taxi
21.3,0.06359073848368384,-23.811978569846545,19.244931878440163,2.140479140988139,0.21964123986254722,185.20932666079227,22.281919277203762,0.0,1.0,0.0,0.0,1.0,Taxi
21.400000000000002,-0.0733970322061023,25.152939982749974,18.987564125692455,1.9626214703968008,-0.17000056406543096,185.3948032411747,22.44119341170449,0.0,1.0,0.0,0.0,1.0,Taxi
21.5,0.058597574889534126,-1.753991179846551,18.781103841452175,1.67258953444878,0.5040953430049557,185.2258314981765,22.93448285010147,0.0,1.0,0.0,0.0,1.0,Taxi
21.6,0.05482078258445111,14.311305886275328,19.77765073820855,2.4557648765399778,0.47986290512886587,185.24247035374287,23.286971204218798,0.0,1.0,0.0,0.0,1.0,Taxi
21.700000000000003,-0.001840502774725638,-20.048838435324605,19.77679353808637,1.8097522258043917,-0.06471418291582394,185.26585904107594,22.251943317546232,0.0,1.0,0.0,0.0,1.0,Taxi
21.8,-0.04164661728708887,-17.680147059404014,20.1680759772991,1.9633147798648836,-0.11770077255278294,185.3756948887742,22.006144219647478,0.0,1.0,0.0,0.0,1.0,Taxi
21.900000000000002,-0.03357995271256893,-34.15722624483605,19.173429141116237,1.6247919010188216,0.2522041186389238,185.35648379900192,23.03104932526367,0.0,1.0,0.0,0.0,1.0,Taxi
22.0,-0.17262663399890588,-10.527958965695639,19.711477923418556,2.403335118234812,-0.16601099055098997,185.19083157657008,21.87695534747401,0.0,1.0,0.0,0.0,1.0,Taxi
22.1,-0.09428641211556704,3.907991914488337,19.415532681894284,1.5516019501299805,0.04189590040193025,185.38830130916938,22.573772003887058,0.0,1.0,0.0,0.0,1.0,Taxi
22.200000000000003,-0.014039993140127225,28.647453956512976,20.004047602759304,1.8423212645897735,0.1253241871728901,185.12838471175678,21.987824180202917,0.0,1.0,0.0,0.0,1.0,Taxi
22.3,-0.02938936421634097,14.869002818092406,19.43285083616846,1.639208501075186,-0.5754877182527783,185.4707207223354,22.84796394270906,0.0,1.0,0.0,0.0,1.0,Taxi
22.400000000000002,-0.019941398025105,-11.95592635740672,19.406733841180404,1.8168118444361951,0.6945146146498411,185.27121687915042,22.036577747546485,0.0,1.0,0.0,0.0,1.0,Taxi
22.5,-0.0738196249271608,0.2145629032866848,20.37456922735779,2.174308853713116,0.04913221794177836,185.31141420715755,22.51022809093119,0.0,1.0,0.0,0.0,1.0,Taxi
22.6,-0.02831654969990753,-4.187114026948297,18.844685417609917,1.8516234836913852,-0.5641379558942157,185.18162724930664,21.159671372521174,0.0,1.0,0.0,0.0,1.0,Taxi
22.700000000000003,-0.04087696815984647,-10.180233653233099,19.658017147105298,1.8035962760955984,0.6697791903995561,185.10783264707038,22.136141611942843,0.0,1.0,0.0,0.0,1.0,Taxi
22.8,-0.12472079319332628,-11.332055272639515,19.93155976018635,1.9356563304928647,0.15254095947742874,185.3377258385458,22.139421061801173,0.0,1.0,0.0,0.0,1.0,Taxi
22.900000000000002,-0.08497682606310508,42.2459372626113,19.884859641208656,2.0359151924701764,-0.4822307114828984,185.1819260018915,22.245794600873026,0.0,1.0,0.0,0.0,1.0,Taxi
23.0,0.17035271815321001,15.818610700203513,19.187309777889865,1.926255542528545,-0.02323730969618969,185.13701703838592,21.25059627119861,0.0,1.0,0.0,0.0,1.0,Taxi
23.1,-0.04562773969230871,21.096724854159966,19.123234804168153,2.0920302353990357,0.28815273945076464,185.25443698658557,22.473215651204065,0.0,1.0,0.0,0.0,1.0,Taxi
23.200000000000003,0.02050679820769473,-48.1483900088052,20.283464211805505,1.7514184159799813,0.06016677730013953,185.242491944662,22.90165630390639,0.0,1.0,0.0,0.0,1.0,Taxi
23.3,-0.07038923189081603,32.78975951189218,20.371577989704498,1.8373443331823807,0.0193613129268882,185.3156416789734,21.531785850567793,0.0,1.0,0.0,0.0,1.0,Taxi
23.400000000000002,0.11832105786715215,16.985044595966567,20.231305142472852,2.0101835864979596,0.6009816400437046,185.18560270668092,21.84534204557273,0.0,1.0,0.0,0.0,1.0,Taxi
23.5,0.10543202118752755,46.22626963591379,19.903923240252016,2.084201513747819,-0.2064274897098714,185.233316298099,22.375407993881065,0.0,1.0,0.0,0.0,1.0,Taxi
23.6,0.1607421162887529,-72.16790527498492,19.585294030720792,2.0143216527895866,0.4674605759842347,185.13682344366134,22.64380495682045,0.0,1.0,0.0,0.0,1.0,Taxi
23.700000000000003,-0.2425184685077725,-11.589129183965753,18.89184485169087,2.0388654846233134,0.05274709409567499,185.1395339526166,22.604303542206186,0.0,1.0,0.0,0.0,1.0,Taxi
23.8,0.04748637526769875,-43.074198757626256,18.81135704077153,1.98760307351339,-0.9323173757221296,185.13511273700112,22.32312363866845,0.0,1.0,0.0,0.0,1.0,Taxi
23.900000000000002,-0.05462887749937848,43.845966295164565,20.345809039346012,2.0307768361198812,-0.10503984007395543,185.30018365753506,22.591945198132375,0.0,1.0,0.0,0.0,1.0,Taxi
24.0,-0.023288637031949708,5.606106899434333,19.25550213364228,1.9452298768039145,0.3905249255918394,185.32848086938782,22.323949226001826,0.0,1.0,0.0,0.0,1.0,Taxi
24.1,0.07551690976487038,25.411181358780254,20.430715971537282,2.007777224863576,0.3733157332694055,185.21993094067352,22.963851040388064,0.0,1.0,0.0,0.0,1.0,Taxi
24.200000000000003,0.07242702929452277,16.49318135739372,21.06084978030657,2.0766656103631784,-0.4248694952545536,185.47631234210485,22.370338907785953,0.0,1.0,0.0,0.0,1.0,Taxi
24.3,0.05917726975501887,-8.836094686765275,19.00703904138086,1.6583303505872642,0.0374850635025941,185.23295145874613,21.758945724312316,0.0,1.0,0.0,0.0,1.0,Taxi
24.400000000000002,0.031336436331043986,-2.901106972957194,21.143951775102845,1.8190865740396283,0.379248441787,185.4913478514278,22.48469661768668,0.0,1.0,0.0,0.0,1.0,Taxi
24.5,0.05792149442973678,-1.582201509247693,19.425993351927506,2.260359559904603,0.2371669241202296,185.38599898779376,22.447460263673385,0.0,1.0,0.0,0.0,1.0,Taxi
24.6,0.05126626220878038,-7.03619227944971,19.23509707562445,2.1806468602234736,0.10204703515169271,185.337756865424,22.75733830974995,0.0,1.0,0.0,0.0,1.0,Taxi
24.700000000000003,-0.003844525066204595,2.297389841846131,19.51173370630253,2.1481301307154936,-0.34675348417843643,185.32267557624982,22.7674668296663,0.0,1.0,0.0,0.0,1.0,Taxi
24.8,0.0694084436389674,6.578391822121605,18.28953419395656,1.8043103631653423,-0.8188277737063743,185.25398591443775,22.38994701720045,0.0,1.0,0.0,0.0,1.0,Taxi
24.900000000000002,0.08415822131938837,13.393179828413045,19.07140561242863,1.9400873386075503,0.38380433929859814,185.10331718641044,22.419089631367154,0.0,1.0,0.0,0.0,1.0,Taxi
25.0,0.06312137407586059,11.063729714466916,19.234691899193898,1.9609767955286184,-0.260308615432211,185.32505884647492,22.475851584996697,0.0,1.0,0.0,0.0,1.0,Taxi
25.1,0.12472709221130195,9.024224865926081,20.076996373698112,1.9200827282479183,0.38966585118584085,185.380080599145,22.120024239372263,0.0,1.0,0.0,0.0,1.0,Taxi
25.200000000000003,0.12927934564901875,0.5817939581362713,20.141240293630723,2.0097852151774256,-0.19118923255357184,185.34463954578598,22.596318890571037,0.0,1.0,0.0,0.0,1.0,Taxi
25.3,0.06603034386654193,-51.13685007537057,20.192225771572847,2.075800499148086,1.084943205229373,185.47187094239644,22.520386854494536,0.0,1.0,0.0,0.0,1.0,Taxi
25.400000000000002,-0.13095715816555087,3.792654853268658,19.522373088358712,1.9814565988085564,-1.02849426913143,185.22313878776868,23.105099886792704,0.0,1.0,0.0,0.0,1.0,Taxi
25.5,0.148242619915362,-4.971359174476895,19.12070411498449,2.075892851149835,0.02997868041425897,185.2675798862232,22.253167045345016,0.0,1.0,0.0,0.0,1.0,Taxi
25.6,0.04117354799415744,6.5715956779912075,20.283232019523197,1.8409724702782284,0.4567278279509879,185.35495854723035,22.716217603433847,0.0,1.0,0.0,0.0,1.0,Taxi
25.700000000000003,-0.09809917977559489,-1.932631200903425,19.052550470856822,2.2602925516154047,-0.4385917195101686,185.29569683953332,21.21143723902179,0.0,1.0,0.0,0.0,1.0,Taxi
25.8,0.13857946391084489,-2.7026433690364846,19.076437043592257,1.7602879816914823,0.019631583917297767,185.35357981032007,21.53424381143931,0.0,1.0,0.0,0.0,1.0,Taxi
25.900000000000002,0.027660331148975023,13.338968718346736,19.53568961599546,1.9611559734534072,0.9065495205683661,185.27316713707307,22.254963160461156,0.0,1.0,0.0,0.0,1.0,Taxi
26.0,-0.03140433618386119,-13.238774866575378,19.5056164046489,2.2367273039984696,0.009723962704635651,185.38252801958447,21.88178076268759,0.0,1.0,0.0,0.0,1.0,Taxi
26.1,0.072385589577968,-13.895920014218802,19.783552848983764,2.058189627955012,-0.29389000898600914,185.1107093569608,23.034566459573284,0.0,1.0,0.0,0.0,1.0,Taxi
26.200000000000003,-0.041819268922118985,19.844890860665565,20.329753733644267,2.0980121435138885,0.11655036878539829,185.2955034228131,22.739883521279843,0.0,1.0,0.0,0.0,1.0,Taxi
26.3,0.06782011811946664,-34.241122550502354,20.303733254092712,1.8271026256298921,0.56925263088848,185.27527886634607,21.796302457568423,0.0,1.0,0.0,0.0,1.0,Taxi
26.400000000000002,-0.09882002317454375,22.75966316490455,20.36686203313444,1.698319941278489,0.3748316169632492,185.29182996149848,22.397178856432934,0.0,1.0,0.0,0.0,1.0,Taxi
26.5,0.07197904690240378,-6.1944539895185216,19.84540621058664,2.173024283631848,-0.9655967684347084,185.15749675432676,22.722591862138447,0.0,1.0,0.0,0.0,1.0,Taxi
26.6,0.036847848171874066,17.55477828973974,19.836293330922878,2.182298748238072,-0.7915180760545648,185.22226520490017,22.77532219701112,0.0,1.0,0.0,0.0,1.0,Taxi
26.700000000000003,-0.011046131725845024,-27.137298421338244,18.189414451628135,2.160627327869142,-0.26513179158446487,185.30395138148378,21.84529765521074,0.0,1.0,0.0,0.0,1.0,Taxi
26.8,-0.06370744520428742,-14.673788632302896,19.69381113639015,2.1459035724784976,0.3818426151014022,185.1051919113895,22.751720902604877,0.0,1.0,0.0,0.0,1.0,Taxi
26.900000000000002,-0.0365210949896404,37.13358163112235,19.722868329511968,2.0769803593767455,-0.014318341313880892,185.25116910913835,21.591751560314815,0.0,1.0,0.0,0.0,1.0,Taxi
27.0,0.17462177642976676,3.2727878792113834,19.471043343431216,1.9948064203682816,-0.033741170392948314,185.25425243433233,21.99272205299445,0.0,1.0,0.0,0.0,1.0,Taxi
27.1,-0.047343505808230435,14.820305453577788,19.579257179154954,1.929424581762738,0.29214316789944134,185.18425791994923,22.329506782698324,0.0,1.0,0.0,0.0,1.0,Taxi
27.200000000000003,0.03758043227824861,-31.554531595159535,19.04534356032071,2.1771289871681825,0.7847009804620929,185.2391518760204,22.441302470874373,0.0,1.0,0.0,0.0,1.0,Taxi
27.3,0.016849118453969122,3.730428414990056,20.24609273799194,1.4929612400851267,-0.06375468895645206,185.44104384189222,22.326931995516357,0.0,1.0,0.0,0.0,1.0,Taxi
27.400000000000002,-0.028691363733280125,-22.6961182174647,18.580191348536104,1.7525857721784208,0.2028826399315641,185.51041874155817,22.474563613732826,0.0,1.0,0.0,0.0,1.0,Taxi
27.5,-0.07590015880907487,-36.96294134353602,19.514571610096638,2.003853303840269,-0.41509122482492444,185.1447040883411,21.94651391955156,0.0,1.0,0.0,0.0,1.0,Taxi
27.6,-0.16796558826371097,-1.7191390776626936,18.674238223761396,1.827589261384973,0.35360608050055625,185.28231394759473,21.889806218961894,0.0,1.0,0.0,0.0,1.0,Taxi
27.700000000000003,-0.03728705912159358,30.08872955863137,18.64247482899193,1.8052195082957339,0.6199603299713784,185.34143499972447,22.29413830259539,0.0,1.0,0.0,0.0,1.0,Taxi
27.8,0.07454348898408197,23.433592842174836,19.536503089717545,1.8793791594756644,-0.715660014917207,185.43366786040565,22.88027595146237,0.0,1.0,0.0,0.0,1.0,Taxi
27.900000000000002,-0.05079762405283681,4.7297330828020945,18.783179733880136,1.8499546485883969,-0.03839865424334904,185.33817368601842,22.710037946033783,0.0,1.0,0.0,0.0,1.0,Taxi
28.0,-0.013638393707583116,6.535898639463473,18.46871303471748,1.6098311229292748,0.3168823569053288,185.33088054363247,21.36824216705398,0.0,1.0,0.0,0.0,1.0,Taxi
28.1,0.10722298218139936,43.87120316631666,19.193386112767772,1.9935615739280057,-1.0255196672526672,185.3347845982331,21.86368117850494,0.0,1.0,0.0,0.0,1.0,Taxi
28.200000000000003,0.16855839177874654,-6.64410046100132,19.367770408763857,2.1708224613426923,-0.0688061338903113,185.21590061519964,21.898648276080742,0.0,1.0,0.0,0.0,1.0,Taxi
28.3,-0.04685889601258967,-29.454473979523687,19.028800118039705,1.7115919286839325,0.2316547772005485,185.1604899241712,23.098021125337795,0.0,1.0,0.0,0.0,1.0,Taxi
28.400000000000002,-0.040049387716219034,-20.99016795356372,19.19898270986749,1.8653356100409255,0.37266728049104875,185.13939939440343,21.355451623906866,0.0,1.0,0.0,0.0,1.0,Taxi
28.5,0.06360755201092798,24.98630874722669,19.765707230922533,1.7468067675155339,-0.5367712622935374,185.22331716502936,22.1086705124795,0.0,1.0,0.0,0.0,1.0,Taxi
28.6,0.07807264772354383,21.96273960009786,20.29104040347606,1.5373590751044313,0.1159228450036856,185.21510575345815,22.723590658879104,0.0,1.0,0.0,0.0,1.0,Taxi
28.700000000000003,0.06976431028427031,-14.330538759104796,20.73896111159246,1.5838796839081284,0.2144856590668626,185.48937238498638,22.74828778821882,0.0,1.0,0.0,0.0,1.0,Taxi
28.8,-0.008045141784595962,-10.153443918753004,19.83198431842723,1.9255762166808974,1.1524895349819675,185.3862894506209,22.374511679957987,0.0,1.0,0.0,0.0,1.0,Taxi
28.900000000000002,0.027305428129778847,-1.431702065254001,20.16921719272361,1.799152813457857,-0.0901417254419638,185.31244466665134,22.05720392408941,0.0,1.0,0.0,0.0,1.0,Taxi
29.0,0.06260579995800035,-2.8912229696703755,20.04984775141431,1.8733373802473907,0.4574637933165438,185.33133174819898,23.092750531908266,0.0,1.0,0.0,0.0,1.0,Taxi
29.1,-0.02250125663294779,-12.655004089471214,20.750779923193694,1.6769837062973,-0.10507159029479873,185.17802771230436,21.844013466508155,0.0,1.0,0.0,0.0,1.0,Taxi
29.200000000000003,-0.035969592317577175,9.88333592240872,19.27403764462684,1.8517572395276258,-0.4375267173148648,185.21317358747888,21.40120953594602,0.0,1.0,0.0,0.0,1.0,Taxi
29.3,0.11202247957004399,-3.6559039496071364,19.107327761110838,1.673614742766891,-0.422516923397688,185.4111216904547,22.330108440826848,0.0,1.0,0.0,0.0,1.0,Taxi
29.400000000000002,-0.04078077638098343,-21.429234961714585,19.707849112957877,2.075291172496888,-0.2824929377930961,185.19936503252336,22.689241566132505,0.0,1.0,0.0,0.0,1.0,Taxi
29.5,-0.14311576712615007,-30.64349069593278,18.805897874310322,1.7420780926267578,-0.07106151574752832,185.32290116103547,22.751202313387488,0.0,1.0,0.0,0.0,1.0,Taxi
29.6,-0.04119497390961984,42.943322289879724,19.405786271361496,1.8791427087241857,-0.9305769056716178,185.3479834576948,21.464976284465614,0.0,1.0,0.0,0.0,1.0,Taxi
29.700000000000003,0.17393583506841526,41.57310393850078,20.74163741323197,2.2635533502879532,0.1137634176316704,185.32389686167278,22.73924084190985,0.0,1.0,0.0,0.0,1.0,Taxi
29.8,0.06474975256635389,10.25008901281515,19.149491683787506,2.2133193499139563,-0.8084249218528574,185.17497270865783,22.131003035764913,0.0,1.0,0.0,0.0,1.0,Taxi
29.900000000000002,0.010055471154455957,-14.519327177969972,19.91609701535878,1.8151234966401666,0.3990581985548709,185.11009093174766,22.09642690294332,0.0,1.0,0.0,0.0,1.0,Taxi
30.0,0.10133919917856543,-39.565539743230524,19.178208879419138,1.5711147567299106,-0.19792544826304814,185.2912113576159,21.913260026655205,0.0,1.0,0.0,0.0,1.0,Taxi
30.1,-0.13307794614979873,-4.1373990833382335,19.75623929492345,1.7888432857288563,0.02469679998227431,185.2950203604355,23.000083478907225,0.0,1.0,0.0,0.0,1.0,Taxi
30.200000000000003,-0.010631524262235197,-52.65121867662115,19.21457490323304,2.03694220094112,-0.3519387293517792,185.4361862257117,22.974356199431096,0.0,1.0,0.0,0.0,1.0,Taxi
30.3,-0.16191689420454028,44.15549666437759,19.94123844484195,1.963061224702947,0.005334249452330408,185.4604839398478,23.06531280128982,0.0,1.0,0.0,0.0,1.0,Taxi
30.400000000000002,0.08769953717208924,38.155081052849766,18.240522098652196,2.027394829115458,-0.06880050958964726,185.14702711629684,23.304543737276298,0.0,1.0,0.0,0.0,1.0,Taxi
30.5,0.18014388100201367,52.617301170215434,19.872351135687108,1.9700299700436703,-0.30488601692067435,185.18487307119585,22.665402790827198,0.0,1.0,0.0,0.0,1.0,Taxi
30.6,0.10116961164653689,-19.66813883423586,19.696613694386148,1.8124608015110515,-0.8964934282590753,185.29981056477436,22.311173704644236,0.0,1.0,0.0,0.0,1.0,Taxi
30.700000000000003,-0.010641156999090032,-45.34979436581069,19.04619150302612,2.198924513431271,0.8138032580437955,185.14467745559,21.993184670210965,0.0,1.0,0.0,0.0,1.0,Taxi
30.8,-0.04660509082703974,-42.32565609442026,18.98968469812788,1.909304348521685,-0.8045533838201001,185.2549451705529,21.685286610232783,0.0,1.0,0.0,0.0,1.0,Taxi
30.900000000000002,-0.11045866882556439,-0.5813137858961758,19.82772005388825,1.892353027099004,1.0368841828264943,185.24055286069176,22.811629481550636,0.0,1.0,0.0,0.0,1.0,Taxi
31.0,-0.013547725928570876,-19.127830065752228,18.23028739119517,2.1472041388129917,-0.3647715205695784,185.21351294302906,21.615327827515866,0.0,1.0,0.0,0.0,1.0,Taxi
31.1,-0.14224424115580084,-17.738556136646928,20.547937094743844,1.7756526127021863,-0.1733858988879815,185.17778012231656,23.2939947320394,0.0,1.0,0.0,0.0,1.0,Taxi
31.200000000000003,-0.19915144950879898,22.75635073223377,18.844295339352676,2.1617479900775267,0.07530078452653632,185.31589856441735,22.07245088528299,0.0,1.0,0.0,0.0,1.0,Taxi
31.3,0.10023402773259799,11.015110054708694,20.045453064794565,2.0894988597415445,-0.8560257860835497,185.32024581957796,22.443978168536006,0.0,1.0,0.0,0.0,1.0,Taxi
31.400000000000002,-0.08716869088225734,22.998342676969997,19.58884361213185,2.1865236215335466,0.027315525078319244,185.24736430640837,21.276507064086832,0.0,1.0,0.0,0.0,1.0,Taxi
31.5,-0.08415973612394896,-3.3317931329950454,18.890098425246975,1.9346497950004753,0.590657721297344,185.37182095615447,21.90378862280505,0.0,1.0,0.0,0.0,1.0,Taxi
31.6,0.08357506206762284,16.368918624591693,19.750611605540705,2.074012066266129,0.17580691162617346,185.15631015620818,22.728863006654613,0.0,1.0,0.0,0.0,1.0,Taxi
31.700000000000003,-0.005324097759298809,17.50751703459046,17.981801191167595,1.8110741414826954,1.0523539160052262,185.34191639954315,22.154848761206484,0.0,1.0,0.0,0.0,1.0,Taxi
31.8,0.003377849049003421,-33.30446854741423,19.7303031547408,1.6957859299644344,-0.6559773444798037,185.42580504216414,21.989329787863717,0.0,1.0,0.0,0.0,1.0,Taxi
31.900000000000002,-0.08294728066944826,-11.68169695589507,20.091259854409273,2.0626041955413252,0.5977891449311098,185.16416468362388,22.690999345767647,0.0,1.0,0.0,0.0,1.0,Taxi
32.0,-0.0637325825387741,-4.351229818973379,18.974591179555915,2.0758853872782677,-0.35269428935884806,185.24311944926308,22.99391738245275,0.0,1.0,0.0,0.0,1.0,Taxi
32.1,-0.018378300045863417,49.838085828951826,19.75543637276496,2.3261579708420443,0.39506690032501257,185.38304132000258,22.414050980520898,0.0,1.0,0.0,0.0,1.0,Taxi
32.2,0.16624314847531094,13.327416958169437,19.506906124283663,1.6795476156057974,0.18044262016075097,185.31140761092956,23.438944638945088,0.0,1.0,0.0,0.0,1.0,Taxi
32.300000000000004,0.002904502252073177,44.17894401350043,19.168304661523567,2.04072564650068,0.4724538242062532,185.209283137434,22.36057446970247,0.0,1.0,0.0,0.0,1.0,Taxi
32.4,0.20251642002163878,-45.77009691592665,20.69778734536279,2.0979707964478576,-0.6190585161066081,185.39104111523784,22.153184604126036,0.0,1.0,0.0,0.0,1.0,Taxi
32.5,-0.06260733610432226,-37.697846187574044,19.285922085048064,1.7192788440091502,-0.18586020064591532,185.10533989285682,23.332138155394087,0.0,1.0,0.0,0.0,1.0,Taxi
32.6,-0.18558472868579698,-32.65872045223909,19.566301939378693,1.857591072555722,1.6459498907358048,185.33355614797483,22.591897309799304,0.0,1.0,0.0,0.0,1.0,Taxi
32.7,0.039222817760443424,16.12302309077152,19.246291528254424,1.902656343223534,0.015813471569431164,185.13323297138413,23.11013672083731,0.0,1.0,0.0,0.0,1.0,Taxi
32.800000000000004,0.018007779349535385,44.20759921453933,19.2323476362069,1.9609359431057967,-0.05654278253587467,185.10418657270486,22.60704054121316,0.0,1.0,0.0,0.0,1.0,Taxi
32.9,0.03545326738689971,-16.363115701818796,19.028495763312293,2.2572243224123842,0.6282501333238972,185.2433341712624,22.32329000321991,0.0,1.0,0.0,0.0,1.0,Taxi
33.0,-0.04259276074865051,-23.682460328207725,21.18085768839871,1.9505668443804955,-0.1178861638504938,185.12635607146456,22.488815520855397,0.0,1.0,0.0,0.0,1.0,Taxi
33.1,-0.10040452229150319,13.806713668289865,18.539785267852086,1.7389843484213552,0.2253549558449933,185.38854358206208,22.72159413042967,0.0,1.0,0.0,0.0,1.0,Taxi
33.2,0.10448683572834908,1.1528211171938192,19.38528817155287,2.0215111450658627,0.08867114422329142,185.33725692412463,22.48287138686201,0.0,1.0,0.0,0.0,1.0,Taxi
33.300000000000004,-0.03682865516268139,16.06778238347967,19.299268426939385,2.323081384272381,-0.40310607011096894,185.07260298756535,22.69763186066445,0.0,1.0,0.0,0.0,1.0,Taxi
33.4,-0.020065610374104793,-19.78931755779826,18.99018344427343,1.7191832380388983,-0.00689542539834229,185.32029086802038,22.476917483668817,0.0,1.0,0.0,0.0,1.0,Taxi
33.5,0.005540247939357826,4.973131688462013,19.182862204764053,2.0069798846529316,-0.24034360305154298,185.40431893078062,21.518938140950535,0.0,1.0,0.0,0.0,1.0,Taxi
33.6,-0.01196299672037128,22.10195917925309,20.115148058691112,1.6417738136187419,0.07766248743198083,185.28796953932442,22.2176214192331,0.0,1.0,0.0,0.0,1.0,Taxi
33.7,0.0904441855221607,-11.418433056532416,19.580801575966294,1.7578533110996468,0.10284026611348243,185.1518761259416,22.442357890259263,0.0,1.0,0.0,0.0,1.0,Taxi
33.800000000000004,-0.05155191734330425,30.722185083388524,18.630804329499515,2.180122540423681,0.2783822410981511,185.2438438568148,22.105073877075306,0.0,1.0,0.0,0.0,1.0,Taxi
33.9,0.14164792869657133,-26.5863862185472,19.739642680984943,1.8326774270844688,-0.40475538753573187,185.2261953907912,21.677408495147745,0.0,1.0,0.0,0.0,1.0,Taxi
34.0,-0.042487745570575296,-14.163298184536458,19.630591908852292,2.060780186848688,-0.018928565029869865,185.36515625772677,22.582544830423544,0.0,1.0,0.0,0.0,1.0,Taxi
34.1,-0.12236840826598652,-42.828185478790466,20.454955529921293,1.6080320193001971,0.29157867855190045,185.47958946392237,22.443438438135548,0.0,1.0,0.0,0.0,1.0,Taxi
34.2,-0.07249299869738098,-15.046373460337625,19.273097518861587,1.7022213367207666,-0.26364104419685497,185.2096957837798,22.307391316399507,0.0,1.0,0.0,0.0,1.0,Taxi
34.300000000000004,-0.1177196128722634,2.6059056139221126,18.68783909519493,1.8821328848247705,0.7209651002197914,185.1808513859005,22.204344300413986,0.0,1.0,0.0,0.0,1.0,Taxi
34.4,-0.10933888019637593,60.49689630439957,20.052791404568957,1.7891510722877022,-0.5560355078117277,185.19187585507143,22.061684754811637,0.0,1.0,0.0,0.0,1.0,Taxi
34.5,0.2299914828246169,28.7752850761259,19.722376051293672,1.7103219564256547,0.8180293020933894,185.25571424287034,23.001599951933564,0.0,1.0,0.0,0.0,1.0,Taxi
34.6,0.02615681250836617,-10.278428691655364,18.984399145664376,1.8889525512190755,-0.36319986635207735,185.36322401119912,22.671716661406354,0.0,1.0,0.0,0.0,1.0,Taxi
34.7,-0.1607310236546527,-44.30571983209531,20.10287159253924,1.7384832250142483,0.6463773175152396,185.42718864434983,23.089206049563607,0.0,1.0,0.0,0.0,1.0,Taxi
34.800000000000004,0.008462883664140377,-19.470228914262954,19.96344897373965,2.253981292260303,-0.16371491134648908,185.44123897454904,22.6401498108956,0.0,1.0,0.0,0.0,1.0,Taxi
34.9,-0.0711943320629486,23.621022253359076,19.454032927884658,1.8075098572853927,0.060586326703745655,185.1570188778228,22.336955603790184,0.0,1.0,0.0,0.0,1.0,Taxi
35.0,-0.042625912387857304,21.037204961227165,18.644288909636668,1.857863736635317,0.183198912483544,185.2251638899911,22.193597171481823,0.0,1.0,0.0,0.0,1.0,Taxi
35.1,0.11364890847027623,-22.109233909387587,19.201066910597135,2.0403903542023536,-0.9532774101712096,185.25696817033327,22.172210374937134,0.0,1.0,0.0,0.0,1.0,Taxi
35.2,-0.1817405016098865,34.63118992723084,19.73167885730948,2.048153091535377,-0.06267676881972155,185.34490646283768,21.942513348769058,0.0,1.0,0.0,0.0,1.0,Taxi
35.300000000000004,0.13053003724829698,-41.321410177866355,20.070170073422418,1.633630843552369,-0.7700425421609458,185.32118157920695,22.114602066380918,0.0,1.0,0.0,0.0,1.0,Taxi
