time_s,altitude_ft,vertical_speed_fpm,ias_kt,pitch_deg,roll_deg,heading_deg,throttle_pct,afterburner_on,gear_down,flaps_deg,speedbrake_pct,weight_on_wheels,label
0.0,0.091871669761982,-32.28957620902759,8.57297521023818,-0.0217545325701433,0.8816276839611074,190.20771833650667,17.564593556692074,0.0,1.0,0.0,0.0,1.0,Taxi
0.1,-0.01576025093477663,-22.901455870805506,7.260306318833574,0.004132456157901282,-0.3317303395373538,190.1172333384127,17.97393869745803,0.0,1.0,0.0,0.0,1.0,Taxi
0.2,-0.022635609592045552,-10.462527992562412,8.309621573482316,0.04066993706875886,-0.09359725947763402,190.28334224245907,18.666111549609713,0.0,1.0,0.0,0.0,1.0,Taxi
0.30000000000000004,0.03955902979916994,-1.4086134804882064,8.167999634194944,-0.36610370931486574,0.4550350565121338,190.10352480543793,16.722243965284605,0.0,1.0,0.0,0.0,1.0,Taxi
0.4,-0.022803318337217653,-7.778711183226396,7.50260073175566,-0.1711059037627548,-0.1668299981861666,190.37239908120137,17.759593817938704,0.0,1.0,0.0,0.0,1.0,Taxi
0.5,-0.061529165508177525,-39.13578044234156,8.228356618232299,-0.3218625015567298,-0.23306494954520893,190.44062256588927,17.500965719065103,0.0,1.0,0.0,0.0,1.0,Taxi
0.6000000000000001,-0.15611987241253786,-8.110876656120611,8.282605414960633,-0.293560058852224,0.7909115793087329,190.38470750834847,17.800226618221046,0.0,1.0,0.0,0.0,1.0,Taxi
0.7000000000000001,-0.06335770161782071,5.229982175115237,7.696894271985457,-0.17713011018157582,-0.29901460587808226,190.361443994797,17.809293774134165,0.0,1.0,0.0,0.0,1.0,Taxi
0.8,-0.03537925463260134,13.618551239751474,7.4922779441819145,-0.5728467204511749,0.7856892352248952,190.20870500023352,17.49931663274874,0.0,1.0,0.0,0.0,1.0,Taxi
0.9,-0.08802711621378051,26.174153388677457,7.53940975131668,0.07029860579105027,-0.03740099754285608,190.43959015506744,17.957987234045543,0.0,1.0,0.0,0.0,1.0,Taxi
1.0,0.06751306532556654,-5.244582295262556,8.048010290611646,0.1849791234704305,0.47444141684123925,190.21085529019103,17.844934325955222,0.0,1.0,0.0,0.0,1.0,Taxi
1.1,-0.06160216610891416,20.6083843580144,7.562955006794454,0.053184937962472256,0.3287041510682024,190.28418927992902,18.81798510714008,0.0,1.0,0.0,0.0,1.0,Taxi
1.2000000000000002,0.015014805576291463,-31.98298869500037,8.39895147698299,0.040973355602828554,0.1297588946306251,190.28047908118094,17.05334100673209,0.0,1.0,0.0,0.0,1.0,Taxi
1.3,-0.0924018781494353,-19.372743821733746,9.04156160869637,-0.30765879079148506,0.4308204033826777,190.24937290280832,17.918582184575364,0.0,1.0,0.0,0.0,1.0,Taxi
1.4000000000000001,-0.15846588521758287,-0.087863984207317,7.798194133082903,-0.31523622955308206,-0.7176677402312176,190.13731147673798,18.178313086354866,0.0,1.0,0.0,0.0,1.0,Taxi
1.5,0.014575485655254914,40.259448336088155,7.667318668661403,-0.153202031859898,-0.23155980210499444,190.32771309984628,17.91535317887159,0.0,1.0,0.0,0.0,1.0,Taxi
1.6,0.10889536353100548,10.714567881846364,9.44833844176962,0.30117056052935565,0.25892161318998447,190.08229096028026,17.645881439785207,0.0,1.0,0.0,0.0,1.0,Taxi
1.7000000000000002,-0.10489304580835108,-25.254999572649325,7.390054335145721,-0.46673374594803874,0.36744153038622684,190.2133990059299,17.412923253425234,0.0,1.0,0.0,0.0,1.0,Taxi
1.8,-0.11169951220799175,9.825015019356593,8.540159722027974,-0.15297523474060398,0.12783101828625992,190.26591279585182,17.928840060845637,0.0,1.0,0.0,0.0,1.0,Taxi
1.9000000000000001,0.15802043862778842,11.055450123631294,8.255259105190202,-0.05233141576469203,0.40547214753295235,190.41188620260436,17.411139238314988,0.0,1.0,0.0,0.0,1.0,Taxi
2.0,-0.04961579519019461,28.307654880883764,7.034286479046627,0.29059633005253704,-0.14599483188591467,190.34153851548763,19.050270459035676,0.0,1.0,0.0,0.0,1.0,Taxi
2.1,0.029838762196427077,-14.787456756294985,8.10597151034071,0.07554654727261709,-0.8647498890382884,190.36720060307357,18.211804601349524,0.0,1.0,0.0,0.0,1.0,Taxi
2.2,0.0840831548463135,8.946501617100802,6.765678210470549,0.03999888693448431,0.04379325014733475,190.14258408913554,17.804340579075326,0.0,1.0,0.0,0.0,1.0,Taxi
2.3000000000000003,-0.004883287104690591,-13.045569692509654,8.296511445681135,0.029181735825683452,0.6320371329781258,190.25832611183432,17.612703842239675,0.0,1.0,0.0,0.0,1.0,Taxi
2.4000000000000004,-0.0353890862661212,-25.699059956693564,8.03289636406205,-0.011854343665774716,0.5227217784440169,190.16970627992657,17.560055490165965,0.0,1.0,0.0,0.0,1.0,Taxi
2.5,-0.04441214493715432,6.150276046111917,7.169305199769532,-0.32246603047182576,-0.18462001536968928,190.11473926076246,18.019181245255766,0.0,1.0,0.0,0.0,1.0,Taxi
2.6,0.025868093125868977,48.263276507997546,8.346129763524885,-0.23604687012310113,-0.08339573730668741,190.33965133882873,17.68430131154519,0.0,1.0,0.0,0.0,1.0,Taxi
2.7,0.20592729627386652,-21.69686839063245,7.457818205344428,-0.1258410832676557,0.13682907527931792,190.09041672994965,18.1682204347595,0.0,1.0,0.0,0.0,1.0,Taxi
2.8000000000000003,-0.15289648689031668,2.6606005597630733,7.0870298384481725,-0.2328339364408074,0.8650312949120178,190.42975396182248,17.344488330932176,0.0,1.0,0.0,0.0,1.0,Taxi
2.9000000000000004,0.03917109592468428,-33.925141375973155,7.982418849745718,-0.14157385857900656,-0.1754909531693025,190.39729002004628,17.57462481856653,0.0,1.0,0.0,0.0,1.0,Taxi
3.0,0.03630158939400066,27.144541803180335,7.833581377522181,-0.3032997675389866,-0.02491571453526432,190.35269049985072,18.530098022033247,0.0,1.0,0.0,0.0,1.0,Taxi
3.1,-0.017173777874415055,23.78388094375963,7.790155467235139,0.07663125783932556,-0.3177742632681699,190.1450920004729,17.23451076511942,0.0,1.0,0.0,0.0,1.0,Taxi
3.2,0.15809050064348237,0.683495350569217,8.256764116765,0.2024755663379264,0.38174328313946926,190.26227916988694,18.280559227280722,0.0,1.0,0.0,0.0,1.0,Taxi
3.3000000000000003,0.039719066146846664,17.241310850078108,8.875984723625374,-0.1722023239402904,-0.033910775579380055,190.34262782794553,18.515933291522842,0.0,1.0,0.0,0.0,1.0,Taxi
3.4000000000000004,0.0690327763759754,-35.6549083566016,8.287656232967748,-0.018719636551457204,-0.36949819016443286,190.37510851473212,17.55230930481574,0.0,1.0,0.0,0.0,1.0,Taxi
3.5,-0.0201840411395257,-23.300749044973085,7.266276486144667,0.16208182294510032,-1.0135521536159118,190.27678328475292,16.805852109189793,0.0,1.0,0.0,0.0,1.0,Taxi
3.6,-0.07678467907801878,-19.0436925771197,7.300845517389351,-0.5240153615019059,-0.8030491925833193,190.20678756866891,18.06870440274509,0.0,1.0,0.0,0.0,1.0,Taxi
3.7,-0.026185686509623135,-8.045361144220367,8.763426681219332,-0.057611518531305674,0.19949823035884845,190.14779146128842,17.922215176434904,0.0,1.0,0.0,0.0,1.0,Taxi
3.8000000000000003,-0.060410846860627546,12.329984906758702,7.619115406856135,-0.0817614357677078,0.00039608025613506513,190.34438140123984,18.297279509312197,0.0,1.0,0.0,0.0,1.0,Taxi
3.9000000000000004,-0.015134754544225297,-11.177750339232583,8.408514058374136,-0.09912636196159487,0.25348385504197435,190.21384951718744,18.069047495504165,0.0,1.0,0.0,0.0,1.0,Taxi
4.0,-0.08207443820578608,48.3586670024699,8.248016014549309,-0.06352651829237879,0.17270024778078694,190.26258449502313,17.125241653146904,0.0,1.0,0.0,0.0,1.0,Taxi
4.1000000000000005,0.18138248815172192,7.478162826068039,8.554236234452455,-0.09505837870185463,0.9896057107531158,190.3811726758447,18.45764921589681,0.0,1.0,0.0,0.0,1.0,Taxi
4.2,0.02225605958611486,44.17178850209027,7.301132258036042,-0.1150342976807665,-0.030985222773112754,190.31213109765292,18.251226258822065,0.0,1.0,0.0,0.0,1.0,Taxi
4.3,0.1387845043046653,-52.32388891423205,7.969969730268111,0.1047874615379131,-0.41568476951768185,190.1771289892563,17.8331679484746,0.0,1.0,0.0,0.0,1.0,Taxi
4.4,-0.08023695641943837,-22.17510048532309,8.215506992537577,0.1581270519466674,-0.386350110104876,190.19917706455738,18.258549020184763,0.0,1.0,0.0,0.0,1.0,Taxi
4.5,-0.08861944284050062,-39.536196947350675,8.791960902624616,-0.4176446266693181,-0.41930495552145103,190.13292552786004,17.769500627556923,0.0,1.0,0.0,0.0,1.0,Taxi
4.6000000000000005,-0.058896480432088116,32.781560017978904,8.036098738642108,-0.22513409878629742,0.17400771465142792,190.24083257241534,17.753933837008002,0.0,1.0,0.0,0.0,1.0,Taxi
4.7,0.08367084367045614,32.74524316632532,8.65722116439251,-0.06859962801665331,0.5083678629003985,190.25592512556454,18.215635916784407,0.0,1.0,0.0,0.0,1.0,Taxi
4.800000000000001,0.07510677299112593,15.433418049541226,8.372037051907764,-0.4219637826950675,-0.3334001659923258,190.1406935942838,18.425717929315127,0.0,1.0,0.0,0.0,1.0,Taxi
4.9,0.018270609815618004,-24.319059062178365,7.374051765250362,0.10738972384266848,-0.5243382551203549,190.31664428788451,18.198191875271917,0.0,1.0,0.0,0.0,1.0,Taxi
5.0,-0.0379244516404357,-6.08124316353824,7.857433090204758,0.2120827740474645,-0.28864113482891685,190.2856280746821,16.786544766822757,0.0,1.0,0.0,0.0,1.0,Taxi
5.1000000000000005,0.04470055717343471,40.817500415633646,8.762513000295472,-0.09141820185056676,-0.47825014481433753,190.1102524839862,17.41424894581956,0.0,1.0,0.0,0.0,1.0,Taxi
5.2,0.2223581118937862,15.031073694446661,7.694472914846842,-0.3181213720455981,-0.4781200096510158,190.44093791535067,18.09488536671071,0.0,1.0,0.0,0.0,1.0,Taxi
5.300000000000001,0.03723091683179756,-30.188939235144385,8.842362754300037,-0.21579684479787023,0.31697215306554183,190.157492651932,18.203683209047778,0.0,1.0,0.0,0.0,1.0,Taxi
5.4,-0.10624413900228724,-29.298634805016675,6.899875684693521,-0.2658002103996787,0.1245397470534882,190.40572279995354,18.46695102523225,0.0,1.0,0.0,0.0,1.0,Taxi
5.5,0.07586493786870281,-19.497840677417475,7.314323871569945,0.17818354852138263,-0.483262186528257,190.02196411574187,18.167202362282936,0.0,1.0,0.0,0.0,1.0,Taxi
5.6000000000000005,-0.060258286555289836,38.14196224059022,8.271302167190559,-0.4916556007601851,0.2725640895037836,190.2527212520224,17.631625680849634,0.0,1.0,0.0,0.0,1.0,Taxi
5.7,0.08446567220066382,-28.603527808427657,8.673872782243054,-0.12729866673373533,-0.1794684807400775,190.3870446151759,17.684131832564372,0.0,1.0,0.0,0.0,1.0,Taxi
5.800000000000001,-0.06715270117343551,29.791184643477152,7.456139022112874,-0.04012373122692945,0.34758606493467653,190.29413911276583,17.474423752420805,0.0,1.0,0.0,0.0,1.0,Taxi
5.9,0.08869763666209585,-29.93295895225631,8.228754246579967,0.199338380399055,0.266506419883945,190.35876926671676,18.036397172271492,0.0,1.0,0.0,0.0,1.0,Taxi
6.0,-0.0651991225606178,17.199772787343253,7.1842918881786995,0.09993419969600231,0.9467395983632977,190.3353291002427,18.03252597389358,0.0,1.0,0.0,0.0,1.0,Taxi
6.1000000000000005,0.018846162763280692,-4.778461029917604,7.955280906111003,0.12576410158085927,-0.3041514006852489,190.35565803066845,18.173861461508196,0.0,1.0,0.0,0.0,1.0,Taxi
6.2,0.06480533151250777,-0.15733692790192322,7.835103968339722,-0.1444878681702879,0.048626209932438,190.25341865474275,17.763919164672036,0.0,1.0,0.0,0.0,1.0,Taxi
6.300000000000001,-0.06598580720012746,-11.083676583996327,8.269147957772207,0.04941590634302101,0.5770238301422701,190.2282283324405,17.670615736326095,0.0,1.0,0.0,0.0,1.0,Taxi
6.4,-0.036572220156700995,30.66439535864259,9.163406463134596,-0.33635215577404126,-0.25068640040833734,190.24532244880243,18.54473407071666,0.0,1.0,0.0,0.0,1.0,Taxi
6.5,0.2181273083057207,34.37893569445935,8.438789108685555,0.2979172259434276,-0.7865657081492861,190.22782127944174,17.062615163941544,0.0,1.0,0.0,0.0,1.0,Taxi
6.6000000000000005,0.10590887127216926,-6.834426108893202,8.206885437248426,0.06879587250810301,-0.828404437910111,190.2980317506449,17.612086321554397,0.0,1.0,0.0,0.0,1.0,Taxi
6.7,-0.07074435070116701,-41.55391929253097,7.1950042389250415,-0.2531762892132605,-0.16127855091603788,190.32346797256457,17.26960025392146,0.0,1.0,0.0,0.0,1.0,Taxi
6.800000000000001,0.010357711843065822,22.029647797355935,7.066272907360174,-0.0033407462095434715,-0.7650392365694451,190.42473523579872,17.8082916882061,0.0,1.0,0.0,0.0,1.0,Taxi
6.9,0.21605711025894891,53.41348076067507,8.00259598593342,-0.014798708062070808,1.2201007843434888,190.23091216617172,18.034644702204456,0.0,1.0,0.0,0.0,1.0,Taxi
7.0,0.19632305310220832,4.434205347373904,7.261150646890971,0.08063429363467522,0.1671431857709452,190.07867960589897,17.69867196484174,0.0,1.0,0.0,0.0,1.0,Taxi
7.1000000000000005,0.03252873857993529,-30.284018944245343,7.515083201016714,0.3659122890777432,0.027031900239924883,190.28860143189615,17.967792218681495,0.0,1.0,0.0,0.0,1.0,Taxi
7.2,0.06463701553772215,-82.01752644530393,8.547795359430863,-0.0289492597822308,1.0827004477099227,190.26971056049183,18.47229873020796,0.0,1.0,0.0,0.0,1.0,Taxi
7.300000000000001,-0.21376457912431135,-19.04341824111302,7.937588732859571,-0.00927187593942054,-0.513683057974293,190.3470285244739,16.471663923285607,0.0,1.0,0.0,0.0,1.0,Taxi
7.4,-0.06268835262562988,4.27713452409805,8.471584632596448,-0.2099048631576429,0.009354350760377937,190.1206354264225,18.838411915487992,0.0,1.0,0.0,0.0,1.0,Taxi
7.5,0.08602268815821235,38.8512304442109,7.225534137579828,-0.27498023730930954,0.31224105870046626,190.32606037573566,18.149237687785263,0.0,1.0,0.0,0.0,1.0,Taxi
7.6000000000000005,-0.019508426903256878,2.427800075182944,7.889068096035937,-0.25484780595395706,-0.34105066744848117,190.14874626025642,18.150009565970823,0.0,1.0,0.0,0.0,1.0,Taxi
7.7,-0.05054935224971524,-38.51867000188902,7.19999363290581,-0.3166457578891909,-0.8195405621720087,190.1050921692473,18.257052936308124,0.0,1.0,0.0,0.0,1.0,Taxi
7.800000000000001,-0.10657066185123283,-24.444035505841033,7.487807599733958,0.029456703967777956,-0.5315988606150382,190.15401623977084,18.630468394864288,0.0,1.0,0.0,0.0,1.0,Taxi
7.9,-0.14172860443246213,5.736557099043243,7.2613808430855755,0.041921529004759275,-0.10591006535740012,190.1884536659269,18.62936490927937,0.0,1.0,0.0,0.0,1.0,Taxi
8.0,-0.021866566754499103,16.689901610156056,7.593127428694164,-0.15722515001935222,-0.946459768760482,190.07293871958655,18.36007216449944,0.0,1.0,0.0,0.0,1.0,Taxi
8.1,-0.02312115380045263,34.85765860247957,8.793029439044146,-0.24022276586281766,0.13031504805765332,190.17594712321193,18.036002450424714,0.0,1.0,0.0,0.0,1.0,Taxi
8.200000000000001,0.032559688579935624,25.875982381839435,7.320709007477911,-0.5121378146290217,-0.518182059973039,190.15350036855148,18.791644428490876,0.0,1.0,0.0,0.0,1.0,Taxi
8.3,0.10751334515469801,-35.27942214063843,8.271898135151273,0.09942106726931021,-0.13406922310172315,190.1428789935245,18.51572435889793,0.0,1.0,0.0,0.0,1.0,Taxi
8.4,-0.19951826450364485,10.204417755083389,8.447557598880625,0.16845627528127338,0.6339066760477737,190.11413489106042,17.52635752960477,0.0,1.0,0.0,0.0,1.0,Taxi
8.5,0.08358177735535255,-17.332664356269117,8.221677204293004,-0.3814662073395461,0.21151450846028988,190.1544777527306,18.56698749428668,0.0,1.0,0.0,0.0,1.0,Taxi
8.6,0.02085002337335237,55.89366063381936,8.098776537005724,0.03963587973245947,0.22081249785410717,190.35592146860836,17.809974334909093,0.0,1.0,0.0,0.0,1.0,Taxi
8.700000000000001,0.07995003866545188,-12.721047207657376,7.535106243754454,-0.31422527980452175,-0.7427641855127695,190.29229992876742,17.6301601923079,0.0,1.0,0.0,0.0,1.0,Taxi
8.8,0.019976541317065593,3.9079067619064154,7.542164252829049,-0.4190556917221303,0.3109138140520063,190.2210961595115,17.649720565163864,0.0,1.0,0.0,0.0,1.0,Taxi
8.9,0.040389557182884374,9.474038383389312,7.122933771531134,0.15154527177261454,-0.13472713230126226,190.4467515023714,16.89068742936428,0.0,1.0,0.0,0.0,1.0,Taxi
9.0,0.12732023058239836,-37.67225735144166,7.38736908590937,-0.27109821140160095,1.0460916328495298,190.37880302127394,17.393183632880724,0.0,1.0,0.0,0.0,1.0,Taxi
9.1,-0.16838474544014273,-26.679087398057188,7.770089352423952,-0.25314623513069323,0.25964495148105515,190.3770456714533,18.184490271642783,0.0,1.0,0.0,0.0,1.0,Taxi
9.200000000000001,-0.09300587980740162,-27.342692974429898,8.657639139852623,-0.05412123221056593,-0.5953280662699538,190.3209924227167,17.805960043855375,0.0,1.0,0.0,0.0,1.0,Taxi
9.3,-0.009393234289751175,40.16931498618579,8.983785985747954,-0.5999943425519954,0.5442089798856717,190.37566307123257,18.308581654708043,0.0,1.0,0.0,0.0,1.0,Taxi
9.4,0.03246182949078616,18.22950884817327,8.055530874671462,-0.39484758552067384,-0.6927646634207555,190.31580654658,18.52406960660462,0.0,1.0,0.0,0.0,1.0,Taxi
9.5,-0.0018583355665353256,31.07360854807995,8.308280046061299,-0.2468628946271158,0.8698384886181019,190.145635184845,17.406214034617935,0.0,1.0,0.0,0.0,1.0,Taxi
9.600000000000001,0.14597480845064853,-18.180489005505464,8.538656125873805,0.07341257305569937,0.9912623425776238,190.33495380153863,17.58039564171785,0.0,1.0,0.0,0.0,1.0,Taxi
9.700000000000001,-0.058440615536741236,17.288124593790986,7.724639584842585,-0.4101730291319306,0.23979094144689178,190.34546921797687,17.683550022913373,0.0,1.0,0.0,0.0,1.0,Taxi
9.8,0.08458228740241952,-4.505488662676725,8.332219361416586,-0.007296946981486432,0.33706573234020104,190.3343205013848,17.75795613061149,0.0,1.0,0.0,0.0,1.0,Taxi
9.9,0.12344736513726483,28.584355918043286,7.860964412024084,0.05750299846471127,0.5617272301289779,190.33237430724955,18.699184352745124,0.0,1.0,0.0,0.0,1.0,Taxi
10.0,0.08448116405347514,-0.002573167808499773,7.7978265603167065,-0.22163353654163284,-1.1816793415912676,190.26500595109258,17.380926953688054,0.0,1.0,0.0,0.0,1.0,Taxi
10.100000000000001,0.08456942156337696,-25.21313022415114,7.14677987771465,0.10863793367831573,0.6932225746243037,190.2417547416453,17.665372823694803,0.0,1.0,0.0,0.0,1.0,Taxi
10.200000000000001,-0.002618285983490926,-42.49595520927957,8.317039621095056,-0.4277129279727835,0.3124707659395174,190.09000386931052,18.56499991831003,0.0,1.0,0.0,0.0,1.0,Taxi
10.3,-0.12799861199292278,-35.797120297572555,8.350245966975415,0.1254843972877655,0.44735430822098904,190.3650712994504,17.363359182353978,0.0,1.0,0.0,0.0,1.0,Taxi
10.4,-0.09441617992448587,-10.96188299953584,8.263519922005576,0.011240643675049011,0.37847875509599144,190.25487979195225,17.945312458657867,0.0,1.0,0.0,0.0,1.0,Taxi
10.5,-0.0574277009811702,14.681662607826743,7.008628844889911,0.01856641798076332,-0.12558545786075473,190.2343467194513,18.513025024571135,0.0,1.0,0.0,0.0,1.0,Taxi
10.600000000000001,-0.05459029895378913,19.93846598497595,7.899800620610733,-0.3500644488679991,-0.4992120326877019,190.09066320568888,18.011379367205148,0.0,1.0,0.0,0.0,1.0,Taxi
10.700000000000001,0.005276150000393811,-11.98337241938259,8.47910375487784,-0.14375986518733963,0.38407654904582095,190.32833543949243,17.699846908356882,0.0,1.0,0.0,0.0,1.0,Taxi
10.8,-0.11734456307808322,27.195307114118126,8.745853260886786,0.2096750264014321,0.5911776256240437,190.401135906916,18.066625133233433,0.0,1.0,0.0,0.0,1.0,Taxi
10.9,0.08138623661680143,28.985835708225128,7.648728629818057,-0.11736306945388947,0.7280120998853447,190.06168925425982,17.672023128003634,0.0,1.0,0.0,0.0,1.0,Taxi
11.0,0.15020532854151938,57.919071177713285,8.63085481716112,-0.09824389630653843,0.03436930529519449,190.27858902032472,17.72222864343217,0.0,1.0,0.0,0.0,1.0,Taxi
11.100000000000001,0.17225079281048314,-26.298065099660366,7.326974055047201,-0.5759483734793269,-0.6181730106964619,190.07256687120753,16.80503792668789,0.0,1.0,0.0,0.0,1.0,Taxi
11.200000000000001,-0.05010408888150049,-36.91451390781043,8.436079269478835,-0.0859851704437972,-1.246665076542581,190.33674904610643,18.584961182967472,0.0,1.0,0.0,0.0,1.0,Taxi
11.3,-0.03436724099753285,-68.2923286344756,8.457397516019158,0.00948762548722637,0.40906395415004243,190.41500603424038,17.678674934821725,0.0,1.0,0.0,0.0,1.0,Taxi
11.4,-0.16921085036189487,-33.028235524405716,8.297252539386347,0.12981290525185146,-0.5742079974008961,190.2700675324587,18.227061982133485,0.0,1.0,0.0,0.0,1.0,Taxi
11.5,-0.21524526650352915,6.339188835807529,7.977071755652581,-0.08027448720025235,0.2064718330796704,190.353777245718,17.862896760062668,0.0,1.0,0.0,0.0,1.0,Taxi
11.600000000000001,-0.002671296818495319,10.098043499489753,7.8062011642445635,-0.2429964639690621,0.9559276966733712,189.958930614903,17.734430844325118,0.0,1.0,0.0,0.0,1.0,Taxi
11.700000000000001,-0.11872063286444622,66.30881204765562,8.426381598042978,-0.3789238078153765,-0.42838827329403867,190.27840383743307,18.298753527790513,0.0,1.0,0.0,0.0,1.0,Taxi
11.8,0.11629879373474881,-14.38350461434554,7.466518476912396,-0.05920036107896979,0.4077020980653528,190.08863001816292,18.34457602030322,0.0,1.0,0.0,0.0,1.0,Taxi
11.9,-0.0745888198902231,26.28987585180091,8.595490836896154,-0.23500278004887654,0.08585931591863417,190.31704941728742,16.82072386229248,0.0,1.0,0.0,0.0,1.0,Taxi
12.0,0.01272874639455826,-7.007761672866638,8.378198644491388,-0.49526678224023574,0.5679263982118532,190.22296282955426,17.71999051943227,0.0,1.0,0.0,0.0,1.0,Taxi
12.100000000000001,0.08125998537041552,-4.579970204157665,7.5219968940840864,-0.1901110605194522,0.6523755370347308,190.05366612400837,18.10896481660601,0.0,1.0,0.0,0.0,1.0,Taxi
12.200000000000001,-0.09748867091101154,5.696425953109326,8.151079876202763,-0.3937013047094142,-0.28247675827619606,190.2505988307896,18.461656001471066,0.0,1.0,0.0,0.0,1.0,Taxi
12.3,0.04121087616010482,1.2181212687883314,7.990880674887055,-0.05846116856477607,0.4296977387007305,190.33221435417,18.067663775744276,0.0,1.0,0.0,0.0,1.0,Taxi
12.4,0.0873505917143571,6.689732534660247,8.243054606974924,-0.005136401940608021,-0.03643845393740242,190.45351787335858,16.928429193717033,0.0,1.0,0.0,0.0,1.0,Taxi
12.5,-0.06404000823771037,-27.504981476023048,8.440722605406794,-0.30766606418829456,-0.5371745313529845,190.269911780887,18.29343517935342,0.0,1.0,0.0,0.0,1.0,Taxi
12.600000000000001,-0.09631403122001049,3.573921098283686,8.673560021902924,-0.2456833044922467,-0.2756651512905159,190.30421750079176,17.538249612046528,0.0,1.0,0.0,0.0,1.0,Taxi
12.700000000000001,0.10522019720577545,2.45721579154079,8.187921696692786,-0.11197908537527032,1.0779906936112462,190.26335650200303,19.01743408806603,0.0,1.0,0.0,0.0,1.0,Taxi
12.8,-0.05175392928000654,27.882625241016843,6.947187258606218,0.09286632817780383,-0.13637123575298296,190.42965205533824,18.007318799652083,0.0,1.0,0.0,0.0,1.0,Taxi
12.9,0.04309909498507361,-51.57137286803307,7.689315203701949,-0.23101430469342085,-0.13883603713623918,190.31168113834997,17.75589193045316,0.0,1.0,0.0,0.0,1.0,Taxi
13.0,-0.15263666713439,-3.991559720150709,7.98795763719421,-0.17535759607884777,0.5861866130540232,190.41141909639248,17.90586875338109,0.0,1.0,0.0,0.0,1.0,Taxi
13.100000000000001,-0.07171172788076018,4.901169590724848,8.315849217927028,-0.23870472112675,0.26971699165417856,190.14121531479577,16.597779284898458,0.0,1.0,0.0,0.0,1.0,Taxi
13.200000000000001,0.06760494293869773,54.77296299909219,7.797971352404775,-0.14459971443171382,0.44269694005439614,190.29352196750426,17.30452805769821,0.0,1.0,0.0,0.0,1.0,Taxi
13.3,0.12122814786107079,-3.0480610360577978,7.572093467152371,-0.21511802862989174,0.18045084826471985,190.34707339270835,18.263314030982446,0.0,1.0,0.0,0.0,1.0,Taxi
13.4,-0.08695203306104932,-20.02155402821461,7.6483807121378,-0.20573876303185157,-0.401970401742877,190.32167665702593,17.679835395525437,0.0,1.0,0.0,0.0,1.0,Taxi
13.5,-0.03250282720237543,-57.301798625104446,8.483005055396218,0.02590425686094784,-0.6162398656195622,190.15618900809488,17.579890466810372,0.0,1.0,0.0,0.0,1.0,Taxi
13.600000000000001,-0.1652808452644515,28.251096094343676,8.378275088091726,-0.24799671069321053,-0.13052741590231676,190.0701523259487,18.160609559990444,0.0,1.0,0.0,0.0,1.0,Taxi
13.700000000000001,0.054303447410669,22.852097048401607,8.12866531970188,0.5013266137593559,0.3956218252894697,190.44141670971862,17.885473248358082,0.0,1.0,0.0,0.0,1.0,Taxi
13.8,0.08175765803963256,49.10214956054509,8.8347154243542,-0.07937567625477121,0.2678460445638447,190.21535710700175,17.635507080431747,0.0,1.0,0.0,0.0,1.0,Taxi
13.9,0.08022990253827385,-8.153085218845488,8.15377168277119,-0.2540664104190353,-0.17916772182148846,190.26747291466245,18.022968561446913,0.0,1.0,0.0,0.0,1.0,Taxi
14.0,0.013538021316441468,-1.6656802087258786,6.882760850386598,-0.39842535594824596,-0.2694369530257719,190.1940144567336,18.17545778089364,0.0,1.0,0.0,0.0,1.0,Taxi
14.100000000000001,0.07342925699600307,-0.7322692717373324,6.730399975178255,-0.1637269092375962,-0.4962771880741353,190.2111618704705,17.36102156964321,0.0,1.0,0.0,0.0,1.0,Taxi
14.200000000000001,0.07656855617958709,-2.37583111956693,7.7431902100465635,0.343980821894687,-0.14629623934509897,190.23557736076702,18.02347624984535,0.0,1.0,0.0,0.0,1.0,Taxi
14.3,0.00165886571860672,-8.816182557707762,7.719901738115848,0.07242155935800607,0.9763068399898037,190.25379675398483,17.64938091716536,0.0,1.0,0.0,0.0,1.0,Taxi
14.4,0.029348344207464162,-40.70988238238406,8.112340087010741,0.01607687563575927,-0.012422654491969002,190.43802408865224,17.37728525738103,0.0,1.0,0.0,0.0,1.0,Taxi
14.5,-0.1269808557323333,8.9674599605448,8.555918648211932,-0.1977430401034761,-0.3094667247650837,190.52578919019686,17.388864706487343,0.0,1.0,0.0,0.0,1.0,Taxi
14.600000000000001,0.046496165521330596,-36.884612996465485,8.281141116084509,-0.0830448089041794,-0.41279574675913916,190.27179401228204,16.851797813570958,0.0,1.0,0.0,0.0,1.0,Taxi
14.700000000000001,-0.15507472077486337,18.038643340479652,7.612753962071938,0.33076376601660734,-0.40919045871229875,190.29925367149997,18.481541508368192,0.0,1.0,0.0,0.0,1.0,Taxi
14.8,-0.03678763902993514,-8.670299619148969,8.425004465355766,-0.40345037520407706,-0.3935182288437127,190.11026231753567,17.87748095932617,0.0,1.0,0.0,0.0,1.0,Taxi
14.9,0.0031446674255856686,42.88951601284156,8.79260227331415,-0.07440367265998131,0.3041200512306441,190.2678666065724,18.115620176340947,0.0,1.0,0.0,0.0,1.0,Taxi
15.0,0.059372859289344326,-8.616537346353288,7.819333701210235,-0.13932890241705712,-0.05387581299581834,190.30259349581422,17.694993940211894,0.0,1.0,0.0,0.0,1.0,Taxi
15.100000000000001,-0.07987032576170167,-29.927436749453335,8.487292568218168,-0.12677627094065258,1.0407460310458667,190.35050756245425,16.99339276103668,0.0,1.0,0.0,0.0,1.0,Taxi
15.200000000000001,-0.1464925163216811,-56.95168796424042,8.44653095244745,-0.2850816069658798,-0.21966415741343015,190.24828341803163,17.385645182060284,0.0,1.0,0.0,0.0,1.0,Taxi
15.3,-0.22538558053185784,33.3189318810857,8.234159440992851,0.06503241264444079,-0.09063802258524092,190.23791844955986,18.05820808604815,0.0,1.0,0.0,0.0,1.0,Taxi
15.4,0.08672433364372678,54.9413047039294,8.945358726013785,0.2755076488551511,-0.11672976205687184,190.18694454555884,18.92135484578279,0.0,1.0,0.0,0.0,1.0,Taxi
15.5,0.1282140071979658,67.37573660714473,8.784843241092373,-0.2707718428058836,-0.33040796775853065,190.34464922381096,17.784752248383164,0.0,1.0,0.0,0.0,1.0,Taxi
15.600000000000001,0.11149310250386579,-19.50142051060693,7.65498245808426,-0.3622012264198793,0.11229343937053791,190.1989928710177,17.895472657518642,0.0,1.0,0.0,0.0,1.0,Taxi
15.700000000000001,-0.010782768909307896,33.02529502050363,7.705586285637853,0.049426081995241344,0.49831659747941465,190.38872335121778,17.905305286691085,0.0,1.0,0.0,0.0,1.0,Taxi
15.8,0.29334048230048393,-42.586499864695334,7.596030072660954,0.04219726548640629,0.37166798867107786,190.27359086412514,17.79051555916098,0.0,1.0,0.0,0.0,1.0,Taxi
15.9,-0.10143939681961092,3.1064260553374177,7.843538084379303,-0.14199305001286366,0.45249771276242234,190.37896783752922,17.804754241175125,0.0,1.0,0.0,0.0,1.0,Taxi
16.0,0.004749361367379117,-78.39957636288797,8.248659500874213,-0.35129487984740504,-0.11319204701787941,190.26014179679214,17.54178666852904,0.0,1.0,0.0,0.0,1.0,Taxi
16.1,-0.09865739951395602,5.617485542781786,8.527363565672697,-0.37685062794724417,-0.09428585800079602,190.19511022744518,17.705387287701917,0.0,1.0,0.0,0.0,1.0,Taxi
16.2,-0.07335196910570206,-12.115436377961677,8.337364115088683,-0.30060673432984364,0.1755482943111231,190.29342479173192,17.505303741862715,0.0,1.0,0.0,0.0,1.0,Taxi
16.3,-0.05582782052242932,40.24976401581937,9.873904192804883,-0.032923522312905525,0.27705928777989575,190.2641833198179,17.55824806763139,0.0,1.0,0.0,0.0,1.0,Taxi
16.400000000000002,0.10259142056514081,-3.334364797348736,8.438393752277907,-0.41432998609764926,-0.7233446207306028,190.2776998613515,18.16897948113634,0.0,1.0,0.0,0.0,1.0,Taxi
16.5,-0.09002379309244579,32.61077120528887,7.779136730363249,-0.4272619015943417,-0.5769966968845356,190.10300914428728,18.00728002749778,0.0,1.0,0.0,0.0,1.0,Taxi
16.6,0.107226035504015,-6.345766185045893,7.985488539453305,-0.9072732600224731,-0.048139046790323756,190.1061228879579,18.212015950897865,0.0,1.0,0.0,0.0,1.0,Taxi
16.7,0.07086258963991131,16.937887831049792,6.4895200764926,0.3460087614616062,-0.07522457630348654,190.2191600911525,17.242989488027373,0.0,1.0,0.0,0.0,1.0,Taxi
16.8,-0.005334353937196874,1.5305121107493278,7.935934625560246,-0.1354374057283264,0.21360362761656207,190.0285997682979,18.85381670913491,0.0,1.0,0.0,0.0,1.0,Taxi
16.900000000000002,0.11487859605776159,27.433426003635528,8.21870904670934,0.051590920051706374,-0.7323304847393659,190.31044810548622,17.331463526552458,0.0,1.0,0.0,0.0,1.0,Taxi
17.0,0.2080297196580889,-6.7424516223656115,8.821199333044047,-0.0008626111052614793,-0.016822652123487318,190.2402187142526,17.91979371517191,0.0,1.0,0.0,0.0,1.0,Taxi
17.1,-0.039046612049024966,-28.391371394264297,8.465601232890927,0.2992794928737733,-0.964638972446323,190.2762370004126,18.503687620714285,0.0,1.0,0.0,0.0,1.0,Taxi
17.2,-0.02707826091355995,-31.829158809360575,8.04925689657333,0.08282272477858746,-0.10437898547351084,190.43715193592107,17.35055055709363,0.0,1.0,0.0,0.0,1.0,Taxi
17.3,0.04888392561128599,28.68523163528363,7.684385295180894,0.19270663289246637,-1.2883164244160428,190.22090368165857,18.033992620175624,0.0,1.0,0.0,0.0,1.0,Taxi
17.400000000000002,0.10437954612739314,17.1733975746991,7.449052851791837,-0.4104821238190114,-0.5898494274600601,190.44598018880038,17.793759372621388,0.0,1.0,0.0,0.0,1.0,Taxi
17.5,0.058788726959935526,12.30538129094564,7.4720641953634885,-0.14414335191462213,-0.453250336386932,190.25034359432368,18.16237678790424,0.0,1.0,0.0,0.0,1.0,Taxi
17.6,0.11041083206601417,-28.93187906439491,8.368504816712871,-0.21165222856722168,-0.1284231940632261,190.256257355741,18.116761752850305,0.0,1.0,0.0,0.0,1.0,Taxi
17.7,-0.04027984919458144,11.925574346353878,8.03912204942656,0.145175016018482,-0.25410102159667747,190.30384191831797,18.27637061693826,0.0,1.0,0.0,0.0,1.0,Taxi
17.8,0.1184165986917049,-4.684891755757163,9.98919426247951,-0.1935628086561001,-0.17618828711104312,190.5020082082508,18.292864704774242,0.0,1.0,0.0,0.0,1.0,Taxi
17.900000000000002,0.08698637328722833,24.07355101401973,8.266159288627456,-0.3879309284374457,0.21022170094262171,190.17062754302606,17.03746621975813,0.0,1.0,0.0,0.0,1.0,Taxi
18.0,0.08008790587551722,-8.871776056496687,8.501357170890218,0.10855987845644363,0.44807795695525565,190.18890515762416,16.802367453096146,0.0,1.0,0.0,0.0,1.0,Taxi
18.1,0.07405771840922144,-2.370482406466153,7.737669411303477,-0.1084858397698032,0.08373793558822626,190.1580774834814,17.336120895603173,0.0,1.0,0.0,0.0,1.0,Taxi
18.2,0.07513396125489755,2.871713431628615,7.551403091341715,-0.06861696752023276,-0.4278652543201857,190.30198124790934,17.853277824886053,0.0,1.0,0.0,0.0,1.0,Taxi
18.3,0.09444647303366027,-12.268097031546068,8.46109706295892,-0.21423977574238348,-0.6123553491957208,190.39486230513512,17.838027335462648,0.0,1.0,0.0,0.0,1.0,Taxi
18.400000000000002,0.012717233251491086,-32.64624037800173,9.182467291269369,-0.1492836885121423,0.33896496687916455,190.27008211109376,17.180961368382984,0.0,1.0,0.0,0.0,1.0,Taxi
18.5,-0.08809724063511112,-45.78858626109732,7.858864092285161,-0.006787087163198452,1.3849310174144396,190.2541304818709,18.240991596998057,0.0,1.0,0.0,0.0,1.0,Taxi
18.6,-0.13449645827182638,1.5254615052408507,8.420010862485832,-0.3717286064400368,-0.18748278265514792,190.31942140305034,18.34510347711013,0.0,1.0,0.0,0.0,1.0,Taxi
18.7,0.02034454077769532,34.75131237833086,7.414492674710768,-0.3894010571444358,-0.12248599248172085,190.26581579387846,17.070605209806313,0.0,1.0,0.0,0.0,1.0,Taxi
18.8,0.08565932125654316,23.120014141190865,8.040626454918616,0.18296381505323484,0.4869697727573353,190.14005725039942,18.32973363985246,0.0,1.0,0.0,0.0,1.0,Taxi
18.900000000000002,-0.018896387565872065,6.663953119209235,9.710150961043254,-0.31774797283770884,-0.03465360257404239,190.24439512234972,17.999397868641697,0.0,1.0,0.0,0.0,1.0,Taxi
19.0,0.05366430637374145,-27.367948559095154,8.285865406481596,-0.16493294356154542,0.4016221246846478,190.26464681479274,18.068271263920828,0.0,1.0,0.0,0.0,1.0,Taxi
19.1,-0.051180421538932645,-7.437444332352695,8.624904118211552,-0.4854716720166997,0.39194908396207623,190.2326993392585,17.4693495756868,0.0,1.0,0.0,0.0,1.0,Taxi
19.200000000000003,-0.056083609227635556,-10.519602336328832,7.957116322872804,-0.08844666100489387,-0.4430586671454549,190.26117703123828,17.794204506986386,0.0,1.0,0.0,0.0,1.0,Taxi
19.3,0.0010662946920972556,3.693095016642765,8.40628646719979,-0.4364346351959399,-0.4235321784018201,190.25952623843136,17.714518593816948,0.0,1.0,0.0,0.0,1.0,Taxi
19.400000000000002,-0.03271494645571885,7.337735577453195,8.282804814758284,-0.19928602832174036,-0.26995079657932763,190.4738556128574,18.081339213455102,0.0,1.0,0.0,0.0,1.0,Taxi
19.5,-0.019394931340369615,15.587652890854665,8.636193175420395,0.13190986806224556,0.4165967479204103,190.1303007135905,17.468514122692298,0.0,1.0,0.0,0.0,1.0,Taxi
19.6,0.07900455914637056,-29.894432313327375,8.255847948264918,-0.07822645889605226,-0.986403335057169,190.29684315766758,18.33884007335105,0.0,1.0,0.0,0.0,1.0,Taxi
19.700000000000003,-0.1821871080223558,-41.210444573534,8.524120516750603,-0.18806901079155863,0.049664107405397916,190.12714579766407,17.041199672760698,0.0,1.0,0.0,0.0,1.0,Taxi
19.8,-0.22544715420803968,-7.030972163320608,8.617969059047063,0.012784462120013981,0.495538797392664,190.24153728287683,17.823534356806952,0.0,1.0,0.0,0.0,1.0,Taxi
19.900000000000002,0.043849698329767456,56.75710130249944,8.19260215689507,0.0016641499123591919,-0.04530002777113309,190.10855698549074,17.768341065768936,0.0,1.0,0.0,0.0,1.0,Taxi
20.0,0.10159839849014136,36.42966972704517,7.527180911675327,-0.3958975797176101,1.0270142417604042,190.26256822314144,17.864038131646602,0.0,1.0,0.0,0.0,1.0,Taxi
20.1,-0.043298805572813806,-11.810332421870344,7.9482980766477365,-0.0428751661905733,0.8768498732119774,190.2169530961139,17.768770632455027,0.0,1.0,0.0,0.0,1.0,Taxi
20.200000000000003,-0.015201963779584321,5.08003927249311,7.3540343312392755,0.19711365646876794,-0.6796812623734513,190.17313687881847,17.40121584968598,0.0,1.0,0.0,0.0,1.0,Taxi
20.3,0.12699859485260687,3.107460083122357,7.638067708030146,-0.23867229925084074,-0.4522933799292955,190.2571836476833,19.001445975621763,0.0,1.0,0.0,0.0,1.0,Taxi
20.400000000000002,-0.027761505157202066,4.620537848783269,7.797104613027625,0.046817047309465745,-0.6695753428863481,190.2514502128455,17.69595648909715,0.0,1.0,0.0,0.0,1.0,Taxi
20.5,0.007900725464331985,-6.25160137980195,7.8435562886101335,-0.00949954964595616,-0.3209663949845,190.29254051740622,18.395291746829145,0.0,1.0,0.0,0.0,1.0,Taxi
20.6,0.09574058795359708,8.684482660690195,8.468136493754248,-0.2337521097481439,0.7134271984128964,190.48905012886996,18.213120099469954,0.0,1.0,0.0,0.0,1.0,Taxi
20.700000000000003,0.01566090814624884,8.496784165044089,8.334397567684425,-0.1401056031434803,0.057693097127715844,190.2126340479673,18.141447552921967,0.0,1.0,0.0,0.0,1.0,Taxi
20.8,0.05038464628955235,-11.18926740800689,7.501603955075307,0.0624530225245046,0.43490465064104833,190.1237321062638,18.50705993704337,0.0,1.0,0.0,0.0,1.0,Taxi
20.900000000000002,0.03979425091356257,1.281994677098498,8.693282738421592,0.007889856637138704,0.5953244210708949,190.07780343887532,18.229946284991073,0.0,1.0,0.0,0.0,1.0,Taxi
21.0,0.022070881531741283,-9.269099090412304,8.585249101407943,0.04290185278327824,0.04179339402633855,190.1920182448746,18.03240695511782,0.0,1.0,0.0,0.0,1.0,Taxi
21.1,0.004039150837490787,-3.0132025350852936,8.745622499460211,-0.27532832219948455,-0.4748767906992521,190.2852417754466,18.850061034886583,0.0,1.0,0.0,0.0,1.0,Taxi
21.200000000000003,0.024728238238136056,-10.757310326762974,9.146470837970012,0.17934808820322912,-0.5839075368421677,190.42444256104534,17.107612081283015,0.0,1.0,0.0,0.0,1.0,Taxi
21.3,-0.03171567010207362,-0.42956798702930143,7.830788341070241,0.0591068336447044,-0.6988004441991397,190.35885516794065,17.18616087049694,0.0,1.0,0.0,0.0,1.0,Taxi
21.400000000000002,0.0018913109023442434,48.7199970295927,8.572932814261266,-0.047585490428028995,0.12044519409182976,190.26871134914063,18.599403917690932,0.0,1.0,0.0,0.0,1.0,Taxi
21.5,0.2683282233860995,8.529971404258996,9.026592377462665,0.0539882876545863,0.542011447711063,190.20136063998746,17.897547306645226,0.0,1.0,0.0,0.0,1.0,Taxi
21.6,0.010934186919221342,7.066571942437334,7.9519677008998215,-0.7664869094938782,-0.12623819189946459,190.17972315664883,18.37650448140515,0.0,1.0,0.0,0.0,1.0,Taxi
21.700000000000003,0.03722417061453088,-39.594081189134876,8.799037881747644,-0.27708300954105436,-0.013389977039553639,190.14608841782592,17.48476298135519,0.0,1.0,0.0,0.0,1.0,Taxi
21.8,0.0703578174404251,15.990081525070053,9.010260284041657,-0.46676377159539595,0.33802663421933027,190.33261336439955,16.3779719967423,0.0,1.0,0.0,0.0,1.0,Taxi
21.900000000000002,0.09088459454457158,-21.664337712468896,7.750850795975234,-0.17750489381898799,-0.08988242028616784,190.24412541808238,17.17624800665178,0.0,1.0,0.0,0.0,1.0,Taxi
22.0,-0.07109751794781363,-58.102160553559564,8.435033495430677,-0.04197055879394413,-0.8485281343087586,190.3664834428455,17.590076842468683,0.0,1.0,0.0,0.0,1.0,Taxi
22.1,-0.2201529853273727,-52.40445065197438,8.188090247637527,0.0644530866101293,-0.6389792669472695,190.24568101474313,17.97767127222522,0.0,1.0,0.0,0.0,1.0,Taxi
22.200000000000003,-0.17113765871530034,18.618536954416317,8.869199712647672,-0.15725160167659796,0.22781652529178445,190.4260898857749,17.752935368996194,0.0,1.0,0.0,0.0,1.0,Taxi
22.3,0.021995166824267928,43.77822597782191,9.047107870092878,-0.03609288573721502,-0.37482428531339473,190.16967452501774,17.134930283095265,0.0,1.0,0.0,0.0,1.0,Taxi
22.400000000000002,-0.0012618554382631854,11.334228001085416,8.155492065783669,-0.41680514263603785,-0.011207550337726762,190.14297570441977,17.79742983882823,0.0,1.0,0.0,0.0,1.0,Taxi
22.5,-0.11446651870987329,-5.531185481789232,8.520759756359778,-0.06739288450900754,-0.5040570700338852,190.1665071166916,17.22741180747054,0.0,1.0,0.0,0.0,1.0,Taxi
22.6,-0.005660760584678227,2.8696312029683306,8.138372147946164,0.18806281842968187,0.6443237926735433,190.42177865837596,17.166453673099983,0.0,1.0,0.0,0.0,1.0,Taxi
22.700000000000003,0.013086300576578475,21.585993144529326,7.173463254689185,-0.4716386174956155,0.15574313178390375,190.23110146856243,17.76817699820736,0.0,1.0,0.0,0.0,1.0,Taxi
22.8,-0.0065365529872266626,-12.939200705690041,8.022794710448027,-0.19099621935266026,-0.0789078661698694,190.26037628721156,18.61989492583946,0.0,1.0,0.0,0.0,1.0,Taxi
22.900000000000002,-0.07035676411312845,-26.791539595985626,7.968398228518857,-0.09282285476093421,-0.3284415021644182,190.35382999739795,18.805030078989123,0.0,1.0,0.0,0.0,1.0,Taxi
23.0,-0.12087139740334968,-0.3110023545868425,8.563945166120627,-0.06061510177502959,0.9105081145854219,190.27531799693168,18.138261512911455,0.0,1.0,0.0,0.0,1.0,Taxi
23.1,-0.008091564760160925,-12.910211599376638,8.860692759984008,0.20312258465992755,-0.18416204749634366,190.20738050929072,18.83741386678559,0.0,1.0,0.0,0.0,1.0,Taxi
23.200000000000003,-0.13490782211001168,44.26370641903625,7.8443242004561595,0.06465043506776777,0.2550806089663772,190.3759944267049,18.124652955303457,0.0,1.0,0.0,0.0,1.0,Taxi
23.3,0.10044713469183152,-5.071569735128236,8.266083114172023,-0.05822367530886741,-0.34957654389537035,190.17571470937298,17.623825368504324,0.0,1.0,0.0,0.0,1.0,Taxi
23.400000000000002,-0.033449413435802114,42.86459431057102,8.291008979367556,-0.11254844216737167,-0.2245296053304415,190.27121736800927,17.51878467357127,0.0,1.0,0.0,0.0,1.0,Taxi
23.5,0.07941514944284339,-11.050734002078348,10.04602281367802,0.06624938489263033,0.49158968997209446,190.1570292341852,17.514551803108425,0.0,1.0,0.0,0.0,1.0,Taxi
23.6,0.04519346468143978,19.077302352090744,7.9640490328567175,-0.07639993467018864,-0.2422501224196053,190.4752306125439,18.378062978552155,0.0,1.0,0.0,0.0,1.0,Taxi
23.700000000000003,0.06193709832465161,-42.63823907898505,7.807856329546001,-0.41280191427451085,-0.13571892002898442,190.32496524142368,17.444176485648228,0.0,1.0,0.0,0.0,1.0,Taxi
23.8,-0.13377604595208187,-20.499093073914576,7.543246817020121,0.11963434967626707,-0.46531688080275535,190.1277068540429,17.721097061235547,0.0,1.0,0.0,0.0,1.0,Taxi
23.900000000000002,-0.0573020006881331,-49.552260893173646,7.1207138147860825,-0.2993307787904801,0.04148019596116359,190.2382192726334,17.836096107680792,0.0,1.0,0.0,0.0,1.0,Taxi
24.0,-0.1858242061412166,-12.287353083184485,7.541092930511374,-0.07023380211919768,0.069948374312667,190.3456807535598,17.44266456043029,0.0,1.0,0.0,0.0,1.0,Taxi
24.1,-0.19521281136800428,1.832194891632857,7.782389615559402,-0.380361092290168,-0.13222804078561604,190.17071203601802,18.638521758546084,0.0,1.0,0.0,0.0,1.0,Taxi
24.200000000000003,-0.04814102622996883,34.97055563878685,7.739925530397702,-0.034455251689429006,0.19519919386390797,190.29932428538473,17.950143386071993,0.0,1.0,0.0,0.0,1.0,Taxi
24.3,-0.010971427947282394,37.015328752008905,8.61645602468005,-0.1260133896147475,0.3313155525830866,190.1884074934327,18.334270390401986,0.0,1.0,0.0,0.0,1.0,Taxi
24.400000000000002,-0.010136167607959766,19.86752237532318,7.595362293073294,-0.2142771712632546,0.0045058025160504426,190.22164496523783,17.848364472417188,0.0,1.0,0.0,0.0,1.0,Taxi
24.5,0.051196585646647065,61.103414374599936,8.099912334279693,-0.09291320592217506,1.0997986630998091,190.20236029062949,17.449665595795846,0.0,1.0,0.0,0.0,1.0,Taxi
24.6,0.2945456439257173,-34.456941294879556,8.29699953680109,0.28801531381478307,-0.6151443464505076,190.28746670678095,18.260250449272025,0.0,1.0,0.0,0.0,1.0,Taxi
24.700000000000003,-0.18242087408235752,9.070153640512492,8.399328555470174,-0.2674876182764272,-0.41040282643773895,190.39865134395222,17.835135346297285,0.0,1.0,0.0,0.0,1.0,Taxi
24.8,0.09654735384920955,-67.68897881833415,7.689653309752551,0.0701691165616726,0.43165000258224717,190.17381239710085,17.661867413028567,0.0,1.0,0.0,0.0,1.0,Taxi
24.900000000000002,-0.043899250165953474,30.91372541411685,7.730029812959923,-0.010905091575720463,-0.8110522607550301,190.2341229629492,18.32527308591049,0.0,1.0,0.0,0.0,1.0,Taxi
25.0,-0.027852247011773263,-65.83313786033182,8.384075440364803,-0.1837533744732757,0.04047834722666298,190.1938924806767,17.240282096793532,0.0,1.0,0.0,0.0,1.0,Taxi
25.1,-0.2326183354524495,-10.492529194547615,9.234536706597197,-0.0482331193360378,-0.2502889338860774,190.25881651394866,17.959699958208745,0.0,1.0,0.0,0.0,1.0,Taxi
25.200000000000003,-0.09636189613869156,19.863262815509533,9.425832545086282,-0.27008658567094934,0.33485872461253885,190.2644873503715,17.187219909810256,0.0,1.0,0.0,0.0,1.0,Taxi
25.3,0.07146406706577439,33.331816703240094,8.055717816603796,-0.22634288973904657,0.0246635689486773,190.21078877200853,17.926805284151108,0.0,1.0,0.0,0.0,1.0,Taxi
25.400000000000002,-0.06595925193624906,25.427524614908634,6.903985264146627,-0.21529729011701523,0.4803753973444949,190.25214175795395,17.72134630731341,0.0,1.0,0.0,0.0,1.0,Taxi
25.5,0.03077572693585159,-50.925148150942185,7.648435002589036,-0.00746780798948006,0.6864807238663952,190.22646500409223,17.520809762731673,0.0,1.0,0.0,0.0,1.0,Taxi
25.6,-0.18316167368893654,20.69401479400015,9.403074409196655,-0.15522483897377096,-0.3503823050233352,190.1767465224616,17.289054492067567,0.0,1.0,0.0,0.0,1.0,Taxi
25.700000000000003,0.03751082203375167,-15.009254712475729,9.123665917751499,-0.13470190544626184,-1.3473935771653753,190.479611381199,17.69592765038443,0.0,1.0,0.0,0.0,1.0,Taxi
25.8,-0.044270546626527074,43.06965151884364,7.720200747895059,0.13913209564400522,-0.4669052825604089,190.29244179475177,17.567892667391057,0.0,1.0,0.0,0.0,1.0,Taxi
25.900000000000002,0.03218658390528166,18.164393109478105,6.736570024529707,0.12696121672051175,-0.1914114729974803,190.12550143669125,17.910952536549058,0.0,1.0,0.0,0.0,1.0,Taxi
26.0,0.12833278758114217,0.7534948476425996,7.843404500461376,0.36156781010239214,-0.04448653896845427,190.30360212673463,18.225491517620384,0.0,1.0,0.0,0.0,1.0,Taxi
26.1,-0.04050307238831409,-3.977503935820495,7.926034248247264,-0.09657478242561852,0.16523424803951617,190.37249226803,17.646253566534682,0.0,1.0,0.0,0.0,1.0,Taxi
26.200000000000003,0.012299064226179168,-28.82932945042506,8.182293153414799,-0.02118054253271103,0.7516257416334022,190.43264374277237,17.9838208700788,0.0,1.0,0.0,0.0,1.0,Taxi
26.3,-0.015813859670983147,-2.6082267873045963,9.225734813219516,0.005584113465921539,0.8836148101284528,190.369519108007,17.381853507578743,0.0,1.0,0.0,0.0,1.0,Taxi
26.400000000000002,-0.0535442063248371,0.9002073017827854,8.362449155507376,-0.35972529443814266,0.7394551604067985,190.39292622180733,18.000444660450867,0.0,1.0,0.0,0.0,1.0,Taxi
26.5,0.016800100735093082,-27.564372704972456,7.65519220184123,0.185696649337942,0.2546402867646612,190.52298949518615,17.915967920449944,0.0,1.0,0.0,0.0,1.0,Taxi
26.6,-0.15363572319584545,4.476544396085103,9.004816040054813,-0.4017008454014549,0.06855889175123195,190.22408955643516,17.754257543050155,0.0,1.0,0.0,0.0,1.0,Taxi
26.700000000000003,-0.031161484344411614,-18.150603839938274,8.08174948760123,0.06590235971224401,0.2522364301118979,190.19007049302854,17.942633484974852,0.0,1.0,0.0,0.0,1.0,Taxi
26.8,-0.07395291846459834,53.05094458339007,7.5990468646879785,0.19049325447935234,0.38532076086265044,190.33144934660186,18.246839163084825,0.0,1.0,0.0,0.0,1.0,Taxi
26.900000000000002,0.11161899972110485,-16.891400241430606,7.3221800071616485,0.19956678095584734,0.7461647556362642,190.34380332913804,17.697601114693672,0.0,1.0,0.0,0.0,1.0,Taxi
27.0,-0.11561848555156465,16.930965701698028,8.30544600912099,-0.0667954733365113,-0.0025994257345379164,190.33714966281286,17.397800615861367,0.0,1.0,0.0,0.0,1.0,Taxi
27.1,0.010701910043891821,-13.77130667338124,8.530555335291988,-0.1209370095676342,0.4997288179850217,190.27837157745944,17.317164299469347,0.0,1.0,0.0,0.0,1.0,Taxi
27.200000000000003,0.042762466354198655,26.039136579446474,7.764072555943792,-0.21423235232751756,-0.7395812831124727,190.34417998954837,17.7235920587929,0.0,1.0,0.0,0.0,1.0,Taxi
27.3,0.01457719734566767,-27.920567757447458,7.083000136481434,0.22767527854185948,-0.6226103745909997,190.15389703777214,18.505931162063053,0.0,1.0,0.0,0.0,1.0,Taxi
27.400000000000002,-0.12890092874334552,-21.52601028626384,8.303763950647847,0.0887160875080222,-0.9605896397607396,190.35391203163817,17.81202305027119,0.0,1.0,0.0,0.0,1.0,Taxi
27.5,-0.06486758507712058,-18.064699648405046,8.704784140160909,-0.0572883490716134,-0.36521979180659786,190.25727854497188,17.37450675679783,0.0,1.0,0.0,0.0,1.0,Taxi
27.6,-0.07574630089635763,5.886545359702619,9.359836493435001,0.1629411617463707,-0.3782093655824638,190.2794512460979,17.70739914591789,0.0,1.0,0.0,0.0,1.0,Taxi
27.700000000000003,-0.0994682019448325,4.077016076787213,8.6211797620349,-0.1342997067945739,0.4628448716161221,190.2243289786552,17.575600872402426,0.0,1.0,0.0,0.0,1.0,Taxi
27.8,-0.044482504693184585,28.708735298302415,8.443419133047044,-0.07187424098260718,-0.2226741569757259,190.24903496279376,17.86666159094221,0.0,1.0,0.0,0.0,1.0,Taxi
27.900000000000002,0.06779737559515439,19.07782242040478,7.965670269764188,-0.4167466097300265,-0.36618153413229076,190.17804795950724,17.03953646218162,0.0,1.0,0.0,0.0,1.0,Taxi
28.0,-0.0040790898428086685,44.737549969558906,8.71832501633439,-0.49989854142704765,0.6262867005623348,190.14175351860308,18.088299771036347,0.0,1.0,0.0,0.0,1.0,Taxi
28.1,0.17920524515460992,-18.061086302043893,8.890303118381322,-0.1735148345181713,-0.3163377376879306,190.27276732655787,17.060854540538617,0.0,1.0,0.0,0.0,1.0,Taxi
28.200000000000003,-0.022508055915065113,22.632134865475923,6.83447477317138,-0.002762984096360707,0.3771523446257866,190.27777413864953,17.02969405455285,0.0,1.0,0.0,0.0,1.0,Taxi
28.3,0.10908158448457095,-55.989859641855844,8.225068972314974,0.08466258326796264,0.5116656486138353,190.3670652826413,17.491288579140754,0.0,1.0,0.0,0.0,1.0,Taxi
28.400000000000002,-0.10074405305466932,7.194908223553095,8.008427790858972,0.04256323783737215,0.4749650634356319,190.21393325379506,16.887681893431605,0.0,1.0,0.0,0.0,1.0,Taxi
28.5,0.013466485202700286,-31.61405210493419,7.538843008665063,0.11046191373237424,-0.4251252933167506,190.2929943349602,18.825916024560524,0.0,1.0,0.0,0.0,1.0,Taxi
28.6,-0.04898867604010008,19.279002871125936,7.709123002341251,-0.24476107597730878,-0.16209567801012564,190.27170121942504,17.311890256466945,0.0,1.0,0.0,0.0,1.0,Taxi
28.700000000000003,-0.00434903869903972,-16.017354688539285,7.949133863495999,-0.08813829991232407,-0.8087730170044225,190.33299825016616,17.613318037597093,0.0,1.0,0.0,0.0,1.0,Taxi
28.8,-0.06662028823999622,4.647132788096443,9.062701976693095,0.2771174429320474,-0.18903672349962466,190.28309527256772,17.68833911221055,0.0,1.0,0.0,0.0,1.0,Taxi
28.900000000000002,-0.02575301209961793,11.28698661436959,8.570730792793645,0.07205114237050533,0.23292494112586948,190.1550805957254,18.091608496137688,0.0,1.0,0.0,0.0,1.0,Taxi
29.0,0.05208589437280815,13.17174741361171,9.250268586191265,0.1326412523459651,-0.5554386570567666,190.11161076741814,18.249260435902208,0.0,1.0,0.0,0.0,1.0,Taxi
29.1,-0.0007615511719377474,-22.914648589984818,8.956591085257237,-0.48736529282244995,-0.1577468389342825,190.41319079328923,18.472278163319174,0.0,1.0,0.0,0.0,1.0,Taxi
29.200000000000003,-0.14032625504954208,-31.674270148812365,8.055041913365589,0.15094721268801228,0.29798171858588185,190.2918608757692,18.358072878224927,0.0,1.0,0.0,0.0,1.0,Taxi
29.3,-0.10628545637125371,6.546729072810585,8.2276172365232,-0.3410730145039281,-0.0023135560602080144,190.36327452408295,18.06252321612183,0.0,1.0,0.0,0.0,1.0,Taxi
29.400000000000002,0.03197209419211513,16.961798905698505,7.266698695408627,-0.18856420736161128,0.29248975730821575,190.09560520292302,17.6023934679431,0.0,1.0,0.0,0.0,1.0,Taxi
29.5,-0.0555172605210496,16.690612559382732,8.16488046110342,0.002146487742777592,-0.026992922180308673,190.4456034473228,18.091575906909714,0.0,1.0,0.0,0.0,1.0,Taxi
29.6,-0.022832393574340092,-17.310729620196422,7.551141088731044,0.015145698299945609,-0.18350307689960219,190.26442556148402,18.13461956488678,0.0,1.0,0.0,0.0,1.0,Taxi
29.700000000000003,-0.054581553908867035,14.549037932925978,7.7966023717993655,-0.19335394867936023,-0.6454477051743592,190.37599097616203,17.354687703633093,0.0,1.0,0.0,0.0,1.0,Taxi
29.8,0.017227929143580258,6.366910520402903,7.7959627848520325,-0.11688453484348722,0.08292277680872628,190.48429937191509,17.523186520182314,0.0,1.0,0.0,0.0,1.0,Taxi
29.900000000000002,0.00900215902767439,6.141110374629675,7.801640197497889,-0.12242535397236654,0.14292632941013103,190.34820230689274,17.832681121024372,0.0,1.0,0.0,0.0,1.0,Taxi
30.0,-0.023876002035718706,-27.986115980510622,8.87168570693135,-0.24343872699216995,-0.45445895182149176,190.21965786379553,18.50192515693812,0.0,1.0,0.0,0.0,1.0,Taxi
30.1,-0.12270265075897291,-2.7441610703188957,7.518906023403226,-0.1759620764463019,0.6709083233972608,190.36624381553236,17.6130531059937,0.0,1.0,0.0,0.0,1.0,Taxi
30.200000000000003,-0.004718646323920149,36.48197570130795,9.076751025438885,0.15276694660907872,-0.501756289770824,190.05237406879166,18.67312650900913,0.0,1.0,0.0,0.0,1.0,Taxi
30.3,0.15853387647082096,39.08714576508826,8.27937529927612,-0.004636343662709111,0.42047953070332583,190.35160152277933,17.74938907200584,0.0,1.0,0.0,0.0,1.0,Taxi
30.400000000000002,0.07273307806646832,-39.73060322440227,8.286735774639507,-0.1297306114142191,-0.2525096020318234,190.34552689351767,18.55442772475275,0.0,1.0,0.0,0.0,1.0,Taxi
30.5,-0.20337166244593155,-26.39410348948029,8.187211973109484,0.13505692765583704,-1.2332606161508268,190.09376538117533,18.553571432226647,0.0,1.0,0.0,0.0,1.0,Taxi
30.6,0.026563359023419515,-12.626681297330945,8.911970257100766,-0.011027044114555976,-0.10083826094727405,190.1726069199874,18.54592004227433,0.0,1.0,0.0,0.0,1.0,Taxi
30.700000000000003,0.009599671579813597,36.53920461040146,8.664466418638252,-0.14955230969151187,0.013047075042764256,190.30775489675716,18.039611590955225,0.0,1.0,0.0,0.0,1.0,Taxi
30.8,-0.020675639393924257,9.02265491082178,7.851444020085746,-0.09018665993706887,0.02629204632449502,190.24094411929855,19.102041644439208,0.0,1.0,0.0,0.0,1.0,Taxi
30.900000000000002,0.07167663357752839,10.151499581713283,7.633939483092488,0.005490085747082776,-0.17568949244813506,190.26341556209627,17.632105485286452,0.0,1.0,0.0,0.0,1.0,Taxi
31.0,0.060357169488379984,-22.005401585664874,9.308420218687898,-0.18952756271438786,-0.4776247677676027,190.12199908590446,18.313033102845168,0.0,1.0,0.0,0.0,1.0,Taxi
31.1,-0.13070264732224865,-6.335648698193964,8.150363812415385,0.08265575854715834,0.2569146497843424,190.3081640421301,18.795370955098743,0.0,1.0,0.0,0.0,1.0,Taxi
31.200000000000003,0.03999839008655857,-13.888585346588629,8.8701119659573,-0.1553136790611761,-0.8382943081105495,190.30536942942229,16.585424916114505,0.0,1.0,0.0,0.0,1.0,Taxi
31.3,-0.009085757244563161,29.515423626366907,8.272730189079288,-0.0435857478292459,0.45111037542516574,190.24291756032585,18.629254644853695,0.0,1.0,0.0,0.0,1.0,Taxi
31.400000000000002,0.016874470809585873,21.119814223338647,8.206235697140011,-0.26581699867184116,-0.050196229464007314,190.29599458625387,17.368520562534886,0.0,1.0,0.0,0.0,1.0,Taxi
31.5,0.14559746120325176,23.18567205705055,8.546953205935091,0.0860928945244045,0.2851497204710645,190.1426518845119,18.35833552558009,0.0,1.0,0.0,0.0,1.0,Taxi
31.6,0.10684260304068954,18.75813518181821,7.710767843570816,-0.28020687699410785,-0.4058119073417984,190.39463867479515,17.883035160367722,0.0,1.0,0.0,0.0,1.0,Taxi
31.700000000000003,0.11066514671867689,-28.85694417980032,9.167369441629527,0.07534775209266042,-0.3405400286672659,190.20813299745612,18.970631066475185,0.0,1.0,0.0,0.0,1.0,Taxi
31.8,0.0013127403042501361,0.42767912227774946,8.415416308366224,-0.14742789402736634,0.25009059825068486,190.32342049600902,17.907713707977763,0.0,1.0,0.0,0.0,1.0,Taxi
31.900000000000002,0.10898099865207825,-47.16427203195868,7.335650489744233,-0.001197091293422159,0.0614355751255113,190.1426880073136,18.387050951761125,0.0,1.0,0.0,0.0,1.0,Taxi
32.0,-0.12515621344111658,-27.11104056189136,8.959529831438845,0.2161905927681526,0.2884462467409169,190.23470564509034,18.488960624119837,0.0,1.0,0.0,0.0,1.0,Taxi
32.1,-0.13424246250520674,-18.320895719089265,7.509507855915303,-0.42209585732240334,-0.086839944146928,190.1866358800728,17.898320668817075,0.0,1.0,0.0,0.0,1.0,Taxi
32.2,0.017376520056631862,42.064154919009404,6.53206015096022,0.21119968782222515,0.7886842468033894,190.4455371252426,18.03437645512403,0.0,1.0,0.0,0.0,1.0,Taxi
32.300000000000004,0.08516456115393038,28.823006502329218,9.701621256229563,0.13608098075660527,0.003401658124400718,190.11277620901672,18.182237403087115,0.0,1.0,0.0,0.0,1.0,Taxi
32.4,0.00987257000643927,-10.826791782725858,7.56946320716134,-0.19902443070606535,1.1682809014515347,190.23568510345842,18.311394072603566,0.0,1.0,0.0,0.0,1.0,Taxi
32.5,-0.0367574388569975,-15.048090303851055,9.61112208717533,-0.3297460413812365,-0.8867294163454329,189.97722647252021,17.253626723647237,0.0,1.0,0.0,0.0,1.0,Taxi
32.6,0.009924109634675046,-20.074572635689332,7.563015603428248,0.1285431505204197,-0.7373475338959867,190.31967675764213,17.48746024246521,0.0,1.0,0.0,0.0,1.0,Taxi
32.7,-0.09050029317200743,-31.453771605658016,8.63657288628814,0.2667342664718194,0.27280961348385635,190.13267836877662,17.36521518738977,0.0,1.0,0.0,0.0,1.0,Taxi
32.800000000000004,-0.19402629688528764,14.316057273402762,8.126389683326611,0.09667589238569532,0.235422304219166,190.35594220621488,17.985873400752777,0.0,1.0,0.0,0.0,1.0,Taxi
32.9,0.0815043960016888,5.5664189446929315,6.701123863992997,-0.042477523608817416,0.4419222580744423,190.28582902010476,17.797405070507946,0.0,1.0,0.0,0.0,1.0,Taxi
33.0,-0.06266819844854281,47.63127639097977,8.481686012487181,-0.12499665461466768,0.3816391974080811,190.30404508658285,17.337314132160273,0.0,1.0,0.0,0.0,1.0,Taxi
33.1,0.04413008506961124,0.20561894822840662,7.778506734439273,-0.03788662488768282,-0.8169706069516596,190.50307081049925,17.972118417903108,0.0,1.0,0.0,0.0,1.0,Taxi
33.2,0.08253249074283081,45.52059583320071,7.916844884784374,0.1181410811745286,-0.3313856783204449,190.25976887702723,17.86518603267706,0.0,1.0,0.0,0.0,1.0,Taxi
33.300000000000004,0.16493478071746073,2.783820232503956,8.107467903973607,0.017817875870409117,0.09701484611208314,190.36044700734556,18.258107248618,0.0,1.0,0.0,0.0,1.0,Taxi
33.4,0.058049186232130984,-34.49595572706718,7.373614999842002,-0.04917290514017818,0.24597044098006837,190.43301903552413,17.267970678775086,0.0,1.0,0.0,0.0,1.0,Taxi
33.5,-0.08994728789250515,-23.10866676748248,6.665616340713873,0.00421772794647432,-0.3015426912316576,190.34375515597162,18.077916318689372,0.0,1.0,0.0,0.0,1.0,Taxi
33.6,0.04939144688004823,-47.10402088453836,8.7554302699004,-0.20528591425315615,0.2807463001449305,190.17004379570324,18.485237514885956,0.0,1.0,0.0,0.0,1.0,Taxi
33.7,-0.17747091819056088,9.179255462314282,7.368439032094626,0.23015828824572027,-0.35971205295013664,190.38126880267623,17.48866647902219,0.0,1.0,0.0,0.0,1.0,Taxi
33.800000000000004,-0.04405101058093377,-12.257242498581101,9.209829253169172,0.11343867693399248,-0.05475941595300811,190.19525757227086,17.336202936062808,0.0,1.0,0.0,0.0,1.0,Taxi
33.9,-0.011894765612857294,18.711502134555758,7.677149327862618,-0.30458353097859814,0.23609145125014724,190.2793558932549,18.175723022518774,0.0,1.0,0.0,0.0,1.0,Taxi
34.0,-0.08391340751778212,0.7947376215535383,8.253876223527827,-0.47768308200751564,-0.5362124806678714,190.3202040907912,17.75424334469615,0.0,1.0,0.0,0.0,1.0,Taxi
34.1,-0.04007732247316613,10.258653561993533,7.999914754584528,-0.2554659578713141,0.2666028168081101,190.20925104773698,17.834040242169003,0.0,1.0,0.0,0.0,1.0,Taxi
34.2,0.03939850219711031,9.747822515138557,7.238879254127105,-0.049407178802401516,-0.0115715784418518,190.3070695737722,17.775869862641997,0.0,1.0,0.0,0.0,1.0,Taxi
34.300000000000004,-0.035174294942089394,-21.436010970886187,8.267327686284922,-0.33363912249323263,0.20166850209949483,190.31815741825847,18.22631735838226,0.0,1.0,0.0,0.0,1.0,Taxi
34.4,-0.1472573773275971,31.271556883890565,8.342025687395322,0.15841050219261155,-0.1593065730054946,190.3443961298002,17.888570867922617,0.0,1.0,0.0,0.0,1.0,Taxi
34.5,0.19575628661656314,5.802797897947708,7.6157034747024035,-0.07385723876482944,-0.44593404716958224,190.40680122292963,17.37081217500397,0.0,1.0,0.0,0.0,1.0,Taxi
34.6,-0.006160305452350849,29.171106879930193,8.89806183999892,0.23726367956843142,-0.0025481946797767906,190.14230737758157,17.725373702474922,0.0,1.0,0.0,0.0,1.0,Taxi
34.7,-0.0014018429279461257,-74.39688191992978,8.865156654448949,0.00026488790541095986,-0.024241104277094555,190.16977798674566,18.107729230489205,0.0,1.0,0.0,0.0,1.0,Taxi
34.800000000000004,-0.17622812298308574,12.138763783155639,7.969825205811414,-0.0020317215512043046,-0.2878044136123881,190.47201818166286,17.390690573593808,0.0,1.0,0.0,0.0,1.0,Taxi
34.9,0.054533513463427365,-11.939560804635674,8.882405379791889,0.12512894515682205,0.5377555471126835,190.25275304461172,17.58335826454404,0.0,1.0,0.0,0.0,1.0,Taxi
35.0,-0.06109964695112446,70.8697058396166,7.963343246749675,0.10392949131057128,-1.6815046155584856,190.25793424515518,17.455051794188734,0.0,1.0,0.0,0.0,1.0,Taxi
35.1,0.17812040621499725,-7.253396071980068,8.656572056185793,-0.11833427267324068,0.4512260086868549,190.13723884524018,17.62439363098039,0.0,1.0,0.0,0.0,1.0,Taxi
