time_s,altitude_ft,vertical_speed_fpm,ias_kt,pitch_deg,roll_deg,heading_deg,throttle_pct,afterburner_on,gear_down,flaps_deg,speedbrake_pct,weight_on_wheels,label
0.0,0.03583284523206717,-36.3264739029566,14.837238578970098,1.7599532351353604,-0.334021002020879,332.0864151099631,20.293631335477606,0.0,1.0,0.0,0.0,1.0,Taxi
0.1,-0.0852554011111215,-9.476398517490685,14.613138367983055,1.4825139209424523,-0.10395712467845793,332.1015380330764,20.090884766720666,0.0,1.0,0.0,0.0,1.0,Taxi
0.2,-0.011549147355386244,-7.484258741773701,14.497832599930586,1.3049674084830996,-0.32240099896322744,331.83862416319835,21.600773353333686,0.0,1.0,0.0,0.0,1.0,Taxi
0.30000000000000004,-0.0015884484768013225,11.642465903912864,14.646249389933033,1.39351981596059,0.6447271249235256,332.01288520269964,20.429048577393463,0.0,1.0,0.0,0.0,1.0,Taxi
0.4,-0.027043071591557173,-16.932005833789436,14.02639663279454,1.6537948446737565,0.09391778175576036,332.18641058566436,20.250438270905217,0.0,1.0,0.0,0.0,1.0,Taxi
0.5,-0.09620917652433342,30.034872807365428,14.236422639553503,1.5867980922881886,0.30788831798821903,332.03356414162874,20.165429316700447,0.0,1.0,0.0,0.0,1.0,Taxi
0.6000000000000001,0.14858591556002584,30.362308223263785,15.24634798494349,1.8346809523829282,0.5700546678849395,332.0608808057916,20.2757716651478,0.0,1.0,0.0,0.0,1.0,Taxi
0.7000000000000001,0.1247684695247618,11.002345092010998,14.225408772096069,1.788622392267738,0.425638090359403,332.0803997790963,20.000129327501362,0.0,1.0,0.0,0.0,1.0,Taxi
0.8,-0.041197451064278384,-20.763629830834976,14.563919708177236,1.6126624802595084,-0.7493761666883596,331.90486030027546,20.32002598961926,0.0,1.0,0.0,0.0,1.0,Taxi
0.9,0.04476776640585098,-10.68114121189853,15.771007166595385,1.5990900067633,0.36332719704912897,331.920061839176,22.150021441983597,0.0,1.0,0.0,0.0,1.0,Taxi
1.0,0.07136276346526917,38.35185142701946,14.123247950464027,1.6011884402598873,0.6757687378378441,332.07096190788786,20.956323351879615,0.0,1.0,0.0,0.0,1.0,Taxi
1.1,0.15056180607081893,-0.3043901222335326,14.466663747629958,1.7378178302745793,-0.10324414684212707,332.0261427817336,20.866465078376773,0.0,1.0,0.0,0.0,1.0,Taxi
1.2000000000000002,0.04324581579468329,23.8525814674262,15.499911952915303,1.3641808271764695,-0.6009545209276664,332.08221644402477,20.99443422421131,0.0,1.0,0.0,0.0,1.0,Taxi
1.3,0.19062567080240014,-23.36084348697723,15.640376859885686,1.4642168051714948,-0.4744900384351598,331.94329297782724,20.229493674777935,0.0,1.0,0.0,0.0,1.0,Taxi
1.4000000000000001,0.03375758863593275,14.365008607960137,13.413476045935523,1.4645675134444671,0.411160903750299,332.05380257703814,20.939624717979868,0.0,1.0,0.0,0.0,1.0,Taxi
1.5,0.11507085883448397,-31.946748932918762,14.66321097443805,1.5093039817159348,0.36571914724887616,332.1997494451168,20.162458016334966,0.0,1.0,0.0,0.0,1.0,Taxi
1.6,0.03089192613780635,5.2764910312461195,15.316909112748156,1.2213224996199818,0.27813964976643585,331.9723072484528,19.90126927085746,0.0,1.0,0.0,0.0,1.0,Taxi
1.7000000000000002,0.060140043792163346,-22.637659436944322,13.753856430390918,1.0510797793706192,0.09036178736688631,331.90743764675256,20.70675937718439,0.0,1.0,0.0,0.0,1.0,Taxi
1.8,0.0018825616497623464,-7.2536379461702625,14.85584137423021,1.6271151853067067,0.6302221597974097,332.0834074591976,20.82232736672141,0.0,1.0,0.0,0.0,1.0,Taxi
1.9000000000000001,-0.005376263593044977,-17.820201731362378,13.48158267628584,1.4717185472299463,-1.10979379334827,332.16005235840953,20.859853929097532,0.0,1.0,0.0,0.0,1.0,Taxi
2.0,-0.028960964864648553,0.13658424243013792,14.558814740947795,1.637577230969736,-0.9313662556768069,331.94216083697734,20.611847415769343,0.0,1.0,0.0,0.0,1.0,Taxi
2.1,0.0025654828619130327,26.878680855905063,13.937486605954708,1.389606948365615,-0.3730058984447636,332.08953505703676,21.33531662192359,0.0,1.0,0.0,0.0,1.0,Taxi
2.2,0.12901714068648032,-12.175513116990865,14.506310042859122,1.214112109891434,0.7966728009865521,332.03458294935047,20.481723707459683,0.0,1.0,0.0,0.0,1.0,Taxi
2.3000000000000003,-0.08983853044960292,29.921968889144093,13.725291721417934,1.801949858583801,0.4385607328929232,332.0635558698856,21.377064367030712,0.0,1.0,0.0,0.0,1.0,Taxi
2.4000000000000004,0.15217532730763347,-8.237947268371983,14.796922678233145,1.47847091099188,-0.12662758708308605,332.0005251150303,20.868927370905784,0.0,1.0,0.0,0.0,1.0,Taxi
2.5,0.08782740434462041,51.693325871882394,14.056397989195888,1.2754842281325431,0.15342032085824545,332.05489195611244,19.61144772490429,0.0,1.0,0.0,0.0,1.0,Taxi
2.6,0.1686280989098091,-22.41027521022433,14.944041552854411,1.1928560950210414,0.49269233126641193,332.0669688983618,20.530891274871877,0.0,1.0,0.0,0.0,1.0,Taxi
2.7,0.04012395125651181,-19.635120871473163,14.57768738341328,1.581462361544784,0.3136523643175702,332.06637109963947,20.012309772305347,0.0,1.0,0.0,0.0,1.0,Taxi
2.8000000000000003,-0.010348200012745406,-39.0440337324354,15.283931754280387,1.3404945608139394,-0.16331705231958854,331.98551846395003,20.81936007230875,0.0,1.0,0.0,0.0,1.0,Taxi
2.9000000000000004,-0.02659206975236792,-6.149030278708131,14.776771128268424,1.5427408658838113,0.04081179106297056,332.21092147170464,19.740345773200414,0.0,1.0,0.0,0.0,1.0,Taxi
3.0,0.009378799862971162,-5.091173781944019,14.582228293734774,1.5980985894880466,0.7258240349709578,331.8641699174998,20.97990910304158,0.0,1.0,0.0,0.0,1.0,Taxi
3.1,-0.0358040689224655,38.753082776906076,14.693796736745124,1.6001309413521445,-0.4338707715785191,332.18184763727584,20.838737337535427,0.0,1.0,0.0,0.0,1.0,Taxi
3.2,0.16717334413216245,1.5495389432595867,15.118173250967466,1.666482610774428,-1.5375364823779745,332.0886422431545,19.97082526104153,0.0,1.0,0.0,0.0,1.0,Taxi
3.3000000000000003,0.017126494579269066,12.075412048008682,14.1105060698587,1.5657167892573878,-0.22564631161511364,332.1228401297949,20.401285940362353,0.0,1.0,0.0,0.0,1.0,Taxi
3.4000000000000004,0.024572991317577883,-41.71353108495102,14.061914837328693,1.658973244686266,-0.2768085341175421,332.000331295626,20.58362613114261,0.0,1.0,0.0,0.0,1.0,Taxi
3.5,-0.04139431129259265,16.733409178236485,14.958663110773815,1.518202664212829,0.5923636100919101,332.126893445336,19.828604193728268,0.0,1.0,0.0,0.0,1.0,Taxi
3.6,0.10079354047045151,-34.32472767568888,14.257500901091072,1.3763841426662093,0.7420340527363479,331.8779956027705,20.287857257887385,0.0,1.0,0.0,0.0,1.0,Taxi
3.7,-0.14705064706086646,6.829689640835781,15.124159700915007,1.1525182769997144,0.5628326935404969,331.98288576827713,19.85904869017145,0.0,1.0,0.0,0.0,1.0,Taxi
3.8000000000000003,-0.007245863088413709,12.26817655610463,14.69420253288975,1.22246585052794,0.40343832518837397,332.0439377072644,21.32581947192739,0.0,1.0,0.0,0.0,1.0,Taxi
3.9000000000000004,0.16213442325097469,23.42197221441839,13.471053116771014,1.70431116935522,0.29756173899965166,332.0257395127571,19.758574438332687,0.0,1.0,0.0,0.0,1.0,Taxi
4.0,-0.02994078598877454,20.471008665227714,14.355132582793829,1.7866105881092902,-0.3944733068562085,332.0858679738335,20.18489443347016,0.0,1.0,0.0,0.0,1.0,Taxi
4.1000000000000005,0.09510918023772488,-28.870295147826635,15.32952068682122,1.4804919901831752,-0.3302712803080373,331.93186204004724,20.237506207202376,0.0,1.0,0.0,0.0,1.0,Taxi
4.2,0.017782947511841517,-1.0087661160887709,15.671242003665247,1.7660272124509342,0.4881351288402188,331.8995468961341,20.961438931594657,0.0,1.0,0.0,0.0,1.0,Taxi
4.3,-0.03498461656921836,9.193452552328386,14.492293744149109,1.5087191986595996,0.17720916861216243,332.00220737454106,20.411001843603604,0.0,1.0,0.0,0.0,1.0,Taxi
4.4,0.14107644299936684,4.07814415000369,14.572021397407044,1.660826253718267,-0.23558264275881366,332.0962461388267,20.200323773112938,0.0,1.0,0.0,0.0,1.0,Taxi
4.5,0.03817366826186003,-1.3647685767370679,15.065714983913956,1.4623657786469626,-0.5596516525492967,332.05755878527873,20.439854673144335,0.0,1.0,0.0,0.0,1.0,Taxi
4.6000000000000005,-0.041808459452903644,-5.337524121475146,14.83386465388263,1.6843054343064077,-0.4843610889801794,331.9376805229135,20.690586032792588,0.0,1.0,0.0,0.0,1.0,Taxi
4.7,0.11438882239199116,1.969323565748785,13.614670202792222,1.5558018177620536,-0.10069767641533758,331.9748556603016,19.821481398977397,0.0,1.0,0.0,0.0,1.0,Taxi
4.800000000000001,0.04802028609060399,10.53794853554003,14.626752385884883,1.4246660402954099,0.19313075138868613,332.0764417602077,20.23300043233273,0.0,1.0,0.0,0.0,1.0,Taxi
4.9,0.01088128322479654,-4.721735161564929,14.637510345362406,1.5386708200524792,0.9662700672443084,332.13921783838566,20.093426708500928,0.0,1.0,0.0,0.0,1.0,Taxi
5.0,0.09078014658416655,-15.589990623409077,15.248990834308684,1.6816484092871289,-0.4219251220284906,332.03896273087173,19.730682548228142,0.0,1.0,0.0,0.0,1.0,Taxi
5.1000000000000005,-0.02992966702644134,10.21158103905003,14.304260218805638,1.4935821665921925,0.29833171435778827,332.1139241913089,19.83953947706227,0.0,1.0,0.0,0.0,1.0,Taxi
5.2,0.06193918842004675,-26.878092287154164,15.98248893102939,1.327730979155032,-0.628049642410406,332.06954028931045,20.7105044429598,0.0,1.0,0.0,0.0,1.0,Taxi
5.300000000000001,-0.04361031485160423,4.7022970552121,14.58514912629186,1.4860642622768796,-0.4378725040890672,332.1515437194482,19.876260093015503,0.0,1.0,0.0,0.0,1.0,Taxi
5.4,-0.006418181750380791,-18.918279216774547,14.22061245783177,1.3036171841718363,-0.14190694324944284,332.09195212006694,21.28894735390625,0.0,1.0,0.0,0.0,1.0,Taxi
5.5,-0.03265220766382595,7.910480749588552,13.606806228871925,1.8149217641994864,0.01523023754419567,331.94438017016796,21.310149237211828,0.0,1.0,0.0,0.0,1.0,Taxi
5.6000000000000005,-0.0040579111036614015,36.65787548961151,14.368896991097893,1.7445908374090342,-0.6170455155276857,332.1729665385235,19.871895027974258,0.0,1.0,0.0,0.0,1.0,Taxi
5.7,0.17687119569767684,6.780098825931087,14.113398638516784,1.4397619042754957,-0.6987697783729037,332.105029593195,20.418385659974565,0.0,1.0,0.0,0.0,1.0,Taxi
5.800000000000001,0.0012482864658295663,20.851206905507127,13.83480477108039,1.3330795971769833,0.4446396603715823,331.9504905404717,20.036527141446825,0.0,1.0,0.0,0.0,1.0,Taxi
5.9,0.10019812342387431,-13.373897851206303,14.02104057584473,1.2560206275513282,-0.7572025765280521,332.07846522534646,19.91371180126337,0.0,1.0,0.0,0.0,1.0,Taxi
6.0,0.1100017064416454,-16.933943725360802,14.191547324662848,1.5702801659813703,-0.22144567983945218,332.0898062769719,19.726604731727985,0.0,1.0,0.0,0.0,1.0,Taxi
6.1000000000000005,-0.08342143216097436,18.962942561166283,15.33211530284073,1.5646621011760957,-0.6864594404068083,332.0036394017826,20.21627896169178,0.0,1.0,0.0,0.0,1.0,Taxi
6.2,0.19501283622970578,-2.8157872879172436,14.221011494076519,1.4716156128232247,-0.7398020449454633,332.09488844980797,20.392594174448156,0.0,1.0,0.0,0.0,1.0,Taxi
6.300000000000001,0.09592277000205925,34.89419712344148,15.550998752791036,1.5727879365806394,0.12186714985063017,331.9388752013167,20.29226848997694,0.0,1.0,0.0,0.0,1.0,Taxi
6.4,0.09104955345623308,-38.49418382894047,14.893989430728233,1.5918534678000944,0.7113691925563832,331.98131093126085,20.89811660792502,0.0,1.0,0.0,0.0,1.0,Taxi
6.5,0.002541917085003462,-54.14354743939657,14.748901426287967,1.7226518280020726,0.21151211612063187,331.96558488429457,20.249004230878285,0.0,1.0,0.0,0.0,1.0,Taxi
6.6000000000000005,-0.17479496719492357,-12.880366321236911,14.947275242186594,1.307808432240805,-0.3892558549101663,332.0390547825692,19.91544390849255,0.0,1.0,0.0,0.0,1.0,Taxi
6.7,0.02664772185004857,-21.376057379605005,14.639613615765585,1.563510922490459,-0.4498473966461744,332.05660241732676,20.126610627175555,0.0,1.0,0.0,0.0,1.0,Taxi
6.800000000000001,-0.10433836981302153,60.1981056781907,13.840561306472287,1.1262226571481504,-0.20793173016121436,332.1160474184202,20.763722063604426,0.0,1.0,0.0,0.0,1.0,Taxi
6.9,0.12619556119603,-49.685202541580765,13.995033111979529,1.6259336187531588,0.6525312217483373,332.00546848852855,19.440457049821767,0.0,1.0,0.0,0.0,1.0,Taxi
7.0,-0.22177829085785516,45.42428254461856,15.015350164746259,1.4904813205327927,-0.1946097332022645,331.8508124067182,19.9538630625031,0.0,1.0,0.0,0.0,1.0,Taxi
7.1000000000000005,0.12278304291007135,-8.173228854725982,15.539832411029133,1.899807857709972,-0.10173334621515102,332.09702558761,20.17553425059439,0.0,1.0,0.0,0.0,1.0,Taxi
7.2,0.08532941692240016,21.68220911588293,13.312248451573081,1.8066855154695987,0.6037261292649797,332.18033786188903,20.476850647037192,0.0,1.0,0.0,0.0,1.0,Taxi
7.300000000000001,-0.11336724527844051,-13.83470056242738,13.9026027099265,1.6092803495931534,-0.25677455356195394,332.2155702828966,20.256496237285713,0.0,1.0,0.0,0.0,1.0,Taxi
7.4,0.05360954009793454,-20.84905784797392,14.115834484631675,1.108959930536511,0.3482508775794524,332.02572964730734,20.91342514999054,0.0,1.0,0.0,0.0,1.0,Taxi
7.5,-0.018915872317469357,21.991908903534476,13.987532450584975,1.6720130409890128,-0.4387683744144061,332.0841015754818,20.134893842677283,0.0,1.0,0.0,0.0,1.0,Taxi
7.6000000000000005,-0.0034077007607680636,-3.5587454704186903,15.446527064315347,1.0863722212635396,-0.49760422636254775,331.9325765236939,20.797166685350376,0.0,1.0,0.0,0.0,1.0,Taxi
7.7,0.03581581274584116,27.21164207703619,14.496056140594899,1.5886376964795663,0.21232118147465617,332.1324670442518,20.26490976374898,0.0,1.0,0.0,0.0,1.0,Taxi
7.800000000000001,0.11714233806771168,24.43923615262831,13.825012260596754,1.6035124880598255,0.48900898092082296,331.8458217964991,20.05627325588179,0.0,1.0,0.0,0.0,1.0,Taxi
7.9,0.11878848000237359,-28.358927822053612,14.387194330398668,1.5204783507096806,0.027201908251577325,331.8398711226382,21.177373872251344,0.0,1.0,0.0,0.0,1.0,Taxi
8.0,-0.10597882636442675,-46.566024599469465,14.280252095278534,1.2087823847843664,0.002304452100874158,331.93346410607523,20.217366030259683,0.0,1.0,0.0,0.0,1.0,Taxi
8.1,-0.11568778492963548,-36.993007869252466,15.047073311960856,1.499899026539574,0.017113824283373023,331.98905252920963,20.337148320102283,0.0,1.0,0.0,0.0,1.0,Taxi
8.200000000000001,-0.06617655934388864,39.63985060373194,14.472410972617771,1.693351768892617,-0.14156320226227265,331.9858356214286,19.948122573744126,0.0,1.0,0.0,0.0,1.0,Taxi
8.3,0.09222042665423305,19.021871192768796,14.181257715918841,1.46949904411664,0.5408856311201304,332.1006652627443,19.977904739197843,0.0,1.0,0.0,0.0,1.0,Taxi
8.4,-0.0205784289657914,8.926312038945175,13.97671288125605,1.5011055285740833,-0.781576645309549,332.02644773629254,21.032462927324048,0.0,1.0,0.0,0.0,1.0,Taxi
8.5,-0.02154499914916265,-63.686656426995874,14.629316769484332,1.653936142895967,0.7590073655616761,332.1116305384396,20.52298942900935,0.0,1.0,0.0,0.0,1.0,Taxi
8.6,-0.2262128554807462,-20.20848144376502,15.391094795182067,1.6686593402449539,0.5111143069248232,331.9695714426173,20.431209674759742,0.0,1.0,0.0,0.0,1.0,Taxi
8.700000000000001,-0.12162083618461639,17.408282379066737,15.03828847799037,1.9456550559456196,-1.047325089424103,331.85373617491086,21.75282008511014,0.0,1.0,0.0,0.0,1.0,Taxi
8.8,0.06549641274617114,43.91580123520284,15.03001539315448,1.5214495706086675,0.38685422939698616,332.0703949377115,20.935421507303715,0.0,1.0,0.0,0.0,1.0,Taxi
8.9,-0.006633849304731924,35.531865382847435,14.260596557955662,1.3471665751379223,0.08473263470762656,332.190040934076,20.158495348339557,0.0,1.0,0.0,0.0,1.0,Taxi
9.0,0.056038490729620895,-7.53128025695712,14.843040602700158,1.4448664708148486,-1.1613511019455627,331.94652901545953,20.180227877856733,0.0,1.0,0.0,0.0,1.0,Taxi
9.1,0.02784001146138563,0.3187171058579163,13.874591833106365,1.8961200813671177,0.2581638449453191,331.9040736443428,21.37206595534501,0.0,1.0,0.0,0.0,1.0,Taxi
9.200000000000001,-0.005040263775442248,-11.013762905945173,15.180914254231293,1.5455011876541644,0.23197155809343717,331.83986621930353,21.14731020814669,0.0,1.0,0.0,0.0,1.0,Taxi
9.3,0.0009696761998951183,-20.42258709432212,14.202966066049333,1.47220281342515,0.055867756346220786,332.138744804186,21.19983569384936,0.0,1.0,0.0,0.0,1.0,Taxi
9.4,-0.07427292401022488,16.02842626585503,14.579139569648598,1.5091495962939743,-0.314344956331283,332.0238857957713,20.472373621374068,0.0,1.0,0.0,0.0,1.0,Taxi
9.5,0.075101867553833,9.494056264082799,14.997036470121344,1.3433276280148954,0.03481783602117691,331.9634946582032,20.95277638005668,0.0,1.0,0.0,0.0,1.0,Taxi
9.600000000000001,0.04843995752030922,27.98501142442907,15.22048014993894,1.6155804340348856,0.42507135551135594,332.0205419725937,20.45364598506871,0.0,1.0,0.0,0.0,1.0,Taxi
9.700000000000001,0.06565213311192057,-26.163863277137168,14.804523860500135,1.5078796721888135,-0.4933434330849554,331.9998046494086,20.797698344433204,0.0,1.0,0.0,0.0,1.0,Taxi
9.8,-0.05571744883185277,-9.413872116328323,15.023285234624211,1.2897518268704886,-0.755410687165773,331.9594962800519,20.327249220467326,0.0,1.0,0.0,0.0,1.0,Taxi
9.9,0.0013705969386676716,-7.349777387840372,14.038447845950529,1.5824481744550567,0.46622952207220897,331.9856381046159,20.34650959195088,0.0,1.0,0.0,0.0,1.0,Taxi
10.0,0.028903246172718784,26.58620645025378,14.763644389926611,1.4857950739264632,-0.3072416566106427,332.06446961975075,20.291297412721356,0.0,1.0,0.0,0.0,1.0,Taxi
10.100000000000001,0.0772135834194162,13.242638768091927,15.077240795616646,1.3936573439625919,-0.28816647085052965,332.03464478012916,21.023206072945452,0.0,1.0,0.0,0.0,1.0,Taxi
10.200000000000001,0.06758379077912739,-8.534792857586554,14.924162753279816,1.371659412404211,-0.7080867165257704,332.05457438379733,20.342279191345966,0.0,1.0,0.0,0.0,1.0,Taxi
10.3,-0.013770718115213909,-28.623776974104345,15.221446352071327,1.7218903097955938,0.3892815896931875,332.01929751092075,20.727082431946528,0.0,1.0,0.0,0.0,1.0,Taxi
10.4,-0.06590530145110546,-19.402228004205657,13.727693088077615,1.5029592165591719,-0.021025886858920532,331.91462240932674,20.106566962381592,0.0,1.0,0.0,0.0,1.0,Taxi
10.5,-0.029427349241900793,0.3015473067607992,14.658819705954649,1.727816729250851,0.36112688127307524,331.9920806518827,19.55444736005454,0.0,1.0,0.0,0.0,1.0,Taxi
10.600000000000001,-0.012262981581409827,-3.300337180999852,14.76883175787063,1.311523039922443,-0.8767107192906918,332.0223607640198,20.226565567688073,0.0,1.0,0.0,0.0,1.0,Taxi
10.700000000000001,-0.08240698735610463,11.749816751477331,14.229901301623833,1.7890246005857575,-0.03989764140043516,332.0905424356405,20.073229548492613,0.0,1.0,0.0,0.0,1.0,Taxi
10.8,0.029321734515485937,-19.97946144516614,15.62163245362385,1.697125102128285,-0.1232192346058965,331.8953214295942,20.36132362622023,0.0,1.0,0.0,0.0,1.0,Taxi
10.9,-0.11216028880724045,32.15151037435882,14.792688838381569,1.8024497513636,0.5204045689356124,332.01356051646553,20.378751710307434,0.0,1.0,0.0,0.0,1.0,Taxi
11.0,0.07835056451568954,-19.014968355441216,14.678289286644173,1.1652328077168108,-0.3240007528084619,332.0251967942568,20.03591626371091,0.0,1.0,0.0,0.0,1.0,Taxi
11.100000000000001,-0.06575310726172008,42.82760740614185,15.365702934938577,1.6167617406350066,0.06467534471303404,332.01212427361384,20.68442343985372,0.0,1.0,0.0,0.0,1.0,Taxi
11.200000000000001,0.1019777482234689,-16.610399395376703,14.564987696402225,1.6675200393974374,-0.8056503766711773,332.2877025618368,19.522485183732698,0.0,1.0,0.0,0.0,1.0,Taxi
11.3,-0.0047014324611938715,2.8922812762937533,14.617143198739749,1.4070415216960326,0.13437764529514262,332.1691830173198,21.418836748153243,0.0,1.0,0.0,0.0,1.0,Taxi
11.4,-0.0512917008802512,2.255348903184436,13.884536153395498,1.2504097361858975,0.3525096603431377,332.0259687808468,20.4296284066355,0.0,1.0,0.0,0.0,1.0,Taxi
11.5,0.11325449273939117,18.774680825201308,15.546399023183085,1.5704642652735439,-0.09174574776700459,331.9156040062976,19.634869007196734,0.0,1.0,0.0,0.0,1.0,Taxi
11.600000000000001,0.08917197166481275,35.12622552530118,14.220649879135847,1.599630247555164,0.44797140957649134,331.9884102546389,20.08091174418019,0.0,1.0,0.0,0.0,1.0,Taxi
11.700000000000001,0.12433942674625478,-39.002041171707,14.720805446690923,1.6737869462506751,-0.4012938415875854,331.8847781815218,20.45023802483936,0.0,1.0,0.0,0.0,1.0,Taxi
11.8,-0.08175571311914374,-0.8845164458940266,14.825969827337254,1.7553252205086614,-0.8580968201862792,331.83860950430653,19.95096805322586,0.0,1.0,0.0,0.0,1.0,Taxi
11.9,0.08474938943534271,-58.32712668042149,13.815930733383771,1.853422933890553,-0.3834290706172557,332.02285486798496,19.95178408664894,0.0,1.0,0.0,0.0,1.0,Taxi
12.0,-0.1672962066558526,7.8107891187095975,14.7962611477399,1.7193307438390528,0.015765356615890583,331.9140527850807,21.052572004308608,0.0,1.0,0.0,0.0,1.0,Taxi
12.100000000000001,-0.04270176752559565,-18.130681261438383,14.478481525736932,1.569524330035394,-0.16915346671139506,331.958729229886,19.86231629143639,0.0,1.0,0.0,0.0,1.0,Taxi
12.200000000000001,-0.005904016871849088,29.460009520949956,14.285979448100019,1.5185553072277491,-0.8942750956515819,331.9715530946678,19.768314085231232,0.0,1.0,0.0,0.0,1.0,Taxi
12.3,-0.0199961590511027,30.37347861241894,14.558705701602458,1.7095685891442802,-0.2651647283280721,331.9323934216709,19.882274354421945,0.0,1.0,0.0,0.0,1.0,Taxi
12.4,0.10916562553649917,20.374259555889292,14.544179523421676,1.39258827741357,-0.411799805830338,332.0519174949461,19.927243139892262,0.0,1.0,0.0,0.0,1.0,Taxi
12.5,0.09596728090759749,-2.170284501069579,15.604729924384962,1.2567854022633846,1.0175988258630524,332.15895454811925,20.530156493271797,0.0,1.0,0.0,0.0,1.0,Taxi
12.600000000000001,-0.030847581556450506,-61.51625098116117,14.173113942524704,1.6483649851854814,-0.16626015694808619,332.0273425526161,19.97374827635946,0.0,1.0,0.0,0.0,1.0,Taxi
12.700000000000001,-0.19841562936930665,-12.673846964296615,15.327208679861194,1.718501225000505,-0.6399659986414609,331.8479253792659,20.4907389857964,0.0,1.0,0.0,0.0,1.0,Taxi
12.8,0.03259804608611446,0.05619258620808646,14.609511709984695,1.4472289936432414,0.26322173414618144,332.0647497431969,19.94570439108663,0.0,1.0,0.0,0.0,1.0,Taxi
12.9,-0.030566618625410026,23.409972407877575,15.547583957245415,1.5374962665656076,-0.32510227707719513,332.0484574240196,20.3231884308997,0.0,1.0,0.0,0.0,1.0,Taxi
13.0,-0.08136576732991872,-27.169154850314754,15.1624129687845,1.6188961090555332,0.7071551984622197,332.15220701758597,20.44120773799422,0.0,1.0,0.0,0.0,1.0,Taxi
13.100000000000001,-0.10324772816545923,17.91062880649053,14.5541285174604,2.1970506417621425,-1.0768263738743153,332.19022856845595,20.11503896069064,0.0,1.0,0.0,0.0,1.0,Taxi
13.200000000000001,0.05898652540704269,28.6894604951258,15.43875469755473,1.9245024796979777,-0.6876435899438216,331.97293306246536,20.651871132972087,0.0,1.0,0.0,0.0,1.0,Taxi
13.3,0.062081535145710354,5.742106131321246,14.219566469512127,1.3125002693344539,-0.16392252923245382,332.1816592615962,20.553711100817594,0.0,1.0,0.0,0.0,1.0,Taxi
13.4,-0.07453719750885289,-41.66878287026848,14.77212801622018,1.7426809384626984,0.022965919261410478,331.980943139426,20.130224000197725,0.0,1.0,0.0,0.0,1.0,Taxi
13.5,-0.1493573889442996,-21.6750864853062,14.593526205764434,1.4038881472581999,-0.3905813312370124,331.7762931878119,20.57112062077219,0.0,1.0,0.0,0.0,1.0,Taxi
13.600000000000001,-0.04629389728082053,-12.931364389425303,15.57785378112144,1.6930069980266729,0.28248971498546044,332.05602423265555,20.142667402412535,0.0,1.0,0.0,0.0,1.0,Taxi
13.700000000000001,-0.1391940194559793,28.60539937841669,14.244243054510726,1.4415568944336188,0.13553341832631377,331.8875242588472,20.542298848898692,0.0,1.0,0.0,0.0,1.0,Taxi
13.8,-0.0063303920522160915,1.5808966869766163,14.963944076865333,1.9409704742992226,0.3856062177874168,332.026611478616,19.52461564417527,0.0,1.0,0.0,0.0,1.0,Taxi
13.9,-0.03838941384593739,49.121157306823555,14.769295928214964,1.5473329675191865,-0.12969458629539002,332.0510966762914,20.370237690990056,0.0,1.0,0.0,0.0,1.0,Taxi
14.0,0.10641176707813851,-41.19932047247955,14.557059223465172,1.42347430452068,-0.2774074785925126,332.1699864480322,20.834057769276587,0.0,1.0,0.0,0.0,1.0,Taxi
14.100000000000001,-0.21232699441461378,13.847456732860882,13.81571574653255,1.5802170947507193,1.0247704406527185,332.0640294145177,20.329703994821145,0.0,1.0,0.0,0.0,1.0,Taxi
14.200000000000001,0.030847869818367103,-24.67020054691993,15.80097596418511,1.29949278823195,-0.6940825696678675,331.97902990485886,20.523373975220192,0.0,1.0,0.0,0.0,1.0,Taxi
14.3,-0.016939235656461073,43.215902671844624,14.77089890884107,1.5545960767109894,0.32020181310970347,332.06209677676736,20.093698328314414,0.0,1.0,0.0,0.0,1.0,Taxi
14.4,0.003752518944609463,18.622738940074004,13.477016686109067,1.6999084187220002,-0.5503912260909364,332.15586174073405,21.186819303132097,0.0,1.0,0.0,0.0,1.0,Taxi
14.5,0.12396156451873724,3.7678067697900226,15.46156799191001,1.5515170799972868,0.16415695398064908,332.0099518225279,20.85310733970311,0.0,1.0,0.0,0.0,1.0,Taxi
14.600000000000001,0.0018997981924891696,44.02257384962561,14.351459474554947,1.8046855191473405,0.22592970309299126,332.0273582604749,20.484379699458678,0.0,1.0,0.0,0.0,1.0,Taxi
14.700000000000001,0.22386538819273763,-20.53420334568708,13.976957253945205,1.5090591434390044,-0.26835346977044744,332.0230510678565,20.775665312498063,0.0,1.0,0.0,0.0,1.0,Taxi
14.8,0.021290547790302025,-0.8296753404865415,14.966941320534556,1.5598138547567726,0.14503571259734088,331.91061188426875,19.518929005477673,0.0,1.0,0.0,0.0,1.0,Taxi
14.9,-0.0022485785099433625,-44.77747537622946,14.408718826800966,1.4993290179709349,-0.22571495042129994,332.02157937644165,19.953854648023103,0.0,1.0,0.0,0.0,1.0,Taxi
15.0,-2.1988688409488912e-05,-3.3956479605520733,14.211344198593352,1.6235477975655586,-0.6875177448228331,332.16762055372465,20.758862307684915,0.0,1.0,0.0,0.0,1.0,Taxi
15.100000000000001,0.004312307987541798,-26.94127850243959,14.799031107934484,1.5709008838582057,-0.1296036745774753,331.96864649083636,20.422158342290597,0.0,1.0,0.0,0.0,1.0,Taxi
15.200000000000001,-0.13695497102214121,23.748652023079348,14.06021203537216,1.2740756015652783,-0.025048193402679254,331.9927104894641,20.500911595909567,0.0,1.0,0.0,0.0,1.0,Taxi
15.3,0.11872127142698741,19.470399603066387,13.865208500536266,1.573752317228998,-0.15803849442576437,332.06679220129445,20.815846134706874,0.0,1.0,0.0,0.0,1.0,Taxi
15.4,0.10166430600287386,10.597297752629265,15.12361447640011,1.57081543154155,-1.02167536404205,331.9831157528421,20.899072855605002,0.0,1.0,0.0,0.0,1.0,Taxi
15.5,-0.08396848225899473,-36.482563321222536,14.466087207859303,1.464765268997761,0.30750034460047027,331.8850316859257,21.412088433270295,0.0,1.0,0.0,0.0,1.0,Taxi
15.600000000000001,-0.06369154517912512,-59.14780100303337,15.670192620866729,1.5813859945318829,-0.3205411100955964,331.8517256707373,20.448716512318388,0.0,1.0,0.0,0.0,1.0,Taxi
15.700000000000001,-0.19407469901229285,18.107534522013527,14.88155192789259,1.3912171464049294,0.03365031532360999,332.0498086245552,20.52212503828287,0.0,1.0,0.0,0.0,1.0,Taxi
15.8,0.006569190351073032,-21.697207526773923,14.448216566818704,1.796446844493257,0.47612707885646854,331.9679620719471,20.70811372834779,0.0,1.0,0.0,0.0,1.0,Taxi
15.9,-0.1721775828129946,36.35411165902911,14.761976045661727,1.7331036798941584,1.3496836945531774,332.17998773387467,20.183729316826433,0.0,1.0,0.0,0.0,1.0,Taxi
16.0,-0.012304140717147156,-36.7602545040156,13.84696381444197,1.6174039568373284,0.025323183182767613,332.1127078947843,20.503861275192808,0.0,1.0,0.0,0.0,1.0,Taxi
16.1,-0.17723208216900482,20.179342114337214,14.609519218967593,1.365084300329308,-0.02387504924153408,332.1185257434047,20.004050424581408,0.0,1.0,0.0,0.0,1.0,Taxi
16.2,-0.0712808722413084,12.158864451572265,14.189709535392879,1.3937619302713193,0.08004386342549433,332.08367121172864,20.241143855107072,0.0,1.0,0.0,0.0,1.0,Taxi
16.3,0.048490181540714314,53.53541989268171,15.319777473583805,1.4836295625491915,0.24007089921438823,332.103202377712,20.738381767096854,0.0,1.0,0.0,0.0,1.0,Taxi
16.400000000000002,0.09044501729440385,-24.47692000249792,14.810081304390456,0.9679193585167475,-0.26168567762228306,332.11187154030563,20.286068753637,0.0,1.0,0.0,0.0,1.0,Taxi
16.5,-0.19366547225379788,-3.1499242564520387,14.627568065407269,1.462766103035337,-0.6409209528478166,332.1568844034912,21.293157136639845,0.0,1.0,0.0,0.0,1.0,Taxi
16.6,0.032740560258454225,29.227947029608174,15.295247211151409,1.2726317051698168,-0.0778557581677003,332.1235372011214,20.011276862005186,0.0,1.0,0.0,0.0,1.0,Taxi
16.7,0.2365847524424448,82.0014518221244,14.977045699649691,1.5138355804114783,0.5841128871392096,332.0594117409855,21.265299592945674,0.0,1.0,0.0,0.0,1.0,Taxi
16.8,0.21634178685682418,10.558846981139476,14.676343133169588,1.834576119951857,-1.0149468586603656,331.9895893127641,20.750275643226505,0.0,1.0,0.0,0.0,1.0,Taxi
16.900000000000002,0.08553479516415174,-32.38864856396846,15.292850571852368,1.4739346181467474,1.317810655575132,332.0332590121477,20.47204761803862,0.0,1.0,0.0,0.0,1.0,Taxi
17.0,0.07464150962260267,-46.38230299192654,14.714362929335383,1.56171399935847,0.02046095917833593,332.0973968164161,20.132853171524378,0.0,1.0,0.0,0.0,1.0,Taxi
17.1,-0.015569728102808354,-43.080281210130416,14.616981050570635,1.4669881794449897,-1.0681953573049396,331.9456643289068,19.697791409491252,0.0,1.0,0.0,0.0,1.0,Taxi
17.2,-0.1298666108865002,-23.04478803617324,14.66941847471887,1.6154486350687889,0.5726595474681982,332.0595611014496,21.330145618538765,0.0,1.0,0.0,0.0,1.0,Taxi
17.3,-0.0405824305582634,-2.457980492237071,15.046674964615985,1.509096014440105,0.20713768234235827,331.9229143663608,20.334835635495807,0.0,1.0,0.0,0.0,1.0,Taxi
17.400000000000002,-0.02785963056399356,25.936667258975813,14.791265968052755,1.3786169956664407,0.37187660073177614,331.94224107322566,20.204110895809567,0.0,1.0,0.0,0.0,1.0,Taxi
17.5,-0.0001832745916210093,13.951146560960977,13.788943329611266,1.4979456649904819,0.28027839217666917,332.0561034069908,20.322495213592177,0.0,1.0,0.0,0.0,1.0,Taxi
17.6,0.0291733022465416,-23.922523314442614,14.466675001453897,1.3836098057800768,-0.29596056772085255,331.99293962203444,21.060529854117043,0.0,1.0,0.0,0.0,1.0,Taxi
17.7,-0.14747224713620652,-15.267361616721727,14.658326468356607,1.508303765649973,-0.23160027345990708,332.1752724653886,20.996726372171512,0.0,1.0,0.0,0.0,1.0,Taxi
17.8,-0.07652008267522951,17.399734352510222,14.727006262834356,1.747273545222937,-0.282168017727248,332.08748801184356,20.156101943752056,0.0,1.0,0.0,0.0,1.0,Taxi
17.900000000000002,0.11617197400909283,37.08118517446122,14.517427677987932,1.3303850004470386,1.140374426912191,332.0598043145651,20.990345159388664,0.0,1.0,0.0,0.0,1.0,Taxi
18.0,0.03793367873609973,4.6908887005061475,14.929514079886484,1.3939424121257216,0.4920614698090201,332.13524742403797,19.991213144045652,0.0,1.0,0.0,0.0,1.0,Taxi
18.1,-0.053065639172698645,-42.454763612166346,15.259439951231222,1.2677931294847335,-0.07033483660900075,332.21788053654575,21.005413030929738,0.0,1.0,0.0,0.0,1.0,Taxi
18.2,-0.09610184405173877,-27.893969683997984,14.83571345968703,1.5927857506296539,0.04492169985737734,332.0722725726496,21.214688190125454,0.0,1.0,0.0,0.0,1.0,Taxi
18.3,-0.10153616968389007,4.307413307819028,14.26250155699139,1.3741827495917565,0.2831204377688431,332.04704600212017,20.239354985625024,0.0,1.0,0.0,0.0,1.0,Taxi
18.400000000000002,-0.03152857263360336,0.8291018910106231,13.654076900411383,1.5717538980205386,0.007743306662130325,332.15131105778164,20.84243857038316,0.0,1.0,0.0,0.0,1.0,Taxi
18.5,-0.09195633459668551,18.75109566221718,13.80421403265038,1.5280241319220187,-0.17424517649177082,331.87038373111,20.382527647981448,0.0,1.0,0.0,0.0,1.0,Taxi
18.6,-0.0077806913728040205,-5.040125824092861,14.158671628086505,1.5513707157452128,-0.4040436946774227,331.92991943813195,20.23111788162911,0.0,1.0,0.0,0.0,1.0,Taxi
18.7,-0.05672920175406753,15.128350237967624,13.57456263017521,1.4975303761671948,0.04414212593446841,331.9507621590751,20.354723811805172,0.0,1.0,0.0,0.0,1.0,Taxi
18.8,-0.016314583406847268,22.13563633112098,14.041088548283067,1.632607857428286,-0.3152551676850966,331.91103028060115,20.40836110144002,0.0,1.0,0.0,0.0,1.0,Taxi
18.900000000000002,0.10289749028280104,44.637498193411766,15.283977983103746,1.389505736662057,-0.17271989067835364,332.01440690592426,20.717629505818717,0.0,1.0,0.0,0.0,1.0,Taxi
19.0,0.1664582892129914,-39.78816032491619,14.377042963950311,1.5303506350830556,1.2609824571686312,332.0580676010891,19.804906628603526,0.0,1.0,0.0,0.0,1.0,Taxi
19.1,-0.21525538503142805,14.26250538734925,14.950524316264746,1.1591741608753188,0.22749927586574376,332.0309637496521,20.411327856667615,0.0,1.0,0.0,0.0,1.0,Taxi
19.200000000000003,0.17421001721954746,-43.61385221173484,15.810758101633757,1.650186603202054,0.0929174270321215,331.9554041777444,21.014311798800694,0.0,1.0,0.0,0.0,1.0,Taxi
19.3,-0.05161097184568261,51.77461926994258,14.94878068327679,1.6919130511392395,-0.1798123408811674,331.91529378317955,20.690170314843716,0.0,1.0,0.0,0.0,1.0,Taxi
19.400000000000002,0.04361771131828502,-34.1394296315143,14.554608396985776,1.4353023466502335,0.8316388883298834,331.865020792706,21.038303451350433,0.0,1.0,0.0,0.0,1.0,Taxi
19.5,0.003512869061976097,38.4157095838698,13.376337614629719,1.0851390623598884,-0.09001576450755981,332.0336684260061,20.239365007300165,0.0,1.0,0.0,0.0,1.0,Taxi
19.6,0.14046757607366653,38.65522348934428,15.085237609581139,1.8926994445406655,0.5387619861804096,331.92130151257084,20.954636776086385,0.0,1.0,0.0,0.0,1.0,Taxi
19.700000000000003,0.23689382876500656,-24.376940497012686,15.050657312508285,1.5161047626703938,-0.017606239014425266,331.998909956794,20.759618271020354,0.0,1.0,0.0,0.0,1.0,Taxi
19.8,-0.11837183342308716,-55.03211502938934,14.811414178864633,1.050494253649594,-0.5382826920632114,332.01231736288514,21.311382835494936,0.0,1.0,0.0,0.0,1.0,Taxi
19.900000000000002,-0.13469299907328,-49.185744756102316,14.742554941972774,1.5749355894358803,0.013562580076023657,332.1692266566281,20.521467315686326,0.0,1.0,0.0,0.0,1.0,Taxi
20.0,-0.009034895015504862,21.304506033311124,15.368373020614618,1.7587482808091675,0.13360727159074223,331.87188252695387,21.380645248734833,0.0,1.0,0.0,0.0,1.0,Taxi
20.1,-0.0118493032565314,41.21277263850545,14.62238055439832,1.7798161441314782,-0.9263689245139745,332.1025914293102,20.186167157075722,0.0,1.0,0.0,0.0,1.0,Taxi
20.200000000000003,0.0713708641192474,36.44830071620027,14.866520247599627,1.1703359311732022,-0.04040492482927431,332.01438902162624,20.28596090106513,0.0,1.0,0.0,0.0,1.0,Taxi
20.3,0.17320660856549663,-14.011108085555003,14.255812053651994,1.4722911225200916,0.3424583870169017,332.0784578572076,21.244032704745617,0.0,1.0,0.0,0.0,1.0,Taxi
20.400000000000002,-0.0819048436843063,-37.605993022572406,14.475635744922949,1.6313717559141356,0.3213114488015862,332.0121029199328,20.413261937525508,0.0,1.0,0.0,0.0,1.0,Taxi
20.5,-0.11665910099361453,-0.09112717318194541,14.20862050173965,1.7156336903025906,0.19758610419438416,332.00117931563227,20.71998650514885,0.0,1.0,0.0,0.0,1.0,Taxi
20.6,0.17275097269958703,48.3585225770413,15.387176947693185,1.5117129232678381,-0.27816520275441475,332.12281987676465,20.661373142680464,0.0,1.0,0.0,0.0,1.0,Taxi
20.700000000000003,0.1598877692009003,52.62375913318965,14.63998741941528,1.265047310778557,-0.10042921418057853,331.8079628098453,20.658161221187957,0.0,1.0,0.0,0.0,1.0,Taxi
20.8,0.14645969467233386,-44.524062543014246,13.877623770207757,1.401429224402465,-0.057844552929628784,331.95670612394144,19.833017047038282,0.0,1.0,0.0,0.0,1.0,Taxi
20.900000000000002,-0.0498693400154841,-25.141464482372953,14.652889229074626,1.5823499962201366,-0.6919422655821537,331.87192387230607,20.838061794395372,0.0,1.0,0.0,0.0,1.0,Taxi
21.0,0.03418044678903564,-27.68533898299212,14.401281264583687,1.545486474502898,-0.13841971222172858,332.02694561101134,20.619280675689613,0.0,1.0,0.0,0.0,1.0,Taxi
21.1,0.00803299975737333,19.541335300044057,14.991507164238348,0.9949106345283166,-0.48509666846197386,332.0283007902801,20.12628072604318,0.0,1.0,0.0,0.0,1.0,Taxi
21.200000000000003,0.04783733648473628,-6.293655583871479,14.06450882672122,1.8783794956761841,0.6985448791924849,332.0456804225237,20.66792366275449,0.0,1.0,0.0,0.0,1.0,Taxi
21.3,0.002712168869678336,11.882817011789768,14.295983100631972,1.4707313532904007,-0.3208699679854306,332.13007131485347,20.554430021740448,0.0,1.0,0.0,0.0,1.0,Taxi
21.400000000000002,0.06744708481632226,-4.870011178071926,14.42387166850511,1.2109955633587206,0.1125701975774229,331.90632164477097,20.68361464816541,0.0,1.0,0.0,0.0,1.0,Taxi
21.5,0.023487280594376745,11.940650387305396,14.96230269958882,1.7266803672947155,-0.516198466127119,332.00542094222385,21.261495668591564,0.0,1.0,0.0,0.0,1.0,Taxi
21.6,0.06241542080620541,-12.067239611351944,14.711872352479162,1.699799233186759,-0.12991102266595622,331.95116048254386,20.611717536546074,0.0,1.0,0.0,0.0,1.0,Taxi
21.700000000000003,0.0071108867595626336,10.792415309956175,14.850778262876515,1.429625893210044,0.3068800149039673,332.0458416723793,20.68937966259629,0.0,1.0,0.0,0.0,1.0,Taxi
21.8,0.0774493571441577,-25.24649429866876,13.991757355143875,1.516276356949858,0.48593140704846954,331.9163968129409,19.84341302868517,0.0,1.0,0.0,0.0,1.0,Taxi
21.900000000000002,-0.06381705068713832,-9.384562674108194,14.680686147129439,1.4518563131945241,0.6905031119167285,331.9447997352868,20.18530892885668,0.0,1.0,0.0,0.0,1.0,Taxi
22.0,-0.03981192661097826,9.678047860092628,15.102525485687641,1.695222556574683,-0.2094301392882043,331.9667111255508,21.357838001120065,0.0,1.0,0.0,0.0,1.0,Taxi
22.1,0.12583959644462092,-12.455661472362337,14.918505798681766,1.598926499932928,0.05522742203394028,331.9123142132996,20.475647409796775,0.0,1.0,0.0,0.0,1.0,Taxi
22.200000000000003,-0.1260953580489499,25.092602136879474,14.332270418625079,1.7687641088717927,0.38209863779907804,332.1881758539737,19.9051464380504,0.0,1.0,0.0,0.0,1.0,Taxi
22.3,0.08565108407341922,-54.92563438849288,14.187551019329224,1.9197077766347368,0.22757826834329942,332.2329732636608,21.057697582742808,0.0,1.0,0.0,0.0,1.0,Taxi
22.400000000000002,-0.14878857549784338,28.690736461974893,14.909210383350691,1.5040352987074153,0.14881161625047526,332.0930761770296,19.859147786396846,0.0,1.0,0.0,0.0,1.0,Taxi
22.5,0.017358324260924717,-29.981254560842327,14.396494005348341,1.582504620887639,0.3687564761454808,331.854956470803,19.546967231896577,0.0,1.0,0.0,0.0,1.0,Taxi
22.6,-0.06425518873079226,22.968886592977924,14.771383577522704,1.7377637505318284,-0.27479158872758513,332.0568117124569,20.89366309643175,0.0,1.0,0.0,0.0,1.0,Taxi
22.700000000000003,-0.03394414253295364,-4.617464254246593,12.89298501286301,1.6383240853775525,-0.759519699229343,331.9802307384242,21.30303751060914,0.0,1.0,0.0,0.0,1.0,Taxi
22.8,-0.005728997010308122,-7.169160733047285,15.316937293838485,1.4009289946298695,-0.6828840057055788,332.2492967486629,19.878573559821444,0.0,1.0,0.0,0.0,1.0,Taxi
22.900000000000002,-0.10010099239602857,-7.41203540426168,13.805878609684527,1.6865759712649704,0.6437451251786946,332.10223275583417,21.017512581229248,0.0,1.0,0.0,0.0,1.0,Taxi
23.0,-0.07100431955426192,-34.97257974726654,15.720148932255075,1.4454305644506382,-0.5572003185989954,332.06466450975233,20.6969505331533,0.0,1.0,0.0,0.0,1.0,Taxi
23.1,-0.18059189574664075,0.30354395720265615,15.73631798031231,1.9086301689606984,0.38734691963667817,332.07018817847484,20.339113318670577,0.0,1.0,0.0,0.0,1.0,Taxi
23.200000000000003,-0.09858327261001518,14.352445236259227,14.134331132278623,1.2477555001951455,0.46759672927580453,332.0837428990965,20.754890447384618,0.0,1.0,0.0,0.0,1.0,Taxi
23.3,0.0007579066270343199,40.880324998520216,14.289957356442153,1.1665304338556284,-0.6043183880818211,332.1871778999101,20.25510792207319,0.0,1.0,0.0,0.0,1.0,Taxi
23.400000000000002,0.02380972924596044,46.29587512116185,15.779552802286215,1.2361512402449826,-0.7894292156228307,332.0394633517036,20.045806570254065,0.0,1.0,0.0,0.0,1.0,Taxi
23.5,0.1328961029957942,-0.3841247122470624,14.02038892155767,1.7781737476545119,-0.20873487255138132,331.9164053726172,20.55345773886797,0.0,1.0,0.0,0.0,1.0,Taxi
23.6,-0.001162716934200876,1.707233203710113,14.815458438295813,1.6807898482353858,0.4023201328411849,332.20086790975256,19.81368744215219,0.0,1.0,0.0,0.0,1.0,Taxi
23.700000000000003,0.03234589526451112,-8.82116874428187,15.416487309374544,1.6466842163938409,0.661301491341735,332.0579052113094,21.12355418087291,0.0,1.0,0.0,0.0,1.0,Taxi
23.8,0.08879025927438497,2.9563384797153014,14.174683419625666,1.680998710802963,-0.40126805365665835,331.8783548363532,20.820390899061263,0.0,1.0,0.0,0.0,1.0,Taxi
23.900000000000002,0.013618975464375765,-17.069327125305758,14.378732317802736,1.2388703012104727,0.3357967589685582,331.9615722453523,22.19562076496067,0.0,1.0,0.0,0.0,1.0,Taxi
24.0,-0.053000740362017545,-9.599304035684556,15.392999292698825,1.081864990780486,-0.051883601482805915,332.105448875408,19.93383802788651,0.0,1.0,0.0,0.0,1.0,Taxi
24.1,0.04079373909596232,7.160520423553819,14.25205526627144,1.7064903185823588,-0.3482573726213431,332.1859679076422,20.89271932206297,0.0,1.0,0.0,0.0,1.0,Taxi
24.200000000000003,0.049421577582144986,-20.459223836756095,14.582904731706273,1.2523129367770307,0.30773532637957124,331.94649832187906,20.00492271947277,0.0,1.0,0.0,0.0,1.0,Taxi
24.3,-0.1552968595457979,-3.9842866844713094,14.110603145296778,1.6420837151987813,0.44933815997938825,331.9552572387066,19.711285235532944,0.0,1.0,0.0,0.0,1.0,Taxi
24.400000000000002,0.020872305673605904,-14.231606112182467,14.481442048982359,1.8167428305908226,-0.763322004686631,332.1143089746929,20.320813891450992,0.0,1.0,0.0,0.0,1.0,Taxi
24.5,-0.021736452978767216,22.29203491965089,14.385411328247951,1.649570491995536,0.31957514339339144,331.96592751314324,20.274048112398443,0.0,1.0,0.0,0.0,1.0,Taxi
24.6,-0.04383668494754328,-20.23532415272993,14.704782078951057,1.4697519503954595,0.04732257472031179,332.04183351730023,20.462657091357734,0.0,1.0,0.0,0.0,1.0,Taxi
24.700000000000003,-0.08030431509004363,-13.32436506001614,13.95267494307132,1.5305359472286457,0.10626856581277505,332.1543709661647,20.18980722554479,0.0,1.0,0.0,0.0,1.0,Taxi
24.8,-0.08835827827884779,19.892063541152144,13.14365830532674,1.8855121467989375,-1.2183726032369009,331.95027330396033,20.646289523551278,0.0,1.0,0.0,0.0,1.0,Taxi
24.900000000000002,0.05562363275821756,43.55380834233276,14.488642876518385,1.6479415574836223,-0.2708623530809211,332.21128358194164,19.790497315379277,0.0,1.0,0.0,0.0,1.0,Taxi
25.0,0.13746472662162026,18.669144984298736,14.642921119076545,1.5455953598295484,-0.25486459766902236,332.0401777338461,21.10966547158892,0.0,1.0,0.0,0.0,1.0,Taxi
25.1,0.004987446642645995,-10.510362400242817,14.901428887381558,1.4133334998187688,-0.009892461672905986,332.20270924127954,21.07338625530654,0.0,1.0,0.0,0.0,1.0,Taxi
25.200000000000003,0.0030718207570035842,12.943761515722992,13.974296679984347,1.5430208739112958,-1.071175331225255,332.1667724880667,20.244749500410624,0.0,1.0,0.0,0.0,1.0,Taxi
25.3,0.20218353420023535,-1.8924869470610588,14.19480779713253,1.4926296206814893,0.40209143907153316,332.1711079301033,20.51527480249099,0.0,1.0,0.0,0.0,1.0,Taxi
25.400000000000002,-0.004474988092659198,11.813426007298789,14.545078369413211,1.803152728421814,0.29335485574210074,331.9806471630866,19.834013560224022,0.0,1.0,0.0,0.0,1.0,Taxi
25.5,0.06213895079349763,-33.00852512988331,13.580633299923186,1.5547903151930413,-0.5282436363716433,332.05904804569695,20.14353099000709,0.0,1.0,0.0,0.0,1.0,Taxi
25.6,0.037140908550818905,-20.564740501809876,13.71053114713251,1.683889409801519,0.34968422372779523,332.05782424096265,20.942402835973514,0.0,1.0,0.0,0.0,1.0,Taxi
25.700000000000003,-0.10729869060170848,-15.466027898182782,14.431441823388766,1.772406473517647,0.2042878840970062,332.12097225171715,19.951740583047737,0.0,1.0,0.0,0.0,1.0,Taxi
25.8,-0.015191188697416197,-16.344952169143493,15.529398248779717,1.3163841829630707,0.5772484676732282,332.0035667469606,20.21255274787424,0.0,1.0,0.0,0.0,1.0,Taxi
25.900000000000002,-0.04458385229489846,14.515066200064084,14.0670982054428,1.6953191427067056,-0.42625262007123543,332.0664515848223,19.382795114961446,0.0,1.0,0.0,0.0,1.0,Taxi
26.0,-0.03472335960138796,2.7215421061201304,13.30764244791132,1.6381667326168359,-0.5531133977967007,332.12009332281013,20.635750773994488,0.0,1.0,0.0,0.0,1.0,Taxi
26.1,-0.0015834781668154427,-12.23250994335231,14.056983919714433,1.516872117047368,-0.4505193040665155,332.0699250491516,19.450519558288477,0.0,1.0,0.0,0.0,1.0,Taxi
26.200000000000003,-0.10574640201165991,-0.9526482580223643,13.90783685442588,1.4848125610043137,-0.067104513547913,332.1121692081997,20.462937154711884,0.0,1.0,0.0,0.0,1.0,Taxi
26.3,-0.03948660089149969,26.363468645418113,14.543152812810856,1.7139126605376753,0.009670211590944118,332.15780797382604,19.73545677847096,0.0,1.0,0.0,0.0,1.0,Taxi
26.400000000000002,0.1302338650602752,15.635978794955355,14.331948393877068,1.3657225579345127,-0.6762741671589452,332.03674086814055,20.726897910595415,0.0,1.0,0.0,0.0,1.0,Taxi
26.5,-0.027566508036883014,5.417076886418887,13.581984339833948,1.161047798385685,0.09365122092808266,331.9752024872664,20.439485397009623,0.0,1.0,0.0,0.0,1.0,Taxi
26.6,-0.012401216459405137,-52.51034158184556,14.330624227167736,1.1979910145530543,-0.0023581300716097975,332.03846500760596,20.891652553395772,0.0,1.0,0.0,0.0,1.0,Taxi
26.700000000000003,-0.13231784284895245,3.179758101037237,14.778228549851253,1.2958478435426257,-0.30871329955331983,332.0021088055096,20.10984309466908,0.0,1.0,0.0,0.0,1.0,Taxi
26.8,-0.011667717531696715,-19.034899148248606,14.728746703583028,1.3727338604043648,-0.23477905249986805,332.00618223049423,20.62933750448213,0.0,1.0,0.0,0.0,1.0,Taxi
26.900000000000002,-0.10757571220064804,19.793939858430424,14.267959639303976,1.5652415382851994,-0.28242438792442115,331.85910285573175,19.87581978586024,0.0,1.0,0.0,0.0,1.0,Taxi
27.0,-0.03334814355680021,2.062865895547892,14.14404351319509,2.103647237397878,0.47467530557740606,332.1532187362716,20.140574446019027,0.0,1.0,0.0,0.0,1.0,Taxi
27.1,-0.0013533880539571177,21.928578810689014,14.253568417266944,1.4505868400030333,-0.30995800699717374,332.02939935984546,20.334033380823744,0.0,1.0,0.0,0.0,1.0,Taxi
27.200000000000003,0.0020671818527971445,16.531932638877223,14.087814849103964,1.46582344389823,-0.2717943210388238,332.04661324620656,20.953632228577106,0.0,1.0,0.0,0.0,1.0,Taxi
27.3,0.04931151963758604,30.503666280902696,14.245195412762532,1.7014035837421848,-0.32631900790532403,332.1015725770043,19.780673964544917,0.0,1.0,0.0,0.0,1.0,Taxi
27.400000000000002,0.15116494335055647,6.783850258857011,14.927305212015945,1.9850033673018896,-0.19424664047502688,332.05091881253145,20.683028949870703,0.0,1.0,0.0,0.0,1.0,Taxi
27.5,0.03598643314708233,-51.14916615346562,15.22392785219445,1.8340854901200763,-0.17105681585378077,331.9552980950939,19.381237057815245,0.0,1.0,0.0,0.0,1.0,Taxi
27.6,-0.20643431112974198,-15.525293562889544,14.617360039831912,1.7868476963989126,0.2532527323752016,332.047587892489,20.918457093062134,0.0,1.0,0.0,0.0,1.0,Taxi
27.700000000000003,0.07353847553610886,-12.710962061230937,14.630578944056692,1.7855072315931606,-0.9446945157400181,332.03423958757276,20.3986126616361,0.0,1.0,0.0,0.0,1.0,Taxi
27.8,-0.027568377159072267,68.75854915629202,14.007164498340162,1.8449764622567266,0.11458770363421435,332.0705115312544,21.124327320305802,0.0,1.0,0.0,0.0,1.0,Taxi
27.900000000000002,0.13735843465171824,10.32882615080748,14.084593534361646,1.481252534307627,-0.17376496746135708,331.98058022822715,20.71578287987325,0.0,1.0,0.0,0.0,1.0,Taxi
28.0,0.12518260629014638,-0.7723113506502793,13.548036251806012,1.6482720855913333,-0.8445417817058155,331.88153897309417,20.774844082118697,0.0,1.0,0.0,0.0,1.0,Taxi
28.1,-0.031429933912323536,-12.304596345440453,15.012509700035858,1.4529814545306712,0.42981881021725793,332.21619134764296,20.824764827137876,0.0,1.0,0.0,0.0,1.0,Taxi
28.200000000000003,0.07583545292451607,-21.35461674675889,13.162754112794078,1.5875675317125275,0.6523150799274317,332.1379497314381,20.630051019208246,0.0,1.0,0.0,0.0,1.0,Taxi
28.3,0.018409522556352042,20.433191132090965,13.846813372582742,1.8942051605035128,0.17276347163365377,332.01809722217035,20.487198347306432,0.0,1.0,0.0,0.0,1.0,Taxi
28.400000000000002,0.07073602174813139,-53.40171876392287,13.377024365986902,1.466800599038949,0.3460695262502697,331.952350629487,20.120242860079305,0.0,1.0,0.0,0.0,1.0,Taxi
28.5,-0.19117314089509815,-10.138696207513737,14.707488838692685,1.582812463265359,-0.43676890993426887,331.8308426767618,20.88890117466709,0.0,1.0,0.0,0.0,1.0,Taxi
28.6,-0.032283958481216485,-29.979632145092562,14.797174381542957,1.3135595369482753,-0.11691508042969291,332.0162780872896,21.100207983119844,0.0,1.0,0.0,0.0,1.0,Taxi
28.700000000000003,-0.07916213897733126,36.31322347340998,16.300196482880118,1.6853640183109257,0.9917528527388938,331.92543852794745,20.4141008995129,0.0,1.0,0.0,0.0,1.0,Taxi
28.8,-0.00960702352804816,-18.41269438732945,15.650628304781355,1.3941617541799491,0.0824762634836986,332.04075911647055,19.876611723000284,0.0,1.0,0.0,0.0,1.0,Taxi
28.900000000000002,-0.12434743041786359,20.58473952264092,14.341048619853181,1.3995550271187507,0.8987710527066165,331.88210102998266,21.287402800220892,0.0,1.0,0.0,0.0,1.0,Taxi
29.0,0.02376155863587344,8.097345801954788,13.556231590450516,1.833036336118878,0.033787378768976147,332.091125382144,20.610238853129687,0.0,1.0,0.0,0.0,1.0,Taxi
29.1,0.030879705481725896,55.500498901365,14.489714997583365,1.4217580440716617,-0.8158873354636939,332.0735624867125,20.060616524538027,0.0,1.0,0.0,0.0,1.0,Taxi
29.200000000000003,0.1531550640889615,13.321776785176603,14.354759428293844,1.8317678238338082,0.3785446527081944,332.13283793554183,20.032795056974223,0.0,1.0,0.0,0.0,1.0,Taxi
29.3,0.0903704425617566,-31.309792048635632,14.448314717026053,1.5689993400592062,-0.41964987179252816,331.96148579696614,19.574117312417574,0.0,1.0,0.0,0.0,1.0,Taxi
29.400000000000002,-0.12566925476145213,-59.51973858814597,14.954070115234602,1.6216219060329349,-0.8347295340542926,331.94605260492426,20.25858568899596,0.0,1.0,0.0,0.0,1.0,Taxi
29.5,-0.14444362885176817,-16.5633394519743,14.160752890992637,1.7954598828683932,-0.050619335019360764,332.13880927092237,20.32840872629887,0.0,1.0,0.0,0.0,1.0,Taxi
29.6,0.007553745301885236,18.058453025565402,14.568125591399797,1.5626610935044896,0.5314791676200831,332.0584283258627,19.976031017010726,0.0,1.0,0.0,0.0,1.0,Taxi
29.700000000000003,-0.03537698963362496,26.698950710215495,14.888103863272763,1.7979359167070181,0.22966275272476275,332.0435479083569,20.017998765440506,0.0,1.0,0.0,0.0,1.0,Taxi
29.8,-0.01094887530069057,3.020800847797305,15.40328472822011,1.6035322878819613,0.5682496522270921,331.8944823499671,20.167982641796346,0.0,1.0,0.0,0.0,1.0,Taxi
29.900000000000002,0.0226577495408719,-8.706476803630487,15.487296104362642,1.5940397004263103,-0.048935844260351385,332.10429439543213,20.68220608731,0.0,1.0,0.0,0.0,1.0,Taxi
30.0,-0.07890937365177725,13.081226377206647,14.820789496017337,1.996274588994888,-0.9144757127437809,331.96483026445094,20.811046691234495,0.0,1.0,0.0,0.0,1.0,Taxi
30.1,0.05445725658534281,14.447920091577936,14.726571847430451,1.3106297340759987,-0.0370049285475442,332.0606051628172,20.563775008935377,0.0,1.0,0.0,0.0,1.0,Taxi
30.200000000000003,0.09489734999876173,1.5928381161218492,15.716377887494613,1.4576054215614855,0.8228135835402334,331.9788038504396,20.73063167940429,0.0,1.0,0.0,0.0,1.0,Taxi
30.3,-0.07094518307116786,-26.930850572406452,15.182233501948462,1.8901844142980821,-0.4896349529392985,332.09332031172903,19.47218209077607,0.0,1.0,0.0,0.0,1.0,Taxi
30.400000000000002,-0.0801969962766893,-19.41146746650189,14.516954312646952,1.6794164258288162,0.3285999002375372,331.9901684652648,20.897139762910374,0.0,1.0,0.0,0.0,1.0,Taxi
30.5,-0.0021599873337475556,20.07608814476308,14.375717935941251,1.0898036791481762,0.6689918707394374,332.1404614125354,19.94425516174346,0.0,1.0,0.0,0.0,1.0,Taxi
30.6,0.029435257652647713,-3.366553342429403,14.349468061005748,1.6530230118554714,-0.9850191433899523,331.85687669109416,19.954782498547537,0.0,1.0,0.0,0.0,1.0,Taxi
30.700000000000003,-0.09702976298883614,-15.26208508074471,13.935345829289815,1.6419817969136443,0.8250746821568855,331.9522042043791,20.234169606114122,0.0,1.0,0.0,0.0,1.0,Taxi
30.8,-0.07847041273747093,5.252098299555617,15.014766838302041,1.3521778125734203,0.11378179935221758,332.04150033570954,20.508415254379116,0.0,1.0,0.0,0.0,1.0,Taxi
30.900000000000002,0.05569574915042596,37.52004488954714,14.561335208896855,1.8853451913285268,0.5090868690228672,332.05432300504606,20.535023054571113,0.0,1.0,0.0,0.0,1.0,Taxi
31.0,0.0905704614588997,59.22791556629945,14.52729887578718,1.5055476126920597,0.46623008268861005,332.06813979669164,21.086523305714756,0.0,1.0,0.0,0.0,1.0,Taxi
31.1,0.21766916509402645,0.5718128550393734,13.763394727865085,1.4662307960650478,-0.00606587976630156,332.05711313273196,20.202031910558322,0.0,1.0,0.0,0.0,1.0,Taxi
31.200000000000003,0.05855481342562299,-14.249501971892371,14.549517194950877,1.143505597336169,0.24604100930479889,332.12935921334815,20.708166259491954,0.0,1.0,0.0,0.0,1.0,Taxi
31.3,0.019322951599438004,-6.150670717688423,14.07519243618038,1.3262758205062117,-0.2226851064829022,331.9784920851355,21.26774433200983,0.0,1.0,0.0,0.0,1.0,Taxi
31.400000000000002,0.1869158115055845,-31.650764931683153,13.949598307793536,1.285184984219016,-0.05346669210888744,332.0513560532521,19.8404975216212,0.0,1.0,0.0,0.0,1.0,Taxi
31.5,-0.09969901123279257,-9.145964102985284,14.107352334250384,1.5570990331672308,-0.26570071140820956,331.9414499143784,19.538726146396552,0.0,1.0,0.0,0.0,1.0,Taxi
31.6,-0.026406868915488227,-81.8667792823767,15.159514871683154,1.4618565816336653,-0.9197899986144755,331.88950337125925,20.776238769105248,0.0,1.0,0.0,0.0,1.0,Taxi
31.700000000000003,-0.22241808490629886,-11.93798040772223,14.697121190164982,1.7497533338153284,0.08962734742663157,332.02265880453876,20.14785064521449,0.0,1.0,0.0,0.0,1.0,Taxi
31.8,-0.1593889132714036,-3.8235096214349604,14.04610620558088,1.4035708606103598,-0.6516919799990447,332.11913905886627,20.28860453254819,0.0,1.0,0.0,0.0,1.0,Taxi
31.900000000000002,-0.04552441702266288,14.719932378556878,14.247160735886707,1.5507875653110716,-0.2882894767518523,332.1760822077167,20.535239005320513,0.0,1.0,0.0,0.0,1.0,Taxi
32.0,-0.1488184230135143,42.937596912688235,15.107343069270666,1.4521306679614934,0.3306060800959696,332.117002442424,19.35557161400201,0.0,1.0,0.0,0.0,1.0,Taxi
32.1,0.05529907129203776,-28.85119320573985,14.592938819079572,1.3105875226014712,-1.271897119818744,332.00924932390467,19.967390408237748,0.0,1.0,0.0,0.0,1.0,Taxi
32.2,-0.18978038305136205,31.029788554580477,14.043018406460666,1.5576583020239434,0.47211192907903726,332.15724375681054,20.2421986640723,0.0,1.0,0.0,0.0,1.0,Taxi
32.300000000000004,0.006330519759388181,22.658418460546127,15.085960173147292,1.369392012137573,-0.9053037010927788,332.0899160399699,20.664356502777565,0.0,1.0,0.0,0.0,1.0,Taxi
32.4,0.16859116359476847,0.33030263652348896,14.790084681864167,1.5538865683251877,-0.43126157403605775,332.169480811232,20.623206139016638,0.0,1.0,0.0,0.0,1.0,Taxi
32.5,-0.18812886986874455,-15.641042325116558,14.766248470433375,1.5096478526052368,1.0586041675596505,331.9254926413456,20.51493583614876,0.0,1.0,0.0,0.0,1.0,Taxi
32.6,-0.07187469186619452,-21.16627467894813,14.435065764944236,1.8612388808677633,-0.06802281892533782,331.97039024693754,20.727012444956248,0.0,1.0,0.0,0.0,1.0,Taxi
32.7,0.06275979020002792,17.351499326767755,15.21179828184205,1.8001796229130125,0.18863212741498947,331.88327972062336,20.76514427542481,0.0,1.0,0.0,0.0,1.0,Taxi
32.800000000000004,-0.10137137323490564,-1.3761517477359757,15.129892758707399,1.5583494226507604,0.4213922245379285,331.966974665197,20.9352260600438,0.0,1.0,0.0,0.0,1.0,Taxi
32.9,-0.07875545060487427,-10.803534082187364,13.987415299778048,1.407591332162576,0.3220048981845668,331.9019175534713,21.139578466609446,0.0,1.0,0.0,0.0,1.0,Taxi
33.0,0.008742119789091214,5.850336808835546,14.469846424852175,1.6842133798701844,-0.5207777199419291,331.92069588394065,20.365726159765195,0.0,1.0,0.0,0.0,1.0,Taxi
33.1,-0.07211968919072781,30.27607886707557,15.441395282670452,1.599243403385709,-0.15481368765808134,331.9634274989455,19.7113518502101,0.0,1.0,0.0,0.0,1.0,Taxi
33.2,0.07262494373050368,0.3857825780501945,13.605983006393167,1.4351534593796118,0.11859797049542008,331.9482392685826,19.831169159413186,0.0,1.0,0.0,0.0,1.0,Taxi
33.300000000000004,0.010671032679342302,22.543258274800085,15.002077954969518,1.4784053549991052,0.6822769973305385,332.02012022864665,20.927111187552757,0.0,1.0,0.0,0.0,1.0,Taxi
33.4,0.040596602183272726,-4.587748626084444,14.232242689763169,1.453055178034244,-0.7654515957178537,331.9985079901529,20.775475887717935,0.0,1.0,0.0,0.0,1.0,Taxi
33.5,0.049686200600081575,-12.35810180235847,15.209903567527547,1.7212967000865202,-0.2654913435551114,332.0006946023384,20.183772151707196,0.0,1.0,0.0,0.0,1.0,Taxi
33.6,-0.051119476332449926,-19.384161707505836,14.088901430137119,1.466566975265365,-0.196644871919204,332.0075463290009,20.144342386963064,0.0,1.0,0.0,0.0,1.0,Taxi
33.7,-0.05632420635425633,-29.062420943233693,15.107547538809111,1.6497320152519122,-0.406512544231399,332.00087583691277,20.1024086989382,0.0,1.0,0.0,0.0,1.0,Taxi
33.800000000000004,-0.09562590411608678,-14.298752527288846,13.761106054217237,1.604105462894944,0.7293951552766776,331.8501102049365,20.423536397374786,0.0,1.0,0.0,0.0,1.0,Taxi
33.9,-0.12261323896889403,-11.876526812640016,14.504958689136913,1.7971113044461564,0.04530809203865984,332.1781021910492,21.26036394051345,0.0,1.0,0.0,0.0,1.0,Taxi
34.0,-0.1157068404174563,22.382794278325992,15.329659578694669,1.8027938647014712,-0.33213932361105947,332.145105183979,20.585791761086323,0.0,1.0,0.0,0.0,1.0,Taxi
34.1,0.016288067275543324,1.1016906130365953,14.806098178652444,1.6486853546584113,0.085684230676565,332.15658711621086,20.690997007173475,0.0,1.0,0.0,0.0,1.0,Taxi
34.2,-0.11710478590371093,12.709637144393637,13.855740517519614,1.6381072453189662,-0.19747077171831084,331.81783781936133,20.495767856861526,0.0,1.0,0.0,0.0,1.0,Taxi
34.300000000000004,-0.052158654695487965,-4.207529994766205,14.422220588503434,1.812276618711949,-0.09026568961854341,331.96461395758456,19.431570244177372,0.0,1.0,0.0,0.0,1.0,Taxi
34.4,-0.004749582698287561,14.33343845412391,15.020716277644723,1.3321539312646704,-0.25641091200164157,332.1271263895327,20.27672385574928,0.0,1.0,0.0,0.0,1.0,Taxi
34.5,-0.045437593633091244,-8.411279249871049,14.727863220358913,1.7323660788007311,0.6645255308096237,332.0483670409676,20.33565114306557,0.0,1.0,0.0,0.0,1.0,Taxi
34.6,-0.09421505094484307,-28.97784472851947,14.909154963333382,1.315029407730791,-0.29710991215415383,331.99981545888636,20.693779206163658,0.0,1.0,0.0,0.0,1.0,Taxi
34.7,-0.1496388063408848,-7.953959800419817,14.85282145488128,1.4638731885565834,0.6131651236979758,331.95849063707396,20.00907198666859,0.0,1.0,0.0,0.0,1.0,Taxi
34.800000000000004,-0.0852073926351902,44.67265696373203,13.76177584052769,1.1414797948763313,0.1084624447233669,331.9866421512172,20.121404696564625,0.0,1.0,0.0,0.0,1.0,Taxi
34.9,0.12914823387381721,42.93435966358808,14.372830153154137,1.3976677780213136,-0.46739224776518046,332.0620915300558,19.30062769011331,0.0,1.0,0.0,0.0,1.0,Taxi
35.0,0.0650329919770558,-0.22887929142729982,15.235553121237583,1.532053743985795,0.17884883560954837,332.1035223841661,20.551038168192797,0.0,1.0,0.0,0.0,1.0,Taxi
35.1,-0.08635178909232655,-38.731112998033716,14.187601121373035,1.7705231711769167,-0.3650834369664101,331.82064563316624,19.97531082983185,0.0,1.0,0.0,0.0,1.0,Taxi
35.2,-0.06450733111635121,-16.207497709848727,14.532330928109038,1.4406310469739583,0.12883258647248258,331.9300149640985,20.65792273427844,0.0,1.0,0.0,0.0,1.0,Taxi
35.300000000000004,-0.016004496572187703,25.689765856790633,13.825186716230652,1.9943909790720367,0.6082422668224758,332.0821231041814,19.75253126654635,0.0,1.0,0.0,0.0,1.0,Taxi
