time_s,altitude_ft,vertical_speed_fpm,ias_kt,pitch_deg,roll_deg,heading_deg,throttle_pct,afterburner_on,gear_down,flaps_deg,speedbrake_pct,weight_on_wheels,label
0.0,-1.6419772098353502,-519.3297595348561,191.5688787609027,0.4149995485257642,3.11664391862338,351.1037311800253,30.263602428872648,0.0,1.0,11.817747942292026,11.594800415904604,0.0,Landing
0.1,-3.3730764082848705,-689.824540393674,188.70651256448673,0.5436897878856181,3.411678828180248,351.2643086538109,30.45630594672362,0.0,1.0,11.817747942292026,11.594800415904604,0.0,Landing
0.2,-5.091099911803721,-1026.1171104705065,188.27521373977135,0.7018511416731844,3.1817984485306066,350.9872880506548,29.702092318261414,0.0,1.0,11.817747942292026,11.594800415904604,0.0,Landing
0.30000000000000004,-6.772562762187883,-1005.7490289541784,189.56888336207479,0.4669398443185464,3.5178860988250364,351.0129074576789,29.87494954286469,0.0,1.0,11.817747942292026,11.594800415904604,0.0,Landing
0.4,-8.401821553055763,-1004.0041271277393,189.67694659484752,0.5692061866050492,3.3886604866127543,351.2171732025895,29.760553704808085,0.0,1.0,11.817747942292026,11.594800415904604,0.0,Landing
0.5,-10.111120547442418,-1015.0412465152084,190.55519480767867,0.7290871459693912,3.0524524522686924,351.2139441479253,30.17952269831129,0.0,1.0,11.817747942292026,11.594800415904604,0.0,Landing
0.6000000000000001,-11.847768994763925,-1037.2296135716963,191.9414285925306,0.38797861723994115,2.9723258805958546,351.0681227591249,29.792410455368906,0.0,1.0,11.817747942292026,11.594800415904604,0.0,Landing
0.7000000000000001,-13.587969620914244,-1016.4657171190593,189.4147901861475,0.6264347233282322,3.2456680076429967,351.4563001862489,30.49372650834638,0.0,1.0,11.817747942292026,11.594800415904604,0.0,Landing
0.8,-15.193449133037713,-1003.6907033184476,191.05910143359685,0.23656688960883732,3.3432431908469127,351.23459871940304,29.867384348445977,0.0,1.0,11.817747942292026,11.594800415904604,0.0,Landing
0.9,-16.866222511356163,-1002.581674983368,189.49961917793667,0.784707457587967,3.559807736497746,351.16521050031133,30.13803436974372,0.0,1.0,11.817747942292026,11.594800415904604,0.0,Landing
1.0,-18.600877995831084,-1021.2387953544122,190.07056213482608,0.28291800922737537,3.103494820224031,351.14868525191036,29.896426596118406,0.0,1.0,11.817747942292026,11.594800415904604,0.0,Landing
1.1,-20.299643109809775,-1005.4687105108804,189.08422278530975,0.3644292817565874,2.8643488104986172,351.1799880938138,30.371153641612946,0.0,1.0,11.817747942292026,11.594800415904604,0.0,Landing
1.2000000000000002,-21.893566063910566,-986.3639179623177,189.37997760822998,0.6012477297975044,3.072537145227466,350.95606432258796,30.20171438978182,0.0,1.0,11.817747942292026,11.594800415904604,0.0,Landing
1.3,-23.532697585642673,-980.1166367512018,189.78752630004706,0.5526220326299284,3.186165622263614,351.36914744163744,30.25901703085536,0.0,1.0,11.817747942292026,11.594800415904604,0.0,Landing
1.4000000000000001,-25.200226293565784,-1004.6483023036471,190.0036824675105,0.6581419978437467,3.3222984471145125,351.0732163171763,29.231327956920637,0.0,1.0,11.817747942292026,11.594800415904604,0.0,Landing
1.5,-26.916807575428802,-1016.7846180035625,189.9730596745168,0.3659276326135185,3.108244124949175,351.2970503785209,29.80570911066334,0.0,1.0,11.817747942292026,11.594800415904604,0.0,Landing
1.6,-28.616620675660485,-1014.404675439038,187.59131329591932,0.7018330259320771,3.071827031380795,351.2643406878824,30.26141921966993,0.0,1.0,11.817747942292026,11.594800415904604,0.0,Landing
1.7000000000000002,-30.272249670760974,-1008.5498925158922,188.9034325111365,0.8049073182071758,2.795166066685128,351.27466583673004,30.18203104190785,0.0,1.0,11.817747942292026,11.594800415904604,0.0,Landing
1.8,-31.959557038008263,-993.2311086039149,188.6013578117991,0.968337714489733,3.0476409400243165,351.35657543433285,29.74276136162849,0.0,1.0,11.817747942292026,11.594800415904604,0.0,Landing
1.9000000000000001,-33.58277621868006,-978.098838004697,189.37418724223357,0.8444065168150965,3.115898947568606,351.22468136931207,29.631754003476253,0.0,1.0,11.817747942292026,11.594800415904604,0.0,Landing
2.0,-35.16274386078446,-950.5770742822192,188.8443629165738,0.684097961892361,3.1550917385633754,351.1112279389213,30.082624777130285,0.0,1.0,11.817747942292026,11.594800415904604,0.0,Landing
2.1,-36.71244240941936,-938.2687603211522,187.87819034209565,0.4097574529487387,3.0630678576835804,351.4116231712226,29.949646023781487,0.0,1.0,11.817747942292026,11.594800415904604,0.0,Landing
2.2,-38.27412002028582,-953.3133623664056,189.46428445443448,0.958985239935513,3.044080695950692,350.87023357447833,29.908496497856916,0.0,1.0,11.817747942292026,11.594800415904604,0.0,Landing
2.3000000000000003,-39.92931067261649,-968.5480909985287,190.266181623437,0.36490927375723015,3.5071675291854723,351.1814000344457,30.209844404525118,0.0,1.0,11.817747942292026,11.594800415904604,0.0,Landing
2.4000000000000004,-41.555182864412004,-966.7117556052672,190.65782839976077,0.699552270476309,2.829330054314962,351.29980766683195,29.89712617015664,0.0,1.0,11.817747942292026,11.594800415904604,0.0,Landing
2.5,-43.10767879831216,-959.1274725013518,190.43558064019481,0.85406028196746,3.2864578715741346,351.09900255949265,30.46238955564552,0.0,1.0,11.817747942292026,11.594800415904604,0.0,Landing
2.6,-44.72494803512325,-956.7705967634139,189.61845262545793,0.6556534208619589,3.139156271697612,351.3031168624682,29.959696681990266,0.0,1.0,11.817747942292026,11.594800415904604,0.0,Landing
2.7,-46.339035848229074,-974.7952307441891,189.79213335910515,0.3940617188071442,3.1861048033201596,351.22281234857087,29.970919937233877,0.0,1.0,11.817747942292026,11.594800415904604,0.0,Landing
2.8000000000000003,-47.981654952033104,-1000.0496006748717,190.11381475169532,0.8149713943030986,3.296827242580348,351.36431444886193,30.152925619115802,0.0,1.0,11.817747942292026,11.594800415904604,0.0,Landing
2.9000000000000004,-49.72519603849761,-1016.0014653490022,189.1056140385524,0.7486620372155006,3.177196040241544,351.4738696955329,30.1216297887195,0.0,1.0,11.817747942292026,11.594800415904604,0.0,Landing
3.0,-51.419043174974085,-1009.8073414029371,189.62569914219867,0.9674188258539684,3.2101811887573866,351.14106851607585,30.16138520723246,0.0,1.0,11.817747942292026,11.594800415904604,0.0,Landing
3.1,-53.03069165904779,-990.6135200796184,188.97073338100697,0.8845115432016464,2.8564945086592486,351.2493422027221,29.895314813471057,0.0,1.0,11.817747942292026,11.594800415904604,0.0,Landing
3.2,-54.6782636388957,-979.8685493433723,190.5182521042256,0.5607788013451043,3.1672724211385814,351.15055344665154,30.271881838117757,0.0,1.0,11.817747942292026,11.594800415904604,0.0,Landing
3.3000000000000003,-56.31838592169095,-985.5369922695387,190.26031257635287,0.7179698598682414,3.4594398300232716,351.13244773134215,29.999944085253595,0.0,1.0,11.817747942292026,11.594800415904604,0.0,Landing
3.4000000000000004,-57.958376620395484,-981.5459355622792,189.99188298789684,0.9768706946331908,3.1320847440326576,351.31442299878404,29.78425748506262,0.0,1.0,11.817747942292026,11.594800415904604,0.0,Landing
3.5,-59.585993316707096,-982.7518499036456,188.48889084588427,0.7496414276303005,2.9904568686248245,351.2369081691937,30.435838819815665,0.0,1.0,11.817747942292026,11.594800415904604,0.0,Landing
3.6,-61.232145171209176,-980.3900373938914,189.34605746572433,1.1077722878456864,3.344731582522406,351.1330911414925,30.269608688837096,0.0,1.0,11.817747942292026,11.594800415904604,0.0,Landing
3.7,-62.86032680736494,-992.8066291820569,188.00916188106933,0.6675216418584782,3.3869298326838564,351.20488473863065,30.425688595829275,0.0,1.0,11.817747942292026,11.594800415904604,0.0,Landing
3.8000000000000003,-64.55002646261738,-999.9024135596654,189.40993534919252,0.5176678934074143,2.796072951359727,351.3241797694916,29.79454610167484,0.0,1.0,11.817747942292026,11.594800415904604,0.0,Landing
3.9000000000000004,-66.2316572390075,-990.7256293485743,186.90465676809666,0.3817045596026625,3.2827236561372595,351.30054970790513,30.83119256862463,0.0,1.0,11.817747942292026,11.594800415904604,0.0,Landing
4.0,-67.81395495410781,-974.1087024972329,189.28387306431839,0.5831839772669597,3.0670419928660073,351.02055897127343,29.82210569415981,0.0,1.0,11.817747942292026,11.594800415904604,0.0,Landing
4.1000000000000005,-69.42056997510355,-963.7941048249728,188.83761777560278,0.8712593097871894,3.021271696927667,351.37731674274255,29.83329574581325,0.0,1.0,11.817747942292026,11.594800415904604,0.0,Landing
4.2,-71.05062776313237,-955.7380855255501,189.3988872413354,0.6290191066815466,3.250517891650004,351.1553125502344,29.966126397088132,0.0,1.0,11.817747942292026,11.594800415904604,0.0,Landing
4.3,-72.59264538173557,-958.4870228991318,189.82551245160212,0.7317002313234213,3.197807235246399,351.1420514732645,30.548540192420962,0.0,1.0,11.817747942292026,11.594800415904604,0.0,Landing
4.4,-74.2130050895992,-957.8384720643753,189.66374488036556,0.8432610189827482,3.0074723903325036,351.41167830840845,30.16619171095212,0.0,1.0,11.817747942292026,11.594800415904604,0.0,Landing
4.5,-75.83982012345425,-973.8185215114269,190.7304638811214,0.7687297309047209,3.1511140185794817,351.3471411025747,29.930017778162593,0.0,1.0,11.817747942292026,11.594800415904604,0.0,Landing
4.6000000000000005,-77.4617379892927,-974.0777471402993,188.70227952847645,0.5225675187074748,3.1298201164422457,351.19253633417316,30.41174404807848,0.0,1.0,11.817747942292026,11.594800415904604,0.0,Landing
4.7,-79.0833938253007,-972.3793470797999,190.48090023783368,1.045470746231514,2.8251609727028733,351.0992173494385,29.338153530055884,0.0,1.0,11.817747942292026,11.594800415904604,0.0,Landing
4.800000000000001,-80.70171685885325,-980.6233721402973,190.9271568462708,0.5453102978735674,3.282579890256953,351.1843078976424,30.17334761119887,0.0,1.0,11.817747942292026,11.594800415904604,0.0,Landing
4.9,-82.36485484999419,-969.0380371993994,188.24793836540613,0.5228780551697151,3.0087893680587454,351.33837560668076,30.186520432526933,0.0,1.0,11.817747942292026,11.594800415904604,0.0,Landing
5.0,-83.9285840112977,-972.2297253687484,190.029625154512,0.6844863097470066,3.0769338421755257,351.23543421855015,29.85397485821825,0.0,1.0,11.817747942292026,11.594800415904604,0.0,Landing
5.1000000000000005,-85.56286548569699,-983.8779527378932,189.22386892689912,1.0667378721142584,3.271793975354146,351.0188957019491,29.83716524579934,0.0,1.0,11.817747942292026,11.594800415904604,0.0,Landing
5.2,-87.28424461368365,-998.0971483951265,189.1937477530297,0.6065944169996146,3.329012374241162,351.0277324854585,29.916961616015666,0.0,1.0,11.817747942292026,11.594800415904604,0.0,Landing
5.300000000000001,-88.91906975327333,-989.4995956947041,187.95619571668632,0.7574099168890869,3.032316074730543,351.0307410404405,30.70772494957517,0.0,1.0,11.817747942292026,11.594800415904604,0.0,Landing
5.4,-90.51036346417051,-955.0920795943056,191.11131932657875,0.6232245584576114,3.1595121791677654,350.96352163251515,30.145479711038714,0.0,1.0,11.817747942292026,11.594800415904604,0.0,Landing
5.5,-92.05970501165518,-962.0684304242274,190.68092129066704,0.4296923626185516,3.3216231915053887,350.9850908179744,29.848475695714505,0.0,1.0,11.817747942292026,11.594800415904604,0.0,Landing
5.6000000000000005,-93.72941190539447,-972.3093242533195,189.80334167182508,0.907286958944336,2.979163831283461,351.10611672586003,29.95747963551503,0.0,1.0,11.817747942292026,11.594800415904604,0.0,Landing
5.7,-95.37191008543711,-971.0929536113182,188.42769982598546,0.9486555782650277,3.0088743665943283,350.9865123245463,30.157204772579824,0.0,1.0,11.817747942292026,11.594800415904604,0.0,Landing
5.800000000000001,-96.91516977971177,-949.4887943517225,189.4567782411892,0.7003476141615012,3.375260833640212,351.4268372147419,29.70086797119623,0.0,1.0,11.817747942292026,11.594800415904604,0.0,Landing
5.9,-98.47685587715308,-942.3586797715926,190.0550937550544,0.6091940764787926,3.0895233565336073,351.4220127958715,30.165188283404174,0.0,1.0,11.817747942292026,11.594800415904604,0.0,Landing
6.0,-100.08370348429507,-969.6041816324308,190.06932929647024,0.5164730626037937,2.9630180835274866,351.2460605814862,30.683470501356283,0.0,1.0,11.817747942292026,11.594800415904604,0.0,Landing
6.1000000000000005,-101.76319068787393,-997.2319621660032,190.1173410823108,0.7226269921190432,2.976668332605492,351.21541835366224,30.121795886389386,0.0,1.0,11.817747942292026,11.594800415904604,0.0,Landing
6.2,-103.4630156879831,-1001.465213650121,189.0583485922429,0.4207324507580347,3.143708661589654,351.0890241099871,30.413398303872153,0.0,1.0,11.817747942292026,11.594800415904604,0.0,Landing
6.300000000000001,-105.09102955254568,-999.8636170898008,189.76458759898279,0.7757672591690511,3.2323108941964835,351.20679282665697,29.95508358813344,0.0,1.0,11.817747942292026,11.594800415904604,0.0,Landing
6.4,-106.76250877332293,-990.0213962681219,191.16394228530095,0.21814979722811273,3.165956594894098,351.1311902009063,29.820129006696455,0.0,1.0,11.817747942292026,11.594800415904604,0.0,Landing
6.5,-108.41312266932371,-1000.0173640936679,189.56519433567806,0.464800684220511,3.2381611176215968,351.11106467920695,29.975847328567795,0.0,1.0,11.817747942292026,11.594800415904604,0.0,Landing
6.6000000000000005,-110.09111637301402,-979.7746606862544,188.46340590176763,0.641638263463779,2.9244351995650653,351.1575779635052,30.083494585052872,0.0,1.0,11.817747942292026,11.594800415904604,0.0,Landing
6.7,-111.66138207675421,-972.5638943273962,189.1415806768812,0.5558863256810425,3.1836065785764744,350.78800367121903,29.5250281840447,0.0,1.0,11.817747942292026,11.594800415904604,0.0,Landing
6.800000000000001,-113.2759421409607,-970.6976751500291,189.3994149244187,0.35052315099512543,3.3539031937974855,351.21971064084084,29.89372156769567,0.0,1.0,11.817747942292026,11.594800415904604,0.0,Landing
6.9,-114.94460474876416,-986.8219002415854,190.5705351663751,0.5117502048550259,2.9477343455699327,351.2816521159343,29.817350187586907,0.0,1.0,11.817747942292026,11.594800415904604,0.0,Landing
7.0,-116.59549157796214,-978.169712280055,190.77998986462603,0.903661492184532,2.9607016922108613,351.2679082607301,29.943901639197307,0.0,1.0,11.817747942292026,11.594800415904604,0.0,Landing
7.1000000000000005,-118.16679070236097,-963.6291470704605,190.26659951394214,0.5029334760569931,3.0730079777142434,351.17640977954693,30.29971198931361,0.0,1.0,11.817747942292026,11.594800415904604,0.0,Landing
7.2,-119.76275048411647,-950.6277522584951,188.27212792970047,0.9649273148253728,3.1541398190070513,351.1208070961304,30.085429386319806,0.0,1.0,11.817747942292026,11.594800415904604,0.0,Landing
7.300000000000001,-121.34863033925461,-967.8187373020932,190.61966045798172,0.8394648039672287,2.679293369811032,351.29139961191436,29.923292721690263,0.0,1.0,11.817747942292026,11.594800415904604,0.0,Landing
7.4,-123.00588438887144,-964.4991880207554,191.75703172026104,0.9711824090912711,3.3287013347731054,351.2076358094155,30.18112147962724,0.0,1.0,11.817747942292026,11.594800415904604,0.0,Landing
7.5,-124.58524642422024,-956.5282372990736,189.05626500844855,0.8281530941470843,3.1420911831667038,351.2905852422689,30.39692757654923,0.0,1.0,11.817747942292026,11.594800415904604,0.0,Landing
7.6000000000000005,-126.13127152574998,-936.0021973897657,190.0167610651532,0.5187696374661415,2.6596340629745483,351.28013442677843,29.88551616204628,0.0,1.0,11.817747942292026,11.594800415904604,0.0,Landing
7.7,-127.68589537582027,-943.5258813165347,190.1511577854096,0.9272944156061187,3.0155482093121733,351.31231591523647,29.665318222684203,0.0,1.0,11.817747942292026,11.594800415904604,0.0,Landing
7.800000000000001,-129.30287583080292,-944.9211582719498,191.37408823541892,0.6772065545988017,2.916338749585695,351.2922064225854,29.458960000631667,0.0,1.0,11.817747942292026,11.594800415904604,0.0,Landing
7.9,-130.85587731710973,-954.5873988147177,189.7451609533503,0.5228863966175329,3.171259185298174,350.9262435863641,30.334653152335054,0.0,1.0,11.817747942292026,11.594800415904604,0.0,Landing
8.0,-132.45883236989386,-954.3123611570363,190.98746356188832,0.6872239476339222,3.1473259232108908,351.0522632775312,30.291677663652635,0.0,1.0,11.817747942292026,11.594800415904604,0.0,Landing
8.1,-134.0744376365881,-957.7315264594062,191.67587685324455,0.7610425822452259,3.422432062499939,351.1190603438404,30.02068750718837,0.0,1.0,11.817747942292026,11.594800415904604,0.0,Landing
8.200000000000001,-135.64453494940676,-961.226504988707,190.43929674683434,1.1664332941088729,3.075583752238344,351.1655946363676,30.024770301962263,0.0,1.0,11.817747942292026,11.594800415904604,0.0,Landing
8.3,-137.2649648948374,-964.9799043935615,189.70926435961334,0.4034668875257073,3.1782668540759866,351.2207529838479,30.043068379056162,0.0,1.0,11.817747942292026,11.594800415904604,0.0,Landing
8.4,-138.8993371585559,-970.6624947556462,189.37900882489845,0.778221447189973,2.762956614939398,351.4456319164939,30.01571158295932,0.0,1.0,11.817747942292026,11.594800415904604,0.0,Landing
8.5,-140.497847423185,-961.2230946205897,189.84552987094256,0.7411718921560104,2.868052833820656,351.1689444497729,30.068169397151593,0.0,1.0,11.817747942292026,11.594800415904604,0.0,Landing
8.6,-142.07108036794034,-941.4391637957236,188.18194509615532,0.7969619369974728,2.8261523683328384,351.18360905151746,29.40839831980035,0.0,1.0,11.817747942292026,11.594800415904604,0.0,Landing
8.700000000000001,-143.60653297753453,-943.9749554573153,188.9293788894883,0.631259088111829,2.95035964942121,351.2621653013756,29.859723108572943,0.0,1.0,11.817747942292026,11.594800415904604,0.0,Landing
8.8,-145.21772220047157,-942.278944629953,189.90229171500428,0.7912890295559798,3.1106455266477147,351.3195529703562,30.163282900590694,0.0,1.0,11.817747942292026,11.594800415904604,0.0,Landing
8.9,-146.7824750910901,-958.0918652590808,190.0210861034415,0.4002603837158663,3.398013250680074,351.2631050351267,29.98326868312777,0.0,1.0,11.817747942292026,11.594800415904604,0.0,Landing
9.0,-148.39699230382993,-943.1160329077953,189.81370931983858,0.664851590176313,2.8684857977367235,351.21162803617835,29.82532163952289,0.0,1.0,11.817747942292026,11.594800415904604,0.0,Landing
9.1,-149.93330236501055,-967.2993378687634,189.83287375276697,0.7372174126358548,3.064775988177606,351.06123051332247,29.59155203189125,0.0,1.0,11.817747942292026,11.594800415904604,0.0,Landing
9.200000000000001,-151.61897178043392,-974.2598147275315,190.1263070497499,0.8636733656472766,3.0718804474909427,351.0407577885836,29.687935165157985,0.0,1.0,11.817747942292026,11.594800415904604,0.0,Landing
9.3,-153.2682913774676,-978.0534257284498,188.2060298594272,0.7013207736633688,3.3377855574617175,351.29623420925884,29.785382262320255,0.0,1.0,11.817747942292026,11.594800415904604,0.0,Landing
9.4,-154.8235694936528,-953.2280393664108,190.04847914953504,0.6955259525713037,2.9796757954656456,351.24218835621014,29.587973869868698,0.0,1.0,11.817747942292026,11.594800415904604,0.0,Landing
9.5,-156.38511197726598,-949.5924631620936,189.26621584700683,0.6853058527345587,3.0624714315630546,351.33962548430304,29.993472964036016,0.0,1.0,11.817747942292026,11.594800415904604,0.0,Landing
9.600000000000001,-158.01625369327806,-955.7619168710116,188.30880472306302,0.5538912081526948,3.424532691926506,351.4851105306989,29.433451274571784,0.0,1.0,11.817747942292026,11.594800415904604,0.0,Landing
9.700000000000001,-159.60237907800786,-958.9339616059475,189.7878316768675,0.9678687581381225,3.0651507868862575,351.18680697917193,29.817124865629985,0.0,1.0,11.817747942292026,11.594800415904604,0.0,Landing
9.8,-161.17978178529572,-964.4739548035203,188.81676399888167,0.5660825478184582,2.778593382494946,351.39071265391294,30.016616560925673,0.0,1.0,11.817747942292026,11.594800415904604,0.0,Landing
9.9,-162.83862346729566,-962.6122460219391,186.8763983289691,0.7048334876498146,3.5293438469116216,351.1166695265215,30.45325672504888,0.0,1.0,11.817747942292026,11.594800415904604,0.0,Landing
10.0,-164.41544030811755,-971.7317977146931,190.77938945943777,0.8782423283307073,2.732131700979699,351.41559036539206,30.073410535730712,0.0,1.0,11.817747942292026,11.594800415904604,0.0,Landing
10.100000000000001,-166.03844077386918,-963.7456889017016,191.20792322494518,0.7990398242815906,2.9020436513286065,351.1214550845086,30.157074108125006,0.0,1.0,11.817747942292026,11.594800415904604,0.0,Landing
10.200000000000001,-167.65735191180417,-965.421169421961,190.97947588929276,0.9188061375979575,2.9270685360190924,351.48496745628256,29.769844285882275,0.0,1.0,11.817747942292026,11.594800415904604,0.0,Landing
10.3,-169.24254615522736,-956.4090002009322,189.35125049661764,0.7771787618133136,3.0963689893715993,351.35110538714446,29.725538152385283,0.0,1.0,11.817747942292026,11.594800415904604,0.0,Landing
10.4,-170.82048577487384,-944.3675459054872,190.0929785369132,0.5821649942238103,2.8887612934888827,351.28933916771166,29.890449946755687,0.0,1.0,11.817747942292026,11.594800415904604,0.0,Landing
10.5,-172.3791896413316,-945.1889527669833,191.2290816107118,0.9654624433368271,3.0846171433224248,351.19617904110396,30.03090913702537,0.0,1.0,11.817747942292026,11.594800415904604,0.0,Landing
10.600000000000001,-173.96849091906228,-935.491662859448,188.49491619711793,0.48334185555485265,2.8195974747147714,351.3038021902248,29.742958972385793,0.0,1.0,11.817747942292026,11.594800415904604,0.0,Landing
10.700000000000001,-175.49794408917109,-957.3012101019798,188.3730033146778,0.563930124071854,3.220513054462514,351.1514097479934,30.27568761467535,0.0,1.0,11.817747942292026,11.594800415904604,0.0,Landing
10.8,-177.1656956918415,-958.0371193130586,188.57790434449657,0.42352902877189214,3.258272100543252,351.2049948279231,29.942871973411997,0.0,1.0,11.817747942292026,11.594800415904604,0.0,Landing
10.9,-178.75867651562757,-968.3891301839025,190.9799771426989,0.8546152806091388,3.1645837726253747,351.25704030771385,30.503094132419523,0.0,1.0,11.817747942292026,11.594800415904604,0.0,Landing
11.0,-180.3398897400906,-950.8641548634896,191.00717389120436,0.5724588661948757,2.8303358933161378,351.19634835977604,29.7617371557168,0.0,1.0,11.817747942292026,11.594800415904604,0.0,Landing
11.100000000000001,-181.92001646615896,-932.923380018667,189.24026979426048,0.3118167401340252,3.3108680262342345,351.1840237697186,30.227849984839366,0.0,1.0,11.817747942292026,11.594800415904604,0.0,Landing
11.200000000000001,-183.4232934157209,-929.3509949653411,191.06815136176292,0.754632321752193,2.9374016647036068,351.0099066968355,30.54993820101735,0.0,1.0,11.817747942292026,11.594800415904604,0.0,Landing
11.3,-184.9866447149173,-941.3964402867177,189.27569370969385,0.6220820649992055,3.5303007014205,351.2722734153517,29.782990832856495,0.0,1.0,11.817747942292026,11.594800415904604,0.0,Landing
11.4,-186.62699866759255,-965.6189246014092,189.202847991339,0.5712551746692636,3.260420840647681,351.08796348702003,30.45101578747834,0.0,1.0,11.817747942292026,11.594800415904604,0.0,Landing
11.5,-188.25138803872795,-961.7692633105888,189.78231466973597,0.6959565725869823,3.420134108052374,351.1799713309142,30.299265029858866,0.0,1.0,11.817747942292026,11.594800415904604,0.0,Landing
11.600000000000001,-189.79549103147025,-955.1556423699421,189.8103592437005,1.0466592114441868,3.2229569578617294,351.29684230952967,29.77199399981347,0.0,1.0,11.817747942292026,11.594800415904604,0.0,Landing
11.700000000000001,-191.40277687944226,-941.3353272702861,189.45343002397377,0.7067687892462129,3.178062125920168,351.39115899127967,30.183161324609518,0.0,1.0,11.817747942292026,11.594800415904604,0.0,Landing
11.8,-192.95806467507938,-944.4371754135203,188.4018137919812,0.7238984026086301,3.0731338843016442,351.06477730376923,29.86826467851354,0.0,1.0,11.817747942292026,11.594800415904604,0.0,Landing
11.9,-194.51767690853785,-941.7736174402932,189.0840431923479,0.7167305903381338,3.0082203379377312,351.0894668583062,30.40223817169658,0.0,1.0,11.817747942292026,11.594800415904604,0.0,Landing
12.0,-196.11164496664372,-942.2212526479938,189.34121617741698,0.5374007547386346,3.301831148193514,351.4352184047041,30.187665981831422,0.0,1.0,11.817747942292026,11.594800415904604,0.0,Landing
12.100000000000001,-197.66917093831935,-939.611098157985,189.57972788571007,0.4964543888629229,3.325589351745849,351.21065371664974,29.61098734052148,0.0,1.0,11.817747942292026,11.594800415904604,0.0,Landing
12.200000000000001,-199.21573239932778,-913.17658256022,190.4229012008216,0.4243412716439069,3.1900008708831167,351.27872075807204,30.143986045057474,0.0,1.0,11.817747942292026,11.594800415904604,0.0,Landing
12.3,-200.67752787944482,-926.686498741884,189.40534790830037,1.251354958024772,2.9183470902646205,351.31466131357183,29.999682996692375,0.0,1.0,11.817747942292026,11.594800415904604,0.0,Landing
12.4,-202.30260343202877,-940.6305644059385,191.1421683427161,0.2008453336012916,2.8848251281068475,351.18637563801315,30.494333677166722,0.0,1.0,11.817747942292026,11.594800415904604,0.0,Landing
12.5,-203.91888522135747,-974.2154503067808,191.3011347952574,0.7755162503051477,3.138653362912325,351.1003680289174,30.086620822832188,0.0,1.0,11.817747942292026,11.594800415904604,0.0,Landing
12.600000000000001,-205.54860513097873,-946.9399178998968,189.78293832905482,0.6410969215836938,3.026957548144293,351.15610541492947,29.96955463641145,0.0,1.0,11.817747942292026,11.594800415904604,0.0,Landing
12.700000000000001,-207.03730302152826,-954.4062969542265,189.3347178982427,0.6604334993212644,3.1843246074048666,351.2429110462451,30.031320554961493,0.0,1.0,11.817747942292026,11.594800415904604,0.0,Landing
12.8,-208.6909167061286,-947.8309239391192,189.91680276430733,0.6670723371023929,3.412155279986125,350.9242736885942,29.451908778971553,0.0,1.0,11.817747942292026,11.594800415904604,0.0,Landing
12.9,-210.28775975067433,-957.0204311513747,190.00672165094062,0.8479883564431421,3.200072155703896,351.0504604538164,30.03895072994554,0.0,1.0,11.817747942292026,11.594800415904604,0.0,Landing
13.0,-211.82240517728513,-926.0621672866022,188.9175085159118,0.5285615946076689,3.0034466367419848,351.4355469877728,30.554093452010672,0.0,1.0,11.817747942292026,11.594800415904604,0.0,Landing
13.100000000000001,-213.32122754256162,-929.7765950796132,189.88529027871573,0.7190255436064543,3.235082652690347,351.19009753182377,29.93639185498585,0.0,1.0,11.817747942292026,11.594800415904604,0.0,Landing
13.200000000000001,-214.9366427260724,-921.9379827592546,190.8158629683363,0.5959654600682773,2.819817738800161,351.0753349250906,30.37570147819895,0.0,1.0,11.817747942292026,11.594800415904604,0.0,Landing
13.3,-216.4320950910814,-930.7885382835648,189.36672256021828,0.6644843499729409,3.39569333715541,350.97910318135916,30.14788501161353,0.0,1.0,11.817747942292026,11.594800415904604,0.0,Landing
13.4,-217.97517023397944,-926.9385870724703,188.8888208576278,0.6314318942890388,2.8246970273720167,351.2926405914234,29.763484976171092,0.0,1.0,11.817747942292026,11.594800415904604,0.0,Landing
13.5,-219.57133566143474,-922.5663674286351,189.1798518077941,0.4981977356336732,2.9227243849155258,351.4622493707343,29.714583860393795,0.0,1.0,11.817747942292026,11.594800415904604,0.0,Landing
13.600000000000001,-221.04492692822458,-933.425161952499,188.76944243624715,0.8122149679495905,3.167620164610963,351.1859474390676,30.041723910446578,0.0,1.0,11.817747942292026,11.594800415904604,0.0,Landing
13.700000000000001,-222.64229604374194,-934.236160267801,189.15441269310838,0.25245902692385347,3.0057505714246804,351.2612416916618,30.20957597797047,0.0,1.0,11.817747942292026,11.594800415904604,0.0,Landing
13.8,-224.24251646277375,-942.0768669977177,188.2940268557424,0.933687465268757,3.2510211533854476,351.1814115856298,29.923510949733554,0.0,1.0,11.817747942292026,11.594800415904604,0.0,Landing
13.9,-225.75531126321317,-937.7836877956496,188.95541809439771,0.5138202929193076,3.0454692080687256,351.2354682525362,29.857952988434313,0.0,1.0,11.817747942292026,11.594800415904604,0.0,Landing
14.0,-227.33121448272018,-927.5511878423684,189.02282578301774,0.6019378431401358,2.7250225599459683,350.91744181482943,30.42637546152374,0.0,1.0,11.817747942292026,11.594800415904604,0.0,Landing
14.100000000000001,-228.8802724019856,-939.559441156524,189.9022423032792,0.929008452302609,3.4119163993955772,350.9029878488433,29.837340177089875,0.0,1.0,11.817747942292026,11.594800415904604,0.0,Landing
14.200000000000001,-230.4531084689958,-921.0693261035827,192.18496361624318,0.7133598419091929,3.2919363961555024,351.34535720136375,29.93454730567162,0.0,1.0,11.817747942292026,11.594800415904604,0.0,Landing
14.3,-231.9365611132381,-918.7920883325886,189.6446906883142,0.8271419165593725,3.180436897902637,351.4994070434266,29.77251209663477,0.0,1.0,11.817747942292026,11.594800415904604,0.0,Landing
14.4,-233.47423284364854,-918.1938278193284,189.7915880203601,0.622363018162351,3.011450774266392,351.0756988365006,29.732743323552835,0.0,1.0,11.817747942292026,11.594800415904604,0.0,Landing
14.5,-235.04407760809244,-934.7839698778043,190.5911778827849,0.8668219394401344,3.275225710006105,351.067430648744,29.833184827949868,0.0,1.0,11.817747942292026,11.594800415904604,0.0,Landing
14.600000000000001,-236.61048096262712,-932.5394543648654,190.16156640039912,0.7429042160510129,3.403898907263191,351.4019645028952,29.617401432405398,0.0,1.0,11.817747942292026,11.594800415904604,0.0,Landing
14.700000000000001,-238.13693011547286,-922.0160104844181,190.56257544981264,0.6633747116863604,2.8270797229570768,351.04099030214934,30.83999306557169,0.0,1.0,11.817747942292026,11.594800415904604,0.0,Landing
14.8,-239.65415766051453,-923.2581401467313,191.9180394921142,0.23962586658965557,3.078608366365338,351.0461221098924,29.969825038183856,0.0,1.0,11.817747942292026,11.594800415904604,0.0,Landing
14.9,-241.22677166336078,-917.6563643471524,189.00989987894076,0.8250505760555502,3.185159289087651,350.8873688858482,30.3307400052711,0.0,1.0,11.817747942292026,11.594800415904604,0.0,Landing
15.0,-242.72521193720863,-935.9642631078372,190.10165429063835,0.6687820325642251,3.0124183698073184,351.2473932166795,29.958995572364433,0.0,1.0,11.817747942292026,11.594800415904604,0.0,Landing
15.100000000000001,-244.33397897605371,-946.3981135239634,188.74232151680465,0.6884195479708553,3.0599628791184315,350.85281658292126,30.244581083544208,0.0,1.0,11.817747942292026,11.594800415904604,0.0,Landing
15.200000000000001,-245.9587622309806,-951.9286297698499,188.97395197368564,0.47272980406570986,3.151073458644636,351.4504491296959,29.932661429045048,0.0,1.0,11.817747942292026,11.594800415904604,0.0,Landing
15.3,-247.48485508605788,-934.749356743839,190.5434082565729,0.4436111754916421,3.1859867510881545,351.1838694735204,29.986126607634056,0.0,1.0,11.817747942292026,11.594800415904604,0.0,Landing
15.4,-249.0077257597729,-901.9329842173078,188.8211633641758,0.4768586384004524,2.9694438287269285,351.0124394342706,29.668518357866393,0.0,1.0,11.817747942292026,11.594800415904604,0.0,Landing
15.5,-250.46842715206714,-903.9086613327412,188.67618408531703,0.5710157129463702,3.068104993578151,351.3857310247997,30.595484204093232,0.0,1.0,11.817747942292026,11.594800415904604,0.0,Landing
15.600000000000001,-252.00439839272158,-916.5655318617836,189.28181254531793,0.7418326203884607,3.2742866307923566,351.36982499988085,29.63064012852745,0.0,1.0,11.817747942292026,11.594800415904604,0.0,Landing
15.700000000000001,-253.59055341908183,-930.1701198721672,190.33633882254423,0.7109121250870237,3.0245065432894833,351.13691505501333,30.33635049741592,0.0,1.0,11.817747942292026,11.594800415904604,0.0,Landing
15.8,-255.11927775142797,-918.6948847080372,189.43132739769814,0.3912556548359201,3.5331269715627007,351.36367538591173,29.715794198423065,0.0,1.0,11.817747942292026,11.594800415904604,0.0,Landing
15.9,-256.59787281626177,-895.2343183879348,190.90262365442757,0.6966203347799139,2.9765240490427747,351.1273219978318,29.922428595946464,0.0,1.0,11.817747942292026,11.594800415904604,0.0,Landing
16.0,-258.0667250110215,-897.4738513173803,190.74838452948805,1.0107916384265725,2.7632499555785133,351.4123274282922,30.05522850126839,0.0,1.0,11.817747942292026,11.594800415904604,0.0,Landing
16.1,-259.6066470080149,-895.1548394872815,188.9253035454263,0.4968531625076039,2.518286442127806,350.9667113847506,29.860919220522014,0.0,1.0,11.817747942292026,11.594800415904604,0.0,Landing
16.2,-261.0736470136982,-912.8667790212602,192.73764759414726,0.5724504302212332,3.247913609904641,351.60060500481575,29.932138981622067,0.0,1.0,11.817747942292026,11.594800415904604,0.0,Landing
16.3,-262.6310589061278,-921.9846645921847,187.1857898820138,0.3390288228943862,3.2360101934312477,351.02844179673207,29.87198031030658,0.0,1.0,11.817747942292026,11.594800415904604,0.0,Landing
16.400000000000002,-264.2165703309758,-955.7375894701635,189.00743319565072,0.8293269906165284,2.9770394366319857,351.04446897110756,29.922373244288686,0.0,1.0,11.817747942292026,11.594800415904604,0.0,Landing
16.5,-265.852334961049,-951.1059348497951,189.70042184970163,0.9345413852808103,3.0983832357284653,350.9908436218776,30.04425976577006,0.0,1.0,11.817747942292026,11.594800415904604,0.0,Landing
16.6,-267.3865885803768,-945.7373908414296,189.44157859784625,0.6986148859212518,2.766634579093196,351.4914522783439,29.75187949915926,0.0,1.0,11.817747942292026,11.594800415904604,0.0,Landing
16.7,-268.94525728518295,-938.6021264840564,189.7541604046166,0.8307319482257416,3.1084845657847247,351.1604267609914,29.82749261242419,0.0,1.0,11.817747942292026,11.594800415904604,0.0,Landing
16.8,-270.5453455934693,-954.6597288323368,190.0968262961817,0.4388715948277436,2.882251015337695,351.1826374338334,30.144234331477183,0.0,1.0,11.817747942292026,11.594800415904604,0.0,Landing
16.900000000000002,-272.15988722453847,-956.2931555561021,191.23392054477918,0.3750418215378007,3.2268976957375193,350.91576613437485,30.53911947912451,0.0,1.0,11.817747942292026,11.594800415904604,0.0,Landing
17.0,-273.72672306296346,-941.8238651342675,188.57875692586296,0.5548566394731724,3.2389732129683146,351.1256619223577,29.957187380464184,0.0,1.0,11.817747942292026,11.594800415904604,0.0,Landing
17.1,-275.2544649191406,-933.661387970278,189.4640203516472,0.4697188711266479,2.8650223214939787,351.0976707750958,29.97414276436686,0.0,1.0,11.817747942292026,11.594800415904604,0.0,Landing
17.2,-276.82819416438986,-921.9397185407728,189.97076058246793,0.7861708858735382,2.9338007227051657,351.4385361218075,29.74694437487265,0.0,1.0,11.817747942292026,11.594800415904604,0.0,Landing
17.3,-278.3364216556673,-935.6627439971588,190.85912556634258,0.3719769157812112,3.0445545142880435,351.29250906847597,30.401304771164618,0.0,1.0,11.817747942292026,11.594800415904604,0.0,Landing
17.400000000000002,-279.9327786391264,-908.8155328017591,189.22614171119122,0.6687821245768707,3.17558141225198,351.2086320043495,29.704059348401962,0.0,1.0,11.817747942292026,11.594800415904604,0.0,Landing
17.5,-281.37227182839865,-936.9618676931167,189.85747923939698,0.576453414567677,3.204875537892381,351.2713136426696,29.883686394506462,0.0,1.0,11.817747942292026,11.594800415904604,0.0,Landing
17.6,-283.0212309941329,-903.44340467567,190.94412198231294,0.8938532895484114,3.022510060364799,350.98490833662913,29.78176269101454,0.0,1.0,11.817747942292026,11.594800415904604,0.0,Landing
17.7,-284.44999566250476,-925.4582207566158,191.05485868247217,0.5260449699947285,3.1080051606809977,351.3796855952943,29.678550784246756,0.0,1.0,11.817747942292026,11.594800415904604,0.0,Landing
17.8,-285.99956293218173,-914.4453283465963,189.1351503847895,0.4853560090592197,2.9474327797188145,351.0752515618017,29.791319760544003,0.0,1.0,11.817747942292026,11.594800415904604,0.0,Landing
17.900000000000002,-287.5934576358659,-953.1023666668488,190.48545537511112,0.7364551634172309,2.912010424186407,351.17270290810507,29.82549847968778,0.0,1.0,11.817747942292026,11.594800415904604,0.0,Landing
18.0,-289.215507495839,-950.3820760775965,189.02815280333505,0.5962752541781994,2.766722199344433,351.20843651533096,30.220644489117284,0.0,1.0,11.817747942292026,11.594800415904604,0.0,Landing
18.1,-290.7514733125697,-939.7417542562606,189.4769461636821,0.32217544225701467,2.8808546551340535,351.3514512243754,29.12566425169648,0.0,1.0,11.817747942292026,11.594800415904604,0.0,Landing
18.2,-292.2921664071472,-932.7063446973624,188.94363919972304,0.5214437130107357,2.8742145398597185,351.2959368342283,29.998134860625473,0.0,1.0,11.817747942292026,11.594800415904604,0.0,Landing
18.3,-293.8790392193258,-934.0800974996795,189.97057692139305,0.48976866980792566,2.970193842925542,351.2107681367802,30.044408987097395,0.0,1.0,11.817747942292026,11.594800415904604,0.0,Landing
18.400000000000002,-295.4218738000681,-931.2702328933595,191.28745682966144,0.8194908399200014,3.143564004936907,351.40475397079126,30.200293094208792,0.0,1.0,11.817747942292026,11.594800415904604,0.0,Landing
18.5,-296.948517571614,-904.5099331861137,187.8283089731393,0.9547790045031209,3.2302792940109795,350.85423103430753,29.82916975971745,0.0,1.0,11.817747942292026,11.594800415904604,0.0,Landing
18.6,-298.4015888852564,-899.9820259654142,191.36051441627322,1.0093800492475318,3.2152342757607184,351.1017839943629,29.74513229140541,0.0,1.0,11.817747942292026,11.594800415904604,0.0,Landing
18.7,-299.9217839298952,-888.6164669073422,188.85076028306068,0.3701093328213079,2.968017601281008,351.1037477780334,29.571831311697913,0.0,1.0,11.817747942292026,11.594800415904604,0.0,Landing
18.8,-301.3915999061507,-910.5082802440505,188.31283090636975,0.5392583443194698,3.0535474671336362,351.24981154791294,29.956440499717925,0.0,1.0,11.817747942292026,11.594800415904604,0.0,Landing
18.900000000000002,-302.95413028647664,-917.3247060785342,190.97022940524974,1.0243064213912472,3.00902768560728,351.51593762456105,29.922591017603153,0.0,1.0,11.817747942292026,11.594800415904604,0.0,Landing
19.0,-304.50840746028786,-916.1332846727304,190.41037941486553,0.6943312033153617,3.0593371730484793,351.0200122878332,29.99240795666249,0.0,1.0,11.817747942292026,11.594800415904604,0.0,Landing
19.1,-305.97226632951435,-915.9858495079901,191.43999971349666,0.6863145480490636,2.949453418878524,351.19598209447383,29.790981826186474,0.0,1.0,11.817747942292026,11.594800415904604,0.0,Landing
19.200000000000003,-307.5340595340166,-921.4270200488385,190.30575621028157,0.7512674467345479,3.511576484523824,351.10131309594385,29.48084659952169,0.0,1.0,11.817747942292026,11.594800415904604,0.0,Landing
19.3,-309.11554256053205,-933.516787954943,190.42216647928046,0.6094185066935079,3.306379743577521,351.1208592544044,29.84204510207975,0.0,1.0,11.817747942292026,11.594800415904604,0.0,Landing
19.400000000000002,-310.63985026928907,-921.8934575147272,189.16733513978298,0.6563917247489168,2.721115334348411,351.0424040853429,30.019862291865177,0.0,1.0,11.817747942292026,11.594800415904604,0.0,Landing
19.5,-312.1435268215902,-902.5116710900305,188.54195075596903,0.6988479348892062,2.918452166438498,351.63953970541445,29.91094076811945,0.0,1.0,11.817747942292026,11.594800415904604,0.0,Landing
19.6,-313.6281009159822,-916.3581692319439,190.79470940596784,0.8758057537277848,3.042516379093584,351.39395428789317,29.9382680341311,0.0,1.0,11.817747942292026,11.594800415904604,0.0,Landing
19.700000000000003,-315.2216411154488,-915.5404684151107,190.24494878450707,0.6867120093405845,3.5469599522954045,351.06261507224804,30.421340339094414,0.0,1.0,11.817747942292026,11.594800415904604,0.0,Landing
19.8,-316.7212291636658,-916.0637463877491,188.68588476733777,0.7350545029662878,3.1584219315476294,351.27799633460006,30.279350328372047,0.0,1.0,11.817747942292026,11.594800415904604,0.0,Landing
19.900000000000002,-318.20841964792095,-908.6169102575808,188.02450271499012,0.45873226698876607,3.0021048031127524,350.91746092015796,29.915241157825854,0.0,1.0,11.817747942292026,11.594800415904604,0.0,Landing
20.0,-319.7647256667367,-923.5083582483638,189.30166807360442,0.5809452797076332,3.1711676260555794,351.3347949717788,30.01389576570782,0.0,1.0,11.817747942292026,11.594800415904604,0.0,Landing
20.1,-321.3387709549076,-922.0376891020463,189.98721226147356,0.7932816230635311,2.7242336497163775,350.8333982462168,29.847924818971556,0.0,1.0,11.817747942292026,11.594800415904604,0.0,Landing
20.200000000000003,-322.8186080934312,-918.7706938462724,188.87303414079778,0.9769920908666005,3.083546441266354,351.19383555994466,29.79007257484835,0.0,1.0,11.817747942292026,11.594800415904604,0.0,Landing
20.3,-324.35857913596806,-929.8353884195761,189.27857604131415,0.4771671339729229,3.322339080551689,351.1110792530003,30.23942238140264,0.0,1.0,11.817747942292026,11.594800415904604,0.0,Landing
20.400000000000002,-325.9879478970055,-946.9812627943382,189.924012215983,0.7906734877419802,3.076470346437194,351.3781881573102,30.211711649410603,0.0,1.0,11.817747942292026,11.594800415904604,0.0,Landing
20.5,-327.5535144074029,-952.5707088941089,190.25592200700225,0.3201220397791185,3.3031129134638846,351.1408593966647,30.257863702161675,0.0,1.0,11.817747942292026,11.594800415904604,0.0,Landing
20.6,-329.1214326804386,-922.6310257499448,188.85794437189128,0.48572564095021586,2.859061682126767,351.2304545017896,29.407809598694296,0.0,1.0,11.817747942292026,11.594800415904604,0.0,Landing
20.700000000000003,-330.6011030257552,-911.0480849783925,190.42082833203557,0.7025709964532101,2.771750567780242,351.1789569552759,29.62704608180809,0.0,1.0,11.817747942292026,11.594800415904604,0.0,Landing
20.8,-332.10875483229484,-905.0286706440146,190.15445090393843,0.4027334408530489,3.008364310773509,351.0641195767296,30.25864266419617,0.0,1.0,11.817747942292026,11.594800415904604,0.0,Landing
20.900000000000002,-333.6465760336587,-911.0563398210614,190.30356876233955,0.3348120282599156,3.4864678493848196,351.1877575439238,30.45790649256505,0.0,1.0,11.817747942292026,11.594800415904604,0.0,Landing
21.0,-335.1563847248605,-921.9546747117646,190.36153745948585,0.7025453806407218,3.0557533139091193,351.4524140923122,29.771929118202795,0.0,1.0,11.817747942292026,11.594800415904604,0.0,Landing
21.1,-336.71852820585366,-915.150466293221,190.26425499874063,0.5417774020108715,3.2457747493426505,350.8908807799112,30.270402632957435,0.0,1.0,11.817747942292026,11.594800415904604,0.0,Landing
21.200000000000003,-338.2223283651248,-919.2291471470525,190.0886559568407,0.5133351003235282,2.881948458666976,351.0341291422983,29.611236819400045,0.0,1.0,11.817747942292026,11.594800415904604,0.0,Landing
21.3,-339.7525304605958,-908.4590720601112,189.52139828174734,0.9223393245439546,3.3068939961851678,351.28698544469773,29.53523762372008,0.0,1.0,11.817747942292026,11.594800415904604,0.0,Landing
21.400000000000002,-341.2608235661542,-901.6230778383032,191.4907770961174,0.42446296446840015,3.138784200466624,350.98913129022435,30.269604927980712,0.0,1.0,11.817747942292026,11.594800415904604,0.0,Landing
21.5,-342.7304437543163,-903.6197698357113,190.5107576409742,0.8468633724961848,3.004518417191065,351.03362785998274,30.03923133291233,0.0,1.0,11.817747942292026,11.594800415904604,0.0,Landing
21.6,-344.27062930977434,-924.5138048678313,190.3586621121124,0.6593665075546628,3.3961326496750086,351.2487072998963,30.137464153106457,0.0,1.0,11.817747942292026,11.594800415904604,0.0,Landing
21.700000000000003,-345.8833925904934,-927.6114379849786,188.48686876279677,0.7181285693843368,2.535741523158445,351.256428421146,30.05136377847637,0.0,1.0,11.817747942292026,11.594800415904604,0.0,Landing
21.8,-347.3685009442412,-913.6629760349932,189.1128432669548,0.5138907480215555,3.4384888929598603,351.2310073732375,30.269053066668217,0.0,1.0,11.817747942292026,11.594800415904604,0.0,Landing
21.900000000000002,-348.8389441899493,-890.0260266553458,190.46851429806938,0.4293696520531769,3.4092679400726165,351.18934074896094,29.944459120923458,0.0,1.0,11.817747942292026,11.594800415904604,0.0,Landing
22.0,-350.3335227237701,-902.6488363425641,189.25049066984974,0.8864874036343008,3.0257556276721216,351.0754509112503,30.164566620319647,0.0,1.0,11.817747942292026,11.594800415904604,0.0,Landing
22.1,-351.881745125954,-913.6949846329002,189.54228016293968,0.4712853534918293,3.425906268876531,351.23475877081137,29.86420494992985,0.0,1.0,11.817747942292026,11.594800415904604,0.0,Landing
22.200000000000003,-353.4074191131138,-920.521235594117,188.39982200037488,0.5821393402188482,3.4440117994694712,351.0996188266363,30.16357642541372,0.0,1.0,11.817747942292026,11.594800415904604,0.0,Landing
22.3,-354.9361289017407,-914.6579738115291,189.48050371234444,0.487099375391432,3.1016847094311926,351.176640560152,29.849076954227744,0.0,1.0,11.817747942292026,11.594800415904604,0.0,Landing
22.400000000000002,-356.45503499501166,-916.8683667708023,189.09626275919362,0.7013568658886598,3.0213657160666365,351.2014605274901,30.141398099694857,0.0,1.0,11.817747942292026,11.594800415904604,0.0,Landing
22.5,-357.9917609469678,-917.2731229959821,191.02636023983112,0.5715516394716034,3.14152564034276,351.1614624731585,30.113611923113645,0.0,1.0,11.817747942292026,11.594800415904604,0.0,Landing
22.6,-359.5224945167206,-922.6355261365028,189.04782101735745,0.8077067732787595,3.2659573466567933,350.9952475008239,29.932375853918106,0.0,1.0,11.817747942292026,11.594800415904604,0.0,Landing
22.700000000000003,-361.0682126256942,-898.3737681357637,190.12670683264832,0.9178756892928093,3.2660506752803435,351.12219251646,29.888216917179605,0.0,1.0,11.817747942292026,11.594800415904604,0.0,Landing
22.8,-362.48362978764663,-887.8530689696844,188.97992206572476,0.7720114106493992,3.286652033599941,351.05594490382975,29.69347134614241,0.0,1.0,11.817747942292026,11.594800415904604,0.0,Landing
22.900000000000002,-363.961759861569,-902.2802276141191,191.11213350440536,0.7632457394469505,2.8331277250525817,351.09369902430694,30.572109402270794,0.0,1.0,11.817747942292026,11.594800415904604,0.0,Landing
23.0,-365.57961376376477,-906.9504292986152,187.68295060729182,0.6813794186052442,3.0755909160625197,351.4851147066738,30.20378709172102,0.0,1.0,11.817747942292026,11.594800415904604,0.0,Landing
23.1,-367.0183819341397,-914.7704946235989,190.1979773857166,0.5335246421916332,2.9342544245447755,350.9597908393407,30.229502563606136,0.0,1.0,11.817747942292026,11.594800415904604,0.0,Landing
23.200000000000003,-368.535612334687,-878.6607606300435,188.36381033675164,0.8134400804256405,2.8284830084045325,351.1112776765242,30.110274907110455,0.0,1.0,11.817747942292026,11.594800415904604,0.0,Landing
23.3,-369.972917566915,-891.9411145342564,189.76262152583445,0.6590202593448384,2.9027061091317443,351.06958284200005,30.47190643049686,0.0,1.0,11.817747942292026,11.594800415904604,0.0,Landing
23.400000000000002,-371.478087506811,-882.9965962614891,189.04443624845848,0.7791201202206113,3.318639834773558,351.24021501085576,30.27524808144761,0.0,1.0,11.817747942292026,11.594800415904604,0.0,Landing
23.5,-372.95059531599446,-894.8859369544379,190.8197438339159,0.6934126138704625,3.1882658072417724,351.14012122571944,29.704312268234325,0.0,1.0,11.817747942292026,11.594800415904604,0.0,Landing
23.6,-374.4473472516872,-905.1617695654612,187.96341082894438,0.8577534708456886,3.2864361300280627,351.4402940324037,29.842409296112912,0.0,1.0,11.817747942292026,11.594800415904604,0.0,Landing
23.700000000000003,-376.0038963546383,-930.9135807350798,189.99480180216264,0.8637462980869606,3.1052523074165963,351.25310376020593,30.164292664764105,0.0,1.0,11.817747942292026,11.594800415904604,0.0,Landing
23.8,-377.60516321966986,-933.9641127100434,189.94533797993012,0.5528041935701467,2.9566312011906675,351.22088208447076,29.658874777701406,0.0,1.0,11.817747942292026,11.594800415904604,0.0,Landing
23.900000000000002,-379.1171678152374,-914.7647181566525,189.18475666735523,0.6852404523775701,3.003004442055215,351.2772842851498,30.016861539407337,0.0,1.0,11.817747942292026,11.594800415904604,0.0,Landing
24.0,-380.57771994542156,-882.2883579544622,190.16014682791817,0.4004805511532706,2.9064628464886617,351.2767952740885,30.40131092571457,0.0,1.0,11.817747942292026,11.594800415904604,0.0,Landing
24.1,-382.0166050094422,-881.4309025886586,190.32600964094934,0.8110278040405225,3.0399628439140476,351.11580783863997,29.96696865134055,0.0,1.0,11.817747942292026,11.594800415904604,0.0,Landing
24.200000000000003,-383.5243223281807,-895.5695671004831,188.88334777037875,0.7393130234359188,2.985305050317352,351.20865768476233,29.683923044947683,0.0,1.0,11.817747942292026,11.594800415904604,0.0,Landing
24.3,-385.055567780924,-926.3798142243558,189.23262803986125,0.5147085206505946,2.893542768237808,351.12005443233625,29.74814550546997,0.0,1.0,11.817747942292026,11.594800415904604,0.0,Landing
24.400000000000002,-386.64850408056395,-919.0283896454956,188.56857125114405,0.5770200519352174,3.251003218710148,351.06990332195664,29.764613203868716,0.0,1.0,11.817747942292026,11.594800415904604,0.0,Landing
24.5,-388.11946427640817,-919.6555613162558,189.3382486068934,0.8069301198681682,3.088993331409564,350.89735770354605,30.463837979566176,0.0,1.0,11.817747942292026,11.594800415904604,0.0,Landing
24.6,-389.65384558750526,-900.5367656545671,191.22391556293957,0.2840723203185211,2.9890894749191452,351.41810278924163,30.514046268605625,0.0,1.0,11.817747942292026,11.594800415904604,0.0,Landing
24.700000000000003,-391.1511879088368,-907.6800037425754,190.3145865347544,0.8946495932573628,3.0756404022844346,351.19238563079693,29.366543417031885,0.0,1.0,11.817747942292026,11.594800415904604,0.0,Landing
24.8,-392.65786429512104,-888.8195322813884,189.25811246808865,1.0711292258102632,3.2602189238805077,351.1232510798957,29.667831474743316,0.0,1.0,11.817747942292026,11.594800415904604,0.0,Landing
24.900000000000002,-394.0979432489122,-904.1130285331632,189.70881324529972,0.6249770382173194,3.9250381494546573,351.33341244197504,29.592250227272412,0.0,1.0,11.817747942292026,11.594800415904604,0.0,Landing
25.0,-395.6717530515026,-899.6203356284922,190.2485867043138,0.8623408150447931,3.0482110580865247,351.2871935368944,30.265302067494325,0.0,1.0,11.817747942292026,11.594800415904604,0.0,Landing
25.1,-397.1559659732635,-929.4202544728818,189.52875473460708,0.38810204313825414,2.8723167244428005,351.45449210255856,29.746463156523117,0.0,1.0,11.817747942292026,11.594800415904604,0.0,Landing
25.200000000000003,-398.7450445212766,-910.4243829574101,189.84995202364047,0.6272138394759637,3.149223309971648,351.39688743408453,30.11409180902097,0.0,1.0,11.817747942292026,11.594800415904604,0.0,Landing
25.3,-400.22387496628966,-901.1265633346169,188.22376062793114,0.7894750756456653,3.2635754888915836,351.2567046054205,30.144541588930682,0.0,1.0,11.817747942292026,11.594800415904604,0.0,Landing
25.400000000000002,-401.6615987899366,-859.9116660516642,188.69780025215874,0.3907166144817568,3.1047228417104877,351.33845181609945,30.486081220434645,0.0,1.0,11.817747942292026,11.594800415904604,0.0,Landing
25.5,-403.04460285153493,-871.7415680468547,188.85495537403833,0.46550272481391775,3.15989685153024,351.16728936289053,30.409367774499096,0.0,1.0,11.817747942292026,11.594800415904604,0.0,Landing
25.6,-404.58258280652393,-901.8816656790931,189.4237593448131,0.7880065569521322,3.168704996707403,351.0059009242092,29.950356357320114,0.0,1.0,11.817747942292026,11.594800415904604,0.0,Landing
25.700000000000003,-406.17100711833206,-919.5752292609881,190.4178547115259,0.643245678162355,3.1130453433827006,351.248279835012,29.139965631474986,0.0,1.0,11.817747942292026,11.594800415904604,0.0,Landing
25.8,-407.6424789978399,-915.2390777691265,189.01421431264956,0.6990905509881892,3.0376930094882,351.0470743007786,29.571731398213387,0.0,1.0,11.817747942292026,11.594800415904604,0.0,Landing
25.900000000000002,-409.15877819536956,-887.0333860265531,189.70975560556556,0.47740621148881435,2.95183278047381,351.2471818637006,30.026154549249473,0.0,1.0,11.817747942292026,11.594800415904604,0.0,Landing
26.0,-410.6061740484648,-883.1755317842179,190.56009790683297,0.9758941714450583,2.999763279747564,350.95528381943564,30.1538623147851,0.0,1.0,11.817747942292026,11.594800415904604,0.0,Landing
26.1,-412.05835665676096,-877.6114076772841,190.5188221057945,0.9079908533035481,2.970730484807031,350.94355913766606,30.13328412300176,0.0,1.0,11.817747942292026,11.594800415904604,0.0,Landing
26.200000000000003,-413.546835233756,-882.834692529252,189.74303263225403,0.7159874761519885,3.2018718217030995,351.1951995299321,30.123369761308467,0.0,1.0,11.817747942292026,11.594800415904604,0.0,Landing
26.3,-415.0203475111111,-903.2224102601616,188.50041858383582,0.8960303711484264,3.059876965728924,350.95878956821764,30.0634790269126,0.0,1.0,11.817747942292026,11.594800415904604,0.0,Landing
26.400000000000002,-416.5744687080618,-899.276669563153,190.2721082101583,0.7362858797168447,3.2046825127029295,350.99991239436827,30.286836405882184,0.0,1.0,11.817747942292026,11.594800415904604,0.0,Landing
26.5,-418.04321858157175,-899.4759963395608,190.07536803994242,0.7036336484705903,3.1444084921071345,351.20341260449084,29.47857281745113,0.0,1.0,11.817747942292026,11.594800415904604,0.0,Landing
26.6,-419.5177274928089,-886.5330712025069,191.22786999251358,0.8689315815766889,2.270186437219537,350.98712179719485,30.585232217434864,0.0,1.0,11.817747942292026,11.594800415904604,0.0,Landing
26.700000000000003,-421.0071340640743,-878.1319425541936,191.04904097860924,0.9813255430951575,3.0202610562541823,351.27465705488044,29.499655392993443,0.0,1.0,11.817747942292026,11.594800415904604,0.0,Landing
26.8,-422.4338782943427,-863.5081638222345,190.16998506121766,0.7715523495382614,3.2035996850176858,351.26430344997016,29.410269321286258,0.0,1.0,11.817747942292026,11.594800415904604,0.0,Landing
26.900000000000002,-423.83526831192006,-859.6464091405209,188.44470378647998,0.2588321054053867,3.30428602088646,351.1391001936165,29.600753394473,0.0,1.0,11.817747942292026,11.594800415904604,0.0,Landing
27.0,-425.3053661097769,-877.7567674478177,188.3427975332865,0.5017007001430547,2.956011005483485,351.2845399183084,30.114199682295865,0.0,1.0,11.817747942292026,11.594800415904604,0.0,Landing
27.1,-426.8226621315818,-897.9636890283585,189.80365943777488,0.3711772352259692,3.2192388736974413,351.18669203527566,30.12523100757733,0.0,1.0,11.817747942292026,11.594800415904604,0.0,Landing
27.200000000000003,-428.32508675706185,-883.9695738573595,189.595405335959,1.0021466375520551,3.38315120078801,351.2123297183738,29.65036789349913,0.0,1.0,11.817747942292026,11.594800415904604,0.0,Landing
27.3,-429.7252139790637,-876.0535494219197,191.6184226537178,0.7188420516330808,3.1246195228544713,351.21313362860747,29.699238241707366,0.0,1.0,11.817747942292026,11.594800415904604,0.0,Landing
27.400000000000002,-431.2029298786914,-871.6073287407652,190.98753299568108,0.8337428775460322,3.2971337748684864,351.1926455318362,29.962168340241337,0.0,1.0,11.817747942292026,11.594800415904604,0.0,Landing
27.5,-432.6831234007657,-875.6347509932083,189.85503162974135,0.7360810066512968,2.7720525042780504,351.2697354014099,30.100420371169626,0.0,1.0,11.817747942292026,11.594800415904604,0.0,Landing
27.6,-434.10338773402975,-871.1698739067969,189.17110710718367,0.49104061841797175,3.393445312039661,351.02145099917084,30.169001717886278,0.0,1.0,11.817747942292026,11.594800415904604,0.0,Landing
27.700000000000003,-435.5587792482254,-881.1812603417023,189.6143452222366,0.7395853405806178,3.0517233707278164,351.07538579859886,29.877756712692296,0.0,1.0,11.817747942292026,11.594800415904604,0.0,Landing
27.8,-437.0890297024742,-884.8529956898914,191.3524272088142,0.6072424322108023,2.8986846412740896,351.20541737042436,30.176331257691725,0.0,1.0,11.817747942292026,11.594800415904604,0.0,Landing
27.900000000000002,-438.5276527124792,-885.8921057384463,189.73778711708724,0.5748537455564187,2.8198662771437757,350.941370335368,30.433059224517528,0.0,1.0,11.817747942292026,11.594800415904604,0.0,Landing
28.0,-439.9882397769176,-882.8235444005712,191.48276966506538,0.5930010579248048,2.958364236162963,351.3589766184068,30.46136263447773,0.0,1.0,11.817747942292026,11.594800415904604,0.0,Landing
28.1,-441.50314742447705,-896.3471440067223,190.22488958791664,0.4565709564127117,2.8964497371763462,350.9897209315177,30.347883493612866,0.0,1.0,11.817747942292026,11.594800415904604,0.0,Landing
28.200000000000003,-443.0093884325128,-896.503550888542,189.84407060593563,0.6223334518278284,3.373294086084682,351.09246247345754,30.402439752356543,0.0,1.0,11.817747942292026,11.594800415904604,0.0,Landing
28.3,-444.47075753136033,-888.5624309522312,190.74180784917942,0.39027865397472494,2.734977530248602,351.38721249102855,29.980748239525408,0.0,1.0,11.817747942292026,11.594800415904604,0.0,Landing
28.400000000000002,-445.9459595792382,-873.4421917022813,190.02013160930377,0.8203596046264785,3.3065237376962413,351.2463381770634,29.815881297872266,0.0,1.0,11.817747942292026,11.594800415904604,0.0,Landing
28.5,-447.37659939102423,-870.8370406716425,189.13690636651333,0.5285355645315204,3.1542389896981105,351.28929623134786,29.925618824418667,0.0,1.0,11.817747942292026,11.594800415904604,0.0,Landing
28.6,-448.82494273471855,-860.6153291032455,189.2118220891406,0.7917223739244239,3.1023081660195393,351.20463404209,30.147213227657485,0.0,1.0,11.817747942292026,11.594800415904604,0.0,Landing
28.700000000000003,-450.24903622475443,-889.0236228853267,189.79002045043265,0.8787553030354704,3.458337130552999,351.31472423326863,30.149405383600524,0.0,1.0,11.817747942292026,11.594800415904604,0.0,Landing
28.8,-451.82171750545086,-873.1244172900573,188.6602479849867,0.9747822754360267,3.1280075699037684,351.08013490037956,29.938552552945673,0.0,1.0,11.817747942292026,11.594800415904604,0.0,Landing
28.900000000000002,-453.19056482116883,-869.193994912814,189.16144813182177,0.23655520588168355,2.7054295226947906,351.03810690464934,30.07051227722649,0.0,1.0,11.817747942292026,11.594800415904604,0.0,Landing
29.0,-454.5950061993185,-855.2431005669631,188.70418303326863,0.5170148933913071,2.938339219041961,351.1570434416176,30.14366456887718,0.0,1.0,11.817747942292026,11.594800415904604,0.0,Landing
29.1,-456.0979330082857,-861.1060355987319,189.39953419838068,0.9772783737989323,3.1062461653158584,351.18757491193287,29.77482040976644,0.0,1.0,11.817747942292026,11.594800415904604,0.0,Landing
29.200000000000003,-457.4960949991625,-879.1221138913442,191.00196320994854,0.09207882836176928,2.980662114654217,351.06937831178493,29.793653428225767,0.0,1.0,11.817747942292026,11.594800415904604,0.0,Landing
29.3,-458.9906167687752,-873.0058270247581,188.55835947026515,0.7709218631692265,3.284419932635176,351.23572667017436,29.900989814335553,0.0,1.0,11.817747942292026,11.594800415904604,0.0,Landing
29.400000000000002,-460.46296214340947,-895.8238936910333,188.51379327375784,0.3957336340182917,3.235521983629076,351.3440725153596,29.554356283055167,0.0,1.0,11.817747942292026,11.594800415904604,0.0,Landing
29.5,-461.97521446761766,-884.8303195476318,189.8234814947116,1.0612711001049664,2.976001479085425,350.93307794526277,29.85860602620647,0.0,1.0,11.817747942292026,11.594800415904604,0.0,Landing
29.6,-463.4147683665134,-884.2436675178191,189.37760128606737,0.5137130708171544,3.0340014386174357,351.33223415332327,30.322359732469103,0.0,1.0,11.817747942292026,11.594800415904604,0.0,Landing
29.700000000000003,-464.88418048099857,-859.9045596548307,190.11140824907142,0.8779024441968828,3.2974818807439137,351.1606313997663,30.033166175673674,0.0,1.0,11.817747942292026,11.594800415904604,0.0,Landing
29.8,-466.2747372658918,-868.1004261841621,190.94280163507668,0.8372091022978625,3.2696959682403413,351.0930327112344,30.401059778377764,0.0,1.0,11.817747942292026,11.594800415904604,0.0,Landing
29.900000000000002,-467.7552704974342,-858.3759849100032,189.6205640532554,0.752678400639031,3.237216552989496,351.180493383364,29.8060309647714,0.0,1.0,11.817747942292026,11.594800415904604,0.0,Landing
