time_s,altitude_ft,vertical_speed_fpm,ias_kt,pitch_deg,roll_deg,heading_deg,throttle_pct,afterburner_on,gear_down,flaps_deg,speedbrake_pct,weight_on_wheels,label
0.0,-1.661507843210873,-518.6627803986167,174.62400221317327,1.1362089970608107,-2.369092380312529,147.16250322916034,30.154439862979896,0.0,1.0,15.62620404627905,5.790051568875596,0.0,Landing
0.1,-3.3903837778729287,-681.4674548829616,172.8838432379296,1.2288069911213766,-2.6511738498943163,147.2447360155752,30.69192630054351,0.0,1.0,15.62620404627905,5.790051568875596,0.0,Landing
0.2,-5.068845117625681,-1033.4086193423154,172.97891130483302,1.129098898778044,-2.4824744901496567,147.21326598321986,29.715085356217322,0.0,1.0,15.62620404627905,5.790051568875596,0.0,Landing
0.30000000000000004,-6.82855093992245,-1030.6616936613345,172.44781576807395,1.1763652372019051,-3.080960734984045,147.24160421890667,30.087357240333603,0.0,1.0,15.62620404627905,5.790051568875596,0.0,Landing
0.4,-8.543692246179601,-1047.7582163264308,173.7679605325606,1.1705895735265712,-2.582668437081394,147.44099514318634,29.282952105684515,0.0,1.0,15.62620404627905,5.790051568875596,0.0,Landing
0.5,-10.307636199257836,-1056.2745890607482,174.53585077181882,1.2508276141331172,-2.35892482800943,147.34564787617705,30.659605347036422,0.0,1.0,15.62620404627905,5.790051568875596,0.0,Landing
0.6000000000000001,-12.109923885226191,-1046.8987178063144,174.77902542296792,0.9486695920493006,-2.387152055629657,147.2378839397328,30.49525882195877,0.0,1.0,15.62620404627905,5.790051568875596,0.0,Landing
0.7000000000000001,-13.778185835211174,-1034.9442864231662,172.8844891456563,1.1601962939985542,-2.5210593137002886,147.08076143258984,30.405999046098156,0.0,1.0,15.62620404627905,5.790051568875596,0.0,Landing
0.8,-15.482357631373667,-989.5642291394652,172.27971377612997,1.2930084183342323,-2.5592190760607316,147.28621003148544,30.303180401587856,0.0,1.0,15.62620404627905,5.790051568875596,0.0,Landing
0.9,-17.057745030923517,-1000.2662703695532,174.7385790475719,1.0571004850646393,-2.658644508783013,147.29332899818712,29.81342993508908,0.0,1.0,15.62620404627905,5.790051568875596,0.0,Landing
1.0,-18.77951718705894,-997.6460419049018,173.73551194236538,1.030117243786895,-2.3028436140622786,147.35656491949533,30.188785088972867,0.0,1.0,15.62620404627905,5.790051568875596,0.0,Landing
1.1,-20.470587840898176,-1024.5518552506885,174.58275303564577,0.9061302316691406,-2.486272046934897,147.4135353153673,29.965959662304815,0.0,1.0,15.62620404627905,5.790051568875596,0.0,Landing
1.2000000000000002,-22.18050430717696,-1021.3667353953682,173.80470823138407,1.1774371400404857,-2.287234206665806,146.878161097658,30.323060361110432,0.0,1.0,15.62620404627905,5.790051568875596,0.0,Landing
1.3,-23.88635086403578,-1039.7632400242912,174.38932499384202,0.9628311295749642,-2.548023986412235,147.60491513850212,30.24556601578472,0.0,1.0,15.62620404627905,5.790051568875596,0.0,Landing
1.4000000000000001,-25.669404041019632,-1039.616979872207,173.09933491965373,1.0324029822213296,-2.153658018882525,147.2827920279384,30.134054456470754,0.0,1.0,15.62620404627905,5.790051568875596,0.0,Landing
1.5,-27.378589206537995,-1037.6178875715211,172.12536570784783,1.14043475691429,-2.4007627101304987,147.20075701431642,30.380018000261597,0.0,1.0,15.62620404627905,5.790051568875596,0.0,Landing
1.6,-29.074440301893386,-1040.3190995715859,173.71897385973924,1.0378939238776663,-2.3010939576501346,147.2168328167537,29.96371800743733,0.0,1.0,15.62620404627905,5.790051568875596,0.0,Landing
1.7000000000000002,-30.870999538877562,-1037.175688050557,173.1529495992701,0.9658102257840452,-2.5246292265038113,147.34741310811927,30.025547712333278,0.0,1.0,15.62620404627905,5.790051568875596,0.0,Landing
1.8,-32.56446764679078,-1034.6489926552017,172.09039618240573,1.0550974249214984,-2.712770367691497,147.3867419181978,30.077632148466304,0.0,1.0,15.62620404627905,5.790051568875596,0.0,Landing
1.9000000000000001,-34.247685265169395,-1016.8179838217993,174.64997354543888,1.1622540970624695,-2.4548824299952026,147.1534516090394,30.199427796027404,0.0,1.0,15.62620404627905,5.790051568875596,0.0,Landing
2.0,-35.95508945798656,-1020.6554223642071,174.1586551014992,0.7962224675185082,-2.536058046464653,147.15671736102433,30.38080263964511,0.0,1.0,15.62620404627905,5.790051568875596,0.0,Landing
2.1,-37.66774475861182,-1005.4666442237376,173.91984473907272,0.9956020285599292,-2.2148468855687296,147.26601305878523,29.809995242931983,0.0,1.0,15.62620404627905,5.790051568875596,0.0,Landing
2.2,-39.27501848628808,-1002.8835186230522,173.12619031513012,0.6386343863529582,-2.5371901828462815,147.57991079521258,29.791148966571303,0.0,1.0,15.62620404627905,5.790051568875596,0.0,Landing
2.3000000000000003,-40.96950705110182,-991.1886941612989,173.70063422424658,1.1660032532258275,-2.8651253263102223,147.11322326152634,30.19274264448963,0.0,1.0,15.62620404627905,5.790051568875596,0.0,Landing
2.4000000000000004,-42.62368822941831,-1002.7765146262096,173.81159840093278,0.9395537160201929,-2.4653364740873487,147.11451646426912,29.883572493023564,0.0,1.0,15.62620404627905,5.790051568875596,0.0,Landing
2.5,-44.28890105941913,-1005.9946127435622,174.38854501952426,1.0922684926791588,-2.4058651818704164,147.0447427874767,30.241844714503216,0.0,1.0,15.62620404627905,5.790051568875596,0.0,Landing
2.6,-45.99948011481963,-1018.5895397620556,174.33715560123784,0.937342964430369,-2.492742954652299,147.30250941013418,29.64871022496813,0.0,1.0,15.62620404627905,5.790051568875596,0.0,Landing
2.7,-47.71663592822859,-997.0622239059707,173.12862336276072,1.108408284960045,-2.575114178681834,147.5129915946137,30.041237027177264,0.0,1.0,15.62620404627905,5.790051568875596,0.0,Landing
2.8000000000000003,-49.274212178948986,-982.5762100076132,175.10313283942756,1.3502323327260437,-2.766095572341411,147.2811567324792,30.467344621806866,0.0,1.0,15.62620404627905,5.790051568875596,0.0,Landing
2.9000000000000004,-50.9123611648577,-993.3768047106211,173.89218064192522,1.2206721224505837,-2.3808151894346623,146.96387603675657,30.329725709512832,0.0,1.0,15.62620404627905,5.790051568875596,0.0,Landing
3.0,-52.6835199517817,-1019.3669537055697,175.21236313420266,1.4438395743841868,-2.4685510961582002,147.21627146551867,30.23405808696831,0.0,1.0,15.62620404627905,5.790051568875596,0.0,Landing
3.1,-54.371046947476835,-1009.868652465424,173.02996140938495,1.2389919643557412,-2.7065797250679804,147.3845237262666,30.40891161702083,0.0,1.0,15.62620404627905,5.790051568875596,0.0,Landing
3.2,-55.96170442718482,-1002.6504294445286,173.2732708535714,1.0829876636393756,-2.607989188124577,147.52110764500662,30.647486107005886,0.0,1.0,15.62620404627905,5.790051568875596,0.0,Landing
3.3000000000000003,-57.69677209900434,-1007.8582379538302,172.06654603101978,1.647084440241804,-2.663179086711481,147.4238459244399,30.26031867184555,0.0,1.0,15.62620404627905,5.790051568875596,0.0,Landing
3.4000000000000004,-59.410338137245986,-1035.9186594856494,176.30156733506232,1.192387598871994,-2.661938490160235,147.23853899182456,30.306701303836384,0.0,1.0,15.62620404627905,5.790051568875596,0.0,Landing
3.5,-61.14129772461307,-1017.6106322661481,175.03951497025642,1.3232890712665224,-2.6346257971870752,147.0555136911173,30.08359586455546,0.0,1.0,15.62620404627905,5.790051568875596,0.0,Landing
3.6,-62.78482526033508,-1009.6864726870505,175.22776373094536,1.2310048828071956,-2.3223108416039437,147.27072800685983,29.61382562433591,0.0,1.0,15.62620404627905,5.790051568875596,0.0,Landing
3.7,-64.45877050068124,-1008.6998489765562,173.6281696853561,1.0281067545910343,-2.251712770352135,147.17762318502292,29.70490419655079,0.0,1.0,15.62620404627905,5.790051568875596,0.0,Landing
3.8000000000000003,-66.18479696949585,-1024.037753737167,174.5902626911605,1.2171610983409122,-2.291412690114445,147.09919526735848,30.328364563374578,0.0,1.0,15.62620404627905,5.790051568875596,0.0,Landing
3.9000000000000004,-67.90501402902092,-1009.7388563506853,170.87762299663274,0.9175608693069097,-2.569699686533097,147.31440961589004,30.017676134568024,0.0,1.0,15.62620404627905,5.790051568875596,0.0,Landing
4.0,-69.50746478243467,-1020.8322721746612,173.22039687735833,1.4398330693200747,-2.4520241766431248,147.3994770084363,29.90205433188823,0.0,1.0,15.62620404627905,5.790051568875596,0.0,Landing
4.1000000000000005,-71.28895833036916,-1002.590008133228,172.7535128560579,1.1492804377997932,-2.5378952931627707,147.15572448896648,30.40124741411637,0.0,1.0,15.62620404627905,5.790051568875596,0.0,Landing
4.2,-72.91796406968706,-1034.441758340756,174.7209402314418,0.8079999053180464,-2.493154419046194,147.15689703172677,30.154542467740107,0.0,1.0,15.62620404627905,5.790051568875596,0.0,Landing
4.3,-74.67967357413845,-1016.0886907982782,172.29493253375608,0.9745771157021274,-2.3483512649661646,147.26301787109833,30.398572900130148,0.0,1.0,15.62620404627905,5.790051568875596,0.0,Landing
4.4,-76.36940178436055,-1031.8707520925043,175.3303411524814,1.1515826182780478,-2.8856742990282473,147.12668936614523,30.73068079193984,0.0,1.0,15.62620404627905,5.790051568875596,0.0,Landing
4.5,-78.07731783014958,-1013.8938915970156,174.045099580475,0.7711871781233957,-2.345235489204987,147.16238705312094,30.095323958922318,0.0,1.0,15.62620404627905,5.790051568875596,0.0,Landing
4.6000000000000005,-79.74914303212353,-1019.4430012882831,173.0460063707111,1.191672643515245,-2.6179314817022568,146.92210844326155,30.598127040642492,0.0,1.0,15.62620404627905,5.790051568875596,0.0,Landing
4.7,-81.46661679080196,-1009.8267231199143,174.3522965092716,0.7906035510835755,-2.9403825879997623,147.16484391948808,30.319466455158324,0.0,1.0,15.62620404627905,5.790051568875596,0.0,Landing
4.800000000000001,-83.12645144574915,-1015.6019146646739,173.53774933348154,1.3373721295599603,-2.236037321915506,147.25026432576283,30.082833766498812,0.0,1.0,15.62620404627905,5.790051568875596,0.0,Landing
4.9,-84.8271526054469,-1013.513370628027,173.47350946627637,0.6945266799036877,-2.489308329880833,147.30895835866966,30.182954960005475,0.0,1.0,15.62620404627905,5.790051568875596,0.0,Landing
5.0,-86.5341836439421,-1020.3179401561325,173.23738983485347,0.7867415248663314,-2.9503668811785277,147.19787147467707,30.070829948703835,0.0,1.0,15.62620404627905,5.790051568875596,0.0,Landing
5.1000000000000005,-88.22804114652982,-1009.5658527295227,172.92138624778258,1.2665094004889594,-2.2822511572499127,147.01758088500685,29.914640610894164,0.0,1.0,15.62620404627905,5.790051568875596,0.0,Landing
5.2,-89.87498186909451,-990.6227691941067,174.668680837677,1.0948725715737249,-2.680123400871924,147.15476412868622,30.660384310323526,0.0,1.0,15.62620404627905,5.790051568875596,0.0,Landing
5.300000000000001,-91.48729748991263,-992.223525205034,172.67000535574974,1.2755554967894067,-2.5732465063153067,147.1311532381386,30.079551973181264,0.0,1.0,15.62620404627905,5.790051568875596,0.0,Landing
5.4,-93.18915877255499,-990.6585617803015,173.24277978994144,0.8244465861075898,-2.0993712197788184,147.30298044942737,30.506938746916518,0.0,1.0,15.62620404627905,5.790051568875596,0.0,Landing
5.5,-94.82827467799602,-999.248132755491,173.82045585035812,1.0520743278664124,-2.380593252683251,147.3739201711819,30.06884967105654,0.0,1.0,15.62620404627905,5.790051568875596,0.0,Landing
5.6000000000000005,-96.48353815369009,-1004.8604951002657,174.62550540455663,1.1775721412272415,-2.5388297581744474,147.3867918172001,29.692454091012962,0.0,1.0,15.62620404627905,5.790051568875596,0.0,Landing
5.7,-98.21346124805632,-1011.5626000394171,173.31978779053932,0.7381701736971605,-2.656168107659317,147.4215097563374,29.97704266000813,0.0,1.0,15.62620404627905,5.790051568875596,0.0,Landing
5.800000000000001,-99.8860876781931,-1029.807427874749,175.07724760928448,1.4606457540830877,-2.3578189309168525,147.06141827863564,30.149259552062873,0.0,1.0,15.62620404627905,5.790051568875596,0.0,Landing
5.9,-101.63257529306384,-1014.6160787499495,173.525174481214,1.2560918437509299,-2.135977131766975,147.01466506252052,30.241504451441283,0.0,1.0,15.62620404627905,5.790051568875596,0.0,Landing
6.0,-103.28654164180607,-1010.4527429731403,173.20346364627306,0.9320171978561057,-2.2544009701499585,146.95136360068523,30.665025005455366,0.0,1.0,15.62620404627905,5.790051568875596,0.0,Landing
6.1000000000000005,-104.93835139305881,-988.978525723675,173.98981075759895,0.7582717382302322,-2.272207388179791,147.30107911751662,30.04070135903091,0.0,1.0,15.62620404627905,5.790051568875596,0.0,Landing
6.2,-106.57746792168221,-984.3065887483104,171.85458366721957,1.0248430838576243,-2.383285413944255,147.0184154603308,30.195550021341443,0.0,1.0,15.62620404627905,5.790051568875596,0.0,Landing
6.300000000000001,-108.20807458554762,-987.3245948287232,174.92274092924805,1.3364827176967058,-2.408661596362284,146.96448401428756,30.443689206654632,0.0,1.0,15.62620404627905,5.790051568875596,0.0,Landing
6.4,-109.87497436720243,-996.6704000272099,173.42627895231476,1.01908618815532,-2.18668179819824,147.4482284967894,30.264408356241304,0.0,1.0,15.62620404627905,5.790051568875596,0.0,Landing
6.5,-111.56081992181826,-999.069548354964,174.49421064021197,0.9638286984461095,-2.3972203039706357,147.10408970411441,30.255529882140397,0.0,1.0,15.62620404627905,5.790051568875596,0.0,Landing
6.6000000000000005,-113.20342232732244,-1000.5482902593881,173.74536233507789,1.0013559488011634,-2.8025593932755832,147.19170316826455,29.93121748641714,0.0,1.0,15.62620404627905,5.790051568875596,0.0,Landing
6.7,-114.87771581849937,-988.8033659259005,173.03013228753238,0.6329832884800627,-2.476391551767314,147.45305790715827,29.99589342177079,0.0,1.0,15.62620404627905,5.790051568875596,0.0,Landing
6.800000000000001,-116.50483675144777,-1006.1926944601536,174.2869414316151,0.9265279936635976,-2.4299922336858657,147.23173723692497,30.438031854186967,0.0,1.0,15.62620404627905,5.790051568875596,0.0,Landing
6.9,-118.23438579962321,-997.5065100412248,173.11499965434962,0.9537909503444837,-2.257430660280956,147.19095211137864,30.010287749827594,0.0,1.0,15.62620404627905,5.790051568875596,0.0,Landing
7.0,-119.8652483687055,-994.2551521599765,173.4022511682575,1.3459425922019381,-2.7207228624925306,147.05539120112053,30.132611053349848,0.0,1.0,15.62620404627905,5.790051568875596,0.0,Landing
7.1000000000000005,-121.47611251224765,-994.4646116190452,173.60902639285737,0.7254916020741715,-2.82073718556531,146.96381368256357,30.053466372207414,0.0,1.0,15.62620404627905,5.790051568875596,0.0,Landing
7.2,-123.20670885771844,-1012.1722229562575,174.40815801908138,1.3309768638073771,-2.465994260949514,147.22590625341712,29.838638100203354,0.0,1.0,15.62620404627905,5.790051568875596,0.0,Landing
7.300000000000001,-124.92610948348678,-1020.3028658467329,173.3637106538731,0.9508974929719693,-2.4010525772711264,147.26831033957922,29.830123960086286,0.0,1.0,15.62620404627905,5.790051568875596,0.0,Landing
7.4,-126.57762684148132,-1005.4314510520495,175.2477409176882,0.8082720891300008,-2.4862547147324445,147.18795360530487,30.090632123876095,0.0,1.0,15.62620404627905,5.790051568875596,0.0,Landing
7.5,-128.2338661129787,-991.0367470483149,174.38960312714667,1.1874420220843094,-2.534700114136244,147.24547442763696,29.91718857033536,0.0,1.0,15.62620404627905,5.790051568875596,0.0,Landing
7.6000000000000005,-129.88129321872836,-991.8880910849933,172.81781312055293,1.287817878800631,-2.730002023167885,147.12587337969467,30.705496301528218,0.0,1.0,15.62620404627905,5.790051568875596,0.0,Landing
7.7,-131.5370672969063,-1002.5987726788682,173.9596398350135,1.143778530903835,-2.7913006131283638,147.1907537699825,30.486340596276094,0.0,1.0,15.62620404627905,5.790051568875596,0.0,Landing
7.800000000000001,-133.24685997637303,-997.793000777369,173.58979300802812,1.045689048304575,-2.3016627741662155,147.11715242498218,29.614819227649043,0.0,1.0,15.62620404627905,5.790051568875596,0.0,Landing
7.9,-134.8702582226152,-993.3117181788075,175.93022760683556,1.2171500053774977,-2.4444797959314477,147.39509931080846,30.069471525413828,0.0,1.0,15.62620404627905,5.790051568875596,0.0,Landing
8.0,-136.50362588780033,-981.367775079968,172.53868694488668,1.0616535993545235,-2.6896756242568314,147.21450186515887,30.198068422210607,0.0,1.0,15.62620404627905,5.790051568875596,0.0,Landing
8.1,-138.15369885177287,-995.6942826556993,173.21846592702045,1.3692091788581422,-2.5967930208509458,147.173297804262,29.80378490319835,0.0,1.0,15.62620404627905,5.790051568875596,0.0,Landing
8.200000000000001,-139.8487296358937,-1008.5956634300541,174.05114650932987,1.1473350361011765,-2.592038484065007,147.00650559506522,29.99347580909946,0.0,1.0,15.62620404627905,5.790051568875596,0.0,Landing
8.3,-141.5466042049506,-999.3732462723411,175.59672619561624,1.136108445732335,-2.9932043886134694,147.37762417751037,30.215080993702337,0.0,1.0,15.62620404627905,5.790051568875596,0.0,Landing
8.4,-143.15056508313458,-987.9133918536578,173.41420993555474,1.0031772470963476,-2.411482153437723,147.21180279720647,30.084630474039038,0.0,1.0,15.62620404627905,5.790051568875596,0.0,Landing
8.5,-144.788296595162,-967.7322567509858,172.11053645066315,0.9563578556099923,-2.651043697767984,147.0775094000374,30.5633923396252,0.0,1.0,15.62620404627905,5.790051568875596,0.0,Landing
8.6,-146.38526548870553,-982.0459698748547,173.81648911702746,1.2073381502971723,-2.1669936387707596,146.91352260028373,30.20442579878513,0.0,1.0,15.62620404627905,5.790051568875596,0.0,Landing
8.700000000000001,-148.06079493250886,-992.3456873056463,173.94236088617993,1.1647439821422625,-2.6517659512389806,147.17636433211987,30.622263092870803,0.0,1.0,15.62620404627905,5.790051568875596,0.0,Landing
8.8,-149.75002503169023,-1007.5337320298896,173.70423617386606,0.9768335243769901,-2.5576509656477153,147.11520613915798,30.49466494150033,0.0,1.0,15.62620404627905,5.790051568875596,0.0,Landing
8.9,-151.42293414885498,-1012.9414598836487,172.59309944949723,1.0800339690409013,-2.391856714669478,147.35308828476911,29.922419538793086,0.0,1.0,15.62620404627905,5.790051568875596,0.0,Landing
9.0,-153.1255022319271,-1006.4551803160836,173.69172211586041,1.3138964457388174,-2.3435222597676373,147.3224193297376,29.862988338714974,0.0,1.0,15.62620404627905,5.790051568875596,0.0,Landing
9.1,-154.78230093327065,-1001.5242176192996,172.94686286274467,1.032943728080733,-2.7117466136832036,147.22145632098,30.23647402071422,0.0,1.0,15.62620404627905,5.790051568875596,0.0,Landing
9.200000000000001,-156.43055523695148,-1003.9759476625189,175.04423816578728,0.5522942465817015,-2.8261922121278182,147.1185554578376,30.393288127352882,0.0,1.0,15.62620404627905,5.790051568875596,0.0,Landing
9.3,-158.1453819702397,-994.8169391183055,173.60943054212993,0.8716252292305973,-2.7242396923391112,147.07027111337663,30.171387676186463,0.0,1.0,15.62620404627905,5.790051568875596,0.0,Landing
9.4,-159.75638562886218,-1001.5848205840651,171.95321791536145,1.01185819477764,-2.3234758238572875,147.10900925414944,29.954340917154788,0.0,1.0,15.62620404627905,5.790051568875596,0.0,Landing
9.5,-161.4384793398718,-982.6831353781582,174.918029115136,1.4373872544885418,-2.316543790236237,147.32593602804536,30.518140452242527,0.0,1.0,15.62620404627905,5.790051568875596,0.0,Landing
9.600000000000001,-163.0587976471305,-1013.2428873559317,173.95837909713237,1.260048238890422,-2.1594967074721394,147.06878065589262,30.645219412911647,0.0,1.0,15.62620404627905,5.790051568875596,0.0,Landing
9.700000000000001,-164.82260006564184,-1008.713619306803,173.35132329358356,0.8811319810792527,-2.503088383608005,147.4055036537672,30.272889491784948,0.0,1.0,15.62620404627905,5.790051568875596,0.0,Landing
9.8,-166.48204743640582,-1013.8517739832761,173.73529130032435,1.05189358925217,-2.6245214538679176,147.5199851612,29.654650486616735,0.0,1.0,15.62620404627905,5.790051568875596,0.0,Landing
9.9,-168.12805651704687,-975.0823857944052,175.37827963203713,1.2012159414033081,-2.0149906747675805,147.42411539686486,29.803001473122514,0.0,1.0,15.62620404627905,5.790051568875596,0.0,Landing
10.0,-169.69801199461386,-959.1690394705605,171.8999663264427,1.5137020178224299,-2.8956251923348018,147.2757197471609,30.12638557724432,0.0,1.0,15.62620404627905,5.790051568875596,0.0,Landing
10.100000000000001,-171.27789263375863,-959.887427186487,174.37078524950556,1.2347826812747378,-2.746538167780048,147.34960430097192,30.034069132807844,0.0,1.0,15.62620404627905,5.790051568875596,0.0,Landing
10.200000000000001,-172.9274936529793,-948.5722620612702,172.89520078292125,1.3707779519038723,-2.413423894837474,147.32312981661573,30.317085661695398,0.0,1.0,15.62620404627905,5.790051568875596,0.0,Landing
10.3,-174.44087330492022,-960.984782097739,172.3552953641583,0.8905946704170548,-2.4738941575072237,147.23640874331852,30.302791879854624,0.0,1.0,15.62620404627905,5.790051568875596,0.0,Landing
10.4,-176.08281654424732,-952.1052740131208,174.51144666903448,0.8934071550941403,-2.6314036160812257,147.16692826063422,30.61456183455513,0.0,1.0,15.62620404627905,5.790051568875596,0.0,Landing
10.5,-177.6880200230449,-982.1293102934815,173.97147922333951,0.9439852540619974,-2.493261760718947,147.12126167746385,30.81941522797685,0.0,1.0,15.62620404627905,5.790051568875596,0.0,Landing
10.600000000000001,-179.35151985638763,-976.2158876677287,171.6366492975938,1.1287288552935937,-2.598700174201955,147.37623659004498,30.16683361176121,0.0,1.0,15.62620404627905,5.790051568875596,0.0,Landing
10.700000000000001,-180.96389598258597,-985.0452540613556,173.02734592177623,1.1301165762853977,-2.823157755475145,146.78841170147706,30.55464856394633,0.0,1.0,15.62620404627905,5.790051568875596,0.0,Landing
10.8,-182.6132462933517,-977.1392747820524,174.58765706870147,0.47889192740984643,-2.600067282222598,147.35632345736298,30.06732258099617,0.0,1.0,15.62620404627905,5.790051568875596,0.0,Landing
10.9,-184.2372162302979,-975.8749415827364,172.77307040709317,0.8722230782470854,-2.5937444620654286,147.24040698420424,30.50194693057698,0.0,1.0,15.62620404627905,5.790051568875596,0.0,Landing
11.0,-185.84327069049965,-961.7340945206191,171.30089014093787,0.9319043426960321,-2.2767779040190215,146.74046267667256,30.239872828906524,0.0,1.0,15.62620404627905,5.790051568875596,0.0,Landing
11.100000000000001,-187.4219167659548,-958.2915706404432,174.0121556834522,1.2485067005681278,-2.496713581791353,147.31162023706105,30.21510768707502,0.0,1.0,15.62620404627905,5.790051568875596,0.0,Landing
11.200000000000001,-189.0286740835001,-963.3428729463272,173.28603010678052,1.0132969024277534,-2.5273101297530447,147.355974434078,29.99493484046665,0.0,1.0,15.62620404627905,5.790051568875596,0.0,Landing
11.3,-190.6599850552313,-979.9988935135613,173.54236696469115,0.9583889074246114,-2.413014788007932,147.32433017468372,30.39537705945593,0.0,1.0,15.62620404627905,5.790051568875596,0.0,Landing
11.4,-192.3219112335226,-986.4095285578625,173.882697381089,1.1881513774763865,-2.6957683634962692,147.59048388575678,30.73729084230336,0.0,1.0,15.62620404627905,5.790051568875596,0.0,Landing
11.5,-193.96072172628942,-985.9775807694288,172.5794544107423,0.8480207893204714,-2.528567761284889,147.20431013377356,31.133181819358388,0.0,1.0,15.62620404627905,5.790051568875596,0.0,Landing
11.600000000000001,-195.58987295907843,-986.7020811540552,174.0499714912862,0.862166584966756,-2.4994308108527483,147.4448626671758,30.165334978503843,0.0,1.0,15.62620404627905,5.790051568875596,0.0,Landing
11.700000000000001,-197.25542163929288,-966.7430093911147,174.4283309212038,1.2455620357451533,-2.555279199210559,147.33178305428862,29.93207137813982,0.0,1.0,15.62620404627905,5.790051568875596,0.0,Landing
11.8,-198.794436773245,-954.0938998287002,174.1051360670701,1.3763100351309012,-2.40345930018627,147.06769634456464,30.374766797899863,0.0,1.0,15.62620404627905,5.790051568875596,0.0,Landing
11.9,-200.36034245822194,-924.9937216894805,173.57658878786887,1.5386945021436833,-2.278631608638163,147.2337896663251,30.34404463866746,0.0,1.0,15.62620404627905,5.790051568875596,0.0,Landing
12.0,-201.88039024774028,-950.6007809041815,175.26601097812096,1.0439546102159203,-2.7108724593176223,147.19155011309584,30.422746678454267,0.0,1.0,15.62620404627905,5.790051568875596,0.0,Landing
12.100000000000001,-203.5474406777659,-965.3685285605203,175.07822431131686,1.151357246795538,-2.680438644489135,147.2000550848225,30.49740317819416,0.0,1.0,15.62620404627905,5.790051568875596,0.0,Landing
12.200000000000001,-205.18718510102454,-985.8551575721091,173.77622952982534,0.528575272983434,-2.1950294881442325,147.20182749903273,30.303188815781315,0.0,1.0,15.62620404627905,5.790051568875596,0.0,Landing
12.3,-206.80966603560083,-975.9383131686033,174.98012352014064,1.044865540124542,-2.972074563486965,147.11806954411895,30.385701927011784,0.0,1.0,15.62620404627905,5.790051568875596,0.0,Landing
12.4,-208.42713224360892,-973.641585999354,174.14613990310266,1.0493970159419097,-2.6828476690333054,147.3614147026181,29.784425506183133,0.0,1.0,15.62620404627905,5.790051568875596,0.0,Landing
12.5,-210.0553930310213,-968.97360971933,173.0892613955724,1.0758810145042879,-2.328700394305106,147.01827007866348,30.09562143630962,0.0,1.0,15.62620404627905,5.790051568875596,0.0,Landing
12.600000000000001,-211.65453408419748,-958.711074410132,174.9186896546068,0.96028207366157,-2.77322458343782,147.34592751399134,30.175579421152676,0.0,1.0,15.62620404627905,5.790051568875596,0.0,Landing
12.700000000000001,-213.22068761565959,-951.3102944426347,173.63280374721214,1.0476757380550945,-2.2840786474255275,147.07607358647334,30.087845520610916,0.0,1.0,15.62620404627905,5.790051568875596,0.0,Landing
12.8,-214.81194450323449,-947.2488609263504,173.45241498836182,1.0346993803996904,-2.251457026586603,147.26589178701084,30.014097100749968,0.0,1.0,15.62620404627905,5.790051568875596,0.0,Landing
12.9,-216.39077838882923,-961.1358997444822,172.54607670621678,1.038604945236102,-2.480774213382006,147.32178479265622,29.850015202923778,0.0,1.0,15.62620404627905,5.790051568875596,0.0,Landing
13.0,-218.026367114382,-961.2887947059218,172.15910775015413,1.1082767648098963,-2.3380613718772194,147.4234592264475,30.24692656699517,0.0,1.0,15.62620404627905,5.790051568875596,0.0,Landing
13.100000000000001,-219.6183884767641,-967.4101818323717,173.33360401440217,0.7947477058892486,-2.617763910416268,147.4245132542186,29.936229464960977,0.0,1.0,15.62620404627905,5.790051568875596,0.0,Landing
13.200000000000001,-221.2278292979911,-956.7815648610743,174.52627752684205,1.3134924971320754,-2.1603126495240526,147.227117593142,30.21691092694074,0.0,1.0,15.62620404627905,5.790051568875596,0.0,Landing
13.3,-222.81027493868737,-965.0244135861382,172.4079128017897,0.9653084425014108,-2.539292977766487,147.38310434486078,30.29752701858566,0.0,1.0,15.62620404627905,5.790051568875596,0.0,Landing
13.4,-224.4435105446948,-968.4993493362693,173.9218966549929,1.005605943627261,-2.5920699202004043,147.02304814493965,30.05498855912964,0.0,1.0,15.62620404627905,5.790051568875596,0.0,Landing
13.5,-226.07032604467244,-976.5672817777213,173.7383002669988,0.9674513828809025,-2.483838206030138,147.45855083818424,30.255964107093316,0.0,1.0,15.62620404627905,5.790051568875596,0.0,Landing
13.600000000000001,-227.69311134757598,-982.1125782284807,174.24973743764426,1.033852836204895,-2.8493082683383935,147.1263164576162,30.199580705032865,0.0,1.0,15.62620404627905,5.790051568875596,0.0,Landing
13.700000000000001,-229.3540734358372,-979.6168540584798,172.31913810901932,0.9195844357166654,-2.784469017157287,147.22435872061857,30.035027211024264,0.0,1.0,15.62620404627905,5.790051568875596,0.0,Landing
13.8,-230.96841031496484,-975.6994153372599,173.93329623309538,1.2701818207714954,-2.398085899825004,147.0728778480253,29.855219678570304,0.0,1.0,15.62620404627905,5.790051568875596,0.0,Landing
13.9,-232.57160842426228,-973.6541436222634,174.41934125910208,0.9194177404187456,-2.156385573935194,147.13370310732512,30.247953584071116,0.0,1.0,15.62620404627905,5.790051568875596,0.0,Landing
14.0,-234.2223441539485,-969.1898092834773,173.57271691225935,0.8428495342253638,-2.4379925958084567,147.27203193697943,30.334251955566575,0.0,1.0,15.62620404627905,5.790051568875596,0.0,Landing
14.100000000000001,-235.81435936138223,-975.4893932338288,174.98037520939383,1.1847390746527162,-2.7011786057272373,147.3558413732685,29.755424591888776,0.0,1.0,15.62620404627905,5.790051568875596,0.0,Landing
14.200000000000001,-237.44905539043143,-971.5270546131418,174.18488021949804,1.0605974263036357,-2.7027449123358815,147.51246028420348,30.02475375511041,0.0,1.0,15.62620404627905,5.790051568875596,0.0,Landing
14.3,-239.07997942701422,-978.8540134226818,172.12769267712684,0.9536399974880632,-2.35068561614584,147.07268064565937,29.88506995204385,0.0,1.0,15.62620404627905,5.790051568875596,0.0,Landing
14.4,-240.70862942849564,-979.4481858751052,174.492634517772,1.243584043337932,-2.443469811795044,146.77282650880426,30.221585376639155,0.0,1.0,15.62620404627905,5.790051568875596,0.0,Landing
14.5,-242.34629631980695,-987.4410443607982,173.45260102686655,1.101610246315324,-2.586640553565855,147.05771935037933,30.435369914623273,0.0,1.0,15.62620404627905,5.790051568875596,0.0,Landing
14.600000000000001,-244.01718464881822,-982.9678614459621,172.95914805058476,1.4556473425464953,-2.6077478370151828,147.3595252598135,30.637834902439185,0.0,1.0,15.62620404627905,5.790051568875596,0.0,Landing
14.700000000000001,-245.62346873572545,-985.4858215010605,172.65312425341133,0.7744643832925153,-2.1385697329015887,147.0447385592921,30.569260382195512,0.0,1.0,15.62620404627905,5.790051568875596,0.0,Landing
14.8,-247.27372542731226,-957.7774272243172,173.15550825929745,0.9108385820134667,-2.3846859757731083,147.1554071748535,30.107444717527084,0.0,1.0,15.62620404627905,5.790051568875596,0.0,Landing
14.9,-248.8060717849398,-955.2027888709855,173.26884969654668,1.262518260541364,-2.3374722460414334,147.31495464064903,30.389182115188802,0.0,1.0,15.62620404627905,5.790051568875596,0.0,Landing
15.0,-250.39948268008038,-934.3820800177864,173.4350835503755,1.1977234724103707,-2.571616020751013,147.22904869668787,30.481263668427502,0.0,1.0,15.62620404627905,5.790051568875596,0.0,Landing
15.100000000000001,-251.9456358274012,-959.0589237753929,175.9224332610481,0.8719186516537366,-2.3855255937294517,147.10444975700926,30.40192414430699,0.0,1.0,15.62620404627905,5.790051568875596,0.0,Landing
15.200000000000001,-253.60136640381677,-961.6027989659752,174.67092513562446,1.0195399164574812,-2.7061631662649517,147.11768867044015,29.651810248825146,0.0,1.0,15.62620404627905,5.790051568875596,0.0,Landing
15.3,-255.20749667491026,-972.292590276015,174.99589859058761,1.263590229706435,-2.590560637374302,147.22812965744458,29.75185910776428,0.0,1.0,15.62620404627905,5.790051568875596,0.0,Landing
15.4,-256.80709877878127,-970.4539013809946,175.63176448168204,1.317152373940524,-2.558391041227851,147.13532437389523,30.300741000332966,0.0,1.0,15.62620404627905,5.790051568875596,0.0,Landing
15.5,-258.45363591072174,-959.7174490407834,173.56380359373475,1.023453842399254,-2.2745082861127868,147.26691665179374,29.822814678153982,0.0,1.0,15.62620404627905,5.790051568875596,0.0,Landing
15.600000000000001,-260.0060839201142,-976.064957559549,172.7277406482918,1.050536521682199,-2.5308597103751165,147.30713152636224,29.859790657199973,0.0,1.0,15.62620404627905,5.790051568875596,0.0,Landing
15.700000000000001,-261.687423566579,-980.0909205135323,175.4917212426801,1.4418826598882104,-2.8659526595994254,147.498847448831,30.18583765713364,0.0,1.0,15.62620404627905,5.790051568875596,0.0,Landing
15.8,-263.3540905132894,-991.1126354114455,174.52486207168306,1.1173103703190534,-2.7825128599935565,147.06498685356593,30.442502261084616,0.0,1.0,15.62620404627905,5.790051568875596,0.0,Landing
15.9,-264.9616470971714,-965.5915704660284,173.44047209699661,0.8270711650131771,-2.328916042822,147.33613454031303,30.969166537839143,0.0,1.0,15.62620404627905,5.790051568875596,0.0,Landing
16.0,-266.51538141890916,-953.4237724139185,174.56437059886602,1.223149504439877,-2.4499867655378798,147.1170775628725,30.224524876043336,0.0,1.0,15.62620404627905,5.790051568875596,0.0,Landing
16.1,-268.121209375359,-954.3890349247814,173.5001257185472,0.9381448711829861,-2.7396682687436575,147.15672645234343,30.065040273234786,0.0,1.0,15.62620404627905,5.790051568875596,0.0,Landing
16.2,-269.7335922717953,-963.7525725255156,173.80823000858047,0.9104761678498896,-2.332206571889497,147.18508276446823,30.539727051875964,0.0,1.0,15.62620404627905,5.790051568875596,0.0,Landing
16.3,-271.33414428153674,-975.2140359607548,173.35215766036757,1.2759733565008529,-2.3435287547771115,147.4129757359724,30.443918131811525,0.0,1.0,15.62620404627905,5.790051568875596,0.0,Landing
16.400000000000002,-272.9972795551628,-965.5657478722557,172.57095090567603,1.3248594588094844,-2.2484613696738784,147.01589852325003,30.73570669721281,0.0,1.0,15.62620404627905,5.790051568875596,0.0,Landing
16.5,-274.5614210111566,-969.2212210448698,172.7970354555226,0.7751000367194345,-2.44656364407873,147.25879077980784,30.148641727471368,0.0,1.0,15.62620404627905,5.790051568875596,0.0,Landing
16.6,-276.1802503867611,-965.8125425401746,175.71435930140274,0.7191654039804845,-2.6065397410986995,147.22573817477098,30.332529852991485,0.0,1.0,15.62620404627905,5.790051568875596,0.0,Landing
16.7,-277.82634226786365,-975.719980091321,173.82621215627856,0.8286081128887963,-2.277767240671947,147.09181242054512,30.22872288656293,0.0,1.0,15.62620404627905,5.790051568875596,0.0,Landing
16.8,-279.4400209116132,-949.5858234128601,176.47238512667406,1.0566221811379817,-2.682071943608815,147.3007093474996,29.597427914463687,0.0,1.0,15.62620404627905,5.790051568875596,0.0,Landing
16.900000000000002,-280.9281795038254,-947.1513643898444,173.37594118808488,0.9730290585330821,-2.213683282463148,147.37705869598676,30.306736307751336,0.0,1.0,15.62620404627905,5.790051568875596,0.0,Landing
17.0,-282.5620990898129,-941.6230271865626,174.58441389873613,1.2177453612201028,-2.4258264457407677,147.25530499497512,30.09556752032875,0.0,1.0,15.62620404627905,5.790051568875596,0.0,Landing
17.1,-284.148136047546,-966.2824957845143,173.01323812217709,0.8122159563722761,-2.3884708050202192,147.08751861296753,30.38293092968226,0.0,1.0,15.62620404627905,5.790051568875596,0.0,Landing
17.2,-285.75959198274796,-972.9642924821061,173.4505601852156,1.2836727491952762,-2.20241282289907,147.2663012140269,30.225551804078744,0.0,1.0,15.62620404627905,5.790051568875596,0.0,Landing
17.3,-287.4269205522234,-988.2064041913278,174.62187285972044,1.2222512009204216,-2.9637597011309476,147.0691529046586,29.703679473237695,0.0,1.0,15.62620404627905,5.790051568875596,0.0,Landing
17.400000000000002,-289.08916806850266,-979.0619301559442,173.3878795821336,0.9427625324139135,-2.5311033844040263,147.47269942044534,30.540976698914193,0.0,1.0,15.62620404627905,5.790051568875596,0.0,Landing
17.5,-290.6549016335277,-960.9753205520971,172.07934693916422,1.0963352034912954,-2.349167889984485,147.12042542182235,30.297499028620653,0.0,1.0,15.62620404627905,5.790051568875596,0.0,Landing
17.6,-292.2317971549839,-943.4601800784659,173.4974740863778,1.2798678162373625,-2.5185196895383846,147.04215859244505,30.025578823959616,0.0,1.0,15.62620404627905,5.790051568875596,0.0,Landing
17.7,-293.806468968895,-952.141031662779,173.2838001935213,1.2055135155153816,-2.8026291833194645,147.34308376386042,30.16859104765401,0.0,1.0,15.62620404627905,5.790051568875596,0.0,Landing
17.8,-295.4156067918416,-964.6269641997602,172.72885020208906,0.7344262579169065,-2.2374835484851827,147.39501080679986,30.260788304840073,0.0,1.0,15.62620404627905,5.790051568875596,0.0,Landing
17.900000000000002,-297.0549319759827,-987.6628318579488,174.86667693898778,1.0040781819089968,-2.3427492861178347,147.23050196087956,30.049878695412055,0.0,1.0,15.62620404627905,5.790051568875596,0.0,Landing
18.0,-298.74478312818474,-970.566373600445,174.86004377308907,0.9789672555535166,-2.545602519146048,147.09893682147356,29.416359404777705,0.0,1.0,15.62620404627905,5.790051568875596,0.0,Landing
18.1,-300.2684386598438,-959.7718435822909,174.79892945517736,1.119372563312607,-2.5743999189999855,147.1884416917203,30.503938145717456,0.0,1.0,15.62620404627905,5.790051568875596,0.0,Landing
18.2,-301.85379119389415,-939.4793606775803,171.89067344790894,1.243697967087605,-2.3449479464571907,147.40579551821088,29.58425566196139,0.0,1.0,15.62620404627905,5.790051568875596,0.0,Landing
18.3,-303.44217993157264,-956.9069996700133,172.7880610228319,1.1246946512382727,-2.5359969997583254,147.2756451485086,30.109752905549435,0.0,1.0,15.62620404627905,5.790051568875596,0.0,Landing
18.400000000000002,-305.0529736581939,-942.2199147796956,174.01675246945925,1.1684868017439016,-2.630599468799368,147.19148762411095,30.00813593866386,0.0,1.0,15.62620404627905,5.790051568875596,0.0,Landing
18.5,-306.56489076779263,-946.4548196450093,172.9672982538105,1.3835238440571298,-2.60887727641738,147.5515425107971,30.298869256895834,0.0,1.0,15.62620404627905,5.790051568875596,0.0,Landing
18.6,-308.1744540297977,-926.2629157897319,171.94995636165532,1.1856870250217857,-2.940676498246045,146.94525324268727,30.098802033105,0.0,1.0,15.62620404627905,5.790051568875596,0.0,Landing
18.7,-309.68428823714254,-947.5926935601816,173.48434913974725,1.113881367314227,-2.596952677715675,147.14152701959364,29.929104122344032,0.0,1.0,15.62620404627905,5.790051568875596,0.0,Landing
18.8,-311.30285423559354,-937.2030277563678,173.95977045827985,1.1909011417622972,-2.4797938963403725,147.1232797338365,30.323687985646437,0.0,1.0,15.62620404627905,5.790051568875596,0.0,Landing
18.900000000000002,-312.8604691685795,-950.805017316247,173.54577802928742,0.9603772046647275,-2.5303942209794967,147.11055303241125,30.088139908161388,0.0,1.0,15.62620404627905,5.790051568875596,0.0,Landing
19.0,-314.4383133237238,-938.8465403868846,172.18097320114617,0.9229560121349918,-2.286915105253069,147.22693097409598,30.287551433160115,0.0,1.0,15.62620404627905,5.790051568875596,0.0,Landing
19.1,-315.99708693752797,-936.157666830729,173.01238141899952,1.4613564311788363,-2.5495160608299687,147.6495386270509,30.107951516713065,0.0,1.0,15.62620404627905,5.790051568875596,0.0,Landing
19.200000000000003,-317.5412575027332,-944.5133265614114,172.89246378133478,1.2186513646465023,-2.5005969085507442,147.59637124575005,30.341049695961008,0.0,1.0,15.62620404627905,5.790051568875596,0.0,Landing
19.3,-319.16087995653083,-950.1465079195665,173.9529091936251,1.0694622042854263,-2.5689558402499806,147.2773851960448,30.449928506090128,0.0,1.0,15.62620404627905,5.790051568875596,0.0,Landing
19.400000000000002,-320.7478194771258,-950.1841171694078,172.10778324504815,1.3075432608453315,-2.4524369586599635,147.27919323163854,30.320969892266294,0.0,1.0,15.62620404627905,5.790051568875596,0.0,Landing
19.5,-322.2921780885802,-929.8564872827111,173.00358227073704,0.8034011999019695,-2.5992244426180604,147.4479187661923,30.068310015335282,0.0,1.0,15.62620404627905,5.790051568875596,0.0,Landing
19.6,-323.8101623929444,-932.4412243656749,173.24179373356677,1.1935881644487558,-2.967526421977789,147.38864094701717,30.684800074896156,0.0,1.0,15.62620404627905,5.790051568875596,0.0,Landing
19.700000000000003,-325.4100255989542,-941.2865192832779,171.40014351780036,1.0294750620593442,-2.598455552688583,147.14672288466033,29.94901938072188,0.0,1.0,15.62620404627905,5.790051568875596,0.0,Landing
19.8,-326.9986106849966,-944.940673216831,172.95757861460677,1.316853896243545,-2.5737722133131147,147.2430666019502,29.937639248542297,0.0,1.0,15.62620404627905,5.790051568875596,0.0,Landing
19.900000000000002,-328.53486575902855,-937.6043393436927,173.4629007475668,1.0907997226096415,-2.3331238284435343,147.13946315867787,30.19631512086756,0.0,1.0,15.62620404627905,5.790051568875596,0.0,Landing
20.0,-330.09804729567264,-944.9297187971407,173.5957651320617,1.318968422209963,-2.346201771646548,147.32132173876454,29.956287858169613,0.0,1.0,15.62620404627905,5.790051568875596,0.0,Landing
20.1,-331.7232592789823,-964.1761968589318,174.03489803416193,1.1918296246513758,-1.9252205421118957,147.0545615309759,30.120594725601705,0.0,1.0,15.62620404627905,5.790051568875596,0.0,Landing
20.200000000000003,-333.3557467433232,-978.9258129733863,173.72189479678624,0.7957207528218591,-2.0034175778466654,147.1871415196257,30.975472448879433,0.0,1.0,15.62620404627905,5.790051568875596,0.0,Landing
20.3,-334.9926763605396,-966.4666628690153,172.27833385322197,1.0296518408779296,-2.591473567597083,147.40600211231026,30.364529748017283,0.0,1.0,15.62620404627905,5.790051568875596,0.0,Landing
20.400000000000002,-336.5555925933274,-957.5624415589001,172.16159339637687,1.3396947831089283,-2.7477943225386987,147.56834169979254,29.821541567230568,0.0,1.0,15.62620404627905,5.790051568875596,0.0,Landing
20.5,-338.1435589511177,-953.5770501196336,175.0429646605042,1.1466718568763667,-2.367727843407456,146.9684542321848,29.760345843254534,0.0,1.0,15.62620404627905,5.790051568875596,0.0,Landing
20.6,-339.76056161113775,-959.8241387388153,173.37558330977694,0.8416744839127774,-2.1804134377056865,147.01416759482004,30.059220309522257,0.0,1.0,15.62620404627905,5.790051568875596,0.0,Landing
20.700000000000003,-341.35471328702147,-973.615008333638,173.10390682119348,1.0523161997719916,-2.2800818476402505,147.1911496734965,30.228887517268817,0.0,1.0,15.62620404627905,5.790051568875596,0.0,Landing
20.8,-343.0116339927859,-944.615222803338,174.0162701926365,0.7857277822631317,-2.6278226023625644,147.08443067350163,30.23218101860183,0.0,1.0,15.62620404627905,5.790051568875596,0.0,Landing
20.900000000000002,-344.48363772515444,-937.7121669733125,171.61728944231226,0.6985773153104182,-2.394079889718288,147.33469361504928,29.962092256234317,0.0,1.0,15.62620404627905,5.790051568875596,0.0,Landing
21.0,-346.04327412188803,-919.7802916409725,174.54686746049182,1.3580050038043994,-2.81350929403974,146.93878370494963,30.268422680934236,0.0,1.0,15.62620404627905,5.790051568875596,0.0,Landing
21.1,-347.61053545099077,-951.3533956553257,173.17581297106528,1.3326139745172103,-2.454411463128448,147.3475227549825,30.266355861137146,0.0,1.0,15.62620404627905,5.790051568875596,0.0,Landing
21.200000000000003,-349.24040470343107,-938.9750806671028,172.88678856911665,1.1635613786139756,-2.4198575646072737,147.42926855511018,30.368817185214546,0.0,1.0,15.62620404627905,5.790051568875596,0.0,Landing
21.3,-350.73814952522355,-941.3455165442539,173.31092918844206,0.9388366871230183,-2.287741901420367,147.3447153771059,30.08285706041214,0.0,1.0,15.62620404627905,5.790051568875596,0.0,Landing
21.400000000000002,-352.31726303371204,-933.4512962342611,172.54697546127326,1.5874540441908866,-2.347366238415522,147.14990304252456,30.6205543759222,0.0,1.0,15.62620404627905,5.790051568875596,0.0,Landing
21.5,-353.9076611846024,-928.1008087941469,174.6504380990878,0.879543650432485,-2.27535602124011,147.0045402547562,30.291178135871718,0.0,1.0,15.62620404627905,5.790051568875596,0.0,Landing
21.6,-355.3786535691943,-923.5195518881366,175.32531045089007,0.9899344208320016,-2.429346648758051,147.004904519153,30.17209213570574,0.0,1.0,15.62620404627905,5.790051568875596,0.0,Landing
21.700000000000003,-356.9348607931527,-927.3380554279921,175.08976308313245,0.7258590762835635,-2.422436615280374,147.27509078616356,30.029949706420652,0.0,1.0,15.62620404627905,5.790051568875596,0.0,Landing
21.8,-358.54435146174234,-951.3398894198755,172.70858637080278,1.1977191044705136,-2.0500663315687264,147.0360587125823,29.922861884644057,0.0,1.0,15.62620404627905,5.790051568875596,0.0,Landing
21.900000000000002,-360.13535301629366,-949.3075243174868,174.23596364642515,0.9561391717041591,-2.5050914661109185,147.01681555027972,30.224999637917147,0.0,1.0,15.62620404627905,5.790051568875596,0.0,Landing
22.0,-361.68139841474016,-925.3423074266262,174.65488719986925,0.911383770224521,-1.9833234408595994,147.23736264154456,30.41865296741672,0.0,1.0,15.62620404627905,5.790051568875596,0.0,Landing
22.1,-363.17106299887547,-905.5667052263854,172.83211308150257,1.269720593472833,-2.681023994221912,147.14212713100846,30.42543395469841,0.0,1.0,15.62620404627905,5.790051568875596,0.0,Landing
22.200000000000003,-364.6631865424256,-900.9962402427387,174.12231239252583,1.0981210175725593,-2.743873951796811,147.11820529383272,30.136601025051643,0.0,1.0,15.62620404627905,5.790051568875596,0.0,Landing
22.3,-366.18637961595385,-924.5092649411273,172.2872751997988,0.9806343621393178,-2.8550878299340505,147.2669368156067,30.426919384585627,0.0,1.0,15.62620404627905,5.790051568875596,0.0,Landing
22.400000000000002,-367.7936093235811,-944.8889571314222,173.91665076786285,1.370395359136261,-2.2883672654835125,147.3100419605853,29.79120927204302,0.0,1.0,15.62620404627905,5.790051568875596,0.0,Landing
22.5,-369.3876313280827,-957.5591703895608,174.7567973232726,1.2146494919196629,-2.105820426185174,147.01839624884315,30.369610099190574,0.0,1.0,15.62620404627905,5.790051568875596,0.0,Landing
22.6,-370.97417546790166,-936.8011578472643,173.28066645089908,1.2200768741653678,-3.0132556634370578,147.3485714518216,30.36365548220329,0.0,1.0,15.62620404627905,5.790051568875596,0.0,Landing
22.700000000000003,-372.47761511281743,-936.7213887809609,171.96254458774774,1.2880073455254575,-2.508057505248945,147.2792174988375,30.143693210900565,0.0,1.0,15.62620404627905,5.790051568875596,0.0,Landing
22.8,-374.0712382719875,-930.8537020977266,173.18420506341505,1.0136120186085795,-2.3406466148083243,147.38376621800887,30.53277167979545,0.0,1.0,15.62620404627905,5.790051568875596,0.0,Landing
22.900000000000002,-375.6284439783903,-923.291857529409,173.96087805848617,1.3086321379383992,-2.355984384853817,147.12111861859307,30.190281343721146,0.0,1.0,15.62620404627905,5.790051568875596,0.0,Landing
23.0,-377.0940744004645,-915.2254251611222,173.41913680238855,0.8771339299598999,-2.35753697424168,147.15986742641894,29.94282632083641,0.0,1.0,15.62620404627905,5.790051568875596,0.0,Landing
23.1,-378.6473653977931,-900.0507462086144,172.74226669923235,1.0074021172263947,-2.489946008117226,147.38973166334767,30.008038534588067,0.0,1.0,15.62620404627905,5.790051568875596,0.0,Landing
23.200000000000003,-380.12869770943337,-925.1807958404239,172.20548744815838,1.250794141473943,-2.400152815447652,147.30414864736315,30.29452998382908,0.0,1.0,15.62620404627905,5.790051568875596,0.0,Landing
23.3,-381.7199783796666,-924.1686026844942,173.91862246472533,0.9018092207444878,-2.0041793933222283,147.26569408115643,30.133249438863096,0.0,1.0,15.62620404627905,5.790051568875596,0.0,Landing
23.400000000000002,-383.2682084112156,-936.2268794187454,174.6050881875533,1.3078717730495621,-2.7286488025393614,147.1797233496871,30.095388282136554,0.0,1.0,15.62620404627905,5.790051568875596,0.0,Landing
23.5,-384.8098321065271,-949.9174598226201,173.2754661680285,1.083679961926503,-2.4460822076039075,147.39451058682937,29.86179307079256,0.0,1.0,15.62620404627905,5.790051568875596,0.0,Landing
23.6,-386.4695656787797,-938.3953649544193,175.12413202675168,1.058946225005758,-2.5015709001996767,147.2895380087357,29.79012412718303,0.0,1.0,15.62620404627905,5.790051568875596,0.0,Landing
23.700000000000003,-387.9601852359877,-942.141646627567,174.803596605131,1.3827016257784759,-2.671347890049911,147.21479399424868,29.53171804663304,0.0,1.0,15.62620404627905,5.790051568875596,0.0,Landing
23.8,-389.52054033966493,-924.310452669965,173.86260877325546,0.8260992351627217,-2.5892583172687442,147.0624419672921,29.594960989264724,0.0,1.0,15.62620404627905,5.790051568875596,0.0,Landing
23.900000000000002,-391.09111794212953,-929.0701333694298,174.4657541177721,1.6111836161045436,-3.0913285892207356,147.12833031612672,29.77663798744677,0.0,1.0,15.62620404627905,5.790051568875596,0.0,Landing
24.0,-392.60553590283484,-946.4882189875194,173.4068441199398,0.9197591442252006,-2.4962868828495983,147.28186057650214,29.774194326997012,0.0,1.0,15.62620404627905,5.790051568875596,0.0,Landing
24.1,-394.25298143460253,-943.4375017367753,172.98273978442512,1.5749171995191003,-2.5184250735867906,147.4075656603851,29.79541185411006,0.0,1.0,15.62620404627905,5.790051568875596,0.0,Landing
24.200000000000003,-395.8083054508134,-955.6399927731715,172.1743314157244,1.0932107218023028,-2.4198215033286603,147.14501292648004,30.49131000778074,0.0,1.0,15.62620404627905,5.790051568875596,0.0,Landing
24.3,-397.3837358667007,-939.8314687450462,173.51504436474198,1.0539886038107913,-2.37882993982695,147.10880865362878,30.529888429906492,0.0,1.0,15.62620404627905,5.790051568875596,0.0,Landing
24.400000000000002,-398.95213877832776,-935.5349692512501,174.4031255529033,1.2262602061433419,-2.8066381913737164,147.3729493987695,30.438457279929075,0.0,1.0,15.62620404627905,5.790051568875596,0.0,Landing
24.5,-400.48598029706966,-937.8983960201705,175.26521025495606,1.357266807906228,-2.374004130704369,146.89562699788547,30.71328101577772,0.0,1.0,15.62620404627905,5.790051568875596,0.0,Landing
24.6,-402.07322784680156,-923.3415651787592,172.5543693413695,1.130839282049367,-2.542141122113091,147.38746364249357,30.339838619844176,0.0,1.0,15.62620404627905,5.790051568875596,0.0,Landing
24.700000000000003,-403.56884660422156,-928.9535927254857,173.33802619113828,0.8572728498756358,-2.66555480510247,147.2984117280547,30.635517665304505,0.0,1.0,15.62620404627905,5.790051568875596,0.0,Landing
24.8,-405.1307482606971,-936.2171926705852,173.98131090795596,0.9929228561196943,-2.4551126285504585,147.06183660415456,29.779280925753437,0.0,1.0,15.62620404627905,5.790051568875596,0.0,Landing
24.900000000000002,-406.7543138101545,-940.6503069974857,172.0798827383515,1.3528116249191848,-2.1684357788518325,147.0472994647157,30.071153446727703,0.0,1.0,15.62620404627905,5.790051568875596,0.0,Landing
25.0,-408.272098139209,-938.060625914272,173.5961358202722,1.137800323342736,-3.1528418019275,147.2041205589809,29.874438982067243,0.0,1.0,15.62620404627905,5.790051568875596,0.0,Landing
25.1,-409.82105139026845,-920.1992908555322,174.11661709751047,0.7405841213786738,-2.704534243056979,147.39231892133796,30.199546556884975,0.0,1.0,15.62620404627905,5.790051568875596,0.0,Landing
25.200000000000003,-411.35531026443215,-918.6776520392638,173.476794998634,0.751859159942005,-2.587094233185151,147.40197115194292,30.210776991267327,0.0,1.0,15.62620404627905,5.790051568875596,0.0,Landing
25.3,-412.8654863994053,-908.251531004009,171.61819375891065,1.0894819678772374,-2.6669697963668266,147.08765150249468,30.13761014954977,0.0,1.0,15.62620404627905,5.790051568875596,0.0,Landing
25.400000000000002,-414.3623090452885,-921.6356934225242,173.3693065424401,0.638733943612006,-2.5892888175814055,147.3249855255142,30.409157978945963,0.0,1.0,15.62620404627905,5.790051568875596,0.0,Landing
25.5,-415.96348873154477,-926.8036069877322,172.82443873404029,1.0724663251741666,-2.3359135991427262,147.32398510785117,29.941302924466672,0.0,1.0,15.62620404627905,5.790051568875596,0.0,Landing
25.6,-417.499504434344,-934.2704556562463,173.27272453811594,0.9263868643362441,-2.549443347137197,147.44129400360134,30.208206352221495,0.0,1.0,15.62620404627905,5.790051568875596,0.0,Landing
25.700000000000003,-419.03366132356973,-924.4338219772427,173.27800264068344,1.0586192883849728,-2.4700762876105467,147.30442907451902,30.353476043895874,0.0,1.0,15.62620404627905,5.790051568875596,0.0,Landing
25.8,-420.585657841431,-924.8269417012235,173.36078621424016,1.2093439186095474,-2.3875206006271115,147.3029450794196,30.040347580728987,0.0,1.0,15.62620404627905,5.790051568875596,0.0,Landing
25.900000000000002,-422.1236391428501,-911.6249392411643,175.34462148716293,1.2226925411643306,-2.3345876634412805,147.37445910621193,30.260036114506136,0.0,1.0,15.62620404627905,5.790051568875596,0.0,Landing
26.0,-423.59178601977555,-910.3443487689443,172.78243918041167,1.0390098204472578,-2.83735451651321,147.2350334763525,29.83611190422662,0.0,1.0,15.62620404627905,5.790051568875596,0.0,Landing
26.1,-425.1373795852757,-925.0078690365395,173.43522031226382,1.0049613478027555,-2.236372446712435,147.0471274461338,30.462194400099317,0.0,1.0,15.62620404627905,5.790051568875596,0.0,Landing
26.200000000000003,-426.7486784880328,-955.742514535984,173.41281834998998,1.6469806662009572,-2.488014611555723,147.43834279998282,29.93607420603674,0.0,1.0,15.62620404627905,5.790051568875596,0.0,Landing
26.3,-428.3704985924555,-964.995427159931,173.1083156085978,1.1725087844867688,-2.354200531902148,147.41361646644287,30.143583874803717,0.0,1.0,15.62620404627905,5.790051568875596,0.0,Landing
26.400000000000002,-429.96235672107537,-952.6825783869295,174.1314207734594,1.0576773819138665,-2.221551831569175,147.05617424940203,30.270754786810155,0.0,1.0,15.62620404627905,5.790051568875596,0.0,Landing
26.5,-431.51209137996744,-937.293834857746,173.2806650951775,1.3719398113166275,-2.6516835119565623,147.3402821080267,30.00334332394497,0.0,1.0,15.62620404627905,5.790051568875596,0.0,Landing
26.6,-433.0569677667442,-937.9910237208488,172.49759038560543,1.0477269613078197,-2.225718062198751,147.18717053190346,30.704672132096142,0.0,1.0,15.62620404627905,5.790051568875596,0.0,Landing
26.700000000000003,-434.6523118396796,-930.0010522660383,173.93792887850964,0.8533407827287838,-2.943612915410095,147.33538777254194,29.94658784456338,0.0,1.0,15.62620404627905,5.790051568875596,0.0,Landing
26.8,-436.16209664129764,-907.1801367478425,172.12273425906997,1.1847336137873068,-2.468874444945168,147.44188971254744,30.065820369563628,0.0,1.0,15.62620404627905,5.790051568875596,0.0,Landing
26.900000000000002,-437.5928684504834,-882.8206365323236,173.82034719012586,1.1972581981699082,-2.3628561067499514,147.39598152694123,30.56389507892874,0.0,1.0,15.62620404627905,5.790051568875596,0.0,Landing
27.0,-439.06641502234123,-880.7779644291937,174.2095797054061,1.3069935395249797,-2.6337909941336535,147.01954287867244,29.15044781822592,0.0,1.0,15.62620404627905,5.790051568875596,0.0,Landing
27.1,-440.5659864634436,-912.9253957935699,173.76868166137174,1.050527214278337,-2.566676004980216,147.24390563155566,30.11842897823982,0.0,1.0,15.62620404627905,5.790051568875596,0.0,Landing
27.200000000000003,-442.1574954294513,-925.3064174518382,173.59316234969887,1.1744344793500634,-2.693895956987868,147.2378094690775,30.633544742683668,0.0,1.0,15.62620404627905,5.790051568875596,0.0,Landing
27.3,-443.6929471096004,-937.2337197142766,176.06431579484953,1.093376420430277,-2.383358147097288,147.198352052955,30.17560228151724,0.0,1.0,15.62620404627905,5.790051568875596,0.0,Landing
27.400000000000002,-445.252155062015,-929.1815925556986,172.88552363960022,1.143864186528186,-2.3249006356790227,147.22052666910008,30.5105082926671,0.0,1.0,15.62620404627905,5.790051568875596,0.0,Landing
27.5,-446.80340339222977,-928.0925726269171,172.88506576671338,1.3933215131143242,-2.6673672099464993,147.39616004674542,29.899934174020455,0.0,1.0,15.62620404627905,5.790051568875596,0.0,Landing
27.6,-448.333409972735,-946.1341140810074,172.9259197086036,0.8218011771214772,-2.132506542683987,147.374289373286,29.8029898364539,0.0,1.0,15.62620404627905,5.790051568875596,0.0,Landing
27.700000000000003,-449.98282563242003,-950.7318133033206,173.8688898932631,1.0546539548336173,-2.370813208114831,147.09475917925715,30.038543201843982,0.0,1.0,15.62620404627905,5.790051568875596,0.0,Landing
27.8,-451.5570624587464,-948.8323079198036,174.05401186760696,0.9019288853989511,-2.4983935802998545,147.09159533814807,29.657940964758502,0.0,1.0,15.62620404627905,5.790051568875596,0.0,Landing
27.900000000000002,-453.07757151233403,-932.537071319916,173.63037807483477,0.7889822126739415,-2.4559596012977374,147.44732687829423,30.79104689651843,0.0,1.0,15.62620404627905,5.790051568875596,0.0,Landing
28.0,-454.6455109890196,-928.4687209753084,174.76694425117154,1.1742135296733616,-2.250693507473576,146.94469120249363,29.838938797368563,0.0,1.0,15.62620404627905,5.790051568875596,0.0,Landing
28.1,-456.1994060636229,-937.9982979995813,172.90433102350175,1.6191770104399228,-2.444237945758479,147.30832209943912,29.86491503259363,0.0,1.0,15.62620404627905,5.790051568875596,0.0,Landing
28.200000000000003,-457.76756300233194,-933.1013788732545,175.5189939328603,1.1972063797636157,-2.4625864766194328,147.20255942701715,30.371844021310263,0.0,1.0,15.62620404627905,5.790051568875596,0.0,Landing
28.3,-459.3110178833859,-936.9372800121251,172.4320670454141,1.042735847762739,-2.5128881000515917,147.40565610398755,29.794092743209234,0.0,1.0,15.62620404627905,5.790051568875596,0.0,Landing
28.400000000000002,-460.88409246368354,-923.1397986709677,172.76225964052236,1.4440061452243318,-2.5307449678859046,147.06262017265925,30.118846153476564,0.0,1.0,15.62620404627905,5.790051568875596,0.0,Landing
28.5,-462.3832619956868,-903.707465714194,172.59364974983717,1.4505947290733254,-2.3219920602571356,147.67556067570985,30.294285472920254,0.0,1.0,15.62620404627905,5.790051568875596,0.0,Landing
28.6,-463.82955521195686,-899.20946486377,173.8540990780959,0.9771783927822781,-2.4425785495892205,147.0952303447831,29.573096670411147,0.0,1.0,15.62620404627905,5.790051568875596,0.0,Landing
28.700000000000003,-465.3801397880024,-900.0144671525501,173.6118373539478,1.2778729476009714,-2.776443226142793,147.06949625798018,30.688874624706923,0.0,1.0,15.62620404627905,5.790051568875596,0.0,Landing
28.8,-466.88333433144953,-907.0353389710359,173.346979657832,1.4122400895346405,-2.726893826015841,147.4585590257676,29.98624510203825,0.0,1.0,15.62620404627905,5.790051568875596,0.0,Landing
28.900000000000002,-468.36473190681204,-903.954322089805,172.8504443061841,0.8401944983564712,-2.5406474040856297,147.25094920515073,30.12081695863957,0.0,1.0,15.62620404627905,5.790051568875596,0.0,Landing
29.0,-469.8999113984514,-903.8558623141508,174.04587775705775,1.0618102547663875,-2.5484708294289717,147.25965136396087,30.195301714267934,0.0,1.0,15.62620404627905,5.790051568875596,0.0,Landing
29.1,-471.4026136430203,-918.2375259443003,173.28442278514515,0.8701247055627958,-2.509278018977706,147.074951303626,29.658378261891208,0.0,1.0,15.62620404627905,5.790051568875596,0.0,Landing
29.200000000000003,-472.95591953653354,-911.0295637949545,173.7860690666502,1.2300732900961933,-2.587919253727877,147.47144856892965,30.055592774922534,0.0,1.0,15.62620404627905,5.790051568875596,0.0,Landing
29.3,-474.4550592174262,-910.667114538796,174.3973223041509,1.3783412676539306,-2.5638032218369364,146.98555310510193,29.94253075742996,0.0,1.0,15.62620404627905,5.790051568875596,0.0,Landing
29.400000000000002,-475.95594921571427,-873.6783853477842,175.41222644908123,1.2844115344767202,-2.4074571406695466,147.39170970523952,30.075266434217166,0.0,1.0,15.62620404627905,5.790051568875596,0.0,Landing
29.5,-477.32431146327247,-882.2563309667768,174.93904356232463,0.7723449746105855,-2.4902710656007714,147.1680706271187,29.96161451731972,0.0,1.0,15.62620404627905,5.790051568875596,0.0,Landing
29.6,-478.8663408722601,-875.4366083114174,173.97999671928002,1.1791929542627697,-2.458122130003022,147.39184521564755,30.43606721605668,0.0,1.0,15.62620404627905,5.790051568875596,0.0,Landing
29.700000000000003,-480.33313225727136,-887.1485159086202,173.65248350756173,0.8215581361743085,-2.165432647363231,147.02930303888536,31.05717185196942,0.0,1.0,15.62620404627905,5.790051568875596,0.0,Landing
29.8,-481.76005404281557,-873.0767530688464,172.60983293819822,0.9176225756859169,-2.532850081523816,147.5128262165802,29.51333196979829,0.0,1.0,15.62620404627905,5.790051568875596,0.0,Landing
29.900000000000002,-483.2317246376043,-885.0297128821236,173.06097865088864,1.3614270009639846,-2.400636555119158,147.1801101287441,30.083241603206684,0.0,1.0,15.62620404627905,5.790051568875596,0.0,Landing
30.0,-484.758280821682,-893.1173699620668,172.1402982955862,1.3128552942120977,-2.549180604589637,147.19316159272398,30.438879554529723,0.0,1.0,15.62620404627905,5.790051568875596,0.0,Landing
