time_s,altitude_ft,vertical_speed_fpm,ias_kt,pitch_deg,roll_deg,heading_deg,throttle_pct,afterburner_on,gear_down,flaps_deg,speedbrake_pct,weight_on_wheels,label
0.0,-0.03805097543419819,4.887789039663002,9.821521178765439,1.8419346530892569,0.11514623134792228,160.95334562388723,20.199224246859096,0.0,1.0,0.0,0.0,1.0,Taxi
0.1,-0.021758345301988183,5.955742768904436,9.738149118942903,1.8405279805649422,0.4582275279602521,160.71002307671813,19.22363964097689,0.0,1.0,0.0,0.0,1.0,Taxi
0.2,-0.008272261589676012,11.61664610306059,9.594284718371675,1.6958821002795743,-0.7411748892357921,161.07442755071406,20.529295820883142,0.0,1.0,0.0,0.0,1.0,Taxi
0.30000000000000004,0.02003225508110477,24.49451779759931,9.235939499426125,1.8086991799480467,0.5007169382456362,160.71582657419708,19.61464135411381,0.0,1.0,0.0,0.0,1.0,Taxi
0.4,0.10071424368600837,-0.196636243641611,9.963848008661772,1.639179829382295,0.051216183029878064,160.73898403696955,20.657031955074753,0.0,1.0,0.0,0.0,1.0,Taxi
0.5,-0.009255442807884049,0.40197766790723694,9.399672013838632,1.808230933026358,0.3987347742816961,160.76789549614045,19.477198826995423,0.0,1.0,0.0,0.0,1.0,Taxi
0.6000000000000001,0.022042143420640963,-28.339043246518624,10.223274533907887,1.9296791174979024,0.01296188999591903,160.75005432584032,19.303190403476407,0.0,1.0,0.0,0.0,1.0,Taxi
0.7000000000000001,-0.040980972546584726,3.0081364571943787,9.703659271978438,1.6269617025036722,0.5607142363734349,160.8224271613998,19.193724579599493,0.0,1.0,0.0,0.0,1.0,Taxi
0.8,0.0057852394780878585,-20.68724671390559,10.026483395976827,1.7723159376298567,-0.7345023603293316,160.89446015494673,19.557626765914186,0.0,1.0,0.0,0.0,1.0,Taxi
0.9,-0.08139409014888696,-5.829722310208204,9.458775376510962,1.5409620305891982,0.3574630129550536,160.775882524463,19.830591902698906,0.0,1.0,0.0,0.0,1.0,Taxi
1.0,-0.07012958409762574,6.863347249312042,8.98986304293934,1.7586713691277478,-0.09658845086706469,160.84540715426442,19.435650774832805,0.0,1.0,0.0,0.0,1.0,Taxi
1.1,0.04010197572464809,38.95014165129538,8.86245410941591,1.9548972549484613,-0.24851913801407136,160.71887323343435,20.578402128570072,0.0,1.0,0.0,0.0,1.0,Taxi
1.2000000000000002,0.11335661810758996,-16.282213493334,9.996396262593176,1.8651025131556427,-0.1552948963937413,160.73570248866827,19.519491390055386,0.0,1.0,0.0,0.0,1.0,Taxi
1.3,-0.15154065156429575,21.81224426592191,10.434006576406853,1.7796696085871442,-0.22038507171588048,160.90011829242633,18.65270357306529,0.0,1.0,0.0,0.0,1.0,Taxi
1.4000000000000001,0.1491631970542576,-26.358780153871066,9.820251745101737,2.1655968730145454,-0.8384281030023676,160.79589943523547,19.880905588025264,0.0,1.0,0.0,0.0,1.0,Taxi
1.5,-0.018437282661765385,56.38365243985303,9.514961509647769,1.4858865892926199,-0.3627356193326934,160.88962402202594,19.97291558911565,0.0,1.0,0.0,0.0,1.0,Taxi
1.6,0.13037761063496942,-30.491290281581485,8.191744410665745,1.831456236957402,0.031579652966738134,160.86268760303187,20.3325702756097,0.0,1.0,0.0,0.0,1.0,Taxi
1.7000000000000002,-0.003293254353649801,-14.231833441827865,10.34977112970647,1.3193713829340352,-0.2885442455928061,160.80733221063815,20.207584700218312,0.0,1.0,0.0,0.0,1.0,Taxi
1.8,-0.08959644987090469,-67.02280721148257,10.437446538977362,1.7815395205585387,-0.10154591423399936,160.89347805489933,20.616252162440855,0.0,1.0,0.0,0.0,1.0,Taxi
1.9000000000000001,-0.20473642542244344,18.70259623185406,9.31744173452206,1.6611387628794132,0.014454572106760526,160.83753922054814,20.706800089657012,0.0,1.0,0.0,0.0,1.0,Taxi
2.0,0.0902197268056205,17.49650168069294,9.376437962575595,1.9086182833105831,0.33660278911492597,160.76392187519093,19.405351995786017,0.0,1.0,0.0,0.0,1.0,Taxi
2.1,-0.00211394146744,43.265971682387736,9.408102486924944,1.588661960422901,-0.3012375219014995,160.79159414219794,19.660690784327723,0.0,1.0,0.0,0.0,1.0,Taxi
2.2,0.011593432989495233,-13.859243547185818,9.654417744848558,1.7181762795667481,-0.4198319332342537,160.81501067349677,19.0473370008819,0.0,1.0,0.0,0.0,1.0,Taxi
2.3000000000000003,0.020923509069691412,10.946145943289741,10.003116460699225,1.7487280034496204,0.46461115562966826,160.72775460913,19.66548191501519,0.0,1.0,0.0,0.0,1.0,Taxi
2.4000000000000004,0.0526167882490087,23.225173271145934,8.795481953857193,1.6295584504626717,-0.31148913262872036,160.87311502468935,19.861403675754744,0.0,1.0,0.0,0.0,1.0,Taxi
2.5,0.1277192993452249,-2.805437560018987,9.516834154808024,1.6233928097840966,-0.532460017839109,160.80168276283916,19.18210958886551,0.0,1.0,0.0,0.0,1.0,Taxi
2.6,0.006896321269596476,-36.939504745944554,9.83713407948808,1.5113335244985358,-0.4740577816768187,160.74355486303625,19.41086418835119,0.0,1.0,0.0,0.0,1.0,Taxi
2.7,-0.13208073548071406,-34.2621210222191,9.133290040964516,1.4397864423462767,-0.674400187582241,160.76464232956278,19.63577911522908,0.0,1.0,0.0,0.0,1.0,Taxi
2.8000000000000003,-0.04359130576587059,-8.180396230057976,8.822504716868515,1.6406625768062213,0.04491578981099909,160.84963702620723,20.17614934043834,0.0,1.0,0.0,0.0,1.0,Taxi
2.9000000000000004,-0.034005659880693415,39.45594419427155,10.014339991418192,1.714813352872396,0.9095979281875427,160.82060147221955,19.547619161054197,0.0,1.0,0.0,0.0,1.0,Taxi
3.0,0.0651989854906437,12.33428718212364,10.066340143037978,1.469109616606296,-9.77450103590545e-06,160.63660425957448,19.528188529314136,0.0,1.0,0.0,0.0,1.0,Taxi
3.1,0.01808013014474761,2.661863353565984,9.617699188786444,1.6657996422543746,-0.5124886254552654,160.76676006734533,19.06403902237966,0.0,1.0,0.0,0.0,1.0,Taxi
3.2,-0.020696343112863502,17.084014482970904,9.462984351005499,1.5903027311782039,0.0866637437196749,160.83945329362336,19.44019700160154,0.0,1.0,0.0,0.0,1.0,Taxi
3.3000000000000003,0.1506190579054982,4.1869060778386755,9.517698528298423,1.784830893950634,-0.9945016306060217,160.96658370683747,20.26758176610549,0.0,1.0,0.0,0.0,1.0,Taxi
3.4000000000000004,0.03901466053394097,-5.335875400092374,9.85572220048903,1.7712808225045826,0.16543392116403213,160.70059962483924,20.497666236590284,0.0,1.0,0.0,0.0,1.0,Taxi
3.5,-0.04737572011332539,-58.20849911957922,10.027049870852796,2.090163357897727,-0.5376456720152202,160.7195749044256,19.22310751397311,0.0,1.0,0.0,0.0,1.0,Taxi
3.6,-0.14042343769239796,-9.56946865613125,9.844825298240501,1.716104170469733,0.4019958451884509,160.93207967853766,19.701291461349243,0.0,1.0,0.0,0.0,1.0,Taxi
3.7,-0.008832682746715288,9.058447645711704,8.305270212191116,1.777837614752744,-0.05236313062596269,160.74923570331111,19.095400273854416,0.0,1.0,0.0,0.0,1.0,Taxi
3.8000000000000003,-0.0020834818847668725,53.309265692744,9.181328731669222,1.923620583157161,-0.4900986858262154,160.9750525022897,19.954591161778655,0.0,1.0,0.0,0.0,1.0,Taxi
3.9000000000000004,0.126122890771322,-22.647106794983774,9.995555613064061,1.5208655114713987,-0.5572951390705292,160.8759162185196,19.023571939992564,0.0,1.0,0.0,0.0,1.0,Taxi
4.0,-0.1220682167216342,-21.42114912759173,9.603732262702811,1.8328607147267897,0.21391739915204472,160.88353879651402,18.96610017006303,0.0,1.0,0.0,0.0,1.0,Taxi
4.1000000000000005,-0.10918922752272556,-33.51483453458215,9.013764297718534,1.633628496983868,0.5870033261747939,160.70588437679748,19.382736028750525,0.0,1.0,0.0,0.0,1.0,Taxi
4.2,-0.041451281901588775,19.52695237286584,8.480234976405697,1.9184123786165455,0.08109293862234183,160.81768068527595,19.22545461120147,0.0,1.0,0.0,0.0,1.0,Taxi
4.3,-0.024433454857305,28.311341395580246,10.217345075746618,1.85101233582967,0.3218641360185397,160.91388832364294,19.75642741565171,0.0,1.0,0.0,0.0,1.0,Taxi
4.4,0.03236747945517569,8.850621829790663,8.847700970657028,1.3511566193018385,-0.4104042557645414,160.79026565397612,19.982083806718098,0.0,1.0,0.0,0.0,1.0,Taxi
4.5,0.002801827247364545,-19.280571686274698,9.762988715580384,1.6402090805133265,-0.3848971374745435,160.9419622723591,20.48797515372042,0.0,1.0,0.0,0.0,1.0,Taxi
4.6000000000000005,-0.1208363132886785,34.55921624468109,9.474170222174347,1.7043076512138295,-0.7427485899071409,160.9871727240493,19.728877035528914,0.0,1.0,0.0,0.0,1.0,Taxi
4.7,0.2051635606785811,15.59263845680266,10.3748874911549,1.8782261131536149,-0.1598484573678402,160.98572298422846,19.100300301170883,0.0,1.0,0.0,0.0,1.0,Taxi
4.800000000000001,0.08076501953137785,56.16852528714585,9.2917580958634,1.8007859735093297,0.43718570942452073,160.84050651868256,18.95295103775482,0.0,1.0,0.0,0.0,1.0,Taxi
4.9,0.16000631314705072,-23.025540169362035,9.755039657142925,1.5943434940901227,0.0382610045528605,160.84812464557842,19.65822316309632,0.0,1.0,0.0,0.0,1.0,Taxi
5.0,0.09003585983177093,5.865344794725096,8.713413248889454,1.7605195494532435,-1.1827801999112175,160.75350042594937,20.160575067571568,0.0,1.0,0.0,0.0,1.0,Taxi
5.1000000000000005,0.11009174350500334,-8.262652422438824,9.25936712205272,1.6455470507985086,-0.05614077988319262,161.0664970256579,20.588089954226874,0.0,1.0,0.0,0.0,1.0,Taxi
5.2,0.1186930510348566,2.5269391399341976,9.822686537591062,1.6861478492633597,0.2658302447992509,160.86601714197786,20.533020950601305,0.0,1.0,0.0,0.0,1.0,Taxi
5.300000000000001,0.10267055553144191,-77.37886045985537,10.283200436116104,1.4478457461428211,-0.08700386674333356,160.76885023581053,19.354808426916485,0.0,1.0,0.0,0.0,1.0,Taxi
5.4,-0.27680255879427346,-38.99669613621333,9.050566166489189,1.5440624643970429,-0.0819109759799983,160.75681576299723,20.19801755518901,0.0,1.0,0.0,0.0,1.0,Taxi
5.5,-0.07629042964621,-1.2357609955972844,8.969031451643056,1.729888921708699,-0.012852050586914571,160.78532507567695,19.586822812987947,0.0,1.0,0.0,0.0,1.0,Taxi
5.6000000000000005,0.09649175055345555,42.50937132418897,9.450426494641704,1.912115598668867,-0.18821956083138183,160.7223947001521,19.491526017481355,0.0,1.0,0.0,0.0,1.0,Taxi
5.7,-0.06425570217332859,19.377820468206878,9.57884223569519,1.5351921941043596,0.8689033255757485,160.85919067823477,19.248071661041173,0.0,1.0,0.0,0.0,1.0,Taxi
5.800000000000001,0.02059867269482441,2.9702689773077418,8.92319958797813,1.9077734322957496,-0.05894433292695553,160.9884479935988,19.953368090239703,0.0,1.0,0.0,0.0,1.0,Taxi
5.9,0.11134309543999428,9.55938640378009,9.305697924452817,1.865156696003609,0.27828137615109055,160.87747203294475,19.328799880211417,0.0,1.0,0.0,0.0,1.0,Taxi
6.0,-0.016458770154428124,-13.615028149206807,9.109008510145472,1.6004936293445475,-0.3599238613443773,160.71134200403526,19.445613182185387,0.0,1.0,0.0,0.0,1.0,Taxi
6.1000000000000005,-0.04747646805120959,-14.152448511197255,9.76742353907239,1.8123756884084652,0.6470500638310333,160.80590955717537,19.43022069462136,0.0,1.0,0.0,0.0,1.0,Taxi
6.2,0.040580852884008055,-25.944213869288845,9.856322757131663,1.278202465113332,-0.38516581971283936,160.7445946994667,20.414759846371098,0.0,1.0,0.0,0.0,1.0,Taxi
6.300000000000001,-0.14617983950087232,-8.11443170068164,10.53596996592955,1.6281984684857271,-0.01239746331426459,160.7638256456505,19.42357842834251,0.0,1.0,0.0,0.0,1.0,Taxi
6.4,-0.08804862655461776,-11.035020293942525,8.887107525193471,1.6142059515594038,-1.633143252149335,160.84573906285664,19.925841064439144,0.0,1.0,0.0,0.0,1.0,Taxi
6.5,-0.01459424858570454,-2.133379867572515,9.589921934170574,1.8905011335553485,0.09627687469434938,160.78638016120635,18.855081353484113,0.0,1.0,0.0,0.0,1.0,Taxi
6.6000000000000005,-0.15684673883873484,35.509181977499985,10.37927699647618,1.553520346708663,-1.0018490133546403,160.80389771484408,20.384334480620907,0.0,1.0,0.0,0.0,1.0,Taxi
6.7,0.08949728333288216,12.856388538534025,9.817195577466899,1.7598683979890828,0.2649161319518633,160.8579354343874,19.30549651311978,0.0,1.0,0.0,0.0,1.0,Taxi
6.800000000000001,0.049687694106965594,9.5917384405496,10.282108699199627,1.4255694865819069,-0.7238585533630598,160.79039413279406,19.64915272588307,0.0,1.0,0.0,0.0,1.0,Taxi
6.9,-0.10888804663598683,-30.794475347415645,10.672830745107486,1.5728765881522342,-0.12746569451961098,160.69278232406248,19.524724727056302,0.0,1.0,0.0,0.0,1.0,Taxi
7.0,-0.06447509340419603,22.901240766126175,9.791853992893806,1.3590848703830594,-0.67886617598203,160.81436017527517,19.47354526259688,0.0,1.0,0.0,0.0,1.0,Taxi
7.1000000000000005,0.1641938979375965,9.01716888715753,9.839973873030512,1.4542153482400837,-0.49585290594912906,160.75604629109228,20.46890947637993,0.0,1.0,0.0,0.0,1.0,Taxi
7.2,-0.06380220220019914,-20.711027277130615,9.315764805028458,1.8340306084401257,-1.1304573515626093,160.93254623977123,18.93913173835272,0.0,1.0,0.0,0.0,1.0,Taxi
7.300000000000001,-0.16803022978984908,-54.859832298806936,8.672124265562958,1.7990995538592247,-1.1688157024663497,160.72667061427978,19.860117050037168,0.0,1.0,0.0,0.0,1.0,Taxi
7.4,-0.11010526355643813,5.835122330153759,9.951832041358855,1.8387222835662886,1.077507287020965,160.8029784252269,19.400955655050893,0.0,1.0,0.0,0.0,1.0,Taxi
7.5,-0.03462659054943031,62.140131332698466,9.44336952632764,1.8485748796463695,0.47276641848547835,160.95354096980827,20.24121810698006,0.0,1.0,0.0,0.0,1.0,Taxi
7.6000000000000005,0.14267042687364326,32.53366510122465,9.382648415982453,1.6940676485161386,-0.25874316566606714,160.96568579655855,20.022643399247876,0.0,1.0,0.0,0.0,1.0,Taxi
7.7,0.052563061949685165,-5.941551674809257,9.735417086586358,1.7935773524850647,0.05398370619686696,160.85332433273425,19.7548305976309,0.0,1.0,0.0,0.0,1.0,Taxi
7.800000000000001,-0.06433434892347659,-16.734645759402312,10.071757488693917,1.709514145352064,-0.3688814063766049,160.86556077064722,19.883996373986342,0.0,1.0,0.0,0.0,1.0,Taxi
7.9,0.05899719807663173,12.774969167463766,8.706800622310457,1.6353529265841908,-1.2770658632470422,160.92118120293037,20.697988361960576,0.0,1.0,0.0,0.0,1.0,Taxi
8.0,0.11643790778700402,31.407376696807816,8.78070113254017,1.7895738699574486,-0.34449214722506855,160.8340384108193,19.65562685129966,0.0,1.0,0.0,0.0,1.0,Taxi
8.1,0.09270253456056253,-18.988094658617985,8.77955219900185,1.9462863117551064,-0.049818575644105904,160.72159783709105,19.777141652200132,0.0,1.0,0.0,0.0,1.0,Taxi
8.200000000000001,-0.0359432752164582,-24.41715828494533,9.446811473662843,1.6410244995824175,0.8292196592903297,160.78952151484805,18.955133303368115,0.0,1.0,0.0,0.0,1.0,Taxi
8.3,-0.0056478836377226276,7.264468869516766,8.91544412163839,1.5956711805150057,0.6291355128098289,160.64636655122627,19.58837319078916,0.0,1.0,0.0,0.0,1.0,Taxi
8.4,0.12902487890814637,-26.527134468599826,9.998811558621037,1.7624540988992516,-0.2600350437704618,160.89653593034325,19.64964532602113,0.0,1.0,0.0,0.0,1.0,Taxi
8.5,-0.16857894755945724,14.894054702495538,9.825031703957821,1.8959093021295441,-0.27949032129229795,160.96033779867503,19.555705721257276,0.0,1.0,0.0,0.0,1.0,Taxi
8.6,0.0688223898747552,-20.91334992820739,9.571625793148385,1.8761659246420122,0.04108776387578545,160.84379114620253,20.236803473865645,0.0,1.0,0.0,0.0,1.0,Taxi
8.700000000000001,0.02445812926710956,-9.43787426111526,10.08438583489521,1.9025774629210357,0.5031890029620825,160.80968003406213,19.202612595858998,0.0,1.0,0.0,0.0,1.0,Taxi
8.8,-0.2157683188650335,-22.347646010878965,9.253170254206358,1.788526256013519,0.18753658480664176,160.99613987062503,19.178151290911494,0.0,1.0,0.0,0.0,1.0,Taxi
8.9,-0.04291584017963965,19.74938536092164,9.74349644621275,1.7016493488133992,-0.20293410601407685,161.0441341034682,19.86299349275884,0.0,1.0,0.0,0.0,1.0,Taxi
9.0,0.12320505607171772,32.14869689100498,9.681214046767387,1.9686919193678358,1.7526215324681147,160.88732202341362,20.081374653861047,0.0,1.0,0.0,0.0,1.0,Taxi
9.1,-0.05502483441000863,-11.4956554163644,9.021999490694848,1.7388290942009552,0.3689768574277992,160.82934660623823,19.652572858450718,0.0,1.0,0.0,0.0,1.0,Taxi
9.200000000000001,-0.10039411726146166,-31.38063139414378,10.780439542855872,1.8146256950437323,0.1739217010686068,160.7711175223011,19.218358294094298,0.0,1.0,0.0,0.0,1.0,Taxi
9.3,-0.033698100899001174,-41.74454970833898,9.419846026062165,1.6328032893046391,-0.2886754824960765,160.84736871050995,19.55639783624491,0.0,1.0,0.0,0.0,1.0,Taxi
9.4,-0.2637475829517035,-0.09306324471300324,11.025161482916612,1.5954865470136625,-0.19703302770793493,160.87202691778282,19.54056328891164,0.0,1.0,0.0,0.0,1.0,Taxi
9.5,-0.10085943348502664,-2.507668514623082,9.043076341749412,1.391355472999526,-0.42424076576536607,160.82972093128194,19.15543430752939,0.0,1.0,0.0,0.0,1.0,Taxi
9.600000000000001,-0.04623644347211655,33.12369213028728,10.323403625170965,2.035502814915369,0.21430681454111633,160.73569707319575,20.19021645926767,0.0,1.0,0.0,0.0,1.0,Taxi
9.700000000000001,-0.0981291223002671,0.5940052670173346,10.238311333167438,1.5693652853855389,-0.2857556391955084,160.9149451949338,19.910228830834253,0.0,1.0,0.0,0.0,1.0,Taxi
9.8,-0.09788940714993993,22.4772022534918,10.338716529933906,1.9136648989471043,0.3396188467123722,160.93018163083502,19.768895128252076,0.0,1.0,0.0,0.0,1.0,Taxi
9.9,0.06614956779534246,36.80342703886945,10.685282900449897,1.229457266144593,0.5310692338977593,160.99009285664567,19.231312968769622,0.0,1.0,0.0,0.0,1.0,Taxi
10.0,0.08588801289408018,25.807218920997258,9.83808036862755,1.5154027792851323,-0.6948481538519,160.83729258707717,18.903739012956446,0.0,1.0,0.0,0.0,1.0,Taxi
10.100000000000001,0.031146687455046347,5.007496441625378,9.200541951466574,1.564691107734412,0.4467019379134933,160.78617982151297,19.939101293059483,0.0,1.0,0.0,0.0,1.0,Taxi
10.200000000000001,0.09118705000346937,-12.52390737574647,9.75345539005729,1.863214257636574,0.22485651703521112,161.05667654339072,20.047632930127396,0.0,1.0,0.0,0.0,1.0,Taxi
10.3,0.02326847601534784,-4.9659112449250715,8.527517941511245,1.7691233059647355,-0.4382672404777324,160.86243644287947,19.233346629174026,0.0,1.0,0.0,0.0,1.0,Taxi
10.4,0.006317131230420998,-34.72759317682512,8.95349996746246,1.8620638470257131,-0.8490707640415118,160.96578429684178,19.06596425810975,0.0,1.0,0.0,0.0,1.0,Taxi
10.5,-0.08245091588065619,-14.285678897218423,8.632532201949807,1.9499399048675385,0.6023706795439101,160.65701936344658,19.66180423645772,0.0,1.0,0.0,0.0,1.0,Taxi
10.600000000000001,-0.048159918470744245,-3.4680007331150584,9.48583275680177,1.849892136655292,-0.06953873025890163,160.9356580684032,20.179192982477772,0.0,1.0,0.0,0.0,1.0,Taxi
10.700000000000001,-0.011022872435154263,33.94096470885876,9.914744564258992,1.8965600020867348,0.18581952930173704,160.83557954430432,19.471868278154236,0.0,1.0,0.0,0.0,1.0,Taxi
10.8,0.08725390766363761,22.794205368434977,8.524973033295735,1.6972878861944718,-0.3314650261388686,160.79320875030191,19.432567567760533,0.0,1.0,0.0,0.0,1.0,Taxi
10.9,0.06581110837143066,-14.027320849655808,9.165962387085377,1.7645029828547125,-0.10623393495795656,160.95333689435358,19.469046504737936,0.0,1.0,0.0,0.0,1.0,Taxi
11.0,-0.0811594766834333,-32.41181954662258,9.681479771093148,1.6649726929490125,-0.43947394626892433,160.78303227329081,20.043824332922295,0.0,1.0,0.0,0.0,1.0,Taxi
11.100000000000001,-0.0748051900694753,-26.06149316495797,8.643721774075313,2.02119228914469,0.1914717902869535,160.80583898051032,20.378954591450206,0.0,1.0,0.0,0.0,1.0,Taxi
11.200000000000001,-0.06449635745335917,17.41465313373975,10.315689037127878,1.9571685380693533,-0.17219841049233087,160.85582706346725,19.65996683609438,0.0,1.0,0.0,0.0,1.0,Taxi
11.3,0.005913788985265478,-29.563528710895316,9.833604954312301,1.785743018264147,0.6887678559708779,160.7223455919925,19.828281652467123,0.0,1.0,0.0,0.0,1.0,Taxi
11.4,-0.22262283362395185,34.73389339997659,9.988232993283749,1.5499053219622565,-0.3236378367325591,160.91957470267948,19.738621711578855,0.0,1.0,0.0,0.0,1.0,Taxi
11.5,0.10917310954652382,-32.0040352497227,8.944908067221485,1.6662371322789558,-0.5215975688319106,160.80723713755162,20.537064629145895,0.0,1.0,0.0,0.0,1.0,Taxi
11.600000000000001,-0.1541063872633479,90.25127991444913,9.806075062126455,1.7325168057326803,0.24096169824423005,160.86118758010275,20.3528363371578,0.0,1.0,0.0,0.0,1.0,Taxi
11.700000000000001,0.22863356594829387,-46.630307942984906,9.626851882167418,2.0003429271322952,-0.24103310812616865,160.90699854638262,19.779259429923975,0.0,1.0,0.0,0.0,1.0,Taxi
11.8,-0.1239784301684007,22.03519481014655,9.180845829086412,1.4766504875852104,0.7150694879984231,161.0374076019774,20.18789541911371,0.0,1.0,0.0,0.0,1.0,Taxi
11.9,-0.04393041321261515,-77.31352255638377,8.892973589422263,1.9185821098744293,0.6179709984589075,160.85180910060353,20.696057627829216,0.0,1.0,0.0,0.0,1.0,Taxi
12.0,-0.15793404683362502,-8.176354405961995,9.196872436606332,2.084316071151389,-0.24657867919616328,160.66242591678952,19.677067669279303,0.0,1.0,0.0,0.0,1.0,Taxi
12.100000000000001,-0.16486020219821063,4.162941085876146,8.735596467403791,1.3757399465243974,-0.997062101209708,160.91278971927318,19.54309030522997,0.0,1.0,0.0,0.0,1.0,Taxi
12.200000000000001,-0.023115707783234376,25.790849163013913,8.963676853959065,1.6530551856461675,-0.6610877569726613,160.90757062774173,20.042586870230977,0.0,1.0,0.0,0.0,1.0,Taxi
12.3,-0.028979801018555393,38.831623129847394,8.768595259903595,1.5009212272062067,-0.6001694439485729,160.7745020092549,19.308490892438257,0.0,1.0,0.0,0.0,1.0,Taxi
12.4,0.02929791345102641,-37.77337926257203,10.332745500801268,1.6275056105572336,-0.7522499407124701,161.0169841608423,18.551585301824037,0.0,1.0,0.0,0.0,1.0,Taxi
12.5,-0.21198260409609443,-36.82268259214654,10.532711863726682,1.6725971314675316,0.05140721138430124,160.67834619131463,19.416683516992133,0.0,1.0,0.0,0.0,1.0,Taxi
12.600000000000001,-0.21309321397928802,3.016414004489311,8.788647409642245,1.7995044397012014,0.4623908747468902,160.94014644905337,19.804656457276632,0.0,1.0,0.0,0.0,1.0,Taxi
12.700000000000001,0.044379983473473036,36.99418016495889,9.913883705462574,1.440459093433443,0.3225571541252243,161.02386863620518,19.921976468770566,0.0,1.0,0.0,0.0,1.0,Taxi
12.8,-0.027011703271299915,55.34795377492005,10.147448239569336,2.178505849898585,0.38197848610202684,160.86536126055296,20.26282141681214,0.0,1.0,0.0,0.0,1.0,Taxi
12.9,0.06364655489531228,-31.58887013276045,9.698786174092024,1.7586131861650396,0.06614226545135934,160.80219503720696,20.22435247406363,0.0,1.0,0.0,0.0,1.0,Taxi
13.0,-0.11356436719032917,-18.390626689881476,9.503743409668752,1.8336004561117327,0.05271117347174887,160.83206493579132,19.97202214073519,0.0,1.0,0.0,0.0,1.0,Taxi
13.100000000000001,-0.11896483672070722,-4.314799613110869,9.243850679940559,1.2614932898189277,-0.39662310694029246,160.60007350699402,18.93322654682572,0.0,1.0,0.0,0.0,1.0,Taxi
13.200000000000001,0.042072556829757995,-7.789644370982856,10.055594238267771,1.7558017305207474,-0.1929530698848445,160.85717488530895,19.759014251330893,0.0,1.0,0.0,0.0,1.0,Taxi
13.3,-0.15251258904524337,7.911596313915091,9.809884407017714,1.7257934034183495,-0.4722756580591288,160.83588926203538,19.52347070916384,0.0,1.0,0.0,0.0,1.0,Taxi
13.4,-0.07940685515113169,-0.7759828469063734,10.530102995808665,1.6958845004990626,0.22783455782864365,160.83434805423894,19.600934318656506,0.0,1.0,0.0,0.0,1.0,Taxi
13.5,0.038192642595226214,66.03578068833664,10.07374594331979,1.5750706814172117,-0.6234695022178289,160.80797645955806,20.15078705132013,0.0,1.0,0.0,0.0,1.0,Taxi
13.600000000000001,0.17766631439643987,-17.836157145284716,9.81016937502504,1.607294080657122,0.5214939736941047,160.84112139007584,20.096273884058593,0.0,1.0,0.0,0.0,1.0,Taxi
13.700000000000001,-0.16858764087755532,8.28892899032723,9.910689601133464,1.584815526016927,1.06346562901213,160.85430172424572,19.416395309403626,0.0,1.0,0.0,0.0,1.0,Taxi
13.8,0.07963728754686233,-61.88870976139999,9.92403744810295,1.8492485652821573,1.2989822346938273,160.6561663997063,19.737098641553537,0.0,1.0,0.0,0.0,1.0,Taxi
13.9,-0.13177723441056008,74.05667387186546,9.829985785188116,1.5754995579661335,0.21288338609661625,160.67700975058142,19.501567358536313,0.0,1.0,0.0,0.0,1.0,Taxi
14.0,0.20169572848177197,-11.953229862641441,9.487784367407281,1.7180329224351978,0.6668415960116125,160.80748497100342,19.095032929561903,0.0,1.0,0.0,0.0,1.0,Taxi
14.100000000000001,0.019871138233655147,4.869811577052384,9.694391518390347,1.7863824046865344,-0.7832164023145423,161.04695699164085,19.75268020947914,0.0,1.0,0.0,0.0,1.0,Taxi
14.200000000000001,-0.10742817652529815,-25.569598122696178,10.597423882541912,1.717063468670483,-0.6975796578651621,160.9147792468525,19.020701704506894,0.0,1.0,0.0,0.0,1.0,Taxi
14.3,0.07384773786829112,-16.670452820565917,9.94808671639606,1.7549283788829702,-0.030556471966957453,160.79751502752993,19.751010704344832,0.0,1.0,0.0,0.0,1.0,Taxi
14.4,-0.06348112586917436,10.051856212990886,9.42002694776575,1.871495363824028,0.8286523465237484,160.74405655823944,18.940437409480943,0.0,1.0,0.0,0.0,1.0,Taxi
14.5,-0.05716889546034363,-8.825987619209078,9.871880919952401,1.84546911503141,0.3399229543614849,160.90890097795705,20.1710612157011,0.0,1.0,0.0,0.0,1.0,Taxi
14.600000000000001,0.0297177997722458,-3.2344780120763468,9.833918860412425,1.7956886282309792,-0.036088017819902736,160.81971153367238,19.234105767905938,0.0,1.0,0.0,0.0,1.0,Taxi
14.700000000000001,-0.07965351592955601,-6.589176315705431,9.953729778650768,1.6325296508532596,-0.3827617472517056,160.87120663433654,20.20646856047604,0.0,1.0,0.0,0.0,1.0,Taxi
14.8,-0.0901147770388707,-22.883908064042306,10.547063678255597,1.3007941892815835,0.6727070064669044,160.55959928573327,19.729286109109964,0.0,1.0,0.0,0.0,1.0,Taxi
14.9,-0.08470174054796567,-24.10716034775014,10.287211241342643,1.585261734192753,0.41328768251856113,160.804567435717,19.250605420120586,0.0,1.0,0.0,0.0,1.0,Taxi
15.0,-0.20018931766830664,17.35117724284042,8.429331990086832,1.8625153453282852,-0.41505518490088567,160.70404799564847,19.05535051747825,0.0,1.0,0.0,0.0,1.0,Taxi
15.100000000000001,-0.003358890824668524,24.041266577398222,9.006582046528582,1.6805879396190817,0.6740100475085918,160.59969638955454,19.434719620938022,0.0,1.0,0.0,0.0,1.0,Taxi
15.200000000000001,0.035504592339025524,61.759766539516725,9.431725452395767,1.7822069205782491,1.218038528339968,160.7666707530251,19.7569907145291,0.0,1.0,0.0,0.0,1.0,Taxi
15.3,0.10860951502927706,19.557177892159554,9.320323175221533,1.8398714645029053,-0.43699644611301014,160.87199446626084,21.31249694856299,0.0,1.0,0.0,0.0,1.0,Taxi
15.4,0.0944269986361293,9.025259046528769,10.057971579755781,1.6279472823871384,0.44831425526245583,160.80169967980555,20.155123189690315,0.0,1.0,0.0,0.0,1.0,Taxi
15.5,0.08063088757166943,-16.355612696984682,9.594742144420415,1.7642769930483753,0.12372681255522308,161.01801411979477,20.0090286655376,0.0,1.0,0.0,0.0,1.0,Taxi
15.600000000000001,0.02683145154435372,-24.137603451153556,9.57066859035715,1.806401746913535,-0.10867017947455915,160.93769463496915,19.59833556070694,0.0,1.0,0.0,0.0,1.0,Taxi
15.700000000000001,-0.0262610186196384,-43.347666810567,9.209007322689779,2.052447942229101,0.47612414971083056,160.77751359293404,20.005844436631612,0.0,1.0,0.0,0.0,1.0,Taxi
15.8,-0.1361074464811655,-32.89343597818149,10.339167571920804,2.0651606082357183,0.22792086329710143,160.6660100074148,20.130183415901847,0.0,1.0,0.0,0.0,1.0,Taxi
15.9,-0.13763572834655366,26.126632342216183,9.222339001968505,1.6234254740814915,-0.4490193736285181,160.72650098838528,19.68682041635564,0.0,1.0,0.0,0.0,1.0,Taxi
16.0,0.1043721430914426,16.559240291332653,8.858307440764175,1.6694123294498813,-0.029716082790646935,160.89913156104137,18.92816594861809,0.0,1.0,0.0,0.0,1.0,Taxi
16.1,-0.05331124502450213,62.36678090821015,9.15610692289549,1.6307504987478454,-0.10121715876529067,160.81759645862087,19.931273188065074,0.0,1.0,0.0,0.0,1.0,Taxi
16.2,0.17419817619449718,5.573583033906956,9.21365819838049,1.8111605571852254,0.2868274434378688,160.72219928444383,20.031612101062564,0.0,1.0,0.0,0.0,1.0,Taxi
16.3,0.13224005826097746,46.17668905202151,8.504139891958701,1.8103011178143726,0.35005419181690806,160.7581111463295,19.621963056152573,0.0,1.0,0.0,0.0,1.0,Taxi
16.400000000000002,0.1775722002356055,-29.15370197891529,11.516505760242792,1.8042465177984268,0.42579019095063697,160.73670270712228,19.48105723496718,0.0,1.0,0.0,0.0,1.0,Taxi
16.5,0.028429666299920765,-12.662019007693514,9.842361877552742,1.6338688205060845,0.14327534012850612,160.65531379346498,19.966300318309713,0.0,1.0,0.0,0.0,1.0,Taxi
16.6,0.06892996322250992,5.288895916989271,10.00128735290167,1.495949487973796,-0.4565152848341916,160.83110753901815,19.802632337438855,0.0,1.0,0.0,0.0,1.0,Taxi
16.7,0.20401667982055188,-28.747824054855244,9.573599880460518,1.318850465057269,-0.5790919465580914,160.79143504086585,19.808400476417944,0.0,1.0,0.0,0.0,1.0,Taxi
16.8,-0.11530945397435538,-23.124010228372708,8.98519614391921,1.4541839813149293,-0.5799974549220486,160.9753997783339,19.432965523009415,0.0,1.0,0.0,0.0,1.0,Taxi
16.900000000000002,-0.046690087919353536,-41.39045986237448,9.089494719402495,1.5497866945231424,0.10289467378157974,160.82925260635807,19.600131010976916,0.0,1.0,0.0,0.0,1.0,Taxi
17.0,-0.0029356194913204487,44.62534251283836,9.783383388328554,1.8495621716281279,0.5486302864410688,160.92968738178422,20.10553584568192,0.0,1.0,0.0,0.0,1.0,Taxi
17.1,0.10781725858983648,26.95939930807884,10.666751429559815,1.4821950251780003,-0.1264730808756556,160.79032213843107,19.288841769866508,0.0,1.0,0.0,0.0,1.0,Taxi
17.2,0.08810690862104072,21.47775977586232,9.881832586162135,1.5558836445145174,0.5160621686982038,160.56953371110342,19.463862303060882,0.0,1.0,0.0,0.0,1.0,Taxi
17.3,0.10445317938799122,-39.97442892202098,10.854143060188928,1.4558463356778895,-0.01977569198301764,160.7846170537914,19.09504485935525,0.0,1.0,0.0,0.0,1.0,Taxi
17.400000000000002,-0.09205488602026834,-31.651465374130307,10.55376883283723,1.6643586070901917,-0.6612727231343525,160.6052924220145,19.24671821857062,0.0,1.0,0.0,0.0,1.0,Taxi
17.5,-0.07015041824961075,-10.310848036841719,9.608595628695348,2.147829271228545,-0.36939212870489485,160.7533657862341,19.790664837392953,0.0,1.0,0.0,0.0,1.0,Taxi
17.6,0.05289893920378266,17.224130271437787,9.699741095567456,1.6439807851889117,-0.38181979909617114,160.95004569086734,20.48101885420492,0.0,1.0,0.0,0.0,1.0,Taxi
17.7,-0.005934234663079366,19.72011993556177,9.662380699567457,1.6816246745760908,-0.14328916342907327,160.82058893433464,19.546989426356003,0.0,1.0,0.0,0.0,1.0,Taxi
17.8,0.028450181428198135,-22.87366602775083,10.144215723693659,1.6238372644784071,0.6164849529403723,160.93302678448583,20.26609810844982,0.0,1.0,0.0,0.0,1.0,Taxi
17.900000000000002,-0.06146939093497142,-20.022726571202828,8.554955423043141,1.817088756276035,0.02441110241456124,160.72948679982096,19.95321815004174,0.0,1.0,0.0,0.0,1.0,Taxi
18.0,-0.10604786751909345,-20.75515226861886,9.355323876942789,2.386585451261225,-0.29878848573072336,160.65255906591096,19.710090054275426,0.0,1.0,0.0,0.0,1.0,Taxi
18.1,-0.0753255799148961,17.087339971803406,9.875549561686045,1.9984975441737813,0.38739320691161244,160.7454093252237,19.759338555771773,0.0,1.0,0.0,0.0,1.0,Taxi
18.2,0.023967308924045652,38.78610853779137,9.091013506336669,1.6692566530667685,-0.48616534770102016,160.71187924225683,19.222317209012484,0.0,1.0,0.0,0.0,1.0,Taxi
18.3,0.08788267516986342,1.5554717261988078,9.961639974243127,1.7126770735754946,0.6602666338045441,160.73596678104332,19.5137723817461,0.0,1.0,0.0,0.0,1.0,Taxi
18.400000000000002,-0.06754822128390205,-14.931571975824383,10.993657678881057,1.8264098576128478,-0.3942661239171381,160.87169474743905,19.208201221638426,0.0,1.0,0.0,0.0,1.0,Taxi
18.5,-0.05069055095507624,-39.71666444501327,9.438538175613395,1.8276372351122112,0.24168171102270974,160.76955799570976,20.34358097997212,0.0,1.0,0.0,0.0,1.0,Taxi
18.6,-0.11070064705520294,-7.735692571021364,9.648241006554287,1.8997002961394818,-0.6754843563781614,160.75633386587526,20.448252950521145,0.0,1.0,0.0,0.0,1.0,Taxi
18.7,-0.10622668413900882,11.683116909806799,8.720353304407581,1.90288249497898,0.19795883694196856,160.71240950286426,19.83870737230987,0.0,1.0,0.0,0.0,1.0,Taxi
18.8,0.007725033593957796,-1.9291120150974213,9.927679558140584,1.4835477643922688,0.9686922126059408,160.78313494042266,19.54701938277708,0.0,1.0,0.0,0.0,1.0,Taxi
18.900000000000002,-0.12034620713069002,38.2789419505529,10.262215735671747,1.3344098237724813,-0.020186707176824636,160.92872201848115,19.983680600402394,0.0,1.0,0.0,0.0,1.0,Taxi
19.0,0.08516802561375572,-27.834258847037827,9.175554061798643,1.7003458666115192,-0.5544597431500364,161.08770167244984,20.234060175648494,0.0,1.0,0.0,0.0,1.0,Taxi
19.1,-0.13144626064123127,76.70330497096828,9.592223647752332,1.674688398429427,0.8336007598491029,160.9183624180738,20.615283302305954,0.0,1.0,0.0,0.0,1.0,Taxi
19.200000000000003,0.2631703177241514,-13.39893130946239,9.805200438513154,1.674930568704032,0.8663613735024013,160.87304693358362,19.73306259080516,0.0,1.0,0.0,0.0,1.0,Taxi
19.3,0.018173369066443807,31.808988264132932,9.35515239852362,1.6722516071683247,-0.14967725565551987,160.8545651383273,19.232923856690878,0.0,1.0,0.0,0.0,1.0,Taxi
19.400000000000002,0.0275986806794334,-64.06248305142739,8.854148820315132,1.7446850810684438,-0.3698893704782962,160.7528213586752,20.535190528316328,0.0,1.0,0.0,0.0,1.0,Taxi
19.5,-0.05714209753298554,7.510950765020302,8.43382675756352,1.2947134918849872,-0.6579158349738583,160.8837219443311,20.28401225765002,0.0,1.0,0.0,0.0,1.0,Taxi
19.6,0.055728122891545356,-26.662228135072535,9.518558227646624,1.734105818603507,-0.9658926770537327,160.89138113811828,19.679301677683664,0.0,1.0,0.0,0.0,1.0,Taxi
19.700000000000003,-0.10571245999592922,-13.40857699606436,10.436628311497318,1.821783581722041,0.919083407351242,160.67994034163712,19.980870812020704,0.0,1.0,0.0,0.0,1.0,Taxi
19.8,-0.12418498251330728,-0.5507584519718923,9.963324605754172,1.8177357684946671,-0.5339872595189294,160.98352618868807,20.122227770449307,0.0,1.0,0.0,0.0,1.0,Taxi
19.900000000000002,0.052974330631685974,35.90128439155236,9.113911523684509,1.67755288746334,-0.1427768696069476,160.80620347971433,19.36248516055838,0.0,1.0,0.0,0.0,1.0,Taxi
20.0,0.07379396196183263,38.98271249445129,9.62373375586366,1.8155148170774953,-0.11625108879442385,160.75896832989258,19.89568688020954,0.0,1.0,0.0,0.0,1.0,Taxi
20.1,0.07072857995894924,-11.793639671800763,10.292519895792921,1.6408629379844684,0.33871310469857424,160.742282947823,20.095145814705564,0.0,1.0,0.0,0.0,1.0,Taxi
20.200000000000003,-0.005993867727317802,-10.856460206636003,8.676216188621588,1.66304165231775,-0.784213401882605,160.80498666775895,18.807682907662226,0.0,1.0,0.0,0.0,1.0,Taxi
20.3,0.01951166092865267,19.66236534867251,10.423961115678189,1.6272812459546342,-0.10342597702862365,160.90182587799575,19.92648422721994,0.0,1.0,0.0,0.0,1.0,Taxi
20.400000000000002,0.16904040670231182,-4.342086358503508,8.643440700666623,1.916980834037525,-0.3775377562627153,160.739852831446,19.334757224149282,0.0,1.0,0.0,0.0,1.0,Taxi
20.5,-0.027704299519835298,12.064339686344127,8.867688312235526,1.6243404683940754,1.0430066220439906,160.65720026739518,19.796310970186173,0.0,1.0,0.0,0.0,1.0,Taxi
20.6,0.07983335936037335,-53.472247944265376,9.855725980684184,1.4630947923931,-0.38628721347332395,160.90133676517894,19.90671359116156,0.0,1.0,0.0,0.0,1.0,Taxi
20.700000000000003,-0.09832083301901502,-26.27189002949964,8.828009324830546,1.8125292047422685,0.9848803035365472,160.60139072676088,20.195253191032382,0.0,1.0,0.0,0.0,1.0,Taxi
20.8,-0.15906374966733347,17.660635219144023,9.70830482843353,1.3006211957053864,-0.8244082681030345,160.7334247386799,20.403347411913046,0.0,1.0,0.0,0.0,1.0,Taxi
20.900000000000002,0.16813653545609344,14.366692588987306,9.227854801990674,1.5152214424222257,0.26524599866890464,160.90790578734072,20.33073195552557,0.0,1.0,0.0,0.0,1.0,Taxi
21.0,-0.02648737007407851,33.20396449403974,9.005463425854316,1.9202221387513718,0.6628586748924646,160.72226212970656,19.783578341586082,0.0,1.0,0.0,0.0,1.0,Taxi
21.1,0.006956072802865224,-20.345501793506703,10.35929072790841,1.92280871981669,-0.2460742495853255,160.83218645744705,19.504515329164015,0.0,1.0,0.0,0.0,1.0,Taxi
21.200000000000003,0.06640902648855997,8.119669848609652,9.598577778865232,1.534946475595046,0.07409337812826357,160.85648923141548,19.623023290379862,0.0,1.0,0.0,0.0,1.0,Taxi
21.3,0.014110979168969804,8.819237234961937,9.864788528873845,1.6135205925826885,0.8825199290610524,160.8110929748657,20.2367812942351,0.0,1.0,0.0,0.0,1.0,Taxi
21.400000000000002,0.05105225897767496,-19.381485474138703,9.54913686333236,1.8165409125825343,-0.4844473206353097,160.7892000021768,20.26424764104315,0.0,1.0,0.0,0.0,1.0,Taxi
21.5,-0.030498400882133483,-1.6776501068281273,9.451112201828222,1.738459336144965,0.1403837475954594,160.86237617305824,19.477374569859222,0.0,1.0,0.0,0.0,1.0,Taxi
21.6,0.005722728634829228,-16.615740092026318,8.924182502905495,1.8904828607582533,0.3911916040322196,160.8970320957335,19.608254990481772,0.0,1.0,0.0,0.0,1.0,Taxi
21.700000000000003,-0.032026441482456584,-16.474679163223552,9.008975898330526,2.1320195444923233,-0.04676102112002104,160.78815715592202,19.021186407494092,0.0,1.0,0.0,0.0,1.0,Taxi
21.8,-0.1128717966982512,2.157111781555699,8.899679257371846,1.8291297826747883,0.4579201221564861,160.89316688160216,19.81540147141068,0.0,1.0,0.0,0.0,1.0,Taxi
21.900000000000002,0.016508287542607743,16.95329516760761,9.720952355386634,1.6064633529496444,-0.997919216690859,160.78337171650173,19.319452396664946,0.0,1.0,0.0,0.0,1.0,Taxi
22.0,0.0527400343555815,-7.510011518571578,9.108559596823042,1.6434329744787102,-0.3882382805727515,160.7926031626447,18.92699078222361,0.0,1.0,0.0,0.0,1.0,Taxi
22.1,-0.15042185429110905,16.728266811881408,10.962467762800522,1.7200599078420133,-0.0049936881612782265,160.80827641056976,18.975139829635182,0.0,1.0,0.0,0.0,1.0,Taxi
22.200000000000003,0.10014962160201485,-19.520146634914642,10.247511497956442,1.9392240250260515,-0.34696849178121875,160.82906483638385,19.4073815307375,0.0,1.0,0.0,0.0,1.0,Taxi
22.3,-0.04486069881899165,13.980614832109273,9.887416459586982,1.777926218373392,0.31050358222062113,160.7966475659308,19.5722285803453,0.0,1.0,0.0,0.0,1.0,Taxi
22.400000000000002,-0.08051878013056263,-41.47418324432292,9.644764241930204,1.9738853885076768,0.28357514239831866,160.81868381043716,19.066383940996413,0.0,1.0,0.0,0.0,1.0,Taxi
22.5,-0.10722129461959971,2.3314268160441642,10.259839253656585,1.8828670682552402,0.9717419996771487,160.91715035597076,19.412298299593804,0.0,1.0,0.0,0.0,1.0,Taxi
22.6,-0.033203564738770786,12.54722287856552,9.475129742499103,1.6427162409848952,-0.14461539849279353,160.80982507055228,19.95584505877621,0.0,1.0,0.0,0.0,1.0,Taxi
22.700000000000003,-0.017782665737734984,5.257515858341797,10.184117342100379,2.0718393072390553,-0.2311019330625953,160.94179385681866,19.414238396072648,0.0,1.0,0.0,0.0,1.0,Taxi
22.8,-0.08093371532789068,3.112918149521368,9.443357933562782,1.662150204637448,-0.14485255942120548,160.71520417674458,19.62033411486379,0.0,1.0,0.0,0.0,1.0,Taxi
22.900000000000002,-0.0176389739911639,-14.164572945082327,8.847712109280499,2.0597937247894302,0.2866461630389927,160.9988739622611,19.28826753390301,0.0,1.0,0.0,0.0,1.0,Taxi
23.0,-0.08860553046314658,41.69078358398449,10.696308977425558,1.8788763602324754,0.32080257426572606,160.77929921220164,19.727240240436302,0.0,1.0,0.0,0.0,1.0,Taxi
23.1,0.12752020259203184,24.985949660450686,9.220428891194647,2.1447493672193803,0.733344465879302,161.00928294124628,19.943867605768702,0.0,1.0,0.0,0.0,1.0,Taxi
23.200000000000003,0.10729077431108956,30.113104368956616,9.880037078518104,1.832915575495521,0.43572499547963256,160.94138980884827,19.018254514198034,0.0,1.0,0.0,0.0,1.0,Taxi
23.3,0.06195999138163656,-16.30540087878103,9.873024304809265,1.6170558827578059,-0.29941715579500655,160.78190296929893,19.913572548375196,0.0,1.0,0.0,0.0,1.0,Taxi
23.400000000000002,0.04599319819812674,-16.0827095977377,9.567730218532969,1.366528921036307,-0.31899999495998244,160.86762443872328,19.214214078393784,0.0,1.0,0.0,0.0,1.0,Taxi
23.5,0.026877226322401117,-4.957558547180821,10.357083418191854,1.7267778150995328,-0.1282056189701978,160.90692104745563,19.987793243875796,0.0,1.0,0.0,0.0,1.0,Taxi
23.6,0.037172198645732506,-34.92807059086461,9.928057860706943,1.7927117911502721,0.3954075430671433,160.89716925023095,20.12462891385513,0.0,1.0,0.0,0.0,1.0,Taxi
23.700000000000003,-0.12864715475619623,1.3352625761901702,10.26750590170367,1.6045539202515164,0.41142649472057763,160.75318440383785,19.403179031835172,0.0,1.0,0.0,0.0,1.0,Taxi
23.8,0.033553539203352016,5.483614264138327,9.466534685388137,1.5525043648308499,0.2418115775485138,160.97202780139833,18.998062636309754,0.0,1.0,0.0,0.0,1.0,Taxi
23.900000000000002,0.0645902699664242,13.925175051744654,9.635340761831195,1.8641565908440287,-0.14106836219615315,160.7977784736779,18.7726317859941,0.0,1.0,0.0,0.0,1.0,Taxi
24.0,-0.05902127949747293,4.189345101448154,9.372269724287563,1.6131139706338955,0.024315661847993743,160.94608085457048,19.933891465967942,0.0,1.0,0.0,0.0,1.0,Taxi
24.1,0.05450026471059283,27.088750439579396,9.087967742401432,1.9350890947971364,-0.24033181401033954,161.00683291310565,19.9427219502683,0.0,1.0,0.0,0.0,1.0,Taxi
24.200000000000003,0.2000340221643212,-8.381574338107697,9.631881953950625,1.5263593629170764,-0.3316799979716345,160.7280979519105,19.505418834518128,0.0,1.0,0.0,0.0,1.0,Taxi
24.3,-0.10092915118801143,-15.041701758672652,10.06821775358502,1.8989303776643125,0.149834273341228,160.74478318751153,19.426861372413143,0.0,1.0,0.0,0.0,1.0,Taxi
24.400000000000002,-0.020708244082770434,-97.60103445329501,8.191871353045627,1.668653627651327,0.08543501395474544,160.82881638566528,20.107162916956106,0.0,1.0,0.0,0.0,1.0,Taxi
24.5,-0.28797115010215385,26.698098893031784,9.85216253499614,1.6367314531222812,0.3221213463985175,160.83517884500566,20.49617746476648,0.0,1.0,0.0,0.0,1.0,Taxi
24.6,0.032561343277147464,14.417432017261811,10.241166658219425,1.4174345681890743,0.8702105861616976,160.9655195154603,19.45581670847057,0.0,1.0,0.0,0.0,1.0,Taxi
24.700000000000003,0.05137891600353861,70.11508899565678,9.681287102723443,1.7198760248452738,-1.010408401005399,160.98211633124617,19.214823479777124,0.0,1.0,0.0,0.0,1.0,Taxi
24.8,0.06260429487613,-44.85086865775656,9.792470367082064,1.6001410097017779,-0.28818930387766134,160.80815232540033,20.254256854697974,0.0,1.0,0.0,0.0,1.0,Taxi
24.900000000000002,-0.19169300001163528,11.874739338245556,8.562202406289314,1.6118891512178588,0.8454746692873638,160.73203463507912,20.189832789199173,0.0,1.0,0.0,0.0,1.0,Taxi
25.0,0.1107526126947664,-18.01495467014072,9.247335999246442,1.5917408247594562,0.8529236323113145,160.90408350259793,20.64883740489608,0.0,1.0,0.0,0.0,1.0,Taxi
25.1,-0.02747047847457362,33.52982776081563,8.696854567426602,1.8069337231928881,0.09498338663788382,160.88031304708875,19.896187648428054,0.0,1.0,0.0,0.0,1.0,Taxi
25.200000000000003,-0.02404386120755718,-7.789738019252532,9.439576387228087,1.6877776184907782,-0.7157701848546358,160.6505027352648,19.837080514753097,0.0,1.0,0.0,0.0,1.0,Taxi
25.3,0.07180392259850375,1.2560237190468466,9.207747726795132,1.647636193177698,-0.39097017326860806,160.97632920253932,19.367250675630846,0.0,1.0,0.0,0.0,1.0,Taxi
25.400000000000002,-0.021190359879339354,-39.91704673657965,8.637242920801231,2.0521409976556675,-0.5768527089506047,160.88031173917113,20.545017879561684,0.0,1.0,0.0,0.0,1.0,Taxi
25.5,-0.2236290948904554,-48.20356516860156,9.150383009764106,1.5917900563059655,-0.1823997874316363,160.83276812129554,19.745159668325417,0.0,1.0,0.0,0.0,1.0,Taxi
25.6,-0.169213903244504,-37.57500001424052,8.705287576380865,1.6628688809847916,-0.5807446711297876,160.74297526359828,19.654289427274374,0.0,1.0,0.0,0.0,1.0,Taxi
25.700000000000003,-0.20906535995054193,46.382433851944064,10.156472489458308,1.6217266758036861,0.3541415664888979,160.83843231836795,19.48252106691278,0.0,1.0,0.0,0.0,1.0,Taxi
25.8,0.008283074369264988,31.993212524633577,10.16887320931011,1.7896140994956278,-0.25304723406060586,160.89228448743324,19.43830532114458,0.0,1.0,0.0,0.0,1.0,Taxi
25.900000000000002,-0.009247840621336063,38.35432744819001,9.99457646167979,1.5861213210688372,0.12238592563595659,160.79834718218683,18.78020586854136,0.0,1.0,0.0,0.0,1.0,Taxi
26.0,-0.01729372270959182,-21.7185143259367,9.607068240901578,1.6605816471119283,-0.017481566462578337,160.57374452993065,19.72955066603846,0.0,1.0,0.0,0.0,1.0,Taxi
26.1,-0.10030949726041843,25.038251439473513,9.063875428499955,1.878262254928021,0.6995062004727971,160.90353808397072,19.418053644099,0.0,1.0,0.0,0.0,1.0,Taxi
26.200000000000003,0.11594341657603158,30.558974363152668,9.585874251249704,1.6897031881725688,0.6632852180913562,160.81491954510147,19.807735794951412,0.0,1.0,0.0,0.0,1.0,Taxi
26.3,0.1355011491061716,32.84831156621997,9.64203174380456,1.6054323906819086,0.5132796821236535,160.90514264891817,19.502028266875957,0.0,1.0,0.0,0.0,1.0,Taxi
26.400000000000002,0.0639320605706815,-35.105328493980416,11.362314732399389,1.5196191968805495,0.16947429376480122,160.8025506786688,19.006625164524156,0.0,1.0,0.0,0.0,1.0,Taxi
26.5,-0.05958322589387038,-16.173779914852535,9.472220182719193,1.7371693425790429,0.45562710796036077,160.79750858170348,19.85423451875942,0.0,1.0,0.0,0.0,1.0,Taxi
26.6,0.05463224953190903,12.786525707332155,9.08541906667156,1.7900955370987124,-0.3689773524891367,160.8553235942603,20.106906856983496,0.0,1.0,0.0,0.0,1.0,Taxi
26.700000000000003,0.1278646891073424,-13.851582188528178,8.938330457674983,1.4112056550332528,-0.08365232919932407,160.84475307975674,19.60585874100002,0.0,1.0,0.0,0.0,1.0,Taxi
26.8,-0.12884113683651116,-68.30136295797665,9.737166299427388,1.9208277056738126,0.12957661411627777,160.93031715776124,18.721516028848683,0.0,1.0,0.0,0.0,1.0,Taxi
26.900000000000002,-0.2868745652579741,-24.857173430916134,9.506986977630321,2.014993535305127,-0.49801374622546496,160.9495714150712,20.168729436390457,0.0,1.0,0.0,0.0,1.0,Taxi
27.0,0.0035788219527618246,49.697520200503355,10.501322295635918,1.6498893657321683,-0.06183757079408505,160.9526896833372,18.892924492314666,0.0,1.0,0.0,0.0,1.0,Taxi
27.1,0.11964646416600572,97.56637998330109,8.911320455352007,1.475244193838315,-0.19216622559705593,160.75804301702726,19.62095287270618,0.0,1.0,0.0,0.0,1.0,Taxi
27.200000000000003,0.2009573346585315,-15.82898316442377,9.727537379047147,1.7558974277589658,0.6915244879251564,160.8332337914252,19.89518574952768,0.0,1.0,0.0,0.0,1.0,Taxi
27.3,-0.07556609386935698,-62.04420049934047,9.651158424638867,1.7565360845994857,0.8296299492092478,160.8928666682957,19.1693679752917,0.0,1.0,0.0,0.0,1.0,Taxi
27.400000000000002,-0.1905745383306966,-49.102789901973686,9.468837813542699,1.9425270295872537,0.17171388622574205,160.8308848918898,19.406015386772346,0.0,1.0,0.0,0.0,1.0,Taxi
27.5,-0.04455661485133694,33.01226440543287,9.813896962894024,1.7757987333281158,-0.22218068288261067,160.76171156850523,19.051181842516176,0.0,1.0,0.0,0.0,1.0,Taxi
27.6,0.08949522815780749,22.234113166379917,9.786152304184426,1.8428230960981824,-0.5179889136164888,160.79479604492985,20.052685083760753,0.0,1.0,0.0,0.0,1.0,Taxi
27.700000000000003,-0.07940397249879695,35.267478659191724,9.43283371082753,1.1415489387754683,0.2364146463644615,160.7686711880076,19.922429790686028,0.0,1.0,0.0,0.0,1.0,Taxi
27.8,0.13178077844462174,3.3892705761994066,8.942229780334019,1.745358829738283,-0.051627964041023204,160.81537913627767,20.793135481432515,0.0,1.0,0.0,0.0,1.0,Taxi
27.900000000000002,0.10644158103880458,-7.240705397354067,9.447387501808233,1.8780807909740904,-0.48323392075680704,160.71583101679198,19.749788897939247,0.0,1.0,0.0,0.0,1.0,Taxi
28.0,-0.11560749948556724,-33.844286921182714,9.023947323578025,1.4656193573859353,0.8949297476312252,160.77583339825276,19.934965103812385,0.0,1.0,0.0,0.0,1.0,Taxi
28.1,-0.03744065616129177,3.319453849628625,10.042978105859499,1.9694680522725059,0.11751673406333926,160.86477504130733,20.11666428891762,0.0,1.0,0.0,0.0,1.0,Taxi
28.200000000000003,0.12303885028694779,16.48680785206984,9.664435873185823,1.572981270099673,0.5636729394388214,160.95532525918566,19.767752069401915,0.0,1.0,0.0,0.0,1.0,Taxi
28.3,-0.033173460225217936,26.359154549073025,9.014403222642796,1.3630912050738502,0.5926611618136325,160.72377787646144,19.642847280231358,0.0,1.0,0.0,0.0,1.0,Taxi
28.400000000000002,0.09435511658407349,-51.46624194166896,10.236078911377943,1.5766864593000898,-0.6317700146145364,160.77674722474592,19.765468240125298,0.0,1.0,0.0,0.0,1.0,Taxi
28.5,-0.13429235942139686,-8.020849587536569,10.125605780794894,1.8409244308137749,-0.09184106771025337,160.72950558823686,20.216820736847733,0.0,1.0,0.0,0.0,1.0,Taxi
28.6,-0.07327770816290062,-32.646109124373694,9.137812960563926,2.029091307128545,0.10046260630593769,160.9363567609081,20.217115204939542,0.0,1.0,0.0,0.0,1.0,Taxi
28.700000000000003,-0.06887542903779484,-4.040316038417399,9.973767680066397,1.4346904050067972,-0.2774055330714841,160.79151899964245,20.26860404987625,0.0,1.0,0.0,0.0,1.0,Taxi
28.8,-0.15449393961348373,-12.48040186068472,9.108321449842409,1.3284101601397338,-0.753060911561533,160.9604878313262,19.687894462675303,0.0,1.0,0.0,0.0,1.0,Taxi
28.900000000000002,-0.1356797174663241,19.07762516176082,10.369102942722273,1.777649287655136,-0.05351702796414779,160.49944958245214,19.71633203122174,0.0,1.0,0.0,0.0,1.0,Taxi
29.0,0.026512696771009397,-3.0092436022660727,8.743287038615192,1.7598778032264812,-1.1337003993826105,160.87180934814853,20.100590262700894,0.0,1.0,0.0,0.0,1.0,Taxi
29.1,-0.16954015762481398,25.58075196407898,9.22070969107982,1.7075821822370219,-1.1965134735394365,160.7852414850064,19.549137360113384,0.0,1.0,0.0,0.0,1.0,Taxi
29.200000000000003,-0.00777595764592908,-2.8255792696554374,9.546726947632775,1.473245807680007,0.6662322047594079,160.56042531506114,19.047262652442505,0.0,1.0,0.0,0.0,1.0,Taxi
29.3,0.012384800422732316,48.072764845098625,9.300212429350754,1.3821877800759463,-0.9951324510194769,160.97151694290505,19.440042008690266,0.0,1.0,0.0,0.0,1.0,Taxi
29.400000000000002,0.07082366660067928,33.751271626345236,10.349076960874187,1.6948080446739118,0.17486915573743447,160.96841833906785,19.06620066795675,0.0,1.0,0.0,0.0,1.0,Taxi
29.5,0.1609804004857972,-20.265993679888947,10.165245409792638,1.5600971061960105,0.44376449714269317,160.65038515584138,20.11748305471925,0.0,1.0,0.0,0.0,1.0,Taxi
29.6,-0.0889451679767123,-40.891236489951574,8.090742107633318,1.84073442514326,0.13593303154917474,160.90814742150678,19.685435895652365,0.0,1.0,0.0,0.0,1.0,Taxi
29.700000000000003,-0.13363251584907848,-38.451563653187286,10.667976166022614,1.6893015407988754,-0.12804957589603463,160.78421477224515,19.851099040683042,0.0,1.0,0.0,0.0,1.0,Taxi
29.8,-0.03127741778013916,33.21227999074361,8.96033631905591,1.9722664127590948,-0.2997073746840727,160.73009259357946,18.909536159405118,0.0,1.0,0.0,0.0,1.0,Taxi
29.900000000000002,0.07711623197700584,22.443322581795485,9.909051389213822,2.1683950735296467,-0.1908087866542043,160.70214725773894,19.484464922013284,0.0,1.0,0.0,0.0,1.0,Taxi
30.0,-0.02141590294010096,17.084661491255478,8.834465996267408,1.6983183963263413,-0.6891026941731978,160.77317327909373,18.94316623355805,0.0,1.0,0.0,0.0,1.0,Taxi
30.1,0.05414588967613831,14.402590411620722,9.214734920911757,1.4666086681363053,-0.2793983964621359,160.79125893345372,20.893407259566864,0.0,1.0,0.0,0.0,1.0,Taxi
30.200000000000003,0.14912918403510952,10.439399088421316,10.28420621071588,1.4459967050349976,-0.8389013121371091,160.7701167141065,19.511418352847357,0.0,1.0,0.0,0.0,1.0,Taxi
30.3,0.030781092502005714,-1.320397756486387,9.451124469309702,1.5969974955776003,-0.14833249529670745,160.9706891084145,19.254035208451207,0.0,1.0,0.0,0.0,1.0,Taxi
30.400000000000002,0.04754390089370647,-32.62351653962377,9.316921590347283,1.5937007571687078,-0.4743984462013223,160.81243890313635,19.403034171051985,0.0,1.0,0.0,0.0,1.0,Taxi
30.5,-0.013988398663009233,-16.482370071200588,9.912985923300973,1.748742180914387,-0.5597714920265285,160.77191594897226,20.098873505544184,0.0,1.0,0.0,0.0,1.0,Taxi
30.6,-0.05163075785399712,-18.820986823647036,9.628039610211275,1.787205171116466,-0.6195854668160612,160.76538214217396,19.77120316231246,0.0,1.0,0.0,0.0,1.0,Taxi
30.700000000000003,-0.04656103322452862,-7.253481730957908,9.945265091669485,1.3185132531243273,-0.9274611029817693,160.89627326792754,19.358930076441144,0.0,1.0,0.0,0.0,1.0,Taxi
30.8,-0.050255807317798676,10.833948788544333,10.167726593962653,1.8702546388998775,-0.31407263316581197,160.8568122240804,20.6381344523263,0.0,1.0,0.0,0.0,1.0,Taxi
30.900000000000002,0.002538986088724642,-11.498647457341832,8.18144700377327,1.4480925524891564,0.20187941359238862,160.89618537752392,20.123529205898713,0.0,1.0,0.0,0.0,1.0,Taxi
31.0,-0.10405427051123767,-42.577312332499936,11.050458231190355,1.6065344725245954,-0.020330934399555887,160.74976563440248,19.559946534173033,0.0,1.0,0.0,0.0,1.0,Taxi
31.1,-0.26314236898029825,-44.17096002841273,10.416463887753705,1.8972447016052711,-0.6087031875159564,160.78378514609005,19.10553929589984,0.0,1.0,0.0,0.0,1.0,Taxi
31.200000000000003,-0.2183158140533389,14.273601549327154,10.245024173103776,1.8938750647810743,0.038318064729014834,160.97847519453876,20.296843276586245,0.0,1.0,0.0,0.0,1.0,Taxi
31.3,-0.03268626276460182,40.141037418322135,9.11522719325674,1.6908694661818182,0.5391853343978846,160.88892565627157,19.827394800420432,0.0,1.0,0.0,0.0,1.0,Taxi
31.400000000000002,-0.0624371818886875,76.90178487003703,9.277235230957846,1.9435119846545004,0.677661819810321,160.83839721727577,19.9545853018028,0.0,1.0,0.0,0.0,1.0,Taxi
31.5,0.16619311029684633,-4.156690788942076,10.366805055801416,1.5110165758082525,0.7817797300209542,160.7886290574395,20.7375980437642,0.0,1.0,0.0,0.0,1.0,Taxi
31.6,-0.05346971670931214,7.263893588354588,10.429035286613223,1.7275940978429183,-0.09261758078755197,160.88464214903024,20.06048952360152,0.0,1.0,0.0,0.0,1.0,Taxi
31.700000000000003,-0.026117713946914495,-28.89529657926538,10.32708562251973,1.7697236531613272,-0.2530824801293637,160.96733556685626,19.49075046108588,0.0,1.0,0.0,0.0,1.0,Taxi
31.8,0.021716627400519502,24.48593494275328,9.420398795366697,1.82618733373242,-0.10173117536771517,160.90647877828542,19.620807723095755,0.0,1.0,0.0,0.0,1.0,Taxi
31.900000000000002,0.06895995800445437,-2.792532926041782,9.083744201207045,1.5353653638772868,0.2508591275181917,160.8163472571348,19.50700097250232,0.0,1.0,0.0,0.0,1.0,Taxi
32.0,-0.04008037857712332,-34.69015036409513,10.406599880371916,1.8712179680093293,0.8123425154285184,160.94680454078184,19.8320653476306,0.0,1.0,0.0,0.0,1.0,Taxi
32.1,-0.15173412441995604,9.278990368898851,10.236446701474796,1.9405640337832026,-0.05752178086366937,160.84418670535365,19.876164332399505,0.0,1.0,0.0,0.0,1.0,Taxi
32.2,0.11535490984894872,2.3283464605688473,9.940633353827653,2.035472011433424,-0.5626339331273981,160.82106883691063,19.987807528143282,0.0,1.0,0.0,0.0,1.0,Taxi
32.300000000000004,-0.02843864627427897,24.207359533097392,10.539438453469796,1.942213120300622,-0.25568030650626805,160.95385218377646,19.235459986353078,0.0,1.0,0.0,0.0,1.0,Taxi
32.4,-0.030697326754468963,-22.23575075602731,8.873565124917633,1.4160107911822857,-0.4779260798331761,160.90194257036376,19.710415887882018,0.0,1.0,0.0,0.0,1.0,Taxi
32.5,0.00417615606881223,18.972695745416868,8.554035536412103,1.524031372107678,0.5591009383966036,160.84614316479997,20.143643383569124,0.0,1.0,0.0,0.0,1.0,Taxi
32.6,0.06642483245280542,29.392876502146226,9.816282781592358,1.6756911318771264,0.0836477099653187,160.99043800073014,20.42994716268984,0.0,1.0,0.0,0.0,1.0,Taxi
32.7,0.11626705575626223,-29.636948427092666,9.256328459271819,1.613797497011274,0.28395605991525175,161.0386627558173,20.423075527742313,0.0,1.0,0.0,0.0,1.0,Taxi
32.800000000000004,-0.14400858606665107,-32.234352921216576,9.898362384144901,1.6399148406905304,0.20748534100923682,160.7193795227663,19.745160882157553,0.0,1.0,0.0,0.0,1.0,Taxi
32.9,-0.0947469321532774,19.309020981394344,9.764704317618726,1.5621844334152548,0.36894366317973964,160.75402328430437,19.095509186939754,0.0,1.0,0.0,0.0,1.0,Taxi
33.0,0.21281216066323397,24.70301316978106,9.907774717038484,1.3726931118974364,-0.08527344790193325,160.70991448903897,19.630552576413336,0.0,1.0,0.0,0.0,1.0,Taxi
33.1,-0.020493520217745757,37.1529409939715,9.326876022554362,1.8548655936559588,0.4079852067678687,160.93646959652096,19.155107528403278,0.0,1.0,0.0,0.0,1.0,Taxi
33.2,0.0910177728165801,-51.55563199850826,8.513570347975515,1.7604874402614525,-0.0782505144893896,160.833188123485,19.571908330747323,0.0,1.0,0.0,0.0,1.0,Taxi
33.300000000000004,-0.04496599932930724,4.759325607060291,9.627400058628009,1.9214048618513218,0.23696306824493754,160.89764966646328,20.09094669537577,0.0,1.0,0.0,0.0,1.0,Taxi
33.4,0.0033031078175557796,2.3394630990776384,8.302016890609488,1.78309505720867,-0.10750159987007246,160.84235577374534,20.085807764138405,0.0,1.0,0.0,0.0,1.0,Taxi
33.5,0.10271508831196839,-13.714547771743128,9.340652124669829,2.032039747088441,0.7559617584070822,160.82285669578368,19.163289634867194,0.0,1.0,0.0,0.0,1.0,Taxi
33.6,-0.11353873818802279,-5.886940831167091,9.949415705314678,1.7225779401998385,0.07390479093315648,161.03095886897688,19.782783105675097,0.0,1.0,0.0,0.0,1.0,Taxi
33.7,-0.026131596338279574,-50.725870256914426,8.39431929154743,1.9371330854598992,0.03284677595292754,160.6871477811842,20.191256718514012,0.0,1.0,0.0,0.0,1.0,Taxi
33.800000000000004,-0.15091426297260366,-2.7593538553532397,9.846581914387466,1.5495643307609395,-0.24739952975480434,160.86288724309247,20.267284280504292,0.0,1.0,0.0,0.0,1.0,Taxi
33.9,-0.12733550746478892,28.98372476014926,9.7398539907599,1.727368098656003,0.7647522333408862,160.81764166955327,18.911401307714534,0.0,1.0,0.0,0.0,1.0,Taxi
34.0,0.11878702746246679,38.39834919556879,9.679215711619134,1.9246736679342644,0.6663679654639976,160.82603662579936,19.629737558836805,0.0,1.0,0.0,0.0,1.0,Taxi
34.1,0.04107748300524036,29.09767672221132,9.589399365769124,1.6741389472547976,-1.195494019955768,160.73101548009583,19.769248972035445,0.0,1.0,0.0,0.0,1.0,Taxi
34.2,0.018152876146267736,-43.47030250016456,9.17304897997344,1.6478337719709062,-0.8130560409135598,160.83594987941137,20.2689054691077,0.0,1.0,0.0,0.0,1.0,Taxi
34.300000000000004,-0.09856448503835594,24.74356809444444,9.585345954106293,1.281061030208813,-0.12731200709966634,160.67114463707242,19.914284940277504,0.0,1.0,0.0,0.0,1.0,Taxi
34.4,0.16479532347746262,11.052118443003941,8.622000469770445,2.0557138264625876,-0.4847585204268626,160.79704570100193,19.69006288086696,0.0,1.0,0.0,0.0,1.0,Taxi
34.5,0.07341346836128748,-16.89804269759003,9.804528438321173,1.9379423227248496,0.04796325666341843,160.78593823197014,19.314477173692758,0.0,1.0,0.0,0.0,1.0,Taxi
34.6,-0.1830546985263061,-54.208763792309774,10.04623710222432,1.3127901733574894,0.26669852250976506,160.80839824435316,19.025531487755984,0.0,1.0,0.0,0.0,1.0,Taxi
34.7,-0.10624849548408627,26.364425838347177,10.038901446342834,1.2618526350133974,0.1769218378613716,160.8025397330191,19.6518050870149,0.0,1.0,0.0,0.0,1.0,Taxi
34.800000000000004,0.20523559755302334,33.514894681581545,8.804631467721027,1.9636811966481658,0.32455316013980223,160.84962751727141,20.107332945073438,0.0,1.0,0.0,0.0,1.0,Taxi
34.9,-0.015480225118398347,22.082895340164146,10.442822163743578,1.8164950474091743,0.2152747207714005,160.75212689242392,20.265027390225193,0.0,1.0,0.0,0.0,1.0,Taxi
35.0,0.004165981216734519,-48.20149300384821,9.3685337128024,1.5925232786019905,0.3442231890024047,160.76071415663148,18.827084801602858,0.0,1.0,0.0,0.0,1.0,Taxi
35.1,-0.035771867466217654,5.05504451316693,9.172223118183032,1.4150341230376493,0.7269358663236182,160.87003118169298,19.699204704759303,0.0,1.0,0.0,0.0,1.0,Taxi
35.2,0.009794997447436338,-1.282341503862573,8.659272183146795,1.5279927467260377,-0.4692411221438031,160.81891409942875,18.90556336019651,0.0,1.0,0.0,0.0,1.0,Taxi
35.300000000000004,-0.002245726302578309,7.366698646107551,10.506623620830245,1.790150377731836,0.31418631318114965,160.9568460164362,19.298606073172266,0.0,1.0,0.0,0.0,1.0,Taxi
35.4,0.0010616257643201405,-8.583457674447661,7.866952153888444,1.781371002391566,-0.06584380303461736,160.88771598417122,20.197386238601272,0.0,1.0,0.0,0.0,1.0,Taxi
