time_s,altitude_ft,vertical_speed_fpm,ias_kt,pitch_deg,roll_deg,heading_deg,throttle_pct,afterburner_on,gear_down,flaps_deg,speedbrake_pct,weight_on_wheels,label
0.0,0.03769682008474406,23.418853600063088,16.98628172703178,-0.09037279328792167,0.2893533454570502,2.867513306037324,22.22291435421164,0.0,1.0,0.0,0.0,1.0,Taxi
0.1,0.1157596654182877,-14.253194389586426,17.107055526114387,-0.05778205923332719,0.7223835369398225,2.7594351307514557,21.817647944420987,0.0,1.0,0.0,0.0,1.0,Taxi
0.2,-0.03356915186318806,9.240394616821812,17.557792370027197,-0.017115323751816902,-0.6301866701590607,2.430318036290032,22.51080959931934,0.0,1.0,0.0,0.0,1.0,Taxi
0.30000000000000004,0.08389879316885314,-27.623915828063797,16.51431980749694,-0.40660006486193706,0.03069652586059369,2.7566439456759895,21.383954043738417,0.0,1.0,0.0,0.0,1.0,Taxi
0.4,-0.022359913722031263,-10.250047899341782,16.99491722196434,0.35567089922472633,-0.7747921338362755,2.647650089188005,22.18008113494034,0.0,1.0,0.0,0.0,1.0,Taxi
0.5,-0.08481939135989695,-58.87262848766161,16.781570244755926,-0.0626400051984797,-0.49823905096270227,2.895483908767517,21.778397335609636,0.0,1.0,0.0,0.0,1.0,Taxi
0.6000000000000001,-0.21046434926945487,4.024434814242279,15.769728188294293,0.376884606815069,0.18715621206263092,2.589547851768657,21.954424837911994,0.0,1.0,0.0,0.0,1.0,Taxi
0.7000000000000001,-0.002237739650819827,34.5066232639258,17.623380669362,-0.16350702447938634,-0.42298925008805577,2.787991378402012,21.342306395219047,0.0,1.0,0.0,0.0,1.0,Taxi
0.8,0.0877137249597321,43.659497463473734,16.795322918871975,0.3401155804383896,0.2814382136919081,2.763908318518304,21.791604913903612,0.0,1.0,0.0,0.0,1.0,Taxi
0.9,0.007833138047913813,8.289477142860681,17.613144180531023,0.040554694129391784,-0.08601575159251053,2.6474460183063684,21.789540101916074,0.0,1.0,0.0,0.0,1.0,Taxi
1.0,0.039209646063483566,-29.07765332583402,15.894319063262278,0.1809198796036416,-0.4652859391843945,2.61832107794703,21.528867308262974,0.0,1.0,0.0,0.0,1.0,Taxi
1.1,-0.057674541669438,8.612805391831515,15.992876463758982,-0.005802636974237441,-0.7368113277736201,2.6180908107983214,20.977798032170657,0.0,1.0,0.0,0.0,1.0,Taxi
1.2000000000000002,0.050897165007071365,-47.6892190417185,16.55864841131746,-0.23105453528635334,0.6327488335793503,2.700088672412164,20.736954380592266,0.0,1.0,0.0,0.0,1.0,Taxi
1.3,-0.19923644914510896,22.33369212300128,18.10536576080503,-0.07764314201974198,-0.03595752790128136,2.8414228402122603,22.153638349486766,0.0,1.0,0.0,0.0,1.0,Taxi
1.4000000000000001,0.05399391894556835,-5.634093511690289,16.837843950150972,-0.07951176175378896,-0.046969536402915714,2.7858881947017835,22.056409569044096,0.0,1.0,0.0,0.0,1.0,Taxi
1.5,0.022726697448619878,62.27546569466744,17.422579737452377,0.1544623076563018,-0.3963986280749931,2.544928511310218,22.02930388746281,0.0,1.0,0.0,0.0,1.0,Taxi
1.6,0.1121408793282282,1.4319606371358635,17.654456071596307,0.02323498826204222,-0.1800285590426279,2.629491066028095,22.38321573908717,0.0,1.0,0.0,0.0,1.0,Taxi
1.7000000000000002,0.06115372213124767,13.143336453698282,16.85650013792375,-0.0026663695812308708,-0.667544019205582,2.4424358953683623,21.72394575891245,0.0,1.0,0.0,0.0,1.0,Taxi
1.8,0.0884433797171113,-22.584118644991197,16.038371223495396,0.07078161404239068,-0.3965594527070302,2.6646028929646945,22.32787985150635,0.0,1.0,0.0,0.0,1.0,Taxi
1.9000000000000001,-0.0007797138967277759,-1.192338021289925,16.343897616692413,-0.034506299179363945,-1.021292226060707,2.764467832513617,22.04516267160484,0.0,1.0,0.0,0.0,1.0,Taxi
2.0,0.05519203202479805,-31.37675160411499,16.986162088774073,0.0817326173814629,0.7076991300620938,2.5978316377136252,21.518925441666585,0.0,1.0,0.0,0.0,1.0,Taxi
2.1,-0.06844037830346365,-23.00586689624755,16.703936944317626,-0.06791678854900171,-0.12395461109746983,2.7232004495153888,21.35504429328316,0.0,1.0,0.0,0.0,1.0,Taxi
2.2,-0.11580904837796553,4.033038036051465,17.153869335426382,0.07916076846192485,-0.25370166980269837,2.8136417098970696,21.777553101104278,0.0,1.0,0.0,0.0,1.0,Taxi
2.3000000000000003,0.07535722220505542,30.25757213204932,16.631647560599465,0.1394083724762196,-0.28690445300122136,2.7785970465355945,21.985394480517133,0.0,1.0,0.0,0.0,1.0,Taxi
2.4000000000000004,0.08284748235678298,3.9271544762108825,16.75388112898279,0.25540200212337055,0.8570475725984367,2.6039991893592287,21.0006716343089,0.0,1.0,0.0,0.0,1.0,Taxi
2.5,-0.09617327599691107,-0.19821148238305378,18.585282433192123,0.19719075155638366,0.21029998381788564,2.727669499149215,21.877977506253522,0.0,1.0,0.0,0.0,1.0,Taxi
2.6,0.07436616479314015,-51.0894758592172,16.839985647425724,-0.15296295320384232,-0.2971275028672632,2.4557224967713296,21.295077348519392,0.0,1.0,0.0,0.0,1.0,Taxi
2.7,-0.17259989693930303,17.650355925552816,17.148528679308196,-0.3400580950315673,-0.8959784199037446,2.4935601216278656,22.14065302900306,0.0,1.0,0.0,0.0,1.0,Taxi
2.8000000000000003,-0.007921496369146954,-2.750460460843312,18.282871381531933,0.0964023615030862,-0.17882165809243905,2.689481450079427,20.652871773079124,0.0,1.0,0.0,0.0,1.0,Taxi
2.9000000000000004,0.06061386248892362,70.90292105995881,16.298586610856606,0.2413767515743736,-0.6373217985912057,2.703006147414442,21.83094939580963,0.0,1.0,0.0,0.0,1.0,Taxi
3.0,0.18191470836049098,-22.208509386926234,16.765022498493863,-0.08427037366903606,0.9084984761542825,2.8351732353597754,21.269694345309556,0.0,1.0,0.0,0.0,1.0,Taxi
3.1,-0.11896404330377819,-12.760151315975031,16.551639946437522,-0.22252278935910885,-0.8431677178314443,2.7021388119087533,22.177802965560204,0.0,1.0,0.0,0.0,1.0,Taxi
3.2,-0.0031868940909515735,-24.465408581001952,16.66640756550607,-0.04346405066640022,0.245806591001208,2.7952852591184296,21.163414983783763,0.0,1.0,0.0,0.0,1.0,Taxi
3.3000000000000003,0.05958766545548119,-25.04725189789906,16.73784723554657,0.5199626492543168,0.24020933674812103,2.60820913643704,21.502813478029953,0.0,1.0,0.0,0.0,1.0,Taxi
3.4000000000000004,-0.24420030279327345,-2.023055909966464,16.641050341135433,0.0006018878369551395,-0.5947399854348776,2.601853466392072,21.82185061362561,0.0,1.0,0.0,0.0,1.0,Taxi
3.5,-0.013302173640783907,-4.144103279783006,16.803686415538774,-0.09103456809470598,0.07928998514336934,2.5666010766850036,21.183878675613556,0.0,1.0,0.0,0.0,1.0,Taxi
3.6,0.038867149056566165,45.12748043075252,17.479507609485665,0.029679193847691486,-0.1579237991973981,2.6730368404309957,21.918908026298666,0.0,1.0,0.0,0.0,1.0,Taxi
3.7,-0.018562900639510844,19.354697383114317,16.44712054465771,0.3835464522531144,-0.3214954144423916,2.8351529468975514,21.500379808802528,0.0,1.0,0.0,0.0,1.0,Taxi
3.8000000000000003,0.0834713132747877,9.224772824429332,16.733243812126393,0.23282017826899715,-0.02441612217358811,2.615176574828695,21.178194787630364,0.0,1.0,0.0,0.0,1.0,Taxi
3.9000000000000004,0.08499101317871284,-6.17970888269394,17.545173318271047,0.3121869389000367,0.42534314879212937,2.874586397286066,22.91157738828106,0.0,1.0,0.0,0.0,1.0,Taxi
4.0,-0.04946144505298051,-0.47151410160364077,16.382811859331394,0.24365245579670583,0.24514087174438928,2.6865244554756487,21.799315917389993,0.0,1.0,0.0,0.0,1.0,Taxi
4.1000000000000005,0.08111374276676951,-70.77457246445839,17.11282665525298,-0.2115380315017058,0.07026587963349387,2.682130666711089,21.625078163392107,0.0,1.0,0.0,0.0,1.0,Taxi
4.2,-0.2688818491435791,-11.30859790921823,17.967712635061098,0.2627232874594777,-0.5717043411081567,2.698397118086234,21.756444559636854,0.0,1.0,0.0,0.0,1.0,Taxi
4.3,-0.10600443459907163,-9.436449973866189,17.27484887816727,0.05701733863636695,-0.46181648077947846,2.766233757361988,21.6639376550911,0.0,1.0,0.0,0.0,1.0,Taxi
4.4,0.03393149289743859,59.03389649950525,17.942186833552356,-0.15009365607547262,0.05493863172876263,2.6887969664059597,20.76888403284276,0.0,1.0,0.0,0.0,1.0,Taxi
4.5,0.02628763335394717,23.701125207650136,15.173591157305802,0.21804743896528486,-0.16618753094523336,2.678323071736031,22.37701684619141,0.0,1.0,0.0,0.0,1.0,Taxi
4.6000000000000005,0.012501191439179056,0.7166917080486641,17.034224710737586,0.08631375876255257,0.07162827756372872,2.805935346316346,21.652102030484812,0.0,1.0,0.0,0.0,1.0,Taxi
4.7,0.03751495143768191,31.419253628298673,17.375867080440887,0.20902085505411405,0.820319952331052,2.565411687147048,21.9743816131874,0.0,1.0,0.0,0.0,1.0,Taxi
4.800000000000001,0.18338390149544054,-18.28989045536522,16.36903603167724,0.25663663547726406,0.38252574767869685,2.7341267143975188,21.994850055330218,0.0,1.0,0.0,0.0,1.0,Taxi
4.9,-0.07894826083764699,14.77786634821409,16.343350646257345,-0.19283749550629853,0.05694273760682592,2.72192237642696,22.015764366159885,0.0,1.0,0.0,0.0,1.0,Taxi
5.0,0.11140428317875242,-13.948590151393049,17.464263072301968,0.4084135947820368,0.5352652805244157,2.6335490143922016,21.74428767752835,0.0,1.0,0.0,0.0,1.0,Taxi
5.1000000000000005,0.11364095073847535,29.96705907839124,16.74963527939092,-0.032943338491002616,-0.356040409547766,2.69435728839386,21.405021374223548,0.0,1.0,0.0,0.0,1.0,Taxi
5.2,0.07088703455430923,-44.8410653347835,17.75771388463759,-0.028323929889400204,0.12012147833708045,2.7405783998692073,21.67684961246258,0.0,1.0,0.0,0.0,1.0,Taxi
5.300000000000001,-0.11280104349516513,-55.21971899155244,16.100663704374128,0.29333721372906135,0.159302157083269,2.5158059133350434,21.133886852280657,0.0,1.0,0.0,0.0,1.0,Taxi
5.4,-0.16245764421928688,-22.406025350229253,17.539368641250178,-0.06513628380646369,0.17752948777972305,2.811663643718589,21.683183495475273,0.0,1.0,0.0,0.0,1.0,Taxi
5.5,-0.0411430921968371,29.79703836513301,16.83023499009581,0.13008001006530434,1.1894844172094179,2.769177760310299,21.531548896390813,0.0,1.0,0.0,0.0,1.0,Taxi
5.6000000000000005,0.03618414833049991,28.177132707821865,16.397179287570943,0.0011312742679690652,-0.19796527527867225,2.5337365648520063,22.25093021835276,0.0,1.0,0.0,0.0,1.0,Taxi
5.7,-0.02157198068017757,13.091038735657376,17.15646569225604,0.43362795816397814,-0.15030186686252933,2.6402037719130362,21.388843142797345,0.0,1.0,0.0,0.0,1.0,Taxi
5.800000000000001,0.024312101481449775,14.882210458491686,18.265405543642984,0.129725116245533,1.032908892676939,2.665098337553559,21.535935678367913,0.0,1.0,0.0,0.0,1.0,Taxi
5.9,0.11059520062295834,-18.2358288786448,17.17862663782447,0.21918914576731544,0.03751591111480803,2.5744442618023413,21.16896809872055,0.0,1.0,0.0,0.0,1.0,Taxi
6.0,-0.11275112507340156,14.730229034790787,16.42976769584347,-0.27173759086075755,-0.2060578553749638,2.456229378512603,21.480033622385424,0.0,1.0,0.0,0.0,1.0,Taxi
6.1000000000000005,0.09796324665540372,-28.585169792989223,17.167516426706584,0.15975033851126608,0.24235622743636082,2.607426189335115,21.784597133045803,0.0,1.0,0.0,0.0,1.0,Taxi
6.2,-0.032330648341987754,22.189298074256,17.94094416879338,0.3018125261377024,0.05179623842439465,2.5701810298106693,22.306374685912917,0.0,1.0,0.0,0.0,1.0,Taxi
6.300000000000001,-0.001804634702121539,-3.4611607817246344,18.26744124570456,-0.0237190971915789,1.0035229685733358,2.4894239988321942,22.93305013624753,0.0,1.0,0.0,0.0,1.0,Taxi
6.4,0.08065744274678054,16.94279508089605,17.130108115203647,0.28661668189305567,0.7531752629651278,2.6474100840435426,21.242645929500963,0.0,1.0,0.0,0.0,1.0,Taxi
6.5,0.052383327062492484,-22.525643785961396,18.16846613824965,-0.05844377291716374,0.6946573453471662,2.659529607899799,22.18448338710441,0.0,1.0,0.0,0.0,1.0,Taxi
6.6000000000000005,-0.11443285363192851,1.9913444297531318,17.028308712282904,0.14660582790127455,-0.28251322080158364,2.64880054716906,21.595195821489245,0.0,1.0,0.0,0.0,1.0,Taxi
6.7,0.09061416489554626,3.8390565034643966,16.82647382253063,-0.18545003062711435,-0.1951662558055242,2.6659293804161734,21.20443081599854,0.0,1.0,0.0,0.0,1.0,Taxi
6.800000000000001,0.07157860957981453,63.479965338237434,17.246098382345654,0.2625450578123413,0.6268998935920012,2.682179801674465,20.761865125740144,0.0,1.0,0.0,0.0,1.0,Taxi
6.9,0.20296697305925868,9.878123172465815,17.557817645258844,0.02877698080742902,-0.33747039072705304,2.6866823010030885,21.68296419053114,0.0,1.0,0.0,0.0,1.0,Taxi
7.0,0.14000478075787534,-18.167964428861424,17.018717230511253,-0.20903585891007243,-0.01652993267736197,2.7864037501605594,21.52207479879465,0.0,1.0,0.0,0.0,1.0,Taxi
7.1000000000000005,-0.019261212564492595,-33.62556103730512,17.19618752706682,0.005316056166028427,-0.5765693678748659,2.7128182746620837,21.947522051816737,0.0,1.0,0.0,0.0,1.0,Taxi
7.2,0.03483916787273306,-38.15766989047804,17.976092274127048,0.038735305747169824,0.43607169465785545,2.629511235035693,21.815793737753413,0.0,1.0,0.0,0.0,1.0,Taxi
7.300000000000001,-0.05078356869451487,-14.316772568133862,16.779113734786257,0.000761880382065358,-0.38236256505314375,2.564664143262121,21.35885625250272,0.0,1.0,0.0,0.0,1.0,Taxi
7.4,-0.09084507540516192,-18.930025648346458,16.958318984852404,0.4688587534593949,-0.05768146410762415,2.75081715558224,21.893469046082974,0.0,1.0,0.0,0.0,1.0,Taxi
7.5,-0.059810960368999244,0.9009923264355185,16.61231954567055,0.11685976203845712,-0.8786448928630736,2.7342267809378313,22.442454272328558,0.0,1.0,0.0,0.0,1.0,Taxi
7.6000000000000005,-0.04627860706233728,21.08065477981442,16.751385347545703,0.13481322364998657,-0.26942387937705936,2.538224072559103,21.21683102596397,0.0,1.0,0.0,0.0,1.0,Taxi
7.7,0.01455819849391017,19.90210607175037,17.671906656126858,0.11825624812032795,0.3614281284747471,2.542240181591808,21.152315487913967,0.0,1.0,0.0,0.0,1.0,Taxi
7.800000000000001,0.039699569989752596,24.84538679956614,17.371223094586526,0.1239092790096058,0.4449667671527833,2.720669509223228,21.959672925592063,0.0,1.0,0.0,0.0,1.0,Taxi
7.9,0.07794832693549339,18.25892964214661,16.619089636462864,0.20909874070404202,0.07139099742751286,2.746803095766211,22.028180043811624,0.0,1.0,0.0,0.0,1.0,Taxi
8.0,0.10585284670464322,-15.089353319881555,17.689676077987606,0.19912385466270827,0.061725734157170024,2.702529726893431,21.537786969203445,0.0,1.0,0.0,0.0,1.0,Taxi
8.1,-0.03574719660965519,-4.365638430002439,18.010252359876194,0.17311405735406216,0.1793034322393412,2.5428326997510453,21.66192286157768,0.0,1.0,0.0,0.0,1.0,Taxi
8.200000000000001,0.05612013478548118,9.01052191378554,17.409412975463177,-0.5762483782911351,-0.42936940617264613,2.653612885834434,21.40366241766958,0.0,1.0,0.0,0.0,1.0,Taxi
8.3,0.1509054562735709,7.695311998457058,18.681594868804886,0.0932535777571793,-0.12364315956391257,2.6395439911621565,22.489771907477127,0.0,1.0,0.0,0.0,1.0,Taxi
8.4,0.002729363382630071,-2.5897925905076975,16.951096764840468,0.13939976534351106,0.1655527917339228,2.7482368655261666,21.267726818444764,0.0,1.0,0.0,0.0,1.0,Taxi
8.5,0.04317117183294267,-34.86222096977621,16.653195850201865,-0.2462948184101964,-0.20607150698315949,2.56918105920505,21.50003724516867,0.0,1.0,0.0,0.0,1.0,Taxi
8.6,-0.023405648575310183,-9.659413908317733,15.590143412326926,0.1618068450600339,0.613906784991861,2.4161089768077204,21.97909664051609,0.0,1.0,0.0,0.0,1.0,Taxi
8.700000000000001,-0.04556770615895858,20.25442045503341,17.121251028285677,-0.026061674629780485,0.20278026945478247,2.7285237476950215,22.28154372525527,0.0,1.0,0.0,0.0,1.0,Taxi
8.8,0.14444327410810975,-43.86812647219124,17.22596208749538,-0.07406411616179509,0.5824242121834354,2.665665620619734,21.67499884481393,0.0,1.0,0.0,0.0,1.0,Taxi
8.9,-0.24274628093626638,-15.244588969425019,17.22099012562723,0.42870054151881454,0.1199010589508339,2.7564420162477177,20.60912749089682,0.0,1.0,0.0,0.0,1.0,Taxi
9.0,-0.12179065100608369,-63.91294726589779,17.345958505832545,-0.04251082366041889,-1.2337856449813351,2.542528614181151,21.393225639688584,0.0,1.0,0.0,0.0,1.0,Taxi
9.1,-0.1751214622213792,31.83717744262185,16.38049343394687,0.18197504051849356,0.3230829283305938,2.703363505380139,22.292513871096542,0.0,1.0,0.0,0.0,1.0,Taxi
9.200000000000001,-0.08356039372315714,32.17714152123928,16.832182860176292,0.33937886522432537,0.3250766112058334,2.6086189407630513,22.240463166823382,0.0,1.0,0.0,0.0,1.0,Taxi
9.3,0.03909505660011268,32.67046879356134,17.113343526825787,-0.01789080106108465,-0.5342663428888472,2.6053683776458456,21.150293682795095,0.0,1.0,0.0,0.0,1.0,Taxi
9.4,-0.011769118253572502,13.848370771317214,17.18759883919884,0.11369008097176977,-0.9686675513034012,2.780016173179547,20.448736326494593,0.0,1.0,0.0,0.0,1.0,Taxi
9.5,-0.014318539866571105,-13.782286255142372,16.549543556169095,0.0667981887737755,1.047922623774091,2.686529897739433,20.883033790027717,0.0,1.0,0.0,0.0,1.0,Taxi
9.600000000000001,-0.0298163746755992,5.734132601959185,17.217631315541592,-0.08399582941255215,0.04994169448717171,2.8032270472169216,21.61113436668791,0.0,1.0,0.0,0.0,1.0,Taxi
9.700000000000001,0.016901544756223418,16.685582470558018,16.60777448806371,-0.017213809831634855,0.3432139847416471,2.608666675605548,21.823979138630218,0.0,1.0,0.0,0.0,1.0,Taxi
9.8,0.06910937248621898,5.0686102787135185,17.8226011000833,0.2424244221589657,-0.2154220135042202,2.6115863201588354,20.974223902634513,0.0,1.0,0.0,0.0,1.0,Taxi
9.9,-0.004473323282031599,20.678721653028237,16.552455673847145,0.15257111181086386,0.3456855980824452,2.6802076860661828,20.998863790943208,0.0,1.0,0.0,0.0,1.0,Taxi
10.0,0.1202951530213646,-33.80153288494996,17.558117489403138,0.285109516439549,-0.12258700399957143,2.8160346019395774,22.49450713300281,0.0,1.0,0.0,0.0,1.0,Taxi
10.100000000000001,-0.09989829193853078,-12.912864373063698,18.394101948572438,0.014381427702216745,0.3775633522146246,2.5433787330674136,21.145050987110423,0.0,1.0,0.0,0.0,1.0,Taxi
10.200000000000001,-0.06903764514735006,2.0801380387336272,17.62082476292173,0.11567282523080749,-0.11754134383497247,2.7779743513551125,21.037798143947573,0.0,1.0,0.0,0.0,1.0,Taxi
10.3,0.13069584321503278,35.416931093532845,17.49126995471338,0.1484474741098622,0.5062485662288516,2.6592994006484787,21.356370280352202,0.0,1.0,0.0,0.0,1.0,Taxi
10.4,0.07718636352913344,-13.0922876097059,17.251832867059097,0.17482488678121882,0.03777756882715221,2.6672052286979806,22.345788856071813,0.0,1.0,0.0,0.0,1.0,Taxi
10.5,-0.13449908319587964,-41.41096428224941,16.713067557642134,0.26122750723437316,0.30495571626207485,2.58757133968561,21.046663856187372,0.0,1.0,0.0,0.0,1.0,Taxi
10.600000000000001,-0.07635897819621434,-27.952525714205823,18.166650553747047,0.8102679254713633,0.6231259068569038,2.4537270052803706,21.626260874152827,0.0,1.0,0.0,0.0,1.0,Taxi
10.700000000000001,-0.06257626504189577,18.8223027123333,17.507603084798184,0.38373121347196054,-0.558665607562371,2.6587955227086013,21.32401042703708,0.0,1.0,0.0,0.0,1.0,Taxi
10.8,-0.04038756963421318,36.495943766092495,17.35554514388465,-0.024869818057665735,-0.46594724180775526,2.544466501494867,21.38190853920184,0.0,1.0,0.0,0.0,1.0,Taxi
10.9,0.10612074063424809,10.73323410421545,17.40149794697006,-0.2146102339684412,0.7691517296072083,2.6211885444238305,22.203683335606055,0.0,1.0,0.0,0.0,1.0,Taxi
11.0,-0.008910094520818593,48.71717040976136,17.079446995690855,0.2077090031103913,-0.21338213736799694,2.6281719879956427,21.430492308534145,0.0,1.0,0.0,0.0,1.0,Taxi
11.100000000000001,0.20319828241459353,-18.646700732403847,17.979869427835606,0.1701766255076973,-0.06380442523639054,2.5962693358206934,22.08676350930211,0.0,1.0,0.0,0.0,1.0,Taxi
11.200000000000001,0.012887236972228794,24.23387699612194,16.544402763511155,0.07668564482914454,0.5722299700804782,2.655767910613406,21.436552266360373,0.0,1.0,0.0,0.0,1.0,Taxi
11.3,0.11225929045979106,-5.059815821795634,17.947953783789337,0.03318937118771748,0.371591568279232,2.6850486059338436,21.532757267376113,0.0,1.0,0.0,0.0,1.0,Taxi
11.4,0.17789920330561532,-11.406747794901628,16.332328537401406,0.3580748998739518,0.32881613901522466,2.754680821573345,21.82377624706147,0.0,1.0,0.0,0.0,1.0,Taxi
11.5,-0.044146502002279396,-29.416542258363265,16.08896927774471,0.4407436673106151,-0.06275840515281239,2.6955324858830636,21.803409837121194,0.0,1.0,0.0,0.0,1.0,Taxi
11.600000000000001,-0.034823420832025304,-15.725100483021706,16.549326791843765,0.3086573416695526,-0.22903916665680482,2.3809446951249242,20.975683149871777,0.0,1.0,0.0,0.0,1.0,Taxi
11.700000000000001,0.09927370089050674,41.971360211183004,17.694914986191222,0.19113166043795637,-0.12979503475422474,2.657841840622666,21.640433764535594,0.0,1.0,0.0,0.0,1.0,Taxi
11.8,0.16571029905363557,-36.37780086820939,16.94110157003025,-0.0888866861790562,0.5868632930872792,2.6875504558973375,21.122734989603757,0.0,1.0,0.0,0.0,1.0,Taxi
11.9,-0.2167124251730723,-12.252757307666855,17.721482746647865,0.015342159372217515,-0.5765654282496551,2.6329469848965914,22.32986341155855,0.0,1.0,0.0,0.0,1.0,Taxi
12.0,0.03800991435217247,-49.97111584724908,17.447909797630956,0.24407317782153692,0.4516763014741171,2.7164828389521176,21.862484977082527,0.0,1.0,0.0,0.0,1.0,Taxi
12.100000000000001,-0.08414528018260986,38.115603210897135,17.281184960080765,0.13125092372389913,0.051232148455102,2.6054724164022787,21.689851913976394,0.0,1.0,0.0,0.0,1.0,Taxi
12.200000000000001,-0.026134409118586683,16.736229653721832,18.116430891706322,0.21836869537812562,0.2503868062548157,2.6513215084719377,21.221136057288827,0.0,1.0,0.0,0.0,1.0,Taxi
12.3,0.12169106262078155,33.42005693501756,17.809631505601583,-0.023616512941901646,0.46315908694553665,2.690145903070629,21.61187587228359,0.0,1.0,0.0,0.0,1.0,Taxi
12.4,0.08295500449247789,17.011690663431697,16.705233735331188,0.21717910139867555,0.36247083464586266,2.748213798784036,21.301626034980117,0.0,1.0,0.0,0.0,1.0,Taxi
12.5,0.05892404419857175,-48.52696615328673,16.80834376391044,0.1743293707120817,0.15629039706511264,2.736352502599175,21.33247119483147,0.0,1.0,0.0,0.0,1.0,Taxi
12.600000000000001,-0.12094376814565216,20.095210035772,16.98151904692725,-0.005448445593641452,0.19277523003487157,2.597426285737072,21.848992949940307,0.0,1.0,0.0,0.0,1.0,Taxi
12.700000000000001,0.18343105467133783,0.06625034210187646,17.326874878042034,0.4648213164006365,0.2672341233313448,2.663793532155694,21.50926710872944,0.0,1.0,0.0,0.0,1.0,Taxi
12.8,0.05925529590908107,47.08943197270667,17.30344413634646,0.06850219978423727,-0.08477472972595904,2.718424781153601,22.6259554385558,0.0,1.0,0.0,0.0,1.0,Taxi
12.9,0.11450339171788114,-40.21813538088108,17.8170438609859,-0.08759865774980119,-0.017765769004757872,2.6163437528047098,22.305478705945735,0.0,1.0,0.0,0.0,1.0,Taxi
13.0,-0.017659622233067586,-11.557262204138619,16.446829868529786,0.3047970798662569,-0.08219197701898363,2.7355346800657117,21.72498774279468,0.0,1.0,0.0,0.0,1.0,Taxi
13.100000000000001,0.0014689848883879695,-36.93537361404969,17.90161712232864,-0.20514434777573942,-0.4904239872110749,2.763860928679435,22.053979040987507,0.0,1.0,0.0,0.0,1.0,Taxi
13.200000000000001,-0.0701734763523673,19.37710998731667,16.78156259808267,-0.08889073806830422,-0.3306299273414396,2.7144689795422323,21.956228364929288,0.0,1.0,0.0,0.0,1.0,Taxi
13.3,0.07922592770351573,15.791071697404158,17.303924194917425,0.3156894840093592,0.6389275266658159,2.8302048678860956,21.87320785306554,0.0,1.0,0.0,0.0,1.0,Taxi
13.4,0.08042434337540875,-3.5787931654251444,16.78382585513068,0.2860987717990843,0.8167988366252037,2.6985926909796376,20.968244157667954,0.0,1.0,0.0,0.0,1.0,Taxi
13.5,-0.08806744217949306,-13.656737517187297,17.44048473998698,0.1531030218561879,-0.09578238990401697,2.706280712950786,21.02599407716428,0.0,1.0,0.0,0.0,1.0,Taxi
13.600000000000001,0.010942240117579202,-49.78536069436935,17.572040985828664,-0.055621648013074065,0.18179482890744583,2.5489017536189067,21.60778852818444,0.0,1.0,0.0,0.0,1.0,Taxi
13.700000000000001,-0.16850246009643807,12.5343731874539,16.413582608427134,0.07829001613310299,-0.42706770021932045,2.468767849202493,21.458897543367456,0.0,1.0,0.0,0.0,1.0,Taxi
13.8,-0.025395576242223564,12.332246123183003,17.150629775461184,0.14178495017885778,0.1288174521582373,2.723079796824436,22.43664002833104,0.0,1.0,0.0,0.0,1.0,Taxi
13.9,0.07260347073349421,16.613812306297962,16.629554718001895,0.19437795556199702,-0.38964109975333483,2.7523304382380047,22.012346539159235,0.0,1.0,0.0,0.0,1.0,Taxi
14.0,-0.08543339856494822,-17.804468811457124,17.72223666551102,0.05574848803832529,0.5120625985843539,2.6428089170564135,21.264513093002154,0.0,1.0,0.0,0.0,1.0,Taxi
14.100000000000001,-0.1144179202995092,-1.1705339290634338,16.826163131628178,0.012583497817643952,-0.2559029154443053,2.831805705440331,21.649766707469997,0.0,1.0,0.0,0.0,1.0,Taxi
14.200000000000001,0.06675080108817702,15.026729056539248,16.409326746205778,0.20043635130395315,0.5551439390117489,2.8490799451876683,21.36591409646156,0.0,1.0,0.0,0.0,1.0,Taxi
14.3,-0.01029975328225199,18.83327669229463,18.065521320785273,0.48142791909754773,-0.3242048355454093,2.7128617587720214,21.43116741351122,0.0,1.0,0.0,0.0,1.0,Taxi
14.4,-0.020251536838036075,-6.2897911384907745,16.451437987218675,0.19498879248015916,-0.26519368465869797,2.6860489660078315,20.961148643407935,0.0,1.0,0.0,0.0,1.0,Taxi
14.5,0.03530184539572316,-8.258137611254925,16.969218503302333,0.3389575704250216,0.023668454633641034,2.6119586013618346,22.06984319992046,0.0,1.0,0.0,0.0,1.0,Taxi
14.600000000000001,-0.05159044133852661,-12.725704861390241,16.484364067322225,0.09203452880743931,0.135616054137211,2.609419892106075,20.360666488367883,0.0,1.0,0.0,0.0,1.0,Taxi
14.700000000000001,-0.08388006114498728,5.162227965494637,17.18453199814655,0.25440868773315733,0.2678076451601029,2.6905137447469087,21.484078243475285,0.0,1.0,0.0,0.0,1.0,Taxi
14.8,0.06111298522319635,7.260985229025408,16.836899248689498,0.2107598043071399,0.33272491334199844,2.750009640969438,21.223757597504672,0.0,1.0,0.0,0.0,1.0,Taxi
14.9,-0.015285515193399586,9.912115240113407,17.420412489054655,0.264683523585188,-0.010492346419581675,2.689160459472646,21.24369591654386,0.0,1.0,0.0,0.0,1.0,Taxi
15.0,-0.03431948494442027,10.780560111182844,17.83645792779637,0.2707841701727485,0.9609048127919781,2.5746658244194123,21.566723761507106,0.0,1.0,0.0,0.0,1.0,Taxi
15.100000000000001,0.11501578577911056,-5.329671086551206,16.385539996355085,0.19149711942585915,0.3105948103705694,2.584543886674396,21.721837113643947,0.0,1.0,0.0,0.0,1.0,Taxi
15.200000000000001,-0.04193387062615562,0.9869992168511542,17.290878409454244,-0.1166109503163916,-0.5903880344204699,2.622825012803162,21.881830758890978,0.0,1.0,0.0,0.0,1.0,Taxi
15.3,-0.02938448886016451,-22.75528086379086,17.60219848676906,-0.061502236286542195,0.40357339785624213,2.4466186658576703,21.996184726733663,0.0,1.0,0.0,0.0,1.0,Taxi
15.4,0.0012393814601562418,13.768059580565295,17.1121917455378,0.10889180984073148,0.10134452252832837,2.8152507960573985,21.956715187654684,0.0,1.0,0.0,0.0,1.0,Taxi
15.5,0.026906427276670853,-14.501816041137099,16.87239636257344,0.1644344039463437,0.1278177063726949,2.808537775198488,21.335064753345904,0.0,1.0,0.0,0.0,1.0,Taxi
15.600000000000001,-0.10189356906585001,-3.3496397677096845,16.13273000168451,-0.0543146319008615,0.04434776369996845,2.7039070027509524,22.000285675807884,0.0,1.0,0.0,0.0,1.0,Taxi
15.700000000000001,-0.015508817378392185,2.130248254837872,17.270904410745054,0.42350026267245516,-0.2783703258928849,2.7840456413767356,21.017626097853068,0.0,1.0,0.0,0.0,1.0,Taxi
15.8,0.03755766855086022,1.6325166739854733,16.386886081306308,0.28714905211019837,0.14552862779286999,2.832079190623517,21.51073167402799,0.0,1.0,0.0,0.0,1.0,Taxi
15.9,-0.09373098569592267,-6.2593622307291605,16.760005317532,-0.10744636006594521,1.0710674800534798,2.7265425704327413,21.667802849972798,0.0,1.0,0.0,0.0,1.0,Taxi
16.0,-0.04680562853203801,-30.132657250858568,16.62419662911206,0.007411721434399859,-0.17826340129051912,2.604538244981029,21.920504544193125,0.0,1.0,0.0,0.0,1.0,Taxi
16.1,-0.11310561770343264,33.00427024011932,16.815262368779344,0.3671951366662403,0.5401083330460084,2.6219722421548113,22.424302304406787,0.0,1.0,0.0,0.0,1.0,Taxi
16.2,0.07129036550467395,4.006616640437564,16.132170748480494,0.18679682135564846,0.11111414390526589,2.874414546551236,21.321030877325104,0.0,1.0,0.0,0.0,1.0,Taxi
16.3,-0.02677254532985018,15.242824872210518,17.0871477259349,-0.014170487626464542,-0.18416494266412245,2.727226380273976,22.195050557748335,0.0,1.0,0.0,0.0,1.0,Taxi
16.400000000000002,-0.03689149334238003,7.4592375320634074,16.54378079012993,0.12904729782855165,0.07126441027674982,2.5263484724311525,21.23092717560315,0.0,1.0,0.0,0.0,1.0,Taxi
16.5,0.108586553164991,28.57660042082294,17.113319178001852,0.21750513894158205,0.17070244702138976,2.6395480417591557,22.28303763100631,0.0,1.0,0.0,0.0,1.0,Taxi
16.6,0.11611045677426449,-0.6981688502301276,16.8769281541769,0.1474021642538674,0.34091616600744984,2.703250948748803,20.904775055734255,0.0,1.0,0.0,0.0,1.0,Taxi
16.7,-0.04038233759353066,-4.104252130933375,17.12631341825997,0.30579169941032025,-0.17935385336053128,2.7730606516452667,21.21901919060255,0.0,1.0,0.0,0.0,1.0,Taxi
16.8,0.08806529251032415,-50.61439893827866,16.112936460346962,0.15773014497288357,0.34979311912539274,2.5385215567857244,21.474976450886412,0.0,1.0,0.0,0.0,1.0,Taxi
16.900000000000002,-0.13696153791712876,11.431912409778542,16.115647053630823,0.013776683457075903,0.632481814480241,2.7733930292108084,21.806900760754118,0.0,1.0,0.0,0.0,1.0,Taxi
17.0,0.0167772244553621,-21.018043230193157,16.399707288903763,0.1923170393372815,-0.5549434387074377,2.620994444911503,22.17967730209345,0.0,1.0,0.0,0.0,1.0,Taxi
17.1,-0.017024923640641593,15.287656092975404,17.310809606488398,0.4647468872134973,0.7845244218672881,2.7453609724339003,22.47425214111272,0.0,1.0,0.0,0.0,1.0,Taxi
17.2,-0.06052325745225173,3.5049804343910274,17.131221465903977,0.2246980332996964,0.9961479164904491,2.7525479308991976,21.47313572748671,0.0,1.0,0.0,0.0,1.0,Taxi
17.3,0.034302126627317235,11.906307464548627,17.5074867586229,0.03396360322316935,-0.23107638729004631,2.5139914584099756,22.351776476993113,0.0,1.0,0.0,0.0,1.0,Taxi
17.400000000000002,0.04250661368210155,19.733170501101977,16.436782820265154,-0.06385265024871264,-0.3285701030684381,2.657704962135938,21.14179461937588,0.0,1.0,0.0,0.0,1.0,Taxi
17.5,0.03814259505325815,-13.183665435992472,16.87051992831267,0.2564623685315669,0.014894306607584349,2.7113536697464156,20.998002346399435,0.0,1.0,0.0,0.0,1.0,Taxi
17.6,-0.031616200552645135,-8.805890749927528,17.830652288030066,-0.1061846364276372,0.4300334976003877,2.640537693962642,21.04753252001752,0.0,1.0,0.0,0.0,1.0,Taxi
17.7,-0.0015228400675360995,-38.83171903251097,17.35328049815324,0.33020545417131786,-0.1002188427557501,2.7144128052001406,22.36203038632248,0.0,1.0,0.0,0.0,1.0,Taxi
17.8,-0.15601600010929673,0.11330363575324516,15.979367587218984,0.25272339663461624,0.6733547027156015,2.4535855559259403,20.837079845631095,0.0,1.0,0.0,0.0,1.0,Taxi
17.900000000000002,-0.03104968237387894,-2.26688550551048,17.33039082203504,-0.23116281699481178,-0.36809115005594123,2.5678545459063002,21.844714487243717,0.0,1.0,0.0,0.0,1.0,Taxi
18.0,-0.012857267595088524,46.16169071692145,18.733407125893724,-0.028144826075274784,-0.7540808264902427,2.776109318710212,21.328717640213597,0.0,1.0,0.0,0.0,1.0,Taxi
18.1,0.07479245347531052,6.478229247198364,16.37738482802439,0.5777614340078918,0.2809679750714529,2.7176956109645403,21.846021005970993,0.0,1.0,0.0,0.0,1.0,Taxi
18.2,0.0013414638621128564,-21.501864031348344,16.435671455383048,0.03599478756185225,0.023052222998570113,2.6652132057928952,22.02170390495458,0.0,1.0,0.0,0.0,1.0,Taxi
18.3,-0.12036658775183028,-13.992827515592447,16.433975994556864,-0.1533165626014632,-0.6398176729421428,2.6651994067687497,21.874520947590153,0.0,1.0,0.0,0.0,1.0,Taxi
18.400000000000002,0.004828315897348262,-15.029153669151967,17.607420277849865,0.44992186244341426,0.6066904812028114,2.7309537204846492,21.462849843330233,0.0,1.0,0.0,0.0,1.0,Taxi
18.5,-0.073804304483647,38.33141759860535,16.208790306194903,-0.02021974206614073,1.009547590128124,2.6033532929089915,21.69952805791593,0.0,1.0,0.0,0.0,1.0,Taxi
18.6,0.07129050024119642,-23.862481495466906,16.293471672542076,0.30929414742290173,0.23203126890582476,2.7677683974444562,21.50303681475282,0.0,1.0,0.0,0.0,1.0,Taxi
18.7,-0.11448409157998629,-10.009643797853455,16.885673903747634,0.20406005488050982,-0.6017117523163091,2.9546318973858092,21.499659729789037,0.0,1.0,0.0,0.0,1.0,Taxi
18.8,-0.12385252347291431,0.8279863521864096,16.2158001733967,0.21660419654736693,-0.25255705232600734,2.743730598589991,21.98616410858567,0.0,1.0,0.0,0.0,1.0,Taxi
18.900000000000002,0.07543043200212844,21.314298711557207,18.141862599446,0.11394412249286817,-0.22505755279906917,2.658855356861409,21.07299232840354,0.0,1.0,0.0,0.0,1.0,Taxi
19.0,-0.007912598022200304,13.293196872976289,17.182663465310423,0.04804106748251874,0.04653692915689585,2.6011878854250767,21.195500629289587,0.0,1.0,0.0,0.0,1.0,Taxi
19.1,-0.05738653910803292,-24.40428153410625,17.453392198359534,0.35284537805298827,0.6758845936913562,2.6452302687496285,21.751674496204455,0.0,1.0,0.0,0.0,1.0,Taxi
19.200000000000003,-0.04659097566840284,-20.19665290227046,17.37613807801118,0.039925470465037,-0.3571355167153103,2.800042986381925,22.264681891325786,0.0,1.0,0.0,0.0,1.0,Taxi
19.3,-0.10889586253355264,-22.66471001236103,17.731873435905076,0.23487328164751728,0.044899132144426014,2.538184164486381,21.43327397190547,0.0,1.0,0.0,0.0,1.0,Taxi
19.400000000000002,-0.1707100891698381,8.92700700883105,17.266782645025557,0.410674695159234,1.0855363463368795,2.5723510173428394,22.614578211568706,0.0,1.0,0.0,0.0,1.0,Taxi
19.5,-0.001955940624247627,43.88882801944964,17.17275900649514,0.012119299211681187,-1.143186822646469,2.67356041271114,20.647135441407457,0.0,1.0,0.0,0.0,1.0,Taxi
19.6,0.11054827756369551,12.61409252734982,16.89720236336259,-0.02118704127813649,-0.4980064808325818,2.694959559782376,22.194547037104485,0.0,1.0,0.0,0.0,1.0,Taxi
19.700000000000003,-0.10763962653308899,17.55774774809937,17.55730283153295,-0.04123577795769548,-0.05161886945798533,2.5688851367185634,20.898687565879957,0.0,1.0,0.0,0.0,1.0,Taxi
19.8,0.08583279811624918,-27.68604865233741,17.2848761103797,0.08128847577730618,0.936174577621847,2.6973893554954884,21.68667162129059,0.0,1.0,0.0,0.0,1.0,Taxi
19.900000000000002,-0.027881965697991586,14.689476022497862,17.52241151153226,-0.04601483005218662,0.754542205669727,2.7130498872266458,21.641898421384635,0.0,1.0,0.0,0.0,1.0,Taxi
20.0,-0.034192246420599745,-18.335512853093988,16.302179592974046,0.03125328112228056,0.1894409693276915,2.650354746621133,21.54461217788379,0.0,1.0,0.0,0.0,1.0,Taxi
20.1,-0.005844766149220808,12.86014159892703,17.021503746508788,-0.19172510498997924,-0.46079542438347,2.7241191802130515,22.141540389216132,0.0,1.0,0.0,0.0,1.0,Taxi
20.200000000000003,0.036418742296643505,48.11298959086978,17.079232348503833,0.32372256279451245,-0.0019308529428144227,2.588315788004195,22.127050655098454,0.0,1.0,0.0,0.0,1.0,Taxi
20.3,0.2063727015337491,-14.68188812407628,17.12182840933359,-0.17969303671575743,0.1460814316331763,2.8504123897739646,22.163959802214464,0.0,1.0,0.0,0.0,1.0,Taxi
20.400000000000002,-0.0792542067696023,-0.7891634436275675,16.848342567370466,0.3436614821149615,-0.40652837014188364,2.549466962974236,21.709359627570613,0.0,1.0,0.0,0.0,1.0,Taxi
20.5,0.03247292507850559,-29.524166547328637,16.9092442518184,-0.15773245600574823,0.08963186852588013,2.662271626024449,21.285401815135728,0.0,1.0,0.0,0.0,1.0,Taxi
20.6,0.05875186879710581,17.67431775529759,16.964814608766485,0.10675069758792345,-0.6034592752968454,2.737720775095511,22.215857658235116,0.0,1.0,0.0,0.0,1.0,Taxi
20.700000000000003,0.009117382006885588,-37.50270113675796,17.839697299395763,0.1538434971042424,-0.30600289400687575,2.805130288512771,21.419874763471856,0.0,1.0,0.0,0.0,1.0,Taxi
20.8,-0.1550405806052843,-11.887934088626366,17.565940207209245,0.08701161295552591,0.012808314310529397,2.638505045372142,22.53998612642138,0.0,1.0,0.0,0.0,1.0,Taxi
20.900000000000002,-0.0006878016460261161,-3.144571238443659,16.453402847077022,0.13639249415023497,-0.03457564231797806,2.6804599692291617,20.76251721761781,0.0,1.0,0.0,0.0,1.0,Taxi
21.0,-0.006605474185332815,66.44516887597037,17.870018332520228,0.17709827029983083,0.27864118934667015,2.710731143731664,21.547929487409863,0.0,1.0,0.0,0.0,1.0,Taxi
21.1,0.17718526377456745,-6.731232481974364,17.158436935599248,0.2122532277219081,0.6275691214531159,2.588558919859281,21.63083935946279,0.0,1.0,0.0,0.0,1.0,Taxi
21.200000000000003,-0.034343964055897964,-9.291687950138964,16.377307897081685,0.1360489193145849,-0.11670524763964323,2.8197598486559627,21.876518427809224,0.0,1.0,0.0,0.0,1.0,Taxi
21.3,-0.05306391393602766,-67.66133780266954,17.356086113360714,-0.2175194919131817,0.5064174288848162,2.756911225085105,20.562925269077425,0.0,1.0,0.0,0.0,1.0,Taxi
21.400000000000002,-0.16112142523878026,-25.23902975311272,17.440453187912166,-0.043615918215222926,-0.4917301786886531,2.6670075178964225,20.199696219934015,0.0,1.0,0.0,0.0,1.0,Taxi
21.5,-0.1605391128214616,13.98174047355883,17.30690486423223,0.16969212156486385,0.4565408216504102,2.7126338705231774,20.712778418853468,0.0,1.0,0.0,0.0,1.0,Taxi
21.6,0.016844788431766455,60.710570019248074,16.42705250475634,0.41476251770257994,0.35827423282698156,2.9075144446997,22.05401010714415,0.0,1.0,0.0,0.0,1.0,Taxi
21.700000000000003,0.14243142485746002,44.76845129307614,18.376110168022294,0.2992564883371115,0.1852858904895248,2.6166389861796233,21.781787452472035,0.0,1.0,0.0,0.0,1.0,Taxi
21.8,0.06330314364391905,-2.407652374266815,17.081938261678527,-0.08036419595036859,0.0654054365253994,2.5816418984055645,21.481988310938195,0.0,1.0,0.0,0.0,1.0,Taxi
21.900000000000002,0.004806526560432323,-32.98760112946464,16.664964404752293,0.3513193240934826,-0.578840730844704,2.564785049147133,21.910740599882924,0.0,1.0,0.0,0.0,1.0,Taxi
22.0,-0.02250658078986327,-9.586302745253697,16.990518454936005,0.5382641443703124,0.6506627899675481,2.684638134424688,21.459543047038,0.0,1.0,0.0,0.0,1.0,Taxi
22.1,0.015371629917650502,8.359385476320249,17.675219018096332,0.10272771392878471,0.11027535517471543,2.770516147758883,21.830520427967425,0.0,1.0,0.0,0.0,1.0,Taxi
22.200000000000003,0.04660345394203351,18.313407812083856,17.844619992093172,0.14347173172149041,1.1849693313781708,2.7482105819240132,21.671584905435818,0.0,1.0,0.0,0.0,1.0,Taxi
22.3,0.06906045827055594,-43.861723292517155,15.936176701189874,-0.005313792705730097,0.684982586161931,2.785107855079218,21.882710891821052,0.0,1.0,0.0,0.0,1.0,Taxi
22.400000000000002,-0.20393698654493533,19.86266605709551,17.649331096925014,0.25251395008403776,0.23795507681686506,2.6524973441942166,21.47775075575725,0.0,1.0,0.0,0.0,1.0,Taxi
22.5,0.14591678422751106,4.338337954816471,17.279696116660777,0.006106034552064807,-0.8559764764334902,2.844040693851696,22.079650066509913,0.0,1.0,0.0,0.0,1.0,Taxi
22.6,0.09075214804463828,42.341522897876075,17.52179665403393,0.19514090457335204,0.4368385619104903,2.6758183150336095,21.31113125932792,0.0,1.0,0.0,0.0,1.0,Taxi
22.700000000000003,0.007770627944445056,-9.96570023875371,17.524281035221975,0.17605347602498328,-0.05841074597914092,2.64407969903732,21.921180302536282,0.0,1.0,0.0,0.0,1.0,Taxi
22.8,0.09608828303374245,-38.581865244216004,17.879459141476893,-0.17342921876148115,0.6564484175252199,2.668514677404403,21.657579810759536,0.0,1.0,0.0,0.0,1.0,Taxi
22.900000000000002,-0.10215717817644182,9.203024960175526,17.327485674855904,-0.01280377922932563,-0.5584429591686503,2.682485030048497,21.54156296604424,0.0,1.0,0.0,0.0,1.0,Taxi
23.0,0.053785752745322636,-27.827204502748007,17.546356034144676,-0.09790503442637788,0.7856965125336334,2.5358952539264124,21.15950885305013,0.0,1.0,0.0,0.0,1.0,Taxi
23.1,-0.043047739479997654,28.439516204655376,16.947741845040763,0.093293977826595,-0.3814671827430425,2.702607856417444,21.351488769151878,0.0,1.0,0.0,0.0,1.0,Taxi
23.200000000000003,0.04004040284683499,-30.77438251075591,17.337013912750077,0.06336289692157863,-0.30927329374569995,2.7911357420540526,22.092618542436753,0.0,1.0,0.0,0.0,1.0,Taxi
23.3,-0.10008615980845699,7.919010348084207,17.191413183465325,0.3150138178029358,-0.004237241241735212,2.5723217007875974,21.0254191687733,0.0,1.0,0.0,0.0,1.0,Taxi
23.400000000000002,-0.0034526877395766975,-23.85167186355619,16.870543591965504,0.024400543144800557,-0.2336611728455721,2.7910522777592632,21.83967981320178,0.0,1.0,0.0,0.0,1.0,Taxi
23.5,-0.07921795647094607,53.13692223441958,17.61555692553466,-0.3900229933988033,-0.9275357281592179,2.683611007315619,21.512634548015974,0.0,1.0,0.0,0.0,1.0,Taxi
23.6,0.1655984513636408,-18.37148519504518,16.474487579321057,-0.013154619134586557,0.25597353669979445,2.7493679695276683,21.98026404088924,0.0,1.0,0.0,0.0,1.0,Taxi
23.700000000000003,-0.09531011371480275,22.40907930290201,16.892783254630864,0.2767916243057031,0.6492115031807777,2.763301754895224,21.578272003253602,0.0,1.0,0.0,0.0,1.0,Taxi
23.8,0.03282744004356387,-16.165790980677723,17.43395846817087,-0.009179221399687909,0.02385899046192813,2.685431689310292,20.778009888348926,0.0,1.0,0.0,0.0,1.0,Taxi
23.900000000000002,0.08476949646025204,-5.3487530214467585,16.400616016318786,0.09128177232997511,-0.007821658953646324,2.7506247429707855,21.085887514342396,0.0,1.0,0.0,0.0,1.0,Taxi
24.0,-0.12205387882203662,-3.5191960723315767,16.927739246867787,-0.1447126594261401,1.1118601791409126,2.6850608656225745,21.801778079387116,0.0,1.0,0.0,0.0,1.0,Taxi
24.1,0.01523145968190591,-29.15676495033473,17.17791577066047,-0.08050657124288452,0.1400993640240149,2.6693917088698527,21.670868005287414,0.0,1.0,0.0,0.0,1.0,Taxi
24.200000000000003,-0.06101432829142165,50.04707923289408,18.45593308625965,-0.03853209690855822,-0.17849555283820856,2.6680124348161485,22.573823770307698,0.0,1.0,0.0,0.0,1.0,Taxi
24.3,0.1281815173424337,0.11077573820890052,17.13058235521117,0.13866742675071445,-0.18689890639328388,2.677600422052649,21.979565228678236,0.0,1.0,0.0,0.0,1.0,Taxi
24.400000000000002,0.015785338372950302,12.39525920454895,16.67360966634321,0.09691845678228378,-0.05803856307975135,2.6428599528396717,21.35291119559472,0.0,1.0,0.0,0.0,1.0,Taxi
24.5,0.000961967731322974,-7.788869492095938,17.102639639012114,-0.285020764603219,-0.2638006032453246,2.7011049638284703,21.708026195409975,0.0,1.0,0.0,0.0,1.0,Taxi
24.6,0.08923716988195388,7.5850189035404405,17.93555697862434,0.3103119858636574,-0.9730577195698689,2.6964147078377323,21.54229895398576,0.0,1.0,0.0,0.0,1.0,Taxi
24.700000000000003,0.05371043289065241,-37.95165721191734,17.216608267493804,0.11240377777111533,-0.17383291813538387,2.490766150303841,22.079642016805437,0.0,1.0,0.0,0.0,1.0,Taxi
24.8,-0.18879631832826385,-27.149368040095187,16.427927627349515,0.19495126103440874,-0.23750705698428573,2.788596686846347,22.08084969962349,0.0,1.0,0.0,0.0,1.0,Taxi
24.900000000000002,-0.04650967031852219,-13.262369626207525,17.55830385677294,0.2648198412889103,0.08139057847693462,2.768192153573466,21.65523327879141,0.0,1.0,0.0,0.0,1.0,Taxi
25.0,-0.012601415240385334,60.656232982302726,18.14618398260059,0.29950978663770655,-0.2923613832331813,2.6041089929497048,22.102767224206858,0.0,1.0,0.0,0.0,1.0,Taxi
25.1,0.11448484658324963,-11.247339219891321,17.286415496359567,0.05134720199230815,0.1932538605546231,2.691375664100235,21.283358108592527,0.0,1.0,0.0,0.0,1.0,Taxi
25.200000000000003,-0.10274636641797895,-38.649348662466764,16.477581897641997,0.27412448853478033,-0.7202768890009149,2.7620102580027037,21.712436564650044,0.0,1.0,0.0,0.0,1.0,Taxi
25.3,-0.20584815855271932,-31.543695363601262,17.01596122491262,0.21546700769989127,0.5921438682668902,2.7842115469519513,22.187247853680915,0.0,1.0,0.0,0.0,1.0,Taxi
25.400000000000002,-0.04323363023475686,16.106457293583272,17.072696009900323,0.06624994348215114,-0.1971903148825691,2.671858549480703,21.911258117797345,0.0,1.0,0.0,0.0,1.0,Taxi
25.5,-0.022214079950062735,42.67375698729469,16.76206295188707,0.06662812550951433,-0.5854933222829295,2.8938818581914347,21.300313208652764,0.0,1.0,0.0,0.0,1.0,Taxi
25.6,0.007520626383753929,-13.85389549140379,18.222284505575306,-0.15294986529440657,-0.012307329325566609,2.6797044179415366,21.95629229856068,0.0,1.0,0.0,0.0,1.0,Taxi
25.700000000000003,-0.11250310769177592,-14.422296687269139,17.491604748832486,-0.25057343303824536,-0.6020021621785449,2.685810931788126,21.919464645122634,0.0,1.0,0.0,0.0,1.0,Taxi
25.8,-0.09432556338640853,-22.845576200595243,15.990940010550634,0.5766833973402685,0.36948929439341516,2.5131948839849088,22.431234902307708,0.0,1.0,0.0,0.0,1.0,Taxi
25.900000000000002,-0.1067072546192224,28.95639480812909,17.562397221459292,0.20199830892222462,0.5832790536947893,2.599530657105902,21.23445019074804,0.0,1.0,0.0,0.0,1.0,Taxi
26.0,0.03227886634886936,-12.29982659637418,17.495391505023264,0.12398191764898156,0.49639701934848135,2.601426308307964,21.19717411761427,0.0,1.0,0.0,0.0,1.0,Taxi
26.1,-0.15582469636827959,0.6143558483609084,16.40721281089839,-0.039982729056017324,0.14085769586294583,2.7101239989247006,20.88588375053069,0.0,1.0,0.0,0.0,1.0,Taxi
26.200000000000003,-0.103635475377418,-7.822650099749727,17.014302195068275,0.1917331925019748,-0.1625116199153187,2.8253360418545412,22.060828072316085,0.0,1.0,0.0,0.0,1.0,Taxi
26.3,-0.006834384149879419,15.475687354400593,16.52368147031074,0.18823440667385583,0.33398729803723376,2.705534227618841,21.248887239098522,0.0,1.0,0.0,0.0,1.0,Taxi
26.400000000000002,-0.07844625959627678,39.96181476332012,16.970732477548257,0.3873287482971098,-0.3187360721537345,2.9249577704509306,22.214587805501235,0.0,1.0,0.0,0.0,1.0,Taxi
26.5,0.09617359843918244,46.036052061340285,17.91526100365555,0.4747201486790973,-0.18983739850945827,2.6361853635532952,22.121339321409344,0.0,1.0,0.0,0.0,1.0,Taxi
26.6,0.2233458761568219,40.250440874158976,17.364173379427246,-0.2861140521188279,-0.1345160360007747,2.785329707803328,21.348094959723458,0.0,1.0,0.0,0.0,1.0,Taxi
26.700000000000003,0.12280594477451796,7.25025855989842,17.526853357509395,0.07537308942545681,-0.316146076552069,2.9253946322923525,21.377248468147464,0.0,1.0,0.0,0.0,1.0,Taxi
26.8,0.13242489123867437,-46.42989766896512,17.461053902342258,0.1197333429938077,-0.25179170617416646,2.658504031476582,21.417041738753802,0.0,1.0,0.0,0.0,1.0,Taxi
26.900000000000002,-0.008803612188003875,-2.9215793757136006,17.27487228942913,0.38245000253367384,0.34895794839442806,2.6990277520445147,21.18766311903954,0.0,1.0,0.0,0.0,1.0,Taxi
27.0,0.10819804789594976,-31.910472821695226,17.26216022659101,0.046244439367781616,-0.13885949202732897,2.670455594222801,21.434857334236625,0.0,1.0,0.0,0.0,1.0,Taxi
27.1,-0.02712747286980199,-14.811131843790166,16.62383546062064,0.338027893857967,0.24083431222975368,2.5941913985225824,21.54778390449935,0.0,1.0,0.0,0.0,1.0,Taxi
27.200000000000003,-0.08285927140695494,-2.7217640714143605,16.821299398949105,0.2751381562765985,-0.2870783864781659,2.6009963499945457,21.5021384919708,0.0,1.0,0.0,0.0,1.0,Taxi
27.3,0.09458922753887777,0.2766418145153722,16.869859195700247,0.19839508020758423,0.15517408587524872,2.644767915540342,21.76038625714135,0.0,1.0,0.0,0.0,1.0,Taxi
27.400000000000002,-0.02574426379722531,31.48151047266894,17.46825339261912,-0.05063594153198889,0.22474127471650662,2.7172046012337887,21.60388392057391,0.0,1.0,0.0,0.0,1.0,Taxi
27.5,0.07454828095638956,-35.68191258614807,16.05756392584881,0.23673754759652446,0.29317068914081806,2.774323783100499,21.675951337207763,0.0,1.0,0.0,0.0,1.0,Taxi
27.6,-0.08382033539186277,16.008515126046305,16.55077414825513,0.05338401232469731,-0.13228324316096424,2.741775425378819,21.378821781640347,0.0,1.0,0.0,0.0,1.0,Taxi
27.700000000000003,0.05429831183300607,-43.25542054007425,17.744498387353495,0.24739751042496877,-0.2719763112243944,2.627711827153348,22.458476418288317,0.0,1.0,0.0,0.0,1.0,Taxi
27.8,-0.1417288217439818,22.751846404363267,17.481179226441924,0.07024385387275689,0.4285147024081823,2.7665072863142086,21.933520788295386,0.0,1.0,0.0,0.0,1.0,Taxi
27.900000000000002,0.02993889662995345,4.870779814623592,17.26833612688115,-0.14285067257356088,0.3229987166944108,2.646166000778635,20.727551882023707,0.0,1.0,0.0,0.0,1.0,Taxi
28.0,0.07865221090612388,57.41413871614648,16.875924862455545,-0.03379474641201577,-0.6224024638445438,2.4422615352619346,22.533873612384486,0.0,1.0,0.0,0.0,1.0,Taxi
28.1,0.14534187183675049,-6.567589731474953,17.52428474384796,-0.16258365076343712,0.19750912345997404,2.7400496374107774,21.70170980838159,0.0,1.0,0.0,0.0,1.0,Taxi
28.200000000000003,-0.0028990520274214536,-44.3651765376088,16.81011051488113,0.4364889009019213,-0.03410653156163366,2.748294828608323,21.54370552006291,0.0,1.0,0.0,0.0,1.0,Taxi
28.3,-0.14317367178192025,-37.72149996776545,16.61203672353305,0.3154982115902727,0.3878556741758776,2.648393167345887,21.889969046372425,0.0,1.0,0.0,0.0,1.0,Taxi
28.400000000000002,-0.04326562800207693,34.217611128523465,17.06026817076114,0.06281599902857452,0.3939595102299888,2.518968745975428,22.254585974666284,0.0,1.0,0.0,0.0,1.0,Taxi
28.5,0.16818900361519573,37.954326838303615,16.298441456973137,0.20043113206896684,-0.18898566340083248,2.4683423448097983,21.73413510270624,0.0,1.0,0.0,0.0,1.0,Taxi
28.6,0.04659796240959771,-9.181792162040532,18.007656559033272,-0.009674006251752215,0.008622090743567599,2.7403020150788393,21.86285372246889,0.0,1.0,0.0,0.0,1.0,Taxi
28.700000000000003,-0.08917458881227973,4.537325988479694,16.227760417983635,0.16670073283963668,-0.09802268908767364,2.7423223690728946,21.261350127223825,0.0,1.0,0.0,0.0,1.0,Taxi
28.8,0.19087563355759402,10.894153130256532,17.41852029614789,0.13322869912875412,-0.8905639253601773,2.7985887070285003,21.856848773307608,0.0,1.0,0.0,0.0,1.0,Taxi
28.900000000000002,0.10106872806088017,-11.874608731414057,16.572649719256482,0.08785435016162604,0.5404821105186012,2.6783141537901543,22.453375243141444,0.0,1.0,0.0,0.0,1.0,Taxi
29.0,-0.14854763246935015,-27.357780152050463,17.57723027585949,-0.22778957427179458,-0.3460331255679124,2.7649277355010327,21.53200101482868,0.0,1.0,0.0,0.0,1.0,Taxi
29.1,0.05408673279734161,-12.16299480009428,17.427032558071048,0.24318927854626748,-0.7876700637296472,2.736037711162396,21.01275967187215,0.0,1.0,0.0,0.0,1.0,Taxi
29.200000000000003,0.040253754060408625,9.326241982456642,16.59248705313932,-0.10028751364360794,0.27940752344974296,2.678995468249866,22.16755139358719,0.0,1.0,0.0,0.0,1.0,Taxi
29.3,-0.10191642255706712,25.861821017564704,17.480150930172584,0.1669633364876939,0.13478481384510857,2.7437539093243117,22.61759941732833,0.0,1.0,0.0,0.0,1.0,Taxi
29.400000000000002,0.18339583788516498,-30.00082177938006,16.6166856980448,0.21437487565715735,-0.15235744771152815,2.738009109277641,21.06159936016621,0.0,1.0,0.0,0.0,1.0,Taxi
29.5,-0.10975035483649186,14.733003266322084,16.65136811369973,0.1903298733288874,0.10840606440763756,2.876302071903922,22.475706839790643,0.0,1.0,0.0,0.0,1.0,Taxi
29.6,-0.02825140622545689,-39.99422854897974,16.58041286713443,0.1922596857636431,0.1342904655597994,2.6303035665793573,22.232695193892418,0.0,1.0,0.0,0.0,1.0,Taxi
29.700000000000003,-0.016575304859733908,34.53423327317486,17.08611119471737,0.4335895200843637,0.04678196559578694,2.861380637989555,22.005947343309217,0.0,1.0,0.0,0.0,1.0,Taxi
29.8,0.06292081152938228,29.81194396144876,17.393457246322324,0.2306288120767278,0.43067256732612913,2.801458836183315,21.593829255199598,0.0,1.0,0.0,0.0,1.0,Taxi
29.900000000000002,0.12080831358178674,-0.8776249973368332,16.871448118648942,0.24686602890417006,-0.07181107307089417,2.664154056985808,21.774394498848412,0.0,1.0,0.0,0.0,1.0,Taxi
30.0,-0.02096342984641822,-24.891353101816446,16.353624976037647,-0.2152262728319207,-0.903735163743803,2.6945044351925844,21.387064849820014,0.0,1.0,0.0,0.0,1.0,Taxi
30.1,-0.0615359539797001,-84.29139815551822,18.067255428809652,0.15737344565219324,-0.05614409207624568,2.785813237785476,21.87104511488086,0.0,1.0,0.0,0.0,1.0,Taxi
30.200000000000003,-0.30064867719580457,-0.5616830653569499,16.957487598225487,-0.20140202527609496,-0.0841323778378128,2.8558749983833422,22.078942886549353,0.0,1.0,0.0,0.0,1.0,Taxi
30.3,-0.023771845173203153,23.05611346677193,16.073700358540663,0.29590842749357865,0.16074458947028938,2.6200875018818124,21.89925852327032,0.0,1.0,0.0,0.0,1.0,Taxi
30.400000000000002,0.05374461335415936,53.50460295351772,17.47784967310137,0.044351432910677405,-0.5077793013408034,2.5424473157088983,21.22518550149026,0.0,1.0,0.0,0.0,1.0,Taxi
30.5,-0.03312566242821615,16.824060039508137,16.759557161137224,0.045672119505788276,-0.1850966240436422,2.530966246138007,21.641450097447485,0.0,1.0,0.0,0.0,1.0,Taxi
30.6,0.06034845502433735,-16.70027083990676,17.117701143154385,0.3904001832708037,0.5325269033335237,2.6511135906553704,21.78328418900115,0.0,1.0,0.0,0.0,1.0,Taxi
30.700000000000003,-0.02975674084537463,6.511875939400046,17.32870574846447,-0.018005827934059915,-0.3218843643032072,2.685228845919198,21.39058492503828,0.0,1.0,0.0,0.0,1.0,Taxi
30.8,-0.0005662827312161141,-7.58975938513133,17.754244762546563,0.3361168008113545,0.18485000810993862,2.7637786463023417,21.53740191150104,0.0,1.0,0.0,0.0,1.0,Taxi
30.900000000000002,0.022399658098680504,-20.07735827133217,16.82459095500212,-0.1412539246806635,0.7238418197214721,2.7184793955008217,21.50071916087116,0.0,1.0,0.0,0.0,1.0,Taxi
31.0,-0.1301435322020357,3.5472973944411925,16.676687911662867,-0.037186189202712064,0.20906345147056812,2.7479009630068276,21.2488497303061,0.0,1.0,0.0,0.0,1.0,Taxi
31.1,0.017170204240989646,-3.658219290844561,17.527534577770393,-0.00840899305368556,0.04689424855880345,2.6793097950752554,21.40232408224814,0.0,1.0,0.0,0.0,1.0,Taxi
31.200000000000003,0.004108561644457491,26.12135181820827,16.32827652920406,0.01438521139165412,-0.31944269157273414,2.7203347323992944,21.454491728652968,0.0,1.0,0.0,0.0,1.0,Taxi
31.3,0.00046322688900547336,-2.532471824586817,17.181138303443362,0.004053172208148104,-0.43470419364268614,2.483405800283606,21.711177935256423,0.0,1.0,0.0,0.0,1.0,Taxi
31.400000000000002,0.004507845118055368,-28.69994918006159,16.974351350440102,-0.12885633809601954,0.4011748428449928,2.7285792944481955,22.054567718048492,0.0,1.0,0.0,0.0,1.0,Taxi
31.5,-0.13939118425585065,35.59957866418022,16.727508837515956,0.011954256533746224,-0.29899313415297035,2.42983368068883,21.687514226652382,0.0,1.0,0.0,0.0,1.0,Taxi
31.6,0.1784611202099064,7.540726661386728,16.810448008269407,0.417468168579308,0.7390902512094513,2.7572596044485067,21.01287310942026,0.0,1.0,0.0,0.0,1.0,Taxi
31.700000000000003,0.04221147842498881,42.435109640020066,16.454300566092883,0.33186814364972284,-0.1765699778276546,2.7491362087810103,22.057471809210966,0.0,1.0,0.0,0.0,1.0,Taxi
31.8,0.07278436394424949,-50.07253097858804,17.483096411388367,0.37946343511414893,-0.7952193337247593,2.5793360748301097,22.06216550510793,0.0,1.0,0.0,0.0,1.0,Taxi
31.900000000000002,-0.07190153468303401,1.879034148354459,17.037208731657163,0.23526487388326128,-0.2939666053329132,2.706896206165254,21.407020937765235,0.0,1.0,0.0,0.0,1.0,Taxi
32.0,0.051606649166760866,10.131202072687703,15.999042693926533,0.15239621070808018,-1.3206777064430253,2.564488229669678,21.858190277226583,0.0,1.0,0.0,0.0,1.0,Taxi
32.1,0.12344037430768776,-10.694753723254417,18.10050319323731,0.26005127873808126,-0.27702934842869975,2.8120755156187442,21.406662136371647,0.0,1.0,0.0,0.0,1.0,Taxi
32.2,-0.12537530329930632,-61.50560171881807,17.141619312406686,0.19585724685636935,-0.7229756687195705,2.739421261120299,22.15726155302281,0.0,1.0,0.0,0.0,1.0,Taxi
32.300000000000004,-0.2559213594273297,-47.23333042721555,17.1339393743703,0.24735204538054276,-0.5825925619448243,2.6109711188689744,21.0987024120726,0.0,1.0,0.0,0.0,1.0,Taxi
32.4,-0.11272627782839018,6.689672063482795,17.329780078015133,0.050366595258155365,-0.20444691107496835,2.60505360136807,21.827179853196867,0.0,1.0,0.0,0.0,1.0,Taxi
32.5,-0.09192694298189255,46.00787531141297,17.727535587244756,0.08061082863408821,-0.038417056519735635,2.764688871497981,21.573467762238177,0.0,1.0,0.0,0.0,1.0,Taxi
32.6,-0.02588198287026506,13.12540027688793,18.080192042891998,-0.0007821199678043622,0.4156212632155226,2.6779215268896337,21.59461689481119,0.0,1.0,0.0,0.0,1.0,Taxi
32.7,-0.047099276443950726,63.29325352648426,17.440942761503255,0.33839043751090486,0.6450741331409583,2.7472571787867537,21.859815108211077,0.0,1.0,0.0,0.0,1.0,Taxi
32.800000000000004,0.22453932465052856,24.13417739588807,17.792846945049327,-0.06203275635932465,0.4495772917085926,2.7057758915748877,21.5683269358373,0.0,1.0,0.0,0.0,1.0,Taxi
32.9,0.0947889041091751,18.705160794239863,17.76865400197268,-0.06203187257228768,-0.3711971234953417,2.6695314486152597,21.261458794741706,0.0,1.0,0.0,0.0,1.0,Taxi
33.0,0.04642652752724841,-54.83861748286757,16.977714370920737,0.3406642278508973,0.4365288356369592,2.6049848810542926,21.545858402493582,0.0,1.0,0.0,0.0,1.0,Taxi
33.1,-0.04965376276380949,-31.83649523831282,17.22471531140589,-0.00835166894229021,-0.2439010089506597,2.7003440656124553,21.647806106504838,0.0,1.0,0.0,0.0,1.0,Taxi
33.2,-0.06439357208238916,-41.86158362821796,17.23901298274774,-0.14286957620967003,-0.22162244250580374,2.7598614887774033,21.101436506549412,0.0,1.0,0.0,0.0,1.0,Taxi
33.300000000000004,-0.16288139061384155,33.70440619832174,17.425399930615534,0.11429116567797507,0.021937283138225027,2.4310268667932178,21.574759525736184,0.0,1.0,0.0,0.0,1.0,Taxi
33.4,0.11886826822779901,65.08045476730379,17.851326188795248,-0.0015811842821324973,0.38275199542876154,2.618122573175924,22.53822179632595,0.0,1.0,0.0,0.0,1.0,Taxi
33.5,0.2610087017541296,37.7382687379123,16.522209735709637,0.10346510143662223,0.10207925799647434,2.8827056616142386,22.031520568200463,0.0,1.0,0.0,0.0,1.0,Taxi
33.6,0.025809953075719722,32.70171432086014,16.287231230229608,0.03738646685523077,0.22160054191476874,2.7822240139647647,22.142015064337492,0.0,1.0,0.0,0.0,1.0,Taxi
33.7,0.28237683983209955,-64.36256387164939,17.92723121667385,-0.3374192355477743,1.1623231541879535,2.5193745765204767,22.068166267901745,0.0,1.0,0.0,0.0,1.0,Taxi
33.800000000000004,-0.06080411760411754,-21.414421709120166,16.41151406550085,0.479230530564436,-0.16943991618088042,2.9504228865395135,22.254331200748247,0.0,1.0,0.0,0.0,1.0,Taxi
33.9,-0.0812621554698813,-72.72026858913516,17.550741584728435,-0.11069244805943618,0.1014163587366882,2.757643401600717,21.534582653485128,0.0,1.0,0.0,0.0,1.0,Taxi
34.0,-0.08122450311357646,-5.3043302586153125,17.53164417819919,0.10916886904607055,0.26495525471313086,2.62097684864392,20.856056111565863,0.0,1.0,0.0,0.0,1.0,Taxi
34.1,-0.08732576889719429,42.96558069268131,17.14327787663771,-0.2813448586466759,0.8408903819966427,2.5158846097948526,21.913669716170446,0.0,1.0,0.0,0.0,1.0,Taxi
34.2,0.13356574799352508,31.94020259966945,16.48061197383934,-0.00019195831585523682,-0.7799784831740945,2.6811981422651456,21.6639298207566,0.0,1.0,0.0,0.0,1.0,Taxi
34.300000000000004,0.07847650988477066,16.813411980188544,17.771286393770588,0.2788928734564048,-0.2722085439533878,2.628675792472791,21.87726419107113,0.0,1.0,0.0,0.0,1.0,Taxi
34.4,-0.0032587089962517386,-24.520408820168694,16.800224088831367,-0.10340750040450233,-0.10131576865109046,2.681101747554692,21.473730135170175,0.0,1.0,0.0,0.0,1.0,Taxi
34.5,0.010963703892681434,-14.306304496143007,17.062696232934353,-0.08219510348021625,-0.47277628035783337,2.7599922065267606,22.010547710941843,0.0,1.0,0.0,0.0,1.0,Taxi
34.6,0.006944987404055448,20.23491167986861,18.10907975118191,-0.03227438536045682,-0.5915386655278633,2.878271063195996,21.5629553602873,0.0,1.0,0.0,0.0,1.0,Taxi
34.7,0.09791584940309112,-7.7902498797672735,16.890421480896883,0.211136030153256,-0.49355427187059897,2.7468454056727865,20.77490686259785,0.0,1.0,0.0,0.0,1.0,Taxi
34.800000000000004,-0.027987545506155117,12.41408329967605,16.894025205517686,-0.040248990180933725,-0.7753966120679514,2.6628469533072803,22.007908370693496,0.0,1.0,0.0,0.0,1.0,Taxi
34.9,0.06901540390243552,16.962993060704274,17.420549518172464,0.2558866502879382,1.562621041488668,2.6718140687198684,22.230308942875283,0.0,1.0,0.0,0.0,1.0,Taxi
35.0,0.18273081470661234,27.741957534176397,17.503292847945946,0.03344754475554464,-0.6467837230561585,2.79000761774131,21.68026712409054,0.0,1.0,0.0,0.0,1.0,Taxi
