time_s,altitude_ft,vertical_speed_fpm,ias_kt,pitch_deg,roll_deg,heading_deg,throttle_pct,afterburner_on,gear_down,flaps_deg,speedbrake_pct,weight_on_wheels,label
0.0,-0.11409394869373746,22.80759190314862,17.2325549320783,-0.7112840963582644,0.3471813098347201,172.09026652145235,14.706280822624523,0.0,1.0,0.0,0.0,1.0,Taxi
0.1,-0.038068642349908734,16.304874224855947,16.524782792077108,-0.5721104666513914,-0.14139045731094105,172.32705372592977,13.546823112345972,0.0,1.0,0.0,0.0,1.0,Taxi
0.2,-0.03256957756945774,19.77773291311968,17.523208267357138,-0.7900116399776033,1.0073392322509234,172.23412468092397,15.127063104083465,0.0,1.0,0.0,0.0,1.0,Taxi
0.30000000000000004,-0.015205284128139058,-18.490152862598418,17.568120119189377,-0.9249748174376153,0.4888035032841216,172.27357484305742,14.541420558456096,0.0,1.0,0.0,0.0,1.0,Taxi
0.4,-0.13051940666290082,-11.442575485751386,17.20562114420569,-0.5365011411507341,-0.44802736450769926,172.5072050317367,13.339449094170059,0.0,1.0,0.0,0.0,1.0,Taxi
0.5,-0.08978245499821468,-25.698943908186266,17.377385735159105,-0.592955930132388,0.061087499565192264,172.36080641021522,15.061395469199145,0.0,1.0,0.0,0.0,1.0,Taxi
0.6000000000000001,-0.1437000036690704,43.573995715874354,18.963575020718004,-0.91749049738477,-0.05757743195514672,172.3859474200824,13.787562018284758,0.0,1.0,0.0,0.0,1.0,Taxi
0.7000000000000001,0.08735057191647094,15.3921177905588,18.629018000953764,-0.8154662761914581,-0.059416332285709424,172.2450509852215,14.633021825189171,0.0,1.0,0.0,0.0,1.0,Taxi
0.8,-0.012821866045420682,-10.268814085454679,16.981799138569688,-1.0367040676376795,0.214667790736953,172.46042471416752,14.689938704284955,0.0,1.0,0.0,0.0,1.0,Taxi
0.9,-0.1950440740963438,-10.415607207332329,17.748212952486206,-0.7340029468959904,-0.5791423797594327,172.4034968044159,14.112163358098508,0.0,1.0,0.0,0.0,1.0,Taxi
1.0,0.035272535879809254,-8.157979761467717,17.420042680815815,-0.992872331897463,-0.708625747825893,172.15046276140106,14.566742689561341,0.0,1.0,0.0,0.0,1.0,Taxi
1.1,-0.05361176485275925,68.13168190440533,17.324032204608137,-0.9937941425733366,-0.06437234470790443,172.48478009871633,14.516215885800243,0.0,1.0,0.0,0.0,1.0,Taxi
1.2000000000000002,0.14561433542568283,1.5474049165226116,16.80829866893277,-0.7445947278899707,0.19817793342711917,172.14612744133808,14.457173579790897,0.0,1.0,0.0,0.0,1.0,Taxi
1.3,0.043009560462422276,34.0960487721005,16.997609344372417,-0.7773663263184923,0.5446005623250535,172.45545704433687,14.533975464410448,0.0,1.0,0.0,0.0,1.0,Taxi
1.4000000000000001,0.11686847900774322,-47.255240354831585,17.317265450328605,-0.536182961827238,-0.28464478014457567,172.20594884866637,13.929705976860486,0.0,1.0,0.0,0.0,1.0,Taxi
1.5,-0.09066186634847513,-26.968634674077475,17.455483567992207,-0.5883993398472301,-0.536265242484578,172.37790418090265,14.540883882780925,0.0,1.0,0.0,0.0,1.0,Taxi
1.6,-0.09183361290796516,-25.372005164548636,16.30109401935048,-0.780254543458254,0.3455292603691534,172.26953642073374,14.306781603474967,0.0,1.0,0.0,0.0,1.0,Taxi
1.7000000000000002,-0.009991546815000016,34.45466822283882,16.979436371753636,-0.8862280005982325,0.1865137341544399,172.22861305547997,14.265327238206549,0.0,1.0,0.0,0.0,1.0,Taxi
1.8,0.08161147476571896,40.51655237688854,18.902746345152,-0.6130655600899771,0.25103206251518984,172.45467373410793,15.407136906790395,0.0,1.0,0.0,0.0,1.0,Taxi
1.9000000000000001,0.11074914897647754,17.273807770893065,17.438667508748523,-0.7950625394644819,0.5267232169401922,172.47131393080292,15.791122113889898,0.0,1.0,0.0,0.0,1.0,Taxi
2.0,0.0763774920394653,6.12448860804481,16.878487435888232,-0.8606970613722558,-0.43998973250111123,172.3519218032634,14.250168827564297,0.0,1.0,0.0,0.0,1.0,Taxi
2.1,0.112233917805943,-31.569080494491562,17.73492927623345,-0.9877980100971717,-0.2136724386742448,172.25346638179894,15.520768777962704,0.0,1.0,0.0,0.0,1.0,Taxi
2.2,-0.04709625349598029,-14.680772057242772,18.056478978311127,-0.8331595183602599,-0.8223148710812683,172.31519376090955,13.91462234745628,0.0,1.0,0.0,0.0,1.0,Taxi
2.3000000000000003,0.0029736317532514157,-32.476079049900335,17.87662583956837,-1.0536473313843893,1.022872116515534,172.2065469300785,14.544808182880177,0.0,1.0,0.0,0.0,1.0,Taxi
2.4000000000000004,-0.050146477443558726,-29.023859443125648,17.074260578520125,-0.6750753802551557,-0.6729628421663174,172.27473370469602,14.121613192273939,0.0,1.0,0.0,0.0,1.0,Taxi
2.5,-0.19221555071160856,-4.890434161357575,17.301684767780145,-0.8171521840733991,0.08518225888363666,172.35869967922304,14.278251033478867,0.0,1.0,0.0,0.0,1.0,Taxi
2.6,-0.021478539053536506,36.99024315349431,17.081913283558993,-0.8817721614345624,-0.06663865187586127,172.2424758508124,14.545812980180907,0.0,1.0,0.0,0.0,1.0,Taxi
2.7,0.1348047383239128,6.031599441206822,16.938414704159012,-0.952119025291774,0.08268959998014698,172.34163889994238,13.974377184878797,0.0,1.0,0.0,0.0,1.0,Taxi
2.8000000000000003,-0.16205755350557455,8.647275162937722,16.865420934043794,-0.5281109895137759,-0.8185148430312591,172.36998750101282,13.8267120821365,0.0,1.0,0.0,0.0,1.0,Taxi
2.9000000000000004,0.021757836761152036,-19.219389208203975,18.073227608577405,-0.9697102936646044,-0.69900778003109,172.2550050907705,14.0714312292879,0.0,1.0,0.0,0.0,1.0,Taxi
3.0,0.03870779228289286,28.85156271363546,17.39407296974441,-0.3825883702390018,-0.20895774829540398,172.28209637818236,15.140641447927987,0.0,1.0,0.0,0.0,1.0,Taxi
3.1,-0.01779973993739729,23.8835408680588,17.45006299292334,-1.0074347311037135,0.4556193789589337,172.40704403091956,14.39880090990259,0.0,1.0,0.0,0.0,1.0,Taxi
3.2,0.141175541101446,-3.7735459972758796,17.178287468589854,-0.7509638540710952,-0.4506061292510504,171.96914305343034,14.759956000164575,0.0,1.0,0.0,0.0,1.0,Taxi
3.3000000000000003,0.01984006229651343,6.10462589749102,16.644874993371882,-0.6875018601543206,0.6637390356726884,172.2795444136941,14.563843103057534,0.0,1.0,0.0,0.0,1.0,Taxi
3.4000000000000004,0.012723389550057777,0.6299281479517495,16.71509177888717,-0.772589808648961,0.13806130432591288,172.38031247454762,14.50054770067395,0.0,1.0,0.0,0.0,1.0,Taxi
3.5,0.1443251818412047,-20.80167500278119,18.01592259146007,-0.953813489995004,-0.48966912996379386,172.40280011869197,14.555141557656937,0.0,1.0,0.0,0.0,1.0,Taxi
3.6,-0.0841683127173926,24.53938508940655,16.942117781413437,-0.9286708453854681,0.6952123848737967,172.33648875097492,14.145333296666188,0.0,1.0,0.0,0.0,1.0,Taxi
3.7,0.13542031499709048,-36.80995791286154,17.01511855655709,-0.620394340299147,-0.20867222806084834,172.32184177961994,14.544494912418191,0.0,1.0,0.0,0.0,1.0,Taxi
3.8000000000000003,-0.03972460772310301,48.1780942357012,16.71528772826504,-0.4118808508298507,0.3822958951575142,172.36086410354824,15.142843498968492,0.0,1.0,0.0,0.0,1.0,Taxi
3.9000000000000004,0.15672215846111343,-41.49399222135858,17.66336841932698,-0.8179048982059315,0.3715093977291423,172.28155275138602,15.010036047835998,0.0,1.0,0.0,0.0,1.0,Taxi
4.0,-0.07204964610970248,5.309737286852337,17.842594283161798,-0.9505590599901088,0.3794240154318418,172.32154361849427,14.563315600558443,0.0,1.0,0.0,0.0,1.0,Taxi
4.1000000000000005,-0.013175921288841392,-44.75627680999278,18.381085007500886,-0.621022302807915,0.27736622748314194,172.33519746462366,15.0642929947164,0.0,1.0,0.0,0.0,1.0,Taxi
4.2,-0.0670592255888505,11.618800941500139,17.401727221064874,-0.8006974397302524,-0.6623873727205275,172.34571873418372,14.116822057864066,0.0,1.0,0.0,0.0,1.0,Taxi
4.3,-0.013955641402201818,16.951741991602194,17.20716836376131,-0.4096334957548524,0.1476906431630258,172.24555122048264,14.369470404600229,0.0,1.0,0.0,0.0,1.0,Taxi
4.4,0.07158278866916955,24.777466520223218,17.869081958943973,-0.80029508312548,0.2538423074905623,172.31237093514846,13.224040847732068,0.0,1.0,0.0,0.0,1.0,Taxi
4.5,0.056828107012265566,13.786496076703287,17.86980985077916,-0.8477614357945435,0.5267241508004739,172.59021937385967,14.874044547145102,0.0,1.0,0.0,0.0,1.0,Taxi
4.6000000000000005,0.054976838981314585,6.797731671581581,16.97970276869435,-0.647874583896298,-0.04337680253525956,172.34438934951186,13.90596102802043,0.0,1.0,0.0,0.0,1.0,Taxi
4.7,0.10557144702707742,-15.502981934140386,17.13693698527841,-0.764567174906316,-0.45664631915537146,172.4498539477014,15.42220060180186,0.0,1.0,0.0,0.0,1.0,Taxi
4.800000000000001,-0.020686802658436417,9.303926240913986,17.514498257362757,-1.0093711646540753,0.23132325088517855,172.29952235709152,14.456193394509647,0.0,1.0,0.0,0.0,1.0,Taxi
4.9,0.10149647018588447,-43.42686516108572,17.273613495208743,-0.7213562909799265,1.0403957087646079,172.3076042420089,14.284799868322935,0.0,1.0,0.0,0.0,1.0,Taxi
5.0,-0.11156287877835128,2.6142984272087992,18.524657345144625,-0.7494044542365405,-0.5775919864721165,172.17749582943316,14.370246907863283,0.0,1.0,0.0,0.0,1.0,Taxi
5.1000000000000005,-0.007615310522392477,-21.53076525149784,16.593540380267406,-1.0904720359983282,-0.21710726248615403,172.31407054257727,14.580372951009327,0.0,1.0,0.0,0.0,1.0,Taxi
5.2,-0.006157356071604801,43.11807508586759,17.712843528403933,-0.7674019512672556,-0.07084907636169446,172.2939648409805,14.920384338968482,0.0,1.0,0.0,0.0,1.0,Taxi
5.300000000000001,0.10402749665098665,-0.7795437959358177,17.506558050836254,-1.0490853921666754,0.5076793970034351,172.44289451960265,14.443052569093782,0.0,1.0,0.0,0.0,1.0,Taxi
5.4,-0.011513029502071621,-8.739648657891665,18.16345289283749,-0.8528370123442379,0.9507535435558219,172.41715915283635,13.809071860629889,0.0,1.0,0.0,0.0,1.0,Taxi
5.5,-0.04985559936106319,-24.45021027158698,16.997068612758,-0.8673575211913741,0.3733904185423093,172.56902957907937,14.497784252398217,0.0,1.0,0.0,0.0,1.0,Taxi
5.6000000000000005,-0.01822355470694827,6.708623669748082,17.414707912032018,-0.7951899547812982,-0.3395595918325642,172.2763887665667,14.469511244851361,0.0,1.0,0.0,0.0,1.0,Taxi
5.7,0.02203008884666878,10.505027438629492,17.997530160651586,-1.081206260296795,-0.05410722080117111,172.4233058002295,14.11368343319247,0.0,1.0,0.0,0.0,1.0,Taxi
5.800000000000001,0.002669537832084268,23.616894366663818,18.059113551828517,-0.9782087640618369,0.016733311738036494,172.34414305583198,13.910070133255799,0.0,1.0,0.0,0.0,1.0,Taxi
5.9,0.0998609171263708,-53.76361000957338,16.382120366159945,-0.7820481920561357,0.3544403009467298,172.27696482386193,14.79750907662895,0.0,1.0,0.0,0.0,1.0,Taxi
6.0,-0.2467879612011981,22.04703933850602,17.465199280354796,-0.7514314543392504,-1.3480558313933646,172.08478609917063,14.3976304392277,0.0,1.0,0.0,0.0,1.0,Taxi
6.1000000000000005,0.11290473452461441,-30.836990793402535,16.517959834903202,-1.0280382173537235,0.10803808880199794,171.98950722074846,14.022351199026609,0.0,1.0,0.0,0.0,1.0,Taxi
6.2,-0.054324036840641826,60.144980298353516,17.04458739275058,-0.9221242184461559,-0.03357853757496001,172.47128820420403,15.569229744722717,0.0,1.0,0.0,0.0,1.0,Taxi
6.300000000000001,0.053936940290569536,11.387008938620141,16.78621636230461,-0.8378292881370704,0.07334607581949108,172.3412879696216,13.469913765076722,0.0,1.0,0.0,0.0,1.0,Taxi
6.4,0.16983977921771512,10.601208984242811,17.975817858156574,-0.8656796732725838,-0.5407815272975296,172.33492244909326,14.258855011536784,0.0,1.0,0.0,0.0,1.0,Taxi
6.5,-0.001317991919427767,-23.300314132535547,18.169211287140826,-1.1641861244804805,0.4436918614894488,172.4003398180613,14.753642514354908,0.0,1.0,0.0,0.0,1.0,Taxi
6.6000000000000005,-0.06256463037210823,6.896566889193745,18.08051621411333,-0.7277404225225124,0.09251817765417723,172.2591218463374,14.330930993327618,0.0,1.0,0.0,0.0,1.0,Taxi
6.7,0.20432261366368382,-5.726457395779225,18.2015920445156,-0.6867094065165731,-0.19295461395418081,172.31832332645376,14.071910118666153,0.0,1.0,0.0,0.0,1.0,Taxi
6.800000000000001,-0.02995027889832398,30.69393687236466,17.631454527698324,-1.0046675769498308,0.2527888846228323,172.35654780300274,14.561253778910578,0.0,1.0,0.0,0.0,1.0,Taxi
6.9,0.09090505398971499,-48.44416365553289,17.406272546189765,-0.7255149569808614,0.11751407582538587,172.3053305821153,14.83637059292649,0.0,1.0,0.0,0.0,1.0,Taxi
7.0,-0.03789820461398069,3.758066779209295,17.60940615466157,-1.0780041569595984,0.15556080669393066,172.5453373905109,13.968842563265571,0.0,1.0,0.0,0.0,1.0,Taxi
7.1000000000000005,-0.011159945002277516,-70.14343598470849,17.13889979688841,-0.9129704655532368,0.41057549949083816,172.23779782625775,14.674724877386653,0.0,1.0,0.0,0.0,1.0,Taxi
7.2,-0.25981212593382746,0.6610769054041915,17.120062779551045,-1.2281914356802597,-0.05590981524532519,172.47213945493013,15.073457562898305,0.0,1.0,0.0,0.0,1.0,Taxi
7.300000000000001,-0.03459282008695977,4.194579280957508,17.122522914980976,-0.8749371549995376,-0.38476929974705115,172.46352024704902,14.623810216634173,0.0,1.0,0.0,0.0,1.0,Taxi
7.4,0.009812951402510012,57.85512362297823,17.150590962878315,-0.7115821050811932,-0.5011656578683863,172.30065570069598,14.766261468432443,0.0,1.0,0.0,0.0,1.0,Taxi
7.5,0.02946349218106368,1.6503233832333517,16.731943342928385,-1.0945454530931378,0.36163068863877884,172.4194240523101,15.518666321896852,0.0,1.0,0.0,0.0,1.0,Taxi
7.6000000000000005,-0.02634120317079304,17.376115216320134,17.82131687191118,-1.0775305122986272,-0.00858068752098012,172.25199670077063,14.61466962691086,0.0,1.0,0.0,0.0,1.0,Taxi
7.7,0.09669352748411064,-3.3226855321056163,16.45817225742238,-1.0436322118593597,-0.45006354065577475,172.15811916917812,14.126621651514016,0.0,1.0,0.0,0.0,1.0,Taxi
7.800000000000001,0.012850064520535557,-16.916980641944605,18.409640664018365,-0.9447160870032151,0.15955146116609212,172.18465967460963,14.831610739187498,0.0,1.0,0.0,0.0,1.0,Taxi
7.9,-0.1109261063805161,-4.967565478347794,17.609846296058418,-0.7856666937774623,1.0848615231513128,172.29659481158149,14.417612194250792,0.0,1.0,0.0,0.0,1.0,Taxi
8.0,0.07185570009237165,32.77746487113183,17.749166885649952,-1.1344177193718474,0.8533455667963669,172.3391937217158,15.267031061082788,0.0,1.0,0.0,0.0,1.0,Taxi
8.1,0.17673738887619472,22.264830645624937,18.265903728100742,-0.791896284336189,-0.49334440303825616,172.42969994742236,14.666432689363292,0.0,1.0,0.0,0.0,1.0,Taxi
8.200000000000001,0.000398046847608512,9.74049329369,18.76800670505062,-1.0350755754278063,-0.26301828425379636,172.4034748612171,14.343387299896127,0.0,1.0,0.0,0.0,1.0,Taxi
8.3,0.12055816656082159,-31.31564556935757,18.6060710625306,-0.8686080540917482,0.8783575992558459,172.40917508750113,14.170670797099234,0.0,1.0,0.0,0.0,1.0,Taxi
8.4,0.020159161029406836,16.5203864228413,17.558984222500957,-0.7074586627730771,-0.4160303388286016,172.4479267668811,15.31126692618921,0.0,1.0,0.0,0.0,1.0,Taxi
8.5,0.08299997896181499,22.748978679391758,17.12346216760088,-0.6361849017039057,0.3771808472242976,172.2962770506324,14.452009924642358,0.0,1.0,0.0,0.0,1.0,Taxi
8.6,0.23430305995778034,-19.143827688798183,18.041515947305083,-0.8118469388575906,0.5680497710421443,172.34553164306044,14.29000611937348,0.0,1.0,0.0,0.0,1.0,Taxi
8.700000000000001,-0.07555997741458409,3.182976146459732,17.544178075784156,-0.6663977935879413,-0.7959054216229128,172.21520670638108,14.83136687509315,0.0,1.0,0.0,0.0,1.0,Taxi
8.8,0.09891485969411364,-34.64512545876945,17.9897226217393,-0.829761306290613,-0.40866910341262913,172.33091586063324,13.985493278602718,0.0,1.0,0.0,0.0,1.0,Taxi
8.9,0.0610774326639331,26.595068034925276,17.52785937284025,-0.9283824931414285,-0.08435148740215542,172.3496518512752,14.089885915024244,0.0,1.0,0.0,0.0,1.0,Taxi
9.0,0.057415362760042304,-26.700988861476105,17.84963986783532,-0.9798832413403961,0.07475620619518696,172.44621020671366,14.579715366428664,0.0,1.0,0.0,0.0,1.0,Taxi
9.1,-0.03459008461326691,-17.72281430136391,18.51895015215593,-0.850582661159524,-0.58301141346443,172.3071037942284,14.762879758570083,0.0,1.0,0.0,0.0,1.0,Taxi
9.200000000000001,-0.027536638842886475,-8.536510730133436,17.705394674662895,-0.8475475225214455,-0.33134875299898825,172.29699755510183,14.723609632143186,0.0,1.0,0.0,0.0,1.0,Taxi
9.3,0.01473280910937511,-2.8745597787272836,16.911634094968846,-1.0918911303940586,0.37212055022598384,172.24480834266092,15.04869135080162,0.0,1.0,0.0,0.0,1.0,Taxi
9.4,-0.04896288350690333,12.973218877447417,17.635404728577893,-1.2149898972328008,0.7184212212842884,172.40343847767997,14.398873649836375,0.0,1.0,0.0,0.0,1.0,Taxi
9.5,0.03732945554435061,24.523950846025897,18.404773764592065,-0.6830804235221113,-0.820902457300815,172.3432279372239,14.669567039112424,0.0,1.0,0.0,0.0,1.0,Taxi
9.600000000000001,0.13735256333950457,8.998776595549012,17.94032111142437,-1.1265940371785594,0.16358111975653952,172.32111165339904,14.799063611247169,0.0,1.0,0.0,0.0,1.0,Taxi
9.700000000000001,-0.003969000529158279,-19.530630117074278,17.07649208889574,-1.0816451520401333,-0.11005855447324307,172.34836229877988,14.804270714017736,0.0,1.0,0.0,0.0,1.0,Taxi
9.8,-0.0603236950410208,-42.1033583685143,16.982047405016758,-0.5315977164297558,0.45381501690106907,172.35714041779238,14.27404807846335,0.0,1.0,0.0,0.0,1.0,Taxi
9.9,-0.07316422850306696,22.643428535909838,17.590804136684614,-0.680151137614724,-0.09091904286501656,172.2659274384372,13.774223864618538,0.0,1.0,0.0,0.0,1.0,Taxi
10.0,0.1092481421503909,-3.577999095872992,17.190860987721035,-0.5055729903531299,0.4960743449001191,172.38154828191045,14.497327130376243,0.0,1.0,0.0,0.0,1.0,Taxi
10.100000000000001,-0.07821369052038578,-4.246672226726116,17.91590215120081,-1.0392320298732403,1.3913230764909277,172.56326794875815,14.351817236322596,0.0,1.0,0.0,0.0,1.0,Taxi
10.200000000000001,-0.09439758963669757,-25.33854269597154,17.884862130633383,-0.9023221345547138,-0.15159558629368544,172.27136525636138,14.509716882963561,0.0,1.0,0.0,0.0,1.0,Taxi
10.3,-0.01744457132946684,18.80235811990745,17.805601122230865,-1.0011732601193088,0.1902074716767863,172.35423277161453,14.117853738247025,0.0,1.0,0.0,0.0,1.0,Taxi
10.4,0.015798100079151445,23.11095833750774,17.934654020255497,-1.0644412293112815,0.8491932068647623,172.36307127645546,14.60854946699491,0.0,1.0,0.0,0.0,1.0,Taxi
10.5,0.02115720205084111,-8.123666012991526,17.094014058301024,-0.7453882330394234,0.162637596270241,172.46167235554162,13.592839405535805,0.0,1.0,0.0,0.0,1.0,Taxi
10.600000000000001,-0.05806290139442449,2.1146820427897004,17.951433558743627,-0.7502878964069025,0.07616103888306976,172.17043359821707,14.357846885409984,0.0,1.0,0.0,0.0,1.0,Taxi
10.700000000000001,0.02637151029309992,-34.562656737577356,18.28548841616459,-0.633597086563773,-0.7198392647174291,172.36535160451717,14.207301248228525,0.0,1.0,0.0,0.0,1.0,Taxi
10.8,-0.1516560816370457,0.40796430540406686,18.462380518410882,-0.880053091892642,0.3476892949189488,172.47593117941756,15.217830659435231,0.0,1.0,0.0,0.0,1.0,Taxi
10.9,-0.05602307986740417,6.57583334137384,17.17398035662914,-0.7148598427965634,0.6376504989408744,172.42974784262492,14.086166339016057,0.0,1.0,0.0,0.0,1.0,Taxi
11.0,0.05925067699996908,1.9181211261564737,17.015609003591212,-0.7930496110913615,-0.4185740615367449,172.27488706760641,13.861527651244293,0.0,1.0,0.0,0.0,1.0,Taxi
11.100000000000001,-0.14206547600626335,-21.383023211384824,17.39187900430981,-1.0317630701255749,-0.34461201057080126,172.3046465596392,15.419513084172438,0.0,1.0,0.0,0.0,1.0,Taxi
11.200000000000001,-0.16293819592432832,11.406392189330461,17.84562847968031,-0.8436026991130169,0.1279740221859867,172.41241111745944,14.015054211450286,0.0,1.0,0.0,0.0,1.0,Taxi
11.3,0.11628263794662147,25.903537020596797,17.131075841859886,-0.7964459515789275,0.028289252332957975,172.28941982609717,14.68972749645093,0.0,1.0,0.0,0.0,1.0,Taxi
11.4,-0.012547790903279309,21.19082010437192,17.88633541013854,-0.6281999959750174,0.5500129936641917,172.30928690696555,15.01880652794429,0.0,1.0,0.0,0.0,1.0,Taxi
11.5,-0.056984095402468654,-29.90776189542795,18.10293824936829,-0.8178385455833128,-0.7340747269833772,172.29804553278427,14.866821517639398,0.0,1.0,0.0,0.0,1.0,Taxi
11.600000000000001,-0.03325617153051827,-16.591662239942163,16.79514034876038,-1.1269204921569342,-0.06401207601131896,172.46526442135075,14.489148355841333,0.0,1.0,0.0,0.0,1.0,Taxi
11.700000000000001,-0.09550610210299015,17.576554570272833,17.486756446101772,-0.8811445942012348,-0.6425885872108242,172.3273922918279,13.203231559163394,0.0,1.0,0.0,0.0,1.0,Taxi
11.8,0.030898677448895476,6.136056257354483,16.523116696156563,-0.6521624012082831,0.05075966098482196,172.33192537124592,14.47667202197096,0.0,1.0,0.0,0.0,1.0,Taxi
11.9,-0.0025758902437458867,19.865570895435432,18.14651526538444,-0.7473300482716801,0.17190743437921477,172.37972877543746,13.823128558618587,0.0,1.0,0.0,0.0,1.0,Taxi
12.0,0.0038217523741869938,-60.2267715451961,18.39649285384706,-0.8578189107179478,-0.2607679151787952,172.34652827356103,14.749155248955674,0.0,1.0,0.0,0.0,1.0,Taxi
12.100000000000001,-0.27023518027708504,9.844294493689025,17.76783584002156,-0.9845194704055475,0.1898963296199522,172.28901587769496,14.246099061985426,0.0,1.0,0.0,0.0,1.0,Taxi
12.200000000000001,0.046645582224699236,7.445499400975276,16.707386252533755,-0.9089942483858846,-0.6332594961418081,172.19982149788882,12.940405000114104,0.0,1.0,0.0,0.0,1.0,Taxi
12.3,0.041049249379063374,74.8163478478393,16.109133778908976,-0.46534316508142126,-0.009626435260552442,172.3264813040106,13.94737858386809,0.0,1.0,0.0,0.0,1.0,Taxi
12.4,0.10384655896211142,-17.96978272987109,16.955766784451438,-0.558073703825916,-0.8945901840311217,172.35382392749102,13.921271831534266,0.0,1.0,0.0,0.0,1.0,Taxi
12.5,-0.04320333142465625,-38.99320408840405,17.331153027141852,-0.6011065591011153,-0.334475275616063,172.42353549182894,15.187400423695626,0.0,1.0,0.0,0.0,1.0,Taxi
12.600000000000001,-0.1539167710629569,-12.144678459748585,17.47371307083771,-0.7082863779734607,0.28045931197277696,172.35372827129788,14.498778899735706,0.0,1.0,0.0,0.0,1.0,Taxi
12.700000000000001,0.04312316666336845,29.59057799199651,17.61988324436781,-0.5706315436329661,-0.3330502835235822,172.34956714740156,14.480517147329119,0.0,1.0,0.0,0.0,1.0,Taxi
12.8,0.10474955853532629,31.17119277083079,17.70719625545105,-1.0207615043200853,-0.14055802646601948,172.46462868952062,14.364519323696891,0.0,1.0,0.0,0.0,1.0,Taxi
12.9,0.0019391927911970716,-38.05736540020944,17.511788296026353,-0.7470131961045231,-0.8099851740312947,172.23978815819464,14.57079691790831,0.0,1.0,0.0,0.0,1.0,Taxi
13.0,-0.14716366033767878,-6.646798202039577,17.740219773057177,-0.9766213793731616,0.4498334574844737,172.34663057183673,13.829418022095641,0.0,1.0,0.0,0.0,1.0,Taxi
13.100000000000001,0.07151556752512837,-8.549324242209673,16.143275230396068,-0.5146255038169457,0.14596563309981062,172.34559203422157,14.024354851480105,0.0,1.0,0.0,0.0,1.0,Taxi
13.200000000000001,-0.040807428419851334,7.845257293413202,17.245243141419383,-0.9336484734391621,-0.10972596220702152,172.46830981327128,14.868646742606694,0.0,1.0,0.0,0.0,1.0,Taxi
13.3,-0.10793737387061278,16.58161807768627,16.95275508123469,-0.6722532454754457,-0.4528925749942483,172.1696831964664,14.181848415214015,0.0,1.0,0.0,0.0,1.0,Taxi
13.4,0.1544236579135597,-8.950641261579117,17.49895923679656,-1.3726495749918795,-0.25954615561510824,172.26761900192537,14.48591658863709,0.0,1.0,0.0,0.0,1.0,Taxi
13.5,-0.08556063472774694,38.51006173145438,17.34829711916013,-1.2519619871808674,-0.0806804777417375,172.224150804886,14.838074097953045,0.0,1.0,0.0,0.0,1.0,Taxi
13.600000000000001,0.0846129347866591,-34.819946544626085,18.142950291338565,-0.8400185815392424,-0.44024045793029043,172.5213493903733,13.894526553636206,0.0,1.0,0.0,0.0,1.0,Taxi
13.700000000000001,-0.019676074809570752,11.6799692655558,18.17194581853398,-0.8505875999062914,0.9638524366409318,172.30412991535218,15.052573305603449,0.0,1.0,0.0,0.0,1.0,Taxi
13.8,-0.027160788399967953,-25.119670616221768,17.213303409727455,-0.7881877537824424,0.2661737790403803,172.45225080802902,14.446914505912948,0.0,1.0,0.0,0.0,1.0,Taxi
13.9,-0.04098541829444974,-20.256254743112212,17.04697307431695,-0.5751735469751219,0.10567716831895405,172.2834398006121,15.205290348439814,0.0,1.0,0.0,0.0,1.0,Taxi
14.0,-0.12095734852513183,-2.007826153537811,18.183259746199074,-0.9580724381805693,-0.621648498786709,172.38486694525375,14.164195294488099,0.0,1.0,0.0,0.0,1.0,Taxi
14.100000000000001,-0.037199919167657025,61.229164346251174,16.6506310345445,-0.6101788946048324,0.6585189098013057,172.17845489156423,14.28861051088593,0.0,1.0,0.0,0.0,1.0,Taxi
14.200000000000001,0.26516040343680614,18.18901791156959,16.864701390539768,-0.8305543787518858,0.4557253452372892,172.3084625154279,13.821036221244626,0.0,1.0,0.0,0.0,1.0,Taxi
14.3,-0.03001225896728395,22.893694431151065,18.85230425636269,-0.853132577281407,1.0811789255451045,172.28270295057803,14.078562061837877,0.0,1.0,0.0,0.0,1.0,Taxi
14.4,0.07726855298809827,-38.621824473145644,17.29772305898682,-0.9184692038137174,0.4846030545308345,172.26089817273032,14.104608448109438,0.0,1.0,0.0,0.0,1.0,Taxi
14.5,0.07205128107107787,13.442502391955479,18.07047999101764,-0.4373368548104718,0.4796493046254865,172.47439453923585,14.369332195265887,0.0,1.0,0.0,0.0,1.0,Taxi
14.600000000000001,0.03720025299249346,1.484857081683246,16.955395461302427,-0.9644810623536376,-0.17795437587943963,172.3914558603724,14.811619845925511,0.0,1.0,0.0,0.0,1.0,Taxi
14.700000000000001,0.08469283839651451,-18.162841908034864,17.60595208892318,-1.0291941170180103,-0.1564515672408315,172.37125745636752,13.963445362266025,0.0,1.0,0.0,0.0,1.0,Taxi
14.8,-0.01876292846909644,-38.894014494405916,17.28009046999594,-0.8045568012371979,0.008115257893857492,172.38424306573256,14.362312517934033,0.0,1.0,0.0,0.0,1.0,Taxi
14.9,-0.15726981947953614,1.9088313685138967,17.697897755869338,-1.0420541797217462,-0.3192371389944213,172.52498088892753,14.935903980231407,0.0,1.0,0.0,0.0,1.0,Taxi
15.0,0.09423699523908392,21.360173274496834,16.914038201774684,-0.43179015467708687,0.47627657452468347,172.46321005517666,14.210259867947856,0.0,1.0,0.0,0.0,1.0,Taxi
15.100000000000001,0.0880379379033877,23.31325978116492,18.086075495406373,-1.039634319318156,0.043078058458991604,172.3608878421802,14.420243288944492,0.0,1.0,0.0,0.0,1.0,Taxi
15.200000000000001,-0.040703520573711564,-10.963121008759089,17.450015966633053,-1.1485878432938152,-0.8469717133115362,172.30329159331393,14.64891856470581,0.0,1.0,0.0,0.0,1.0,Taxi
15.3,0.03942139019528849,-21.69574434322602,17.489738060452478,-1.0604070983367646,0.03293147129543945,172.34935655759637,13.676525920052885,0.0,1.0,0.0,0.0,1.0,Taxi
15.4,-0.020440783812742388,-8.413829039063684,17.807345815796598,-0.6562352282692229,0.4219970487284758,172.39218288873678,13.465504948457518,0.0,1.0,0.0,0.0,1.0,Taxi
15.5,-0.08277266576902997,-4.712430381345084,18.191778376336917,-0.6298300195424439,0.2078436105427475,172.3460424941103,15.38774812678434,0.0,1.0,0.0,0.0,1.0,Taxi
15.600000000000001,0.015859238288563053,12.697283786107127,18.181950639396632,-0.963324609882992,0.05008548763648394,172.3602325444681,14.435086653213103,0.0,1.0,0.0,0.0,1.0,Taxi
15.700000000000001,0.04304563511779324,1.9376390322393366,16.87327972056458,-0.7979203142929868,-0.492055284667684,172.20282869747575,14.439088734855709,0.0,1.0,0.0,0.0,1.0,Taxi
15.8,-0.0730844706078333,-39.88538787525803,16.976163654699022,-1.1480067780027392,0.053321514221682825,172.2749163271743,14.753833398310023,0.0,1.0,0.0,0.0,1.0,Taxi
15.9,-0.18356770108772713,27.521078193721706,16.683849142264275,-0.697121480549049,-0.5723336054204083,172.39663965476677,14.866735960757579,0.0,1.0,0.0,0.0,1.0,Taxi
16.0,0.18065102608640174,52.28969679148269,17.42632490948879,-1.0816477605639048,0.1207200860815166,172.4547315446472,15.093692898792252,0.0,1.0,0.0,0.0,1.0,Taxi
16.1,0.18836401334958017,36.84888203885947,17.674809825517087,-0.803100730713037,0.22992794398828498,172.3555020325632,14.464524092391223,0.0,1.0,0.0,0.0,1.0,Taxi
16.2,0.0006767091065702525,-5.028262561075967,17.00021047458722,-0.6494286601954566,-0.06987104297744684,172.15189821914964,14.65584708252334,0.0,1.0,0.0,0.0,1.0,Taxi
16.3,0.15550971328102192,-1.276051653258456,16.858325154087463,-1.0197495455879313,0.02320813261963873,172.3931370157768,13.708311586129717,0.0,1.0,0.0,0.0,1.0,Taxi
16.400000000000002,0.1819837550832879,-6.043470233717291,17.5835882330337,-1.1456607444428673,-0.5850493074793017,172.39826342255435,14.818336694815914,0.0,1.0,0.0,0.0,1.0,Taxi
16.5,-0.029540642062016204,-50.73446005801129,17.993114517517892,-1.078192795780715,0.34310548553704695,172.53648476192382,14.169051536663439,0.0,1.0,0.0,0.0,1.0,Taxi
16.6,-0.09816258700903452,-49.46787570819487,17.99422572064427,-0.7937975855451432,0.898048626114895,172.36649941969267,14.727045188065524,0.0,1.0,0.0,0.0,1.0,Taxi
16.7,-0.06535562345768643,1.2084093203005277,18.436911924318114,-0.5928044180201487,-0.01024503015671731,172.3877194803099,15.09332626886565,0.0,1.0,0.0,0.0,1.0,Taxi
16.8,-0.023498595460513583,8.927778521882773,17.407649454305776,-0.7699716492821547,0.6626812625721149,172.3507798991982,15.378314610808227,0.0,1.0,0.0,0.0,1.0,Taxi
16.900000000000002,-0.053523694399620673,18.51565141682693,17.381711696941196,-0.5458186596464574,-0.06197458178678651,172.4289485625535,14.60393485172358,0.0,1.0,0.0,0.0,1.0,Taxi
17.0,0.02722263362644821,-40.312584085504234,16.802387739071605,-0.9229736286651982,-0.9780725583672902,172.280494735116,13.873269193099409,0.0,1.0,0.0,0.0,1.0,Taxi
17.1,-0.2250615158880348,-4.4640047548594355,17.858236226797864,-0.9867584622396839,-0.44815498347210203,172.24825400252962,15.585126983196679,0.0,1.0,0.0,0.0,1.0,Taxi
17.2,-0.07584371817391791,-16.604851025122134,17.001621265264284,-1.1313446820314832,-0.28348446009897055,172.24701271926483,14.392961505508103,0.0,1.0,0.0,0.0,1.0,Taxi
17.3,-0.055801621499162526,6.741110893341158,16.98373325431157,-0.5941074321980175,0.7943966304827774,172.4095576570004,14.019550016003734,0.0,1.0,0.0,0.0,1.0,Taxi
17.400000000000002,-0.19135596142132907,28.844642647552465,17.4719749284348,-0.9427191408922773,-0.48867758971849706,172.34742139025718,14.851445574076298,0.0,1.0,0.0,0.0,1.0,Taxi
17.5,0.06837949506384436,7.537290089147928,17.653226140763383,-0.7496033788993498,-0.700841674886785,172.30338739263425,15.4179117663718,0.0,1.0,0.0,0.0,1.0,Taxi
17.6,-0.018115171053422956,13.795482765618111,18.168784993356898,-0.6653396919201422,-0.09856335451546068,172.34629543928918,14.569462661904424,0.0,1.0,0.0,0.0,1.0,Taxi
17.7,-0.12237854759323857,-16.91885052499328,16.520174074985615,-1.0174399271557584,-0.15873312059909186,172.28218872529442,15.228327086882382,0.0,1.0,0.0,0.0,1.0,Taxi
17.8,-0.016214757561122086,-2.917178251150178,17.78689335146156,-0.7927483684043783,-0.34372746974196805,172.35842469261877,13.75578563559767,0.0,1.0,0.0,0.0,1.0,Taxi
17.900000000000002,-0.03270106230917388,20.11885757003194,17.543599669400898,-0.5144601632118091,-0.22874166557833012,172.32519141181774,14.314128979426773,0.0,1.0,0.0,0.0,1.0,Taxi
18.0,-0.021784259743078904,5.555075593841792,18.186832635162414,-0.7228626226812324,0.7425381136432875,172.500960130978,14.720846257249462,0.0,1.0,0.0,0.0,1.0,Taxi
18.1,0.011560620408086855,-15.013135410180872,17.25547426982949,-0.5049322177513793,-0.30060502720799614,172.4630290303744,14.320874750024618,0.0,1.0,0.0,0.0,1.0,Taxi
18.2,-0.10776673936007826,13.881030069257504,16.731480299007348,-0.7590323507262161,-0.03833930327252389,172.5427855824713,14.523584969234554,0.0,1.0,0.0,0.0,1.0,Taxi
18.3,0.04762089060320862,-1.0376643281162121,17.282770622071702,-0.5039627240578544,0.3127919798167712,172.20152237676825,14.87574471388582,0.0,1.0,0.0,0.0,1.0,Taxi
18.400000000000002,0.006372298767505804,-2.65818610364893,16.747540854757595,-1.1329387238865956,0.07401943488144926,172.36633684306912,14.84945394279454,0.0,1.0,0.0,0.0,1.0,Taxi
18.5,-0.12105766987832292,-5.062045476449778,16.749544209735472,-0.5043881606344889,-0.48478406812981895,172.31596463291407,14.223388627464567,0.0,1.0,0.0,0.0,1.0,Taxi
18.6,0.02231066322095971,22.76495871613996,17.33176110806719,-0.7215624023323677,0.6055913427727299,172.4374088417694,14.447034204957598,0.0,1.0,0.0,0.0,1.0,Taxi
18.7,0.12019709234820558,32.387411015137445,17.136403761182393,-0.6533316197372113,0.2838583900805157,172.24754456055746,14.614521343136323,0.0,1.0,0.0,0.0,1.0,Taxi
18.8,0.04087938519736432,-18.244260718231548,18.41882642622577,-0.549062528512675,-0.7760699509103515,172.37019262910258,14.399126271294563,0.0,1.0,0.0,0.0,1.0,Taxi
18.900000000000002,-0.06891064037019806,-44.654873061569674,16.74913028878696,-0.5817688699376197,0.20667930360447803,172.42455529976314,14.493212956924332,0.0,1.0,0.0,0.0,1.0,Taxi
19.0,-0.10307727295964282,4.128408348318952,16.61966624839841,-0.6451450870459801,0.543816261690744,172.32889002269576,14.66596924739571,0.0,1.0,0.0,0.0,1.0,Taxi
19.1,0.061521426938959047,-7.541291311897406,16.91285424223756,-1.1018117968950352,0.21563360532671758,172.42010310662147,14.826746477084006,0.0,1.0,0.0,0.0,1.0,Taxi
19.200000000000003,-0.10661709692968512,55.47387403359036,17.170281811643957,-0.4367507092943456,0.018250874598552416,172.39240425933065,13.652619263128155,0.0,1.0,0.0,0.0,1.0,Taxi
19.3,0.174292097208309,-12.808066231757058,17.351443922833923,-1.0160351072841396,-0.04154954090516508,172.3909607812261,13.866976106897612,0.0,1.0,0.0,0.0,1.0,Taxi
19.400000000000002,-0.002518904219826222,-3.856180294391971,16.87100652460099,-0.5115871214169446,-0.08183076021095552,172.43295899639475,14.315435089744737,0.0,1.0,0.0,0.0,1.0,Taxi
19.5,-0.12589799840164498,-45.835099612348564,17.911329853196733,-0.7727537425345309,-0.4030836407079502,172.51696256934508,13.914059735079718,0.0,1.0,0.0,0.0,1.0,Taxi
19.6,-0.05488340085343384,-27.34092861579104,17.435887451416768,-0.6744142582543953,-0.2250582207821145,172.3057219782844,14.623791581375677,0.0,1.0,0.0,0.0,1.0,Taxi
19.700000000000003,-0.1392235472987815,37.30751388726496,17.19405881787665,-0.4860227197137238,0.4926438120542036,172.25809209392526,14.470654444768297,0.0,1.0,0.0,0.0,1.0,Taxi
19.8,0.06063957103467976,2.2524380330781377,17.921841176663303,-1.0317856251196438,-0.19485230809854717,172.30350082265954,15.10081990377778,0.0,1.0,0.0,0.0,1.0,Taxi
19.900000000000002,-0.04362121068804319,-1.810681811264826,17.011944502844717,-0.9025305614865232,-0.07014150454934012,172.39922755762154,14.220872906139919,0.0,1.0,0.0,0.0,1.0,Taxi
20.0,-0.14827695635510568,-31.307299556550053,16.872328611882295,-1.2145740916947931,0.18937329453559848,172.2801395369297,14.397936691691179,0.0,1.0,0.0,0.0,1.0,Taxi
20.1,-0.09589692674807054,-7.2452385528502665,18.741007643846714,-0.6094241972661837,-1.3851951133643596,172.28389775379446,15.575899075110538,0.0,1.0,0.0,0.0,1.0,Taxi
20.200000000000003,-0.07984740345229457,43.318115331352395,16.670913129122983,-0.7060560568699168,-0.2291895383624305,172.2496049230857,14.340688201975407,0.0,1.0,0.0,0.0,1.0,Taxi
20.3,0.06831362030165623,-8.959670498000264,16.34808351067308,-0.8839013085907177,-0.6034389102960471,172.44240844352134,14.372182575760656,0.0,1.0,0.0,0.0,1.0,Taxi
20.400000000000002,-0.14069527923807187,4.788215969366893,17.346958069601598,-0.8873872225476638,0.0037140879806953097,172.4768948673012,15.306263925761982,0.0,1.0,0.0,0.0,1.0,Taxi
20.5,-0.055906323605460134,-31.724451053046135,16.70007351298055,-0.9022361509367217,0.9828257573918201,172.42351120582134,14.160010430830603,0.0,1.0,0.0,0.0,1.0,Taxi
20.6,-0.09030863496357446,50.47074511398362,17.147825714530672,-0.6347714871941774,-0.19663483524798478,172.28681614985294,14.67432556187775,0.0,1.0,0.0,0.0,1.0,Taxi
20.700000000000003,0.11165844633184624,5.820359037545202,18.259960191169633,-0.5125305800270848,-0.6545693977688285,172.354672814094,14.425405615299217,0.0,1.0,0.0,0.0,1.0,Taxi
20.8,-0.026804528417734147,28.161603257648466,17.62910163264658,-0.8803311614334363,0.4069337832734438,172.36020396532945,15.037495526052721,0.0,1.0,0.0,0.0,1.0,Taxi
20.900000000000002,0.05049938132466784,-35.351186739978196,17.31630975645345,-1.0620947429748386,-0.4139844802102583,172.23981034006374,14.225766228615782,0.0,1.0,0.0,0.0,1.0,Taxi
21.0,-0.06509748736804481,10.376968749638166,17.596341933479696,-0.6026290326969309,0.20294928834267434,172.41733193164146,15.234015523191223,0.0,1.0,0.0,0.0,1.0,Taxi
21.1,0.025080315330456644,-9.752619446836185,17.399965146238845,-1.0883685269860084,-0.059117643003832966,172.3252647605749,14.396206865855161,0.0,1.0,0.0,0.0,1.0,Taxi
21.200000000000003,0.0017362840904868615,52.08997677245665,17.169887425869124,-1.0584330244759739,0.3019050133618576,172.38045172567263,14.667631614457274,0.0,1.0,0.0,0.0,1.0,Taxi
21.3,0.1953523964942384,-23.336391157145737,18.407053463296688,-0.7780458873969877,-0.17339543073238103,172.33555916864407,14.57217730699501,0.0,1.0,0.0,0.0,1.0,Taxi
21.400000000000002,-0.09160164045527208,13.04801770657705,18.231073029195162,-1.145466326285308,1.0863236550206747,172.39733998184136,14.592973071876,0.0,1.0,0.0,0.0,1.0,Taxi
21.5,0.06697637262337207,-14.139140488385488,17.9548856887058,-0.8183231546222971,-0.1495461737370759,172.3382054628296,14.168384027905143,0.0,1.0,0.0,0.0,1.0,Taxi
21.6,0.1246566940523109,12.909820036147963,18.0254649288939,-0.8877700994428551,0.10958376874039451,172.36893193630613,14.054329577123973,0.0,1.0,0.0,0.0,1.0,Taxi
21.700000000000003,-0.02705254027453237,-11.73456120890195,18.424867915776524,-0.7127502783547469,0.3362042483906372,172.30310790344163,14.328535465175698,0.0,1.0,0.0,0.0,1.0,Taxi
21.8,0.008303566578862226,-14.154831973486756,17.955989059549804,-1.1293431185037877,-0.3041582747890933,172.3670573395217,14.315976299875944,0.0,1.0,0.0,0.0,1.0,Taxi
21.900000000000002,0.053882534184877054,6.295474509861687,17.728875643443274,-0.9452798718534048,1.2717825099007452,172.36162956483258,14.771023455894094,0.0,1.0,0.0,0.0,1.0,Taxi
22.0,0.0044248322747759755,-33.718660808999935,16.952048244537014,-0.9903499989633628,0.32928476492900105,172.5351667708385,14.837265045129898,0.0,1.0,0.0,0.0,1.0,Taxi
22.1,-0.16028973746613753,-33.79373235151601,16.324730757750647,-0.7860455551750527,-0.2795762806707285,172.27641075813426,14.805862577419772,0.0,1.0,0.0,0.0,1.0,Taxi
22.200000000000003,-0.11508612757270308,-21.76091629143742,17.51483808571593,-0.8491836691862639,0.5483481022088935,172.3334739731024,13.21184547101143,0.0,1.0,0.0,0.0,1.0,Taxi
22.3,-0.10437974918241122,52.62106740962559,17.89185076848709,-0.6779426747507031,-0.3217716288574034,172.1634459982522,14.518204697005602,0.0,1.0,0.0,0.0,1.0,Taxi
22.400000000000002,0.10281559958199034,-6.756395247371415,17.614390506617855,-0.5757116210433688,-0.31553743678936497,172.49946803469288,14.05179811034063,0.0,1.0,0.0,0.0,1.0,Taxi
22.5,-0.1488681038095602,6.3514229678142335,16.442057537415913,-0.8685277780196937,0.37476193718899936,172.43732497419467,13.685023199296186,0.0,1.0,0.0,0.0,1.0,Taxi
22.6,-0.07262263434334008,-31.339476188122205,16.926218940277874,-0.8345774495095499,-0.08013977530228725,172.21680273838035,14.466890930768091,0.0,1.0,0.0,0.0,1.0,Taxi
22.700000000000003,-0.05388178135862074,19.87447391885969,18.989146098239242,-1.2214752549061438,0.004137429979168284,172.24075902954007,13.680689528254051,0.0,1.0,0.0,0.0,1.0,Taxi
22.8,-0.04949573421526182,31.832822100996975,18.017179687274243,-0.9730119415944877,-0.4308338720424274,172.29493779585425,14.24067241289273,0.0,1.0,0.0,0.0,1.0,Taxi
22.900000000000002,0.0865414761616447,15.403326780491724,17.21287975705404,-1.0896067546077688,0.017261030493450576,172.36234092772713,13.862582309376297,0.0,1.0,0.0,0.0,1.0,Taxi
23.0,0.023134852543837806,-15.85525083873958,16.70653820855412,-0.8502442202560194,0.5663329945554201,172.52612377392097,14.066454599034783,0.0,1.0,0.0,0.0,1.0,Taxi
23.1,-0.1287719884089598,-6.260390087455927,17.551146937996215,-0.8342730858693987,-1.3254664818542388,172.36839835420346,15.5993441975461,0.0,1.0,0.0,0.0,1.0,Taxi
23.200000000000003,0.055239525724365,-47.42732771241452,17.222573475812986,-0.5639809711917786,-0.5534205292102705,172.33643443226674,14.902148256594543,0.0,1.0,0.0,0.0,1.0,Taxi
23.3,-0.21400178601823483,58.60775051621113,16.685839333206697,-1.017950408074412,0.5963050431276118,172.34519483752717,14.93751798986438,0.0,1.0,0.0,0.0,1.0,Taxi
23.400000000000002,0.16426676417209574,-10.503173340778446,17.956409849518494,-0.4937185197129837,-0.4142483203590092,172.47178336801642,14.56915722038827,0.0,1.0,0.0,0.0,1.0,Taxi
23.5,0.00272365902047264,23.718152319440904,17.799924154791636,-0.7970663706088083,-0.11696575881025634,172.3716090920699,14.975817894686331,0.0,1.0,0.0,0.0,1.0,Taxi
23.6,-0.09541102442103042,-32.828597018699035,17.64874137630063,-0.8475622738729782,-0.5456615268583084,172.1997510836826,15.774919689146541,0.0,1.0,0.0,0.0,1.0,Taxi
23.700000000000003,0.00012377907860042033,18.039190525792037,17.54034743175502,-0.9029675752790122,-0.15797627635998573,172.29753601007667,14.887217536712976,0.0,1.0,0.0,0.0,1.0,Taxi
23.8,0.09291961164943267,-1.44023535064341,18.645582666022865,-0.5859744672458842,-0.4126738297309526,172.16524180468082,14.743899353419877,0.0,1.0,0.0,0.0,1.0,Taxi
23.900000000000002,-0.10261220117424766,17.905919980427473,17.636032732349836,-0.8689267582530179,-0.6916405427886891,172.23198689514356,14.523673154454283,0.0,1.0,0.0,0.0,1.0,Taxi
24.0,0.08965337898073758,-6.346792564741388,16.598114632078232,-0.7188798909686767,0.5791589737746027,172.35710995526358,14.338940148319695,0.0,1.0,0.0,0.0,1.0,Taxi
24.1,0.06118564882572552,7.453123073533997,16.74162548215586,-0.7867071350290697,-0.8432032354373006,172.32164849896822,14.928837327666463,0.0,1.0,0.0,0.0,1.0,Taxi
24.200000000000003,-0.06534658580657786,1.575186126571732,18.525890220558047,-0.8856958661336248,0.1375598962962456,172.40698621231195,14.692646524951604,0.0,1.0,0.0,0.0,1.0,Taxi
24.3,0.09752930961359609,-33.60382072616188,18.364873221890676,-0.8925476438604424,-0.14930849069275182,172.2832842223288,14.797607422658311,0.0,1.0,0.0,0.0,1.0,Taxi
24.400000000000002,-0.10683345480508405,42.80582541432053,17.51967053553948,-0.9651792595984833,-0.08631264626873258,172.29716984158347,13.940711387171277,0.0,1.0,0.0,0.0,1.0,Taxi
24.5,0.14868254126502464,-34.7082219162554,17.391814474270486,-0.8210044449336307,0.5007597842162282,172.35104293827942,15.066835516649318,0.0,1.0,0.0,0.0,1.0,Taxi
24.6,-0.07601179996768107,22.114732099596285,16.87318697666227,-0.5288016931599513,-0.607079366874568,172.37144126646683,14.83817503810644,0.0,1.0,0.0,0.0,1.0,Taxi
24.700000000000003,0.003740205692897264,0.6524073346737964,17.97918393039622,-0.8975500487054815,-0.4478674683394563,172.28092693283304,14.524635410420508,0.0,1.0,0.0,0.0,1.0,Taxi
24.8,0.15194457793839342,14.172225803954072,17.512062101860256,-0.6617691559223704,-0.18021677886830287,172.38028803283441,14.832360710788425,0.0,1.0,0.0,0.0,1.0,Taxi
24.900000000000002,-0.005150670947910876,-9.86045947551309,17.59210453648837,-0.846866197346057,-1.127152981478361,172.44170921600914,14.958420207308858,0.0,1.0,0.0,0.0,1.0,Taxi
25.0,-0.04556209168466836,-41.47966005448772,17.299445546765273,-0.5540749542645571,-0.28467104308265395,172.187877069514,14.206661806322801,0.0,1.0,0.0,0.0,1.0,Taxi
25.1,-0.05545372233404533,-20.200664624169278,16.898933175977678,-1.4591113557178865,0.14271688848152886,172.28266468499226,14.186125861293162,0.0,1.0,0.0,0.0,1.0,Taxi
25.200000000000003,-0.10615399406875743,42.132803120789966,17.261406133285274,-0.824327190863434,0.24757913092188952,172.36159310760286,14.143772240881708,0.0,1.0,0.0,0.0,1.0,Taxi
25.3,0.16510192391928127,-5.971349085559145,16.994543570832185,-0.7834857920652354,-0.4089391349186375,172.44537067421152,14.88025437048047,0.0,1.0,0.0,0.0,1.0,Taxi
25.400000000000002,-0.08531046776184122,4.357270127732448,18.14987841840435,-0.695392653316022,-0.7203153149776983,172.21183744845848,15.057004597113428,0.0,1.0,0.0,0.0,1.0,Taxi
25.5,-0.08436764343009535,-46.98305709395251,17.22400075474395,-0.7934156906413239,-0.019431607621129804,172.22814007517866,14.659906142637634,0.0,1.0,0.0,0.0,1.0,Taxi
25.6,-0.06981336155048141,-1.4354642680100806,17.867874920964734,-0.9167682507584889,-0.14365138148529347,172.32124095208383,14.78468949074154,0.0,1.0,0.0,0.0,1.0,Taxi
25.700000000000003,-0.09248778910189179,12.176919700332732,17.786785714679713,-0.8620211354851542,0.683987315534418,172.4332394164353,14.724959713581102,0.0,1.0,0.0,0.0,1.0,Taxi
25.8,-0.02348304492843187,1.1459325210588969,16.173451146666356,-0.7327550804252223,-0.12548742880973127,172.38215495828126,14.15569135714904,0.0,1.0,0.0,0.0,1.0,Taxi
25.900000000000002,-0.0640836989451871,48.073366031164504,17.566704109875285,-0.8622734606557726,-0.2927413633615703,172.21625302430357,13.534987605494425,0.0,1.0,0.0,0.0,1.0,Taxi
26.0,0.14787904105393054,-20.25248769709575,17.581282947386804,-0.4036601607152667,-0.6111199886874549,172.51190232640477,14.605886268630126,0.0,1.0,0.0,0.0,1.0,Taxi
26.1,-0.12474548341391074,18.331475909043423,16.88481832005264,-1.3529011436249834,0.35324268211038296,172.28607851220931,15.434300198223296,0.0,1.0,0.0,0.0,1.0,Taxi
26.200000000000003,0.027573680600029904,-18.970410112649855,17.419703893314324,-1.104007525207793,0.49011899406815645,172.41085821055356,14.989990113814022,0.0,1.0,0.0,0.0,1.0,Taxi
26.3,0.05302699049068117,18.897290409099057,18.688285751739265,-0.812692678609166,-0.3951171486305385,172.32722653030953,15.1222139083127,0.0,1.0,0.0,0.0,1.0,Taxi
26.400000000000002,-0.03025903136841562,2.1294400328558987,17.467135777127393,-0.392706685864245,0.4406283267988657,172.34361620944298,14.371329800402723,0.0,1.0,0.0,0.0,1.0,Taxi
26.5,0.03822088076430923,7.48625431725226,17.109646485732,-0.7067541569026268,0.4799549925741488,172.45432329844027,15.129573908504785,0.0,1.0,0.0,0.0,1.0,Taxi
26.6,0.0904582620769423,26.88162715038725,17.23617343151084,-0.509490001451645,0.1998786741981917,172.26673119018187,13.940898942699825,0.0,1.0,0.0,0.0,1.0,Taxi
26.700000000000003,0.10414910438352046,-11.721797141896067,16.875741636306277,-1.113763367960611,0.7653754541749839,172.2788734594177,14.378897197260077,0.0,1.0,0.0,0.0,1.0,Taxi
26.8,-0.02038810494517129,-48.62588547144431,16.890854562889793,-0.7930573716849195,-0.8544324729539795,172.42983269674437,13.592499698337624,0.0,1.0,0.0,0.0,1.0,Taxi
26.900000000000002,-0.15267116528027946,4.028722389087449,16.192897376972706,-0.8263654267448394,-0.30748578992403786,172.37136346029195,15.084479803948943,0.0,1.0,0.0,0.0,1.0,Taxi
27.0,0.12429271632895747,25.54196563542962,18.45459078319628,-0.6112643382333858,0.2501704373484313,172.3083448968922,13.720175986353642,0.0,1.0,0.0,0.0,1.0,Taxi
27.1,0.10732172323197658,23.820155017506437,17.36016614091462,-0.9662581330899949,-0.03799015873820722,172.4345571869453,14.45967518989632,0.0,1.0,0.0,0.0,1.0,Taxi
27.200000000000003,-0.03357039019274752,-2.683764165443989,17.037650099168857,-0.8765996927426225,0.8569725184381253,172.3538104437324,15.106980260193417,0.0,1.0,0.0,0.0,1.0,Taxi
27.3,0.11087389550173728,9.628161886699166,17.035932927338095,-0.8236131274506683,-0.2208371973707073,172.30434808302925,15.142694046026598,0.0,1.0,0.0,0.0,1.0,Taxi
27.400000000000002,0.15546253266547216,-7.25258003333948,17.18126118883932,-1.007246371939612,0.37126120383702993,172.28737832170748,14.575429797362547,0.0,1.0,0.0,0.0,1.0,Taxi
27.5,-0.06983329035944512,-42.84092742052926,17.0779492100063,-1.0033979148305392,0.20892934908320474,172.37675109895702,14.758079916356333,0.0,1.0,0.0,0.0,1.0,Taxi
27.6,-0.10333074160090926,-48.845700413339266,17.132946306343296,-0.703877090085309,-0.11515836431895562,172.34576281785723,13.655014469833386,0.0,1.0,0.0,0.0,1.0,Taxi
27.700000000000003,-0.08876596940122433,31.556017299755045,17.344642075071835,-1.1256111981899264,0.5095051428093613,172.28542246299344,14.751981942575958,0.0,1.0,0.0,0.0,1.0,Taxi
27.8,0.08794679613932989,34.107950602727115,16.58202100977817,-0.5869059504840795,0.7212444075353405,172.19234881431476,14.216215643823599,0.0,1.0,0.0,0.0,1.0,Taxi
27.900000000000002,0.0672090114127261,5.048202406917691,18.229049101529338,-0.5859525610710965,0.4747049197880207,172.17090904556062,13.52923207696188,0.0,1.0,0.0,0.0,1.0,Taxi
28.0,-0.06352495736663609,-28.654663046557044,17.586033361602517,-0.8937920552879556,-0.5826706989014812,172.17858317179548,14.106873248152487,0.0,1.0,0.0,0.0,1.0,Taxi
28.1,-0.05532651909345554,20.881767811169567,16.842346266656183,-0.7533644581672159,0.8232728680797152,172.22351144266827,14.085927197496149,0.0,1.0,0.0,0.0,1.0,Taxi
28.200000000000003,0.17161785046857375,30.24105549391034,17.346550485351408,-0.6997554696990503,-0.8682731025042064,172.4165348215323,14.626273000689942,0.0,1.0,0.0,0.0,1.0,Taxi
28.3,0.08768032010291543,15.447963037177345,17.251261419671355,-0.8654902547138846,0.3088863294692209,172.33810049344538,13.626759866142885,0.0,1.0,0.0,0.0,1.0,Taxi
28.400000000000002,0.021913296092431006,-66.04081927594655,16.74256109065717,-0.5972107993296429,0.7398899495012733,172.3222855633868,14.536124679848955,0.0,1.0,0.0,0.0,1.0,Taxi
28.5,-0.15858624591115916,7.558974626051111,17.289527714525555,-0.6642931670836275,0.7340461837928867,172.30724397695087,15.641475711840208,0.0,1.0,0.0,0.0,1.0,Taxi
28.6,0.12547519323317077,-18.806392162645633,18.755557143461,-0.8252118964961495,0.8463730017050904,172.40530032610127,14.493731069523703,0.0,1.0,0.0,0.0,1.0,Taxi
28.700000000000003,-0.07211866472079737,39.51949889917709,18.092038404968264,-1.1785634689865165,-0.05992814907007123,172.31902389732102,14.759055219319166,0.0,1.0,0.0,0.0,1.0,Taxi
28.8,0.03901124858472603,-16.569544297216506,17.623250751308273,-0.8171107398554445,-0.6955310756442757,172.27496788053486,15.133442806035077,0.0,1.0,0.0,0.0,1.0,Taxi
28.900000000000002,0.042627471747088,12.566358504760677,17.790815381849807,-0.7910444432625098,0.416407675967974,172.23735381048095,15.06408097958324,0.0,1.0,0.0,0.0,1.0,Taxi
29.0,-0.009286872196994223,-45.465788498673554,16.746885611992337,-0.91197252208342,-0.4972547040364118,172.14375888125028,14.124467396831331,0.0,1.0,0.0,0.0,1.0,Taxi
29.1,-0.18831769390864195,-24.542645821346742,16.944521277650548,-0.9997486729867259,-0.055065778832645774,172.33484896045707,14.929974474260794,0.0,1.0,0.0,0.0,1.0,Taxi
29.200000000000003,-0.08008575735964592,32.81759092462476,17.105842935347734,-0.8785036304275319,0.436498766553183,172.24896494510597,14.787153904042597,0.0,1.0,0.0,0.0,1.0,Taxi
29.3,0.15480108242612933,44.5328122145768,16.994737095000158,-0.7871632450986538,0.21661032845743622,172.29754661294442,14.512439651878537,0.0,1.0,0.0,0.0,1.0,Taxi
29.400000000000002,0.03434636716424177,32.98721833131676,18.36648002457449,-0.7364035531464019,0.09849085162937372,172.30541629006916,14.558261878823512,0.0,1.0,0.0,0.0,1.0,Taxi
29.5,0.08485033429693761,-41.48154159753268,17.7241170234355,-1.019163952763297,-0.8585536590613572,172.44521291887747,15.229692967839338,0.0,1.0,0.0,0.0,1.0,Taxi
29.6,-0.05260662556153433,-35.1870778904899,16.945604050292797,-0.8751717903668486,0.4542636911318479,172.24137705685223,14.977193139636652,0.0,1.0,0.0,0.0,1.0,Taxi
29.700000000000003,-0.141589022288208,-14.263913867325181,17.243398024600364,-0.9888017436048319,0.4132094283144054,172.37580156496347,14.932932397864388,0.0,1.0,0.0,0.0,1.0,Taxi
29.8,0.013530764960311428,3.5783658090384343,17.030696331684574,-0.8216030420905722,0.2677050105314479,172.31692856231712,14.99460403466696,0.0,1.0,0.0,0.0,1.0,Taxi
29.900000000000002,-0.03471479651634243,37.422822563690204,17.605719680867534,-0.9533793923754562,-0.0593649253915936,172.41307600709126,15.100265990298555,0.0,1.0,0.0,0.0,1.0,Taxi
30.0,0.04552509053024276,9.395462252648393,17.130624538529784,-0.7996132735241454,0.4303012097465201,172.35158592193056,14.940785247347165,0.0,1.0,0.0,0.0,1.0,Taxi
30.1,0.060508076223553156,30.084231183269114,16.47433387277625,-0.6521995508055956,0.24855109700951333,172.30381292549146,14.729329472671813,0.0,1.0,0.0,0.0,1.0,Taxi
30.200000000000003,0.1157063594000029,-12.72093593390583,17.63927026792263,-0.9017219951818248,-0.7894230586624481,172.44185899390186,13.988123020023085,0.0,1.0,0.0,0.0,1.0,Taxi
30.3,-0.01807958913928666,-11.533415980186183,17.324933727652507,-0.7660360106478787,1.1382448701175139,172.37964073864146,14.027249155888976,0.0,1.0,0.0,0.0,1.0,Taxi
30.400000000000002,0.0028409963226219753,9.79321531925028,17.453895931846336,-1.0310103512511517,-0.3406320713226961,172.2885378029864,14.742570159172486,0.0,1.0,0.0,0.0,1.0,Taxi
30.5,0.16467243599625403,-8.96313274424063,16.933863626368936,-0.8807077598525662,0.506612362423299,172.52390826544502,14.919581696568518,0.0,1.0,0.0,0.0,1.0,Taxi
30.6,-0.06289525286049004,1.1939848179272516,16.373051840327854,-0.8367445245986992,1.3884722173439927,172.45348161561424,14.297229208686813,0.0,1.0,0.0,0.0,1.0,Taxi
30.700000000000003,0.008810920412257997,-30.632784901743506,18.0913139382068,-0.5143214813481519,0.4067568411373716,172.35998164379475,14.448166799843603,0.0,1.0,0.0,0.0,1.0,Taxi
30.8,0.011508511487536247,36.721134635390264,17.173733503906764,-0.8460993970383509,0.15537045254672555,172.30743321136117,15.493684129997414,0.0,1.0,0.0,0.0,1.0,Taxi
30.900000000000002,0.12071042031646105,-5.567374625640582,17.48373375805719,-0.5581621935545446,0.13843578750394944,172.35976375672317,14.525847795033892,0.0,1.0,0.0,0.0,1.0,Taxi
31.0,-0.019025952715945146,22.018447497682185,17.690773633382097,-0.8849868596107899,-0.44928447574111885,172.26523387119983,13.7444669241062,0.0,1.0,0.0,0.0,1.0,Taxi
31.1,0.12160074897594693,-14.822992097730703,16.72922166436436,-0.6988086040165694,-0.1892680182690444,172.52459177712694,15.042312607607299,0.0,1.0,0.0,0.0,1.0,Taxi
31.200000000000003,0.0465954598278073,49.939801764255236,17.532945471416944,-0.8511240587339243,-0.46551955440237525,172.36866159005933,14.485408936676892,0.0,1.0,0.0,0.0,1.0,Taxi
31.3,0.23067305610533084,-21.42820015310286,17.722206532543538,-0.6074198455913071,-0.7183721103880152,172.3269766241026,15.175739485779243,0.0,1.0,0.0,0.0,1.0,Taxi
31.400000000000002,0.014459748210432383,-11.785913587370677,17.097304621406156,-0.7698962447785709,0.2540575808222325,172.41433947891232,13.828024412662414,0.0,1.0,0.0,0.0,1.0,Taxi
31.5,-0.012334108109046346,-42.544223111429154,16.76680032778077,-0.7504241850874156,0.19797266423497184,172.5171324230016,15.099258725742516,0.0,1.0,0.0,0.0,1.0,Taxi
31.6,0.017951940548184782,-12.804639977107085,17.753495937385438,-0.9833167258784112,-0.031681805619524626,172.43755818343323,13.93397841450792,0.0,1.0,0.0,0.0,1.0,Taxi
31.700000000000003,-0.04956345167510329,15.892633855707166,17.850020587515946,-0.7123741881327822,-0.3356835038225361,172.6020740783582,14.826185291454347,0.0,1.0,0.0,0.0,1.0,Taxi
31.8,0.06712906116948923,-20.649038515011537,18.363114200466917,-0.9723423872484828,-0.31955779734676953,172.5318667403244,13.83737072914041,0.0,1.0,0.0,0.0,1.0,Taxi
31.900000000000002,-0.08529325202687314,11.432839431697408,17.463610937585756,-1.0502961215494935,-0.026144209057206682,172.37779985071734,13.908475228534824,0.0,1.0,0.0,0.0,1.0,Taxi
32.0,0.007600745483383508,1.9424863465518218,17.336160534351183,-0.8062190947406956,0.9763522576303226,172.39878438118444,13.923321909768386,0.0,1.0,0.0,0.0,1.0,Taxi
32.1,0.0768414929022481,25.00052491931577,17.64313548647922,-0.7289734403249454,-0.11146380559086905,172.16240247889937,13.467253581690944,0.0,1.0,0.0,0.0,1.0,Taxi
32.2,0.03970937256970546,-6.022993822828876,17.36181645904803,-0.501510501143819,0.3298352074806717,172.3361543843506,14.53322983108128,0.0,1.0,0.0,0.0,1.0,Taxi
32.300000000000004,-0.0225142236307611,-40.055207376491936,17.001244996749453,-0.9730517484176135,-0.07967054076678036,172.53207965859065,14.634647344145575,0.0,1.0,0.0,0.0,1.0,Taxi
32.4,-0.12343454398021181,-8.332882497447002,17.36660486688293,-1.1463501069064503,0.04696387422567499,172.38679470969646,13.115264361779381,0.0,1.0,0.0,0.0,1.0,Taxi
32.5,-0.001955039917529766,6.459848091629631,16.609186286444068,-1.0024136649647035,-0.69461759101059,172.3900425750619,14.336001154295642,0.0,1.0,0.0,0.0,1.0,Taxi
32.6,0.00978501682738682,24.13179646139844,16.878379552684425,-0.9211451328994517,-0.414865997225468,172.47430635659111,14.460998090083374,0.0,1.0,0.0,0.0,1.0,Taxi
32.7,-0.0027755616732198134,-4.72102396269052,16.491875362236232,-0.6410918500196215,-0.22389430925307968,172.467415864106,14.73091582440052,0.0,1.0,0.0,0.0,1.0,Taxi
32.800000000000004,-0.025560159730982593,17.280719209196228,17.33738303884248,-0.7175855033395986,-0.25227756084702496,172.4233329056717,14.55168692809219,0.0,1.0,0.0,0.0,1.0,Taxi
32.9,0.09618861287336775,-2.2380833110177654,17.22583320668087,-0.8514740444839446,-0.8312671973704905,172.3808509458654,14.386334604312346,0.0,1.0,0.0,0.0,1.0,Taxi
33.0,-0.013965978228308838,31.853404943498578,17.263307607131,-1.0101305075259166,-0.6817318351817072,172.34637505914225,14.239551291758701,0.0,1.0,0.0,0.0,1.0,Taxi
33.1,0.1337068649865101,-58.23990653436084,16.25399905708238,-0.6539069346073261,-0.6486736872538216,172.1389628709062,13.878118042378686,0.0,1.0,0.0,0.0,1.0,Taxi
33.2,-0.19501091979843668,-5.982299724501725,18.273199165281806,-0.8398693803461101,0.005680445139957301,172.1368772587565,13.354479486661221,0.0,1.0,0.0,0.0,1.0,Taxi
33.300000000000004,-0.04387747685081771,-29.820975430707033,17.94490467620697,-0.6295534761113151,-0.5350450192958638,172.194341271771,14.448992137633358,0.0,1.0,0.0,0.0,1.0,Taxi
33.4,-0.01539801216702532,55.97655914809594,17.001423354516334,-0.7702010162936518,0.2896834537537816,172.4162763863926,14.556605040126442,0.0,1.0,0.0,0.0,1.0,Taxi
33.5,0.08487187594204276,6.924935335817428,17.457145463370455,-0.5800222332509601,-0.10670138260753714,172.4274287864514,14.745708154561202,0.0,1.0,0.0,0.0,1.0,Taxi
33.6,-0.009252800171730802,-18.400833267911214,18.038589366668997,-0.9193789251662822,0.18470413030006372,172.44157849250996,14.591112768530557,0.0,1.0,0.0,0.0,1.0,Taxi
33.7,-0.10740217850658162,-22.778888143012626,17.268368680603913,-1.1624814821579688,0.219185346524287,172.3613290788909,14.67064725639088,0.0,1.0,0.0,0.0,1.0,Taxi
33.800000000000004,-0.029022564773020582,-4.066520195790842,17.584860373906814,-0.9990386950895354,0.32874242953244737,172.38893456795222,14.488374645622036,0.0,1.0,0.0,0.0,1.0,Taxi
33.9,-0.029585401150685232,24.941893939233513,17.928793108115435,-0.5744551697493154,-0.4411762438899171,172.50900695662654,14.720749991007356,0.0,1.0,0.0,0.0,1.0,Taxi
34.0,0.01730729118958573,-1.524963166298195,17.442574679991118,-0.8159473535672174,0.03393915870451946,172.42660682703854,14.499148982073436,0.0,1.0,0.0,0.0,1.0,Taxi
34.1,-0.036647380604511774,-11.516460058693196,18.832073107481193,-0.33568890451850153,0.8031147229660406,172.2849709809335,14.736960945539884,0.0,1.0,0.0,0.0,1.0,Taxi
34.2,-0.08716770144415142,-19.53288177548032,18.292325006818718,-1.0118494550712018,-0.4715476511889875,172.34874725539942,13.952757283657212,0.0,1.0,0.0,0.0,1.0,Taxi
34.300000000000004,-0.08035711768781607,23.06389973757112,17.426002365852806,-0.20002685262677034,-0.43298045501937055,172.13951012956295,14.365850608133343,0.0,1.0,0.0,0.0,1.0,Taxi
34.4,0.07867211808334364,9.282031247424706,17.65433486583791,-0.9362013336488783,0.23197088641493488,172.43522646817541,14.320341615546683,0.0,1.0,0.0,0.0,1.0,Taxi
34.5,-0.040757545207028095,48.75096689256932,17.616399033259377,-0.9588045819621217,-0.16092080236561263,172.1719064798034,14.232350575950488,0.0,1.0,0.0,0.0,1.0,Taxi
34.6,0.16339771677503034,-37.53426398467172,16.850818845574707,-0.92348252164838,0.5206253892690574,172.36252947818923,14.658550706565595,0.0,1.0,0.0,0.0,1.0,Taxi
34.7,-0.10899920184001516,22.24083189172327,17.061182097223615,-1.143621754144179,0.08324296843384567,172.37778805536448,14.187812842268652,0.0,1.0,0.0,0.0,1.0,Taxi
34.800000000000004,0.07044661425158803,-67.97228022001474,17.15648346611009,-0.9385653302115479,0.5233556124553815,172.30629979666742,14.707690978550641,0.0,1.0,0.0,0.0,1.0,Taxi
34.9,-0.1764636843250435,57.45251292979483,17.444875357054272,-0.7981209080420582,0.7572139237021618,172.5194908887073,14.09607637987118,0.0,1.0,0.0,0.0,1.0,Taxi
35.0,0.17826336280895877,-13.953246173875286,18.381905201530557,-0.23590153698299698,0.6599507014153535,172.33367402368174,13.738067889019336,0.0,1.0,0.0,0.0,1.0,Taxi
