time_s,altitude_ft,vertical_speed_fpm,ias_kt,pitch_deg,roll_deg,heading_deg,throttle_pct,afterburner_on,gear_down,flaps_deg,speedbrake_pct,weight_on_wheels,label
0.0,-0.13307327913340664,6.419753410837769,9.827062604839167,1.4245373158080261,0.3696322609582869,307.2341420910143,19.56664437150288,0.0,1.0,0.0,0.0,1.0,Taxi
0.1,-0.11167410109728074,38.29249119487504,11.460609452908109,1.6262011053822578,0.26585521518272365,307.21226802339424,18.994655503074608,0.0,1.0,0.0,0.0,1.0,Taxi
0.2,0.05838917684096856,13.562664851277143,9.590179023485007,1.7079969145730638,-0.3865558407806632,307.3308422743311,19.981403483193407,0.0,1.0,0.0,0.0,1.0,Taxi
0.30000000000000004,-0.06525995487702092,30.743907609915397,10.689958975747954,1.7421523423896783,-0.832680883495147,307.03331070322065,19.292879087453606,0.0,1.0,0.0,0.0,1.0,Taxi
0.4,0.042045436952296254,5.916048269922886,9.824532215535704,1.5225211773362275,-0.6178846397872677,307.0450438266141,20.426416531724996,0.0,1.0,0.0,0.0,1.0,Taxi
0.5,0.087969418190583,4.213371449313939,9.476213434355913,1.8696234326719283,0.4997371981579607,307.2827293131179,19.24787574714706,0.0,1.0,0.0,0.0,1.0,Taxi
0.6000000000000001,-0.044193097630451234,-2.9896825903274973,9.803238196318,1.665903967160378,0.013636077624966098,306.94829502150264,19.911898270485306,0.0,1.0,0.0,0.0,1.0,Taxi
0.7000000000000001,0.027097024000658745,-40.32497067327501,10.826588719752772,1.370840626920195,-0.8201594587021415,307.1075075506419,19.294604216816396,0.0,1.0,0.0,0.0,1.0,Taxi
0.8,-0.11365543517579209,9.351310757307374,9.610613325249819,1.6789707745229043,0.3621215326509563,307.2788390803985,19.133572138381258,0.0,1.0,0.0,0.0,1.0,Taxi
0.9,0.0025634561560856,-32.94880605169854,9.879171858175535,1.769483803240463,-0.01963545705227636,307.2906981867583,19.344537592488578,0.0,1.0,0.0,0.0,1.0,Taxi
1.0,-0.13764700625783396,45.42104029371109,10.818475318972448,1.8602089747888249,-0.14600604245658716,307.1771642160818,20.904770683765598,0.0,1.0,0.0,0.0,1.0,Taxi
1.1,0.11344976629276336,-13.39639065973563,8.916300001053502,1.8398313389614322,0.28719579534411377,306.950946880281,19.90521625695031,0.0,1.0,0.0,0.0,1.0,Taxi
1.2000000000000002,-0.06441849714259254,14.235403461951165,9.130562858732421,1.576751466239665,-0.6927131800124079,307.1792589213637,19.132066123896525,0.0,1.0,0.0,0.0,1.0,Taxi
1.3,-0.06646998894807814,-31.286074030014092,10.346660467603437,1.6519146885729594,0.33440360562033017,307.1895562989505,18.823966238644704,0.0,1.0,0.0,0.0,1.0,Taxi
1.4000000000000001,-0.042980603857307106,-0.6700047510791253,10.577708954871646,1.3661022822511961,-0.15511527083837087,307.299674893476,20.51036127047504,0.0,1.0,0.0,0.0,1.0,Taxi
1.5,-0.06776852089798817,12.323177618316187,10.680507978356378,1.5385889516004783,0.03972896262179437,307.14372900310195,19.432463785730878,0.0,1.0,0.0,0.0,1.0,Taxi
1.6,-0.004854100856497211,0.30057077295846807,9.360450238510076,1.7342049499727235,-0.9262571953758599,307.16861476239535,19.323948704942396,0.0,1.0,0.0,0.0,1.0,Taxi
1.7000000000000002,-0.04147774999251477,23.86331530645654,9.35639181131545,2.259615657083377,0.10214253335824175,307.16910857924506,20.15687383017619,0.0,1.0,0.0,0.0,1.0,Taxi
1.8,0.05154805563429452,-25.48417095044951,10.06981675195773,1.3813592748776797,0.03540442435636483,307.0749689608108,18.909959003588156,0.0,1.0,0.0,0.0,1.0,Taxi
1.9000000000000001,-0.13227495560874475,-31.44871924253899,9.234725636291849,1.8844428777995959,0.34072417686543777,307.138590358251,20.317760017432434,0.0,1.0,0.0,0.0,1.0,Taxi
2.0,-0.1987213462052097,-3.734209508966567,10.031545711394863,1.700689755350054,-0.48775122371394464,307.20416461504215,20.127151837864005,0.0,1.0,0.0,0.0,1.0,Taxi
2.1,0.032877008089461666,33.88028432013634,10.636361489376208,2.144794836129685,0.11138966837593144,306.9997636248727,20.362195201388946,0.0,1.0,0.0,0.0,1.0,Taxi
2.2,0.03712646599193694,16.00085571592611,10.077132187145798,1.374330982482429,1.458966336561733,307.20217057758316,19.989491660478613,0.0,1.0,0.0,0.0,1.0,Taxi
2.3000000000000003,-0.11871706762557915,1.6912895561285335,10.104892914249827,1.3053947832185173,-0.4466379979290655,307.2758924014536,19.99698321158212,0.0,1.0,0.0,0.0,1.0,Taxi
2.4000000000000004,0.041333455870104376,-16.20620627686546,10.079542536264851,1.7315444975816194,0.32906392798023726,307.2164123209229,20.010252841156476,0.0,1.0,0.0,0.0,1.0,Taxi
2.5,-0.04390456539239032,-5.8461327149150035,10.988947766323852,1.7346462135230858,0.29461800785109515,307.1808581080712,20.41566293216286,0.0,1.0,0.0,0.0,1.0,Taxi
2.6,-0.14794773120015414,12.161473332496834,10.88188275633718,1.4123870497343654,0.8889980684697921,307.06335094581004,19.50458204238492,0.0,1.0,0.0,0.0,1.0,Taxi
2.7,0.10214082253258859,46.9812538394325,10.444820636296132,1.724747872874338,0.20072760508684867,306.913812168308,19.278650064629815,0.0,1.0,0.0,0.0,1.0,Taxi
2.8000000000000003,0.1910017038047722,23.156495647940915,9.654128487316285,1.7029706370044957,-0.00704163737365233,307.1442356203845,19.059502150126633,0.0,1.0,0.0,0.0,1.0,Taxi
2.9000000000000004,-0.03216525296044955,30.54982963912529,10.760206833200225,1.315408033100046,0.465145446562258,307.3401020507222,19.376281030624245,0.0,1.0,0.0,0.0,1.0,Taxi
3.0,0.25488997072821507,-45.57841816571143,10.313406902530907,1.4714171167875674,0.6079475514720959,307.2791642444439,20.502635515504,0.0,1.0,0.0,0.0,1.0,Taxi
3.1,-0.03689038702378494,-0.8208424437793362,10.401765905163137,1.920219606932719,-0.3382003509742799,307.15227400180834,19.32773452154215,0.0,1.0,0.0,0.0,1.0,Taxi
3.2,-0.03626946517934615,-62.09845952324836,9.710049634196462,1.6278914280125807,-0.06442260720664666,307.14455988926215,20.008805088811844,0.0,1.0,0.0,0.0,1.0,Taxi
3.3000000000000003,-0.05560232688802669,-12.507574041182645,10.109206988542972,1.8989721887581166,-0.6987637578924272,307.16954745539215,19.756841288382194,0.0,1.0,0.0,0.0,1.0,Taxi
3.4000000000000004,-0.09942825722969813,3.933709331535018,10.43803871916559,1.5189797296994128,0.7010310893818067,307.35836516800055,20.626064622276544,0.0,1.0,0.0,0.0,1.0,Taxi
3.5,-0.016600918521671015,7.224198251705886,9.987097932018997,1.2804915170439741,-0.5445844558347881,307.124487554556,19.804707991997194,0.0,1.0,0.0,0.0,1.0,Taxi
3.6,-0.019481335629497207,15.026395968271437,9.670331020336002,1.3556086164208556,0.27958461199624923,307.14430758881076,18.754231407440923,0.0,1.0,0.0,0.0,1.0,Taxi
3.7,-0.024296277388340885,14.173525547052916,9.692724195029497,1.9084200004435994,-0.6217596545855197,307.2733678169045,19.62567439813609,0.0,1.0,0.0,0.0,1.0,Taxi
3.8000000000000003,0.054266709213593625,54.43989862229475,10.306273723086813,1.7998836300715646,1.0208499691215356,307.22386511209675,20.084735428700927,0.0,1.0,0.0,0.0,1.0,Taxi
3.9000000000000004,0.25271815748197657,32.0600948278183,11.125890393570522,2.026558301750721,-0.5847098452553514,307.3136497623466,19.368873538963012,0.0,1.0,0.0,0.0,1.0,Taxi
4.0,0.13600419675075062,15.261375839182973,9.496219743595299,1.7790312508927202,0.40526520171351343,307.0534389028212,21.41562985976451,0.0,1.0,0.0,0.0,1.0,Taxi
4.1000000000000005,0.13057358840950853,-59.27060386785013,8.850045056944246,1.6429792869728508,1.6345302329381868,307.22038296188043,18.722517004293298,0.0,1.0,0.0,0.0,1.0,Taxi
4.2,-0.04363486185727397,-28.813683753663422,10.619027800583357,1.8089195703213419,-0.6322512994190164,307.38520418362816,19.804252515158833,0.0,1.0,0.0,0.0,1.0,Taxi
4.3,-0.008064222017566429,-31.991181378793936,9.906408147639072,1.8770209163457374,-0.04920508476925897,307.1624208210512,19.127989987130487,0.0,1.0,0.0,0.0,1.0,Taxi
4.4,-0.0293823184844611,-9.575260167473283,9.87232232938426,2.095043321163719,-0.27634310376729454,307.0480725426896,19.815684208119883,0.0,1.0,0.0,0.0,1.0,Taxi
4.5,-0.09151116269464031,25.038665497128168,8.924710619064935,1.860510954440846,0.9453475705483226,307.1651326407832,19.05623248158727,0.0,1.0,0.0,0.0,1.0,Taxi
4.6000000000000005,0.1171291054680745,-29.43277269816443,9.491241661197522,1.741552957258372,0.13287876278584454,307.14682844632944,19.426352432593568,0.0,1.0,0.0,0.0,1.0,Taxi
4.7,-0.1765461819752832,48.91502878599982,10.181672889732289,1.6964933624271832,-0.13618181068460083,307.22557256325354,18.77356851909144,0.0,1.0,0.0,0.0,1.0,Taxi
4.800000000000001,0.1530639812353588,-55.83930318214982,11.365034676945328,1.7224187692429838,-0.6783763280210007,307.23776782776076,18.847521168290296,0.0,1.0,0.0,0.0,1.0,Taxi
4.9,-0.16206741044267456,55.655764193326526,9.031665384371092,1.8966961098915551,-0.14195356369102835,307.19211114445534,19.4427787310167,0.0,1.0,0.0,0.0,1.0,Taxi
5.0,0.1017326389913495,-50.492359781923994,9.24985123425391,1.7193563026480234,0.17860898821001026,307.10207752044175,19.44593419867994,0.0,1.0,0.0,0.0,1.0,Taxi
5.1000000000000005,-0.0993978176742611,53.001685023802736,10.357637454997832,1.7624161466385093,-0.03535791317561415,307.23510646480986,19.103503939516784,0.0,1.0,0.0,0.0,1.0,Taxi
5.2,0.10294101467633912,9.65072332494308,9.517512251497507,1.4901347296743253,0.5133700291516541,307.19390088019713,19.63332995418118,0.0,1.0,0.0,0.0,1.0,Taxi
5.300000000000001,0.14998625561606493,-29.39968593519029,10.059339179135144,2.0361461563677095,0.07547847171493605,307.0933293213652,19.569487183877452,0.0,1.0,0.0,0.0,1.0,Taxi
5.4,-0.24639624735021248,-15.097455850409366,8.799657007081178,1.6232601138199376,0.22357776695664902,307.10224253704234,18.45998156640395,0.0,1.0,0.0,0.0,1.0,Taxi
5.5,0.027453735424292358,32.72398405986197,10.793530330053002,1.5479885912661404,0.004239141200232648,307.3174492159419,19.193857739839995,0.0,1.0,0.0,0.0,1.0,Taxi
5.6000000000000005,0.3136061759153748,65.49237892807444,9.043467474631578,1.63222049807498,-0.5657107637359148,307.1331726847709,19.21184275311263,0.0,1.0,0.0,0.0,1.0,Taxi
5.7,0.08106564729015975,-1.191262021235173,10.29484197588739,2.021005631552745,0.15695598672729835,307.20144276220935,19.58796904846335,0.0,1.0,0.0,0.0,1.0,Taxi
5.800000000000001,0.02149742531811656,-53.15127955013559,9.698128856483683,1.5820241745960038,0.6064130631324196,307.06141921102494,19.782018734865936,0.0,1.0,0.0,0.0,1.0,Taxi
5.9,0.047849778164696925,-75.38018690267442,9.845921406582697,1.6601782594837815,-0.004420921131342541,307.1017774443849,19.82068340613113,0.0,1.0,0.0,0.0,1.0,Taxi
6.0,-0.29583528722321234,16.67606552392915,9.69156589969107,1.3942240170299853,0.24671054154838648,307.22228031929035,19.622866402440977,0.0,1.0,0.0,0.0,1.0,Taxi
6.1000000000000005,0.10487775293776239,11.39885432653402,9.849979999848598,1.5270503030113851,0.656501546946083,307.2407573387329,18.966803612481282,0.0,1.0,0.0,0.0,1.0,Taxi
6.2,0.10484404979736708,43.276239499127364,10.010637856640564,1.638549591113579,-0.4039062795765926,307.2241739661158,19.655324231738145,0.0,1.0,0.0,0.0,1.0,Taxi
6.300000000000001,-0.07945408972757548,-27.973000241950228,9.55589009339576,2.1815430744625903,0.2049763371627337,307.27932739256767,19.670582274010545,0.0,1.0,0.0,0.0,1.0,Taxi
6.4,-0.03498724827198871,-18.42771405208313,9.892806633895027,1.4867572336571933,-0.005326353210487741,307.24847495570475,19.077493481875155,0.0,1.0,0.0,0.0,1.0,Taxi
6.5,0.012705479536951489,28.94173759891308,11.12446950692251,1.7016681500337123,0.4537947848602341,307.26145869741686,20.82737419279887,0.0,1.0,0.0,0.0,1.0,Taxi
6.6000000000000005,0.06525459826698995,-7.5383218695352525,9.48980536700652,1.5210823764786807,-0.335858891365683,307.05665512715063,19.224041893235192,0.0,1.0,0.0,0.0,1.0,Taxi
6.7,-0.07267885761966493,-5.30454659209786,10.902467796839366,1.824713525126614,0.18134558213992275,307.021759114484,20.062369177429,0.0,1.0,0.0,0.0,1.0,Taxi
6.800000000000001,-0.013817253423537785,-15.982704383847503,9.970337181591404,1.3616059658790565,0.3651161976435611,307.18971521758453,20.372155515198575,0.0,1.0,0.0,0.0,1.0,Taxi
6.9,-0.014658923652247528,0.7033035244711693,11.013789960078062,1.6117454740134431,0.5259409401491814,306.8473642664943,20.568082083025754,0.0,1.0,0.0,0.0,1.0,Taxi
7.0,-0.06916233999730907,11.114495674704484,9.479230109436816,1.4467988224870947,-0.3031955106702103,307.1585427098005,18.867485069022994,0.0,1.0,0.0,0.0,1.0,Taxi
7.1000000000000005,0.041755224949984654,49.612374504520204,11.47805518059054,1.5576507243848332,-0.6199881122423689,307.1428082817283,19.477730555185257,0.0,1.0,0.0,0.0,1.0,Taxi
7.2,0.2334029488703535,-25.692218959450116,9.670788578163087,1.743103730370161,0.36284429361033527,307.23912636880914,19.720276610858296,0.0,1.0,0.0,0.0,1.0,Taxi
7.300000000000001,-0.19762343479455957,0.647090024233762,10.01285722212124,1.4012219350730237,0.12617783200726151,307.18466959886587,20.50584654690046,0.0,1.0,0.0,0.0,1.0,Taxi
7.4,0.04499067507115358,-29.240169211779634,10.435940478660672,1.4369760381841843,-0.3083412316280054,307.2238516336731,20.10094521246611,0.0,1.0,0.0,0.0,1.0,Taxi
7.5,0.08720210281145545,34.036929460398966,10.009889388408634,1.6660949709066568,0.7159721147713463,307.2334109033511,20.10850503250195,0.0,1.0,0.0,0.0,1.0,Taxi
7.6000000000000005,-0.02743878749256475,0.6020072462696054,9.647089843549246,1.8141728789127434,-0.053920423502292855,307.2448839065843,19.172804483216392,0.0,1.0,0.0,0.0,1.0,Taxi
7.7,0.04800071130250157,1.6847885667754785,10.91901105143631,1.899572230150908,0.1158987440438656,307.2831958367651,19.409297786970104,0.0,1.0,0.0,0.0,1.0,Taxi
7.800000000000001,0.09562604564533281,1.2178205938496092,10.582142118050337,1.8817222095375954,0.5736178985713308,307.11921428437654,19.366115682966587,0.0,1.0,0.0,0.0,1.0,Taxi
7.9,-0.02134968452331669,1.2794788001783317,10.373865017276465,1.8126008194196879,-0.2984421793646739,307.23114926175595,20.96919377673045,0.0,1.0,0.0,0.0,1.0,Taxi
8.0,0.05439810530339323,-13.04124411666574,10.460136865810577,1.6753157120781248,0.4779802214634237,307.20935161367083,20.80028717042834,0.0,1.0,0.0,0.0,1.0,Taxi
8.1,0.030419825062004115,-17.19601655017174,11.647275308183923,1.7730056591431058,0.9760033810200793,307.235839927915,19.294028027148887,0.0,1.0,0.0,0.0,1.0,Taxi
8.200000000000001,-0.10732976727417538,-29.641851619753155,10.90169845700052,1.396754476893293,-0.15364288937537518,307.0980991094739,19.131674818914014,0.0,1.0,0.0,0.0,1.0,Taxi
8.3,-0.09381115279537254,-28.209341924637116,9.956212732697889,2.1062792513059554,-0.026445125091891564,307.20985834334954,20.548933463795095,0.0,1.0,0.0,0.0,1.0,Taxi
8.4,-0.11062688456118144,-17.837324355869274,9.65719874286434,1.7147916406112858,0.8324853837141458,307.14707615478005,20.365874912771435,0.0,1.0,0.0,0.0,1.0,Taxi
8.5,-0.19651638905352176,41.591488358320156,10.478475499163435,1.8234913785066151,0.019000383795773252,307.1180691244605,19.62653572405372,0.0,1.0,0.0,0.0,1.0,Taxi
8.6,0.11414628899622824,50.21838856759653,9.176946462500615,2.2844483072776853,0.08595677536748697,307.09289986127874,19.24366683201528,0.0,1.0,0.0,0.0,1.0,Taxi
8.700000000000001,0.14046505827680125,59.85259393549865,10.727536579498443,1.9412386892235811,0.02857580680627084,307.0875688350652,18.883498739869843,0.0,1.0,0.0,0.0,1.0,Taxi
8.8,0.10274658062397153,-11.44793691123254,9.442953870412358,1.4865955436851994,1.010984240593098,307.37392473151317,19.49097486273419,0.0,1.0,0.0,0.0,1.0,Taxi
8.9,0.056906604440065525,-35.75862317050809,9.78606583739631,1.7330588152720048,-0.22378927637586088,307.2622587505274,20.245536609345216,0.0,1.0,0.0,0.0,1.0,Taxi
9.0,-0.03832805757573918,-14.01678953281241,10.118995166796468,1.6537851310326588,0.19165073903187366,307.38104826356437,19.118413343692744,0.0,1.0,0.0,0.0,1.0,Taxi
9.1,0.032662632959909475,-7.823711552918096,9.72629981854273,1.8624543450268696,0.3973367014631195,307.12847667260485,19.82937402739195,0.0,1.0,0.0,0.0,1.0,Taxi
9.200000000000001,0.01778804667547505,20.980031107399313,10.262831020569202,1.760152049603887,0.31788417935977026,307.2026663654693,19.071652562422337,0.0,1.0,0.0,0.0,1.0,Taxi
9.3,0.06657209796125739,-25.661053953597502,10.17408594474441,1.7705282783827831,-0.32857590657478625,307.0954519752481,19.978031098134128,0.0,1.0,0.0,0.0,1.0,Taxi
9.4,-0.095642636808078,9.375168574778703,9.147080126254666,1.8685202101172744,0.4294671166455031,307.1966173486303,18.958738811118103,0.0,1.0,0.0,0.0,1.0,Taxi
9.5,0.06466388954936857,-10.091124712264998,9.065706117522259,1.4392126909022267,0.3812721892750183,307.1990328805798,19.552016790442664,0.0,1.0,0.0,0.0,1.0,Taxi
9.600000000000001,0.016116474399932412,-21.983131169491894,9.294684035479504,1.4066855814076034,0.17269202730901098,307.2403404633284,20.022649324039946,0.0,1.0,0.0,0.0,1.0,Taxi
9.700000000000001,-0.20555829265553746,-0.30942586972316616,9.293031129678319,1.8565112494466582,-0.3605458459297516,307.20707132428197,19.824871746271086,0.0,1.0,0.0,0.0,1.0,Taxi
9.8,0.0631167602007528,15.957577136015743,10.339901709803614,1.589361525060681,0.11772666177558505,307.06751083969516,18.89016213046635,0.0,1.0,0.0,0.0,1.0,Taxi
9.9,0.09590436008001119,5.05145017408618,10.150108313820462,1.67875110819258,-0.1571320308910633,307.21065081357756,19.326307661741065,0.0,1.0,0.0,0.0,1.0,Taxi
10.0,-0.18030104178510653,10.530659661338055,9.64594415416119,1.913557538400096,-0.08303815232043507,307.1241794883239,19.526635419828935,0.0,1.0,0.0,0.0,1.0,Taxi
10.100000000000001,0.11577005850744307,-13.965044499364053,10.806939157577753,1.711388600314021,-0.03330685852725379,307.17282994669586,19.1409263004042,0.0,1.0,0.0,0.0,1.0,Taxi
10.200000000000001,0.026079137583190932,82.8069588377504,9.827241115107952,1.512260689604437,0.09963753127194798,307.2622870903359,20.12659025442121,0.0,1.0,0.0,0.0,1.0,Taxi
10.3,0.23373375240364547,-13.880098232638375,10.481243990405394,1.9661655633918387,0.004005941623856221,307.2596250921363,19.356150084761076,0.0,1.0,0.0,0.0,1.0,Taxi
10.4,0.04636956734425124,-7.3372877651221176,10.567536191498817,1.9224840436811923,-0.24549707174467322,307.11702257813465,20.147465830527835,0.0,1.0,0.0,0.0,1.0,Taxi
10.5,-0.010607301242419617,-29.86273276073344,9.203149830801749,1.4743568759147903,-0.02195107420672515,307.0771108671951,20.1368847923705,0.0,1.0,0.0,0.0,1.0,Taxi
10.600000000000001,0.0844200885999783,-25.458796827854112,10.759978997734853,1.4817378302366206,-0.5714941820576434,307.1787306859301,19.950862101657215,0.0,1.0,0.0,0.0,1.0,Taxi
10.700000000000001,-0.08092441679501933,13.427463605389343,9.640151447319113,1.7200645796682135,-0.20532193626858464,307.2402708787172,19.925039232125172,0.0,1.0,0.0,0.0,1.0,Taxi
10.8,0.056530016784527085,-42.1263840756273,10.242161516846314,1.692103251574936,0.015619222107729352,307.1963864992334,19.3702250835129,0.0,1.0,0.0,0.0,1.0,Taxi
10.9,-0.12621183177815823,7.064530315012981,10.180453545792613,1.464028902023351,0.0873825282013468,307.18847485711717,19.51261456342263,0.0,1.0,0.0,0.0,1.0,Taxi
11.0,-0.04560176521995446,-21.00132348282586,9.538294212693078,1.689037885219547,0.43732947906903474,307.15440765325616,18.62005386997541,0.0,1.0,0.0,0.0,1.0,Taxi
11.100000000000001,-0.04847660062960225,9.858420259759226,10.490502235150709,1.411917338421919,0.31995255766747016,307.09231772774433,19.348286076853316,0.0,1.0,0.0,0.0,1.0,Taxi
11.200000000000001,-0.07691973047936213,18.440658600564717,9.87917765673719,1.4546536132487544,0.39564933402513897,307.10568110403256,19.0075408439087,0.0,1.0,0.0,0.0,1.0,Taxi
11.3,0.046601527782869114,27.55892339541285,10.768277251164148,1.4054478975571967,-0.42765923175162335,307.18170504951706,19.869263896238955,0.0,1.0,0.0,0.0,1.0,Taxi
11.4,0.089318016347462,21.114032107523816,9.967825237263977,1.9278574664114625,-0.39257479753261415,307.4381052218239,19.582584967058448,0.0,1.0,0.0,0.0,1.0,Taxi
11.5,0.028650430058256945,11.096456151040725,9.651194885949957,1.759421637212339,-1.1437622462890404,307.12670090414053,19.67459101288563,0.0,1.0,0.0,0.0,1.0,Taxi
11.600000000000001,0.10208380853807271,5.688184970358802,9.188289974965144,1.8060711321140182,0.9259953060998097,307.05985842872644,20.56550007871793,0.0,1.0,0.0,0.0,1.0,Taxi
11.700000000000001,0.11775894119925599,-27.79818762481513,10.262662596715925,1.7690803801461175,0.08090579158305776,307.18874843214826,18.214385597882682,0.0,1.0,0.0,0.0,1.0,Taxi
11.8,-0.11034050806581877,-27.678145082602924,9.163693277553184,1.347398251093102,0.19226794416359733,306.9363272657507,20.62903454365864,0.0,1.0,0.0,0.0,1.0,Taxi
11.9,-0.03630691687494194,-37.88334185251514,10.540195087400596,1.5177519013378395,-0.6105177401287283,307.00352189309956,20.212169671539353,0.0,1.0,0.0,0.0,1.0,Taxi
12.0,-0.07165776806331971,19.266247858054058,9.579288320337497,1.9285798176339242,-0.3087987299470272,307.2976442962697,20.13024407325107,0.0,1.0,0.0,0.0,1.0,Taxi
12.100000000000001,-0.014009268775548495,-17.58792331166576,10.015836301272909,1.728690832971686,-0.10715870639660173,307.33873308583725,19.60458995820201,0.0,1.0,0.0,0.0,1.0,Taxi
12.200000000000001,-0.12424653343327077,4.894737688097039,10.466168897547746,1.343360168084239,-0.28659608123126895,306.99892672026385,20.453446359485536,0.0,1.0,0.0,0.0,1.0,Taxi
12.3,-0.04718407962283454,23.45415605986145,9.275808994602187,1.7041972917723986,-0.6434655131776578,307.1432308487697,19.855964222979143,0.0,1.0,0.0,0.0,1.0,Taxi
12.4,0.10326151152375876,36.049476423918115,10.133456047923195,1.7901447137218498,-0.3220833293027225,307.31559924002147,19.90725337351063,0.0,1.0,0.0,0.0,1.0,Taxi
12.5,0.05600084868631977,-7.446481929781737,9.894613527879002,1.8627725581314571,0.09988817789727485,307.0430365883443,19.824840425606556,0.0,1.0,0.0,0.0,1.0,Taxi
12.600000000000001,-0.08441648927174322,-41.628649090432106,9.836960087515681,1.632715415977567,-0.04219457963474971,307.1107613900749,19.859558588651197,0.0,1.0,0.0,0.0,1.0,Taxi
12.700000000000001,-0.10488173392840178,19.51613738985841,8.588976369016414,2.0425801653817177,0.043887342920538086,307.3292377405286,19.430062876875713,0.0,1.0,0.0,0.0,1.0,Taxi
12.8,0.15358153563561178,26.785554025024116,8.725128501900459,1.8177544830050787,1.0721315359087962,307.2199538716536,18.714991750692842,0.0,1.0,0.0,0.0,1.0,Taxi
12.9,0.049511280853377304,28.2572033221806,10.301818522915331,1.8013980702811039,-0.33272131125270604,307.2452807615323,19.59380742404265,0.0,1.0,0.0,0.0,1.0,Taxi
13.0,0.036404282682501204,-70.20081857843067,9.150029315330771,1.5182605430699634,-0.02660291245079716,307.07495404944007,19.559359074802213,0.0,1.0,0.0,0.0,1.0,Taxi
13.100000000000001,-0.19742255725654162,-37.40012018729058,10.350340209552371,1.4426063318483742,0.23590812358055896,307.12576748451977,19.531323850165066,0.0,1.0,0.0,0.0,1.0,Taxi
13.200000000000001,-0.13748932008307563,-6.604304334933815,9.791585142865806,1.6962201415487899,0.5623857503468571,307.23056162535875,20.88719009639832,0.0,1.0,0.0,0.0,1.0,Taxi
13.3,0.0033827610078320663,-1.3025467505357682,10.019961694421296,1.7240169675257295,0.20994643825389686,307.1723884014367,19.52038712613507,0.0,1.0,0.0,0.0,1.0,Taxi
13.4,-0.20393529100922048,33.28194410076878,9.506021164416813,1.399294575391405,0.406469920823269,307.0420396922584,19.62988463286528,0.0,1.0,0.0,0.0,1.0,Taxi
13.5,0.028920400420768284,-39.2910048709454,9.282178886839473,1.4613946882946989,-0.6654234716141637,307.1130029222943,19.64654592055495,0.0,1.0,0.0,0.0,1.0,Taxi
13.600000000000001,-0.1930722633468949,49.16851951039941,10.603639951055703,1.8348808665564564,0.20661235846136855,307.3615929309681,19.64991303353052,0.0,1.0,0.0,0.0,1.0,Taxi
13.700000000000001,0.041907306542776614,-18.29724822429407,10.478268533975191,2.0735195489867255,0.05874718488997627,307.1821017634554,20.31799078916822,0.0,1.0,0.0,0.0,1.0,Taxi
13.8,-0.06256584070070202,33.670635194559274,9.620039532156152,1.6715770232107392,-0.34973584403171915,307.35779305369897,19.77660982894923,0.0,1.0,0.0,0.0,1.0,Taxi
13.9,-0.024719087374098545,-17.46492421398153,9.56629443559501,1.9466309257962775,-0.0916014103850869,307.1264470057981,19.350913159651324,0.0,1.0,0.0,0.0,1.0,Taxi
14.0,-0.04541731452713103,-3.231973201849906,10.332514789592619,1.8079968909687731,-0.023915139079646198,307.1803728261252,19.67548971957058,0.0,1.0,0.0,0.0,1.0,Taxi
14.100000000000001,-0.07872570670995155,33.04876693422801,9.722258803411204,1.3941824739388813,0.8951396206318663,307.06803377764606,20.01039183928387,0.0,1.0,0.0,0.0,1.0,Taxi
14.200000000000001,0.14052474729704154,1.7354147187341387,10.689009290922293,1.9143063455480962,0.22537505102629213,307.13950337768347,20.439730448638937,0.0,1.0,0.0,0.0,1.0,Taxi
14.3,-0.03674024093346031,8.307481915766216,9.06722986330363,1.4992642249786747,-0.147011596360052,307.33369512067566,19.578608931810773,0.0,1.0,0.0,0.0,1.0,Taxi
14.4,-0.03718829713112044,-21.843008849775902,10.1918227904924,1.7249098873232553,0.5137947796996476,307.345415603397,19.148145595671068,0.0,1.0,0.0,0.0,1.0,Taxi
14.5,0.03130970304816204,33.50682387272615,9.75407371111162,1.8400604994006111,0.235059599756302,307.09824685389253,19.47197516393567,0.0,1.0,0.0,0.0,1.0,Taxi
14.600000000000001,0.13079387843017046,11.600336816798508,9.25655766674906,1.4145845982495975,0.37763287695508974,307.17840218429467,19.723103402263295,0.0,1.0,0.0,0.0,1.0,Taxi
14.700000000000001,0.020813386952872093,-1.6637298474951112,9.177470196919304,1.7965297752003238,-0.21834818600468817,307.16026661141086,20.059755392395555,0.0,1.0,0.0,0.0,1.0,Taxi
14.8,0.02299105381068649,-16.48805866635226,9.776323623416737,1.7793417726945675,0.35034421996028703,307.09823770598905,19.765992525539673,0.0,1.0,0.0,0.0,1.0,Taxi
14.9,0.048353585098409174,42.24077869022127,10.252485878747951,1.8306648588395396,0.6146617621172469,306.9359512735998,18.562131474341633,0.0,1.0,0.0,0.0,1.0,Taxi
15.0,0.23201728040397845,0.5496730399007106,10.337124650062052,1.9351013622766275,0.25314859343087087,307.16227552394025,20.320624074214486,0.0,1.0,0.0,0.0,1.0,Taxi
15.100000000000001,0.025739419010190064,19.443138839539596,9.7276284907895,1.4528336641055206,-0.6005411391646052,307.2264501433622,19.82801581310734,0.0,1.0,0.0,0.0,1.0,Taxi
15.200000000000001,0.14556927929610716,-69.42705830298466,11.0572306759431,1.6560279621358056,0.026488672574125575,307.1648633862335,19.694373417280556,0.0,1.0,0.0,0.0,1.0,Taxi
15.3,-0.11511801111094477,-14.432085173698304,8.813226653621786,1.8277074901778696,0.6743155041536012,307.263052574923,20.007459665525698,0.0,1.0,0.0,0.0,1.0,Taxi
15.4,-0.04642100685830139,-17.153925276593693,10.034262897825887,1.7809948830338953,-0.5425873983157358,307.0097522669166,19.597026308452516,0.0,1.0,0.0,0.0,1.0,Taxi
15.5,0.05979965291313876,62.72633486340326,9.781715635723087,1.9264876556108177,0.5333466586034328,307.06789852854524,19.49277225886877,0.0,1.0,0.0,0.0,1.0,Taxi
15.600000000000001,0.19851366320607158,15.164809791468079,10.183547478070595,1.7202642745990258,-0.02290696248367418,307.37421993779435,20.19760557822108,0.0,1.0,0.0,0.0,1.0,Taxi
15.700000000000001,0.029403042099039017,-10.856217528219013,8.70805109771062,1.572705095452686,0.22825855533858133,307.0997840432324,18.99880595370523,0.0,1.0,0.0,0.0,1.0,Taxi
15.8,0.005518565272043727,-40.18388687337508,9.902518873613912,1.4081086773263833,-0.738894666370177,307.144687299696,19.764028246823237,0.0,1.0,0.0,0.0,1.0,Taxi
15.9,-0.00240577116080383,-1.1524660973177252,9.832433397834023,1.5690012994104843,0.21945926711785035,307.1451703674162,19.516112872229666,0.0,1.0,0.0,0.0,1.0,Taxi
16.0,0.023640711612450405,-8.10754633261408,10.758715842713402,1.4552928515615506,-0.19546427975233613,307.24839439364155,19.201518980904194,0.0,1.0,0.0,0.0,1.0,Taxi
16.1,-0.035019166391026674,6.707555866103584,9.318035595217275,1.7860400325793164,0.34965192008137086,307.094121343923,20.114534094410526,0.0,1.0,0.0,0.0,1.0,Taxi
16.2,0.0311320081697141,-0.15168745672873354,10.119589692850594,1.6902375542848322,0.8821986994749215,307.13328704463675,18.95507257878345,0.0,1.0,0.0,0.0,1.0,Taxi
16.3,0.02288227432880674,-3.140483489290098,9.134208355178991,1.4058864343445805,0.4829531133090086,307.1173345992481,20.622267073540755,0.0,1.0,0.0,0.0,1.0,Taxi
16.400000000000002,-0.05072158383747716,-15.243095300090948,10.288438148008439,1.8020779563515146,-0.2896115882623759,307.28730464942487,20.84730680141718,0.0,1.0,0.0,0.0,1.0,Taxi
16.5,-0.045083468330740645,-31.30306526692968,9.992699905734735,1.6369118860968332,-0.6411885662508249,307.16865351027,19.52479153711433,0.0,1.0,0.0,0.0,1.0,Taxi
16.6,-0.13363305200584166,0.18792362174256994,10.571066317384679,1.5380884732129898,0.35211762980801137,307.07006011904764,19.392821284767436,0.0,1.0,0.0,0.0,1.0,Taxi
16.7,-0.04978196572876431,22.091949918533796,9.58137000003684,1.649611613029709,-0.38088704448365307,307.13803467378057,20.060633644198308,0.0,1.0,0.0,0.0,1.0,Taxi
16.8,0.06537628126192833,30.664134184195266,9.96593252682768,1.8437660370156879,0.45957766422902674,307.2554134895672,19.55614498347036,0.0,1.0,0.0,0.0,1.0,Taxi
16.900000000000002,0.01968761891513469,0.29659861406296767,9.9132792361808,1.7915560393982364,-0.03389098471096696,307.0281683872514,20.5357693674851,0.0,1.0,0.0,0.0,1.0,Taxi
17.0,-0.048298972658449464,-42.803337620243674,10.243284711156779,1.1989303818527934,-0.20899216756439146,307.2046333380342,19.805705559177976,0.0,1.0,0.0,0.0,1.0,Taxi
17.1,-0.14864040683929006,-4.863997790961562,10.11602870213314,1.9514000536908909,-0.43569245538258,307.3404256748886,20.516453790147285,0.0,1.0,0.0,0.0,1.0,Taxi
17.2,-0.004632370039673098,-36.45180582331757,9.745088379867072,1.6877997261550293,-1.005905773964115,307.12494551914983,19.650064595936314,0.0,1.0,0.0,0.0,1.0,Taxi
17.3,-0.23055800177503727,-3.9881781884594667,9.638773246137003,1.4707688261663008,-0.11762082844762202,307.23219645271547,20.167116107819766,0.0,1.0,0.0,0.0,1.0,Taxi
17.400000000000002,-0.16858129778158734,-7.136983317216855,10.700415062367764,1.6206652671988335,-0.49038817156560416,307.2501873467153,20.526865201912912,0.0,1.0,0.0,0.0,1.0,Taxi
17.5,-0.04031728662575732,38.162314964251365,10.833630995126004,2.109531104637714,-0.11569683197733906,307.1389209512972,19.495343511725967,0.0,1.0,0.0,0.0,1.0,Taxi
17.6,-0.03974642695378042,37.29000203460084,10.074934333568448,1.851063782004538,-0.07480392801266884,306.92935673401007,19.545673334943405,0.0,1.0,0.0,0.0,1.0,Taxi
17.7,0.01786871239141687,9.454586286432875,9.380909680198322,1.983232665466157,0.9153439559068202,307.16123901168885,19.053585184345305,0.0,1.0,0.0,0.0,1.0,Taxi
17.8,0.00695564480640707,-0.4572153207960312,9.651307050854495,1.8713323456675075,0.13350802765238065,307.1675735102566,20.0078769356985,0.0,1.0,0.0,0.0,1.0,Taxi
17.900000000000002,-0.04203250355776056,-16.51048506113377,9.970368713075514,1.5339579226554627,0.5067412135138051,307.29083604499897,19.096170203750518,0.0,1.0,0.0,0.0,1.0,Taxi
18.0,-0.06468371291425197,1.7580591391323637,9.273381692372835,1.7084928166171856,0.2712160393873571,307.22039649385033,20.06625951299114,0.0,1.0,0.0,0.0,1.0,Taxi
18.1,0.015745940502068897,9.865135308864076,10.275261247743426,1.7019779222163043,0.5250578946776039,307.1421176558331,19.426728301850076,0.0,1.0,0.0,0.0,1.0,Taxi
18.2,0.007293172986559829,21.44863250622183,8.956484923424945,1.7284143677047246,0.7735483976108434,307.266161340224,20.4332977246203,0.0,1.0,0.0,0.0,1.0,Taxi
18.3,0.04255944961685721,15.198797349814408,10.13760093516962,1.7308124129059885,0.8102813534484005,307.24517351390864,19.176514159828255,0.0,1.0,0.0,0.0,1.0,Taxi
18.400000000000002,0.09173992725114094,6.446123656313362,9.45248751605944,1.6466893476322528,-0.42094469353231395,307.2536036233894,19.31001343762291,0.0,1.0,0.0,0.0,1.0,Taxi
18.5,0.03952379126812665,-10.715338484418012,10.072798152846842,2.1127628421323728,-0.6928271582323974,307.21181345016214,20.10201336468926,0.0,1.0,0.0,0.0,1.0,Taxi
18.6,-0.01101724280523285,-28.005262687248194,9.706276691215987,1.571795931731324,0.9754876230070297,307.2010115514663,19.586511088961934,0.0,1.0,0.0,0.0,1.0,Taxi
18.7,-0.048286386185100026,-11.283367454749198,9.28939412060247,1.5335363210789437,0.2515053596905864,307.1191207087029,20.316924669759725,0.0,1.0,0.0,0.0,1.0,Taxi
18.8,-0.016893046005619323,-4.874985187306219,9.83957149270758,1.6798174337362826,0.5951335512842505,307.1691202886468,19.024607395472408,0.0,1.0,0.0,0.0,1.0,Taxi
18.900000000000002,-0.03539216874176393,23.99967640836368,10.259741908146413,1.7398197865388458,-0.3510492082167582,307.2391128218143,19.487717551881303,0.0,1.0,0.0,0.0,1.0,Taxi
19.0,0.07171199585671838,-21.953131637498018,11.175384273623626,2.1496456068701035,-0.40896804384925445,307.1733539823929,19.971667908823296,0.0,1.0,0.0,0.0,1.0,Taxi
19.1,-0.1266587041931094,35.36281302689117,10.667979645659646,1.472305512886085,-0.9320016676063184,307.17013069887923,19.562873396631897,0.0,1.0,0.0,0.0,1.0,Taxi
19.200000000000003,0.1414218963926919,-11.116190279022211,9.863644816996038,2.355966665744625,-0.6535694240816211,307.1497079003475,18.92564230416848,0.0,1.0,0.0,0.0,1.0,Taxi
19.3,0.01613104446160733,54.6511196151936,10.901781693693883,1.3603360460534215,0.5612037220936442,307.1120579969297,19.084432755052553,0.0,1.0,0.0,0.0,1.0,Taxi
19.400000000000002,0.1465968938828586,-24.833945214050985,10.126201305193813,1.7677612209443334,-0.22223984936697927,307.08071116246094,19.982593215390658,0.0,1.0,0.0,0.0,1.0,Taxi
19.5,0.017252170322436988,-62.48879179356603,9.823564351916733,2.09690971915687,0.00803020317828398,307.36278485399,20.99143850849181,0.0,1.0,0.0,0.0,1.0,Taxi
19.6,-0.29631291450622277,-37.28096540065136,9.80899850724378,1.4648527962026043,-0.8900737854176207,307.1917197120804,19.053734890537854,0.0,1.0,0.0,0.0,1.0,Taxi
19.700000000000003,-0.03980793312039821,0.9685087947234076,9.276253208715367,1.895561207616665,-0.27451147929423264,307.12372758427875,20.691185733279465,0.0,1.0,0.0,0.0,1.0,Taxi
19.8,0.022094714296053992,59.54008666667216,9.849478007982887,1.5243861966179792,0.20780297281271826,307.2195034391282,19.09468518867878,0.0,1.0,0.0,0.0,1.0,Taxi
19.900000000000002,0.0013875188271379871,-15.537890179063297,10.507976547756396,1.5548493002211643,0.2305874560888756,307.2817134710449,19.619300104318967,0.0,1.0,0.0,0.0,1.0,Taxi
20.0,-0.11749738401571473,-23.846426475729157,10.068058103980876,1.8316059892956418,-0.019989847864955237,307.40764473093157,19.635742467596554,0.0,1.0,0.0,0.0,1.0,Taxi
20.1,-0.09713741808259183,-13.873946982376262,9.632636100790231,1.4401298230100397,0.6281984591647817,307.0660620076958,19.402196657973672,0.0,1.0,0.0,0.0,1.0,Taxi
20.200000000000003,-0.06798221608474338,33.29961846966055,9.872868076213946,1.7049218640936934,-0.7524393883451653,307.20698911947215,19.61674794674592,0.0,1.0,0.0,0.0,1.0,Taxi
20.3,0.04900070833258801,33.44812832100835,10.094206347572426,1.7717195844059923,-0.2835811814819245,307.3760617774028,19.533861088974668,0.0,1.0,0.0,0.0,1.0,Taxi
20.400000000000002,0.0701032235224499,6.315424030312765,10.69475678428089,1.934528998720751,0.12734215281828953,307.2400293161552,20.148791158914293,0.0,1.0,0.0,0.0,1.0,Taxi
20.5,-0.03640509593317958,-18.53046828300314,11.050048671650915,1.729568655948625,-0.5191950849159132,307.06048793923696,20.28200027089166,0.0,1.0,0.0,0.0,1.0,Taxi
20.6,-0.043651633082427754,-43.665156894465476,9.842195547535663,1.7504971278075099,0.39997576758235265,307.238413878664,19.796665015693595,0.0,1.0,0.0,0.0,1.0,Taxi
20.700000000000003,-0.1482225609498775,-6.952639127959666,10.340329081718995,1.8799764493789741,0.017996291642768662,307.2259127401103,20.46130702274724,0.0,1.0,0.0,0.0,1.0,Taxi
20.8,-0.07116829157297795,4.2657664479522195,10.018347410142104,1.9790138501617842,-0.6514419029681642,307.0163633760849,19.522582378097077,0.0,1.0,0.0,0.0,1.0,Taxi
20.900000000000002,-0.022322800842666697,-4.020206581137582,8.626606989545948,1.7760739299342259,-0.12450204500694942,307.2170983668012,19.50349507360345,0.0,1.0,0.0,0.0,1.0,Taxi
21.0,-0.16832359385556547,13.963338161769578,10.0401628653056,1.5026647127342634,0.35626281012732947,307.1119747517166,19.940761049018853,0.0,1.0,0.0,0.0,1.0,Taxi
21.1,-0.0013516007641301115,26.75843926629733,9.180668463376623,1.4879458559896754,-0.1846756355667996,307.02232581175724,19.791570312311283,0.0,1.0,0.0,0.0,1.0,Taxi
21.200000000000003,0.1114693954888199,44.085831860681274,9.896377078093668,1.590523523227283,0.2428065960097388,307.1335663193472,19.51471711338429,0.0,1.0,0.0,0.0,1.0,Taxi
21.3,0.052105565447840854,-30.05932084603961,10.040997712720038,1.5913665914447481,0.4423447762613555,307.22497602070075,19.86943051106606,0.0,1.0,0.0,0.0,1.0,Taxi
21.400000000000002,-0.15164820499432824,-43.085984529463765,10.71414754223111,1.73003265616542,-0.5494799017148708,307.1116700965383,18.67085361646294,0.0,1.0,0.0,0.0,1.0,Taxi
21.5,-0.10396052715849902,4.320895711675334,10.672192137564396,1.7181297359598051,0.12121441725335724,306.9998527509231,20.082449839437167,0.0,1.0,0.0,0.0,1.0,Taxi
21.6,0.07371004400621745,35.345470707368705,10.950007923460149,1.7101395358442353,0.5177791023762479,307.05865957416586,20.098740334484056,0.0,1.0,0.0,0.0,1.0,Taxi
21.700000000000003,0.02507914854251523,17.451278595242176,9.810027585086571,1.8179493201950996,-0.7278538132785763,307.2223538153845,20.06563503985942,0.0,1.0,0.0,0.0,1.0,Taxi
21.8,-0.01670413418228818,-37.26622309735276,11.191490154255348,1.8229518484933336,-0.7434613291614011,307.2834652596292,19.69803874997045,0.0,1.0,0.0,0.0,1.0,Taxi
21.900000000000002,-0.1126210714805464,0.007448656133580774,9.598381443745675,1.8850601227384418,0.8401806095526313,307.22097113184645,20.530715516641777,0.0,1.0,0.0,0.0,1.0,Taxi
22.0,0.025116391823183072,-15.836831700817202,10.41316497473222,1.650907241618573,0.9721579115738014,307.0582580020124,19.354880124426455,0.0,1.0,0.0,0.0,1.0,Taxi
22.1,-0.09588829268637424,-15.655114862032235,9.940060930278106,2.111521031713594,-0.4674060361815131,307.12232724487194,20.478200393855378,0.0,1.0,0.0,0.0,1.0,Taxi
22.200000000000003,-0.19089664579070761,-3.6966802464206787,10.46950284455897,1.7419094107373116,-0.40370792091262964,307.01911294144634,19.830825443189788,0.0,1.0,0.0,0.0,1.0,Taxi
22.3,0.006632990591079607,61.35968734304843,9.056637863148149,1.3736779670908756,-0.03053852919071106,307.13057486595744,20.49479071243603,0.0,1.0,0.0,0.0,1.0,Taxi
22.400000000000002,0.21091014402886785,55.75419411884621,9.549846787374213,1.9497281578287255,0.7668784838104858,307.18530357812074,19.96029535762684,0.0,1.0,0.0,0.0,1.0,Taxi
22.5,0.08787432480352332,2.694493856035441,9.197046525937155,1.9498363934206884,-0.10357281087601972,307.14443090403597,20.233704504750264,0.0,1.0,0.0,0.0,1.0,Taxi
22.6,0.020105459871256753,-37.246933293530866,10.790996265233005,1.8517453172133962,-0.846137983562298,307.1702671089365,19.76966869297171,0.0,1.0,0.0,0.0,1.0,Taxi
22.700000000000003,0.024675477561213476,-24.977507417919174,9.688554930997245,1.7837320753254506,-1.0593977255178626,307.23631327667704,19.798925510246644,0.0,1.0,0.0,0.0,1.0,Taxi
22.8,-0.03701321228607261,-19.61630372715014,10.069405632695792,1.6293680309626493,0.4550584606000193,307.1803567763641,19.34572689768044,0.0,1.0,0.0,0.0,1.0,Taxi
22.900000000000002,-0.07797605876449401,-17.739061836784657,9.79580203407614,1.7451652532589699,0.25616216889042753,307.01465120862827,19.893984014974098,0.0,1.0,0.0,0.0,1.0,Taxi
23.0,-0.06401983162270988,40.199037547897404,9.221670196031742,1.7609600591250842,1.0077453571779065,307.271682345576,19.845612229963557,0.0,1.0,0.0,0.0,1.0,Taxi
23.1,0.16398197545341434,-15.93697344819617,10.50014293907915,1.5845876870848752,0.4735121997140855,307.1635792428551,19.57029563463963,0.0,1.0,0.0,0.0,1.0,Taxi
23.200000000000003,-0.1576609260054749,8.710704661678896,9.240673105493057,1.4100961371761653,0.3632258332465891,307.1781546898187,19.98299823754607,0.0,1.0,0.0,0.0,1.0,Taxi
23.3,-0.02046630831431544,-29.812784618182373,9.825872723497387,1.8027634804610237,0.8894674154706618,307.22822505480985,19.187220208823394,0.0,1.0,0.0,0.0,1.0,Taxi
23.400000000000002,0.014918052362502439,36.33253456151792,9.743369429114264,1.9350589841904247,-0.26802102060444216,307.2345339722183,19.10751490428101,0.0,1.0,0.0,0.0,1.0,Taxi
23.5,0.02400174680211462,-2.857691317247472,8.970424161343258,1.9247296725320115,0.3106084756231851,307.21695312291376,20.07758332239791,0.0,1.0,0.0,0.0,1.0,Taxi
23.6,-0.034754764900552876,6.695089539386005,9.648111645997977,1.525620606815548,-0.10911714667588895,307.3103290124599,19.09786945318845,0.0,1.0,0.0,0.0,1.0,Taxi
23.700000000000003,0.048393500059432375,21.997549559671324,10.78947152712392,1.657901839944126,0.12668141387795745,307.35486858432546,19.81501868031235,0.0,1.0,0.0,0.0,1.0,Taxi
23.8,0.13398949460047116,30.820687160707475,10.881315601775981,1.4052018352350295,0.1608364041745693,307.2136508165561,19.953660213549867,0.0,1.0,0.0,0.0,1.0,Taxi
23.900000000000002,0.11934867090298443,30.288520927393098,9.984923115421966,2.014141509999616,-0.09748102656951806,307.0135270623248,19.308186342984847,0.0,1.0,0.0,0.0,1.0,Taxi
24.0,0.19983610469639781,-23.602183479543367,9.098711876524316,1.8453681986617865,-1.1794787600689693,307.33321188648506,19.51160727125217,0.0,1.0,0.0,0.0,1.0,Taxi
24.1,0.015978577202754293,-38.37181231861923,10.115546278600336,1.5024738608263377,0.3605224045835243,307.2016689535791,19.463292285474683,0.0,1.0,0.0,0.0,1.0,Taxi
24.200000000000003,-0.07251039069011177,-10.076435718116576,8.941312101570833,1.8560278743303091,-0.5733869919040601,307.27995998376264,19.688822942954125,0.0,1.0,0.0,0.0,1.0,Taxi
24.3,0.14945392610581493,4.3896046640800535,10.368923009751812,1.6268650776222546,-0.7845412046740292,307.35729362343216,19.744490747600324,0.0,1.0,0.0,0.0,1.0,Taxi
24.400000000000002,0.0379266005231545,-11.041669756770474,9.512130890149338,1.4553180032160815,-0.2906718302304306,307.03599107348055,19.57404494421624,0.0,1.0,0.0,0.0,1.0,Taxi
24.5,-0.12771873947396423,3.127105394606256,10.994193268137739,1.6225399736847477,-0.4613901042474392,307.1153260384849,19.461842285026037,0.0,1.0,0.0,0.0,1.0,Taxi
24.6,0.16508945307884607,-14.861900456111636,9.626127478888527,1.8063789189199717,0.2279905314059089,307.0845788276648,19.433964261980456,0.0,1.0,0.0,0.0,1.0,Taxi
24.700000000000003,-0.036382901757403836,3.7726378006542447,9.635541634528515,1.5854613597342369,1.1861354935139856,306.9947026173787,19.28929548207353,0.0,1.0,0.0,0.0,1.0,Taxi
24.8,-0.10885555047069316,-30.242879923727674,9.198890891444963,1.6366555917266883,0.8978438627304685,306.9715163405308,18.892921765949065,0.0,1.0,0.0,0.0,1.0,Taxi
24.900000000000002,0.013875053460207568,-9.98847476710842,11.137814676466576,1.972466513005116,0.26074541864856055,307.075670675772,19.79167940986248,0.0,1.0,0.0,0.0,1.0,Taxi
25.0,-0.08632527559294605,23.50674041143381,10.02701788889111,1.700089839734266,0.19057296887741662,307.25612327563044,20.150748813499465,0.0,1.0,0.0,0.0,1.0,Taxi
25.1,0.00867815158647579,16.561867996286864,10.404924736803132,1.7189658439616546,-0.27265951561882695,307.1731582775335,19.539658382367815,0.0,1.0,0.0,0.0,1.0,Taxi
25.200000000000003,0.09668439344164177,7.5694899514682135,10.488217623537054,1.6588047526079308,-0.39950087138741663,307.0881012082324,19.54615354399647,0.0,1.0,0.0,0.0,1.0,Taxi
25.3,-0.048477825835605115,-14.524938191988022,10.244000559932688,1.638526171530003,0.5354152404203841,307.11408149279384,19.336398630441103,0.0,1.0,0.0,0.0,1.0,Taxi
25.400000000000002,-0.06394653937346445,-20.58598912207997,10.358660395556285,1.5474964562806341,0.313470795852872,307.1186894567343,20.123170470800524,0.0,1.0,0.0,0.0,1.0,Taxi
25.5,-0.0062455521687582,-1.925550994162658,9.375597798687387,1.579329602410919,-1.0564109524845784,307.0169807389616,19.944080129528565,0.0,1.0,0.0,0.0,1.0,Taxi
25.6,-0.05810558080641851,-21.811462625526534,10.323264044252488,1.531051006601576,0.41908985759914363,307.0988217637371,19.593037748505495,0.0,1.0,0.0,0.0,1.0,Taxi
25.700000000000003,-0.17300385250109723,-20.556465078195213,10.51803102207284,1.5104319111523605,0.4785050909234368,307.14570692421717,19.613712649146244,0.0,1.0,0.0,0.0,1.0,Taxi
25.8,-0.10902787755973437,25.261383711926012,10.131416658764474,1.6847941682936327,0.10040544432331747,307.1247607010148,19.305884818518187,0.0,1.0,0.0,0.0,1.0,Taxi
25.900000000000002,0.06820133775321141,29.12882730552008,10.414425496328992,1.8178414093136157,0.421076707509573,307.2388547059379,19.775649193786236,0.0,1.0,0.0,0.0,1.0,Taxi
26.0,-0.027359715973496943,32.267704718907986,10.49956198092971,1.61273585528127,-1.0304697260064628,307.21196223134746,19.925456946190117,0.0,1.0,0.0,0.0,1.0,Taxi
26.1,0.052310646034805425,-23.45476018395352,10.27933277379452,2.02137829295572,0.24165280639634884,307.1862139053461,19.436533779293587,0.0,1.0,0.0,0.0,1.0,Taxi
26.200000000000003,-0.04907246316655631,22.407283394424738,9.677428001287348,1.7158276809198743,-0.5655843997970222,307.1280172655113,20.039462130090484,0.0,1.0,0.0,0.0,1.0,Taxi
26.3,0.08467670099862666,-25.63736697212155,9.61419210279921,1.4728936799604624,-0.2627424173777453,307.3174250149666,19.738715675230804,0.0,1.0,0.0,0.0,1.0,Taxi
26.400000000000002,-0.07587618882580242,-19.158292726451172,10.370908534758916,1.7487084996017672,-0.6578750953987393,307.24132586102405,20.024993268216523,0.0,1.0,0.0,0.0,1.0,Taxi
26.5,-0.14486392679881227,-12.37529583298272,10.120836169985013,1.2738807873710218,-0.20345982846892746,307.1624449267571,20.200152564558355,0.0,1.0,0.0,0.0,1.0,Taxi
26.6,0.022800221833712917,18.17359234752751,10.471247926383889,1.5505409575887434,-0.12340339431855422,307.1835622022975,20.00858266650068,0.0,1.0,0.0,0.0,1.0,Taxi
26.700000000000003,0.014991772911834986,42.233408181517554,11.095590199918862,1.4343453656274399,0.10023545254408392,307.1291690966781,20.271535873598022,0.0,1.0,0.0,0.0,1.0,Taxi
26.8,0.06630311410877536,1.1308013599417184,10.708615708504684,1.5163907391684195,0.4598251582058775,307.2593832814998,20.386018445159245,0.0,1.0,0.0,0.0,1.0,Taxi
26.900000000000002,0.028454228633421383,-11.890812930088982,8.518758024983573,1.639308478341194,-0.2324175647102419,307.2464952884618,19.86961994882358,0.0,1.0,0.0,0.0,1.0,Taxi
27.0,-0.04446229173861004,-57.918070215918846,10.124843142677124,1.8722400298182955,0.10571484419103258,307.01880397325397,19.93592399561369,0.0,1.0,0.0,0.0,1.0,Taxi
27.1,-0.22328723697081898,-22.816113407059778,10.239237445843616,1.4374360626951357,-0.14552907357389053,307.27878964180616,20.92734041809985,0.0,1.0,0.0,0.0,1.0,Taxi
27.200000000000003,-0.08562633840187761,24.345253180371838,9.743946517251427,1.9738813772362989,-0.6860499229339042,307.30440431014927,19.58203886867202,0.0,1.0,0.0,0.0,1.0,Taxi
27.3,0.07726397416324904,58.54223462088109,10.00205730142192,1.2857529201563203,-0.8645354581217072,307.1720231117133,19.308934694641533,0.0,1.0,0.0,0.0,1.0,Taxi
27.400000000000002,0.06942393613358634,6.668415567431391,9.683142097621829,2.0840688980136433,0.06667425810977129,307.13546298971823,19.724889720648658,0.0,1.0,0.0,0.0,1.0,Taxi
27.5,-0.05228426056472077,-0.8000828952810176,10.725382245876158,2.117262122609218,-0.04832124654914688,307.16275290313604,19.543311835012457,0.0,1.0,0.0,0.0,1.0,Taxi
27.6,0.07326355968684384,19.801038069980564,9.114464779435908,1.6357801853579115,0.49539332698346844,307.17658177134854,19.677956237284704,0.0,1.0,0.0,0.0,1.0,Taxi
27.700000000000003,0.16842912648348904,60.67100655423687,10.476853977506579,1.506465939052206,-0.41154156973755385,307.16265356638974,19.926016960538764,0.0,1.0,0.0,0.0,1.0,Taxi
27.8,0.25107077220646346,16.11944128230711,9.965023410110364,1.801905667912437,-0.09691936505727637,306.98949831254413,19.76502046924478,0.0,1.0,0.0,0.0,1.0,Taxi
27.900000000000002,0.1538607660983793,-50.43784615445232,10.422867795546384,1.716398481696863,-0.6072850794400126,307.2320169050977,20.32967053425241,0.0,1.0,0.0,0.0,1.0,Taxi
28.0,-0.08376010428877267,-42.72210574367716,9.688602019360752,1.6092534723430747,-0.1929550971584799,307.1311937024086,20.251816176139016,0.0,1.0,0.0,0.0,1.0,Taxi
28.1,0.03746024348807749,-21.716787416585024,9.499954847789736,1.7517471040680301,0.16474694330218126,307.29185506131466,20.487950439496046,0.0,1.0,0.0,0.0,1.0,Taxi
28.200000000000003,0.04527682901545398,42.11154135493157,10.322652577809647,1.9005189913681526,0.41817384480527064,306.9932091494775,20.02378734327394,0.0,1.0,0.0,0.0,1.0,Taxi
28.3,0.126797602485885,16.91463582114832,9.925505964356065,1.5884045755223706,-0.6292985232302784,307.18431381045434,19.324835557540908,0.0,1.0,0.0,0.0,1.0,Taxi
28.400000000000002,0.12203342259381895,15.08849069276233,9.928704550049218,1.9310527558402217,-0.04815287949902532,307.27448986899844,19.877967816349372,0.0,1.0,0.0,0.0,1.0,Taxi
28.5,0.1207192824792655,-38.58034258063607,9.350368145044886,1.6046283388814555,0.17154469874453682,307.2035823758133,19.751755429381777,0.0,1.0,0.0,0.0,1.0,Taxi
28.6,-0.06610411041729546,-6.111309661302722,10.703239527713,1.528620921254571,-0.4943095786673678,307.15048641387625,19.46092394818247,0.0,1.0,0.0,0.0,1.0,Taxi
28.700000000000003,0.09147687428730523,-31.00568314771533,9.058324023130867,1.9488828196630656,-0.8601529623164228,307.32047817832347,19.886411800627435,0.0,1.0,0.0,0.0,1.0,Taxi
28.8,-0.03430913325931128,3.966955473015833,10.231276663033105,1.497872272129575,1.0814690164700076,307.09454745564744,20.28706531678366,0.0,1.0,0.0,0.0,1.0,Taxi
28.900000000000002,-0.04626933305221645,-24.85246831103167,10.341391434073156,1.5534468110822786,0.26035301674705746,307.2359234298633,19.488707682402804,0.0,1.0,0.0,0.0,1.0,Taxi
29.0,-0.03278546726785327,20.30862927724309,9.660953105509341,1.5147595214399283,-0.10859460431433049,307.1467441167133,19.745992102530927,0.0,1.0,0.0,0.0,1.0,Taxi
29.1,0.06723401312690402,52.727414104708316,10.593625433352317,1.5778306087778098,0.1293983619642739,307.04193650606317,19.81907447796284,0.0,1.0,0.0,0.0,1.0,Taxi
29.200000000000003,0.21736773747132498,36.65331763135771,9.432865626986183,1.5062535445782277,-0.4587552749164889,307.05155128973774,19.225676464306265,0.0,1.0,0.0,0.0,1.0,Taxi
29.3,0.1504811208889351,11.395137063194811,10.45365923180936,1.546955303270101,-0.042067513433009164,307.1785939963672,19.16305139420615,0.0,1.0,0.0,0.0,1.0,Taxi
29.400000000000002,0.12420969844287794,-42.74797626106252,11.195006300595317,2.0123786776151693,0.44874441130053694,307.0951061410575,19.545199248429366,0.0,1.0,0.0,0.0,1.0,Taxi
29.5,0.0036278561660122288,-34.87251306433307,11.359619127337536,1.8114806309549794,0.4904329464104937,307.0842097362819,20.25739261246683,0.0,1.0,0.0,0.0,1.0,Taxi
29.6,-0.0238814444327304,-16.72342161822238,9.087378263687249,1.4073258421835455,-0.03337000703020596,307.2847459238351,20.185131361773728,0.0,1.0,0.0,0.0,1.0,Taxi
29.700000000000003,0.040592590351765885,-1.8302169971466735,9.056866143392023,1.476963843306754,0.03022183217033491,307.10814389775703,19.771680661699506,0.0,1.0,0.0,0.0,1.0,Taxi
29.8,-0.005523228819721281,0.10491202204670043,9.518756681119235,1.5268815544051881,-0.8022947095980588,307.12200971908317,18.64026141805353,0.0,1.0,0.0,0.0,1.0,Taxi
29.900000000000002,-0.023356884322497034,-6.069670006783931,9.03644986697853,1.8633259576527457,0.10429220933055303,307.14334447668125,20.701781296595062,0.0,1.0,0.0,0.0,1.0,Taxi
30.0,0.010244240317846105,-12.61165218362269,10.168223195082367,1.7388028365121746,0.4137162848084125,307.0854056222547,21.252165960961836,0.0,1.0,0.0,0.0,1.0,Taxi
30.1,-0.06858148973783486,-6.712958762102474,10.799074260687574,1.4311558521498664,0.8572023263643893,307.2271483036118,20.45532636800643,0.0,1.0,0.0,0.0,1.0,Taxi
30.200000000000003,-0.056921678133009516,-34.841579224609355,10.406073874896226,1.8761599866520986,-0.27660703571599377,307.3220092145168,20.280556218512437,0.0,1.0,0.0,0.0,1.0,Taxi
30.3,-0.16396365580520078,2.2949242732438813,11.076423367520563,1.7871360898020616,0.6791370569303232,307.2356044529712,20.286937888945836,0.0,1.0,0.0,0.0,1.0,Taxi
30.400000000000002,-0.057106868371615584,2.4824345608903995,10.42059101613936,1.8217732214466442,0.03291784894916057,306.96761073679295,19.711030154710187,0.0,1.0,0.0,0.0,1.0,Taxi
30.5,-0.04450950532855765,4.6597812585623615,11.200312054481667,1.770535436717977,-1.046373085763686,307.0695460851164,19.23084659898838,0.0,1.0,0.0,0.0,1.0,Taxi
30.6,-0.1406647495123891,17.241278131341645,10.087865350377557,1.5538326222424073,-0.00876224102420289,307.16978620773773,20.00831145414053,0.0,1.0,0.0,0.0,1.0,Taxi
30.700000000000003,0.029099522285092484,-27.056926150561385,9.819833554192286,1.748704256020839,-0.6278464045976969,307.1214868559159,19.304477419583744,0.0,1.0,0.0,0.0,1.0,Taxi
30.8,-0.17979413608136474,4.233565094817981,9.654424716751866,1.4757407448737343,-0.33442574951703086,307.07237223822835,19.91483494692743,0.0,1.0,0.0,0.0,1.0,Taxi
30.900000000000002,-0.1194969240382994,24.92688004279499,10.617108680432823,1.448496995835829,-0.008809383897239656,307.2421052242935,20.180201483343108,0.0,1.0,0.0,0.0,1.0,Taxi
31.0,0.15373392249906725,23.793203148136012,10.80085507930492,1.7299166164673556,-0.05284336266880751,307.39845495682994,19.427902319046318,0.0,1.0,0.0,0.0,1.0,Taxi
31.1,-0.060828120340684855,38.35792633038617,9.904388380111074,1.4369696670933665,0.09945654625326357,307.0221073425703,19.992062144679586,0.0,1.0,0.0,0.0,1.0,Taxi
31.200000000000003,0.07229270761363131,2.2817298750316084,10.466654067731408,1.5676446647663835,-0.03448535815787908,307.30144826660626,19.267109091311116,0.0,1.0,0.0,0.0,1.0,Taxi
31.3,0.16514257187422515,22.95075785925917,10.215404279703003,1.6661293181406078,0.6356781180878363,307.16521823525113,20.51073388845915,0.0,1.0,0.0,0.0,1.0,Taxi
31.400000000000002,0.05392566895561084,-33.856907321180614,9.658854517370495,1.7949386378848322,0.04518914520797144,307.07211781207934,19.978391513242546,0.0,1.0,0.0,0.0,1.0,Taxi
31.5,-0.09699182899227192,-20.60034862479688,9.813522373559577,2.3587786829914394,-0.0840529333960436,307.11183282531726,19.521848510081412,0.0,1.0,0.0,0.0,1.0,Taxi
31.6,0.06214082875024062,14.372891228258737,9.018730924693848,2.0253729833827476,0.38845662410776927,307.26858284321236,19.590281718240064,0.0,1.0,0.0,0.0,1.0,Taxi
31.700000000000003,0.1257901250969044,21.880710445779915,10.55781129661263,1.4380880561259526,0.16029258332499652,307.23003902903486,20.43233737919399,0.0,1.0,0.0,0.0,1.0,Taxi
31.8,0.012411723236627535,-21.284677789046263,9.674603222010322,1.6939914821243007,0.013443647631806712,307.16048459131343,20.318766042957886,0.0,1.0,0.0,0.0,1.0,Taxi
31.900000000000002,-0.04428256019499083,-26.77291632431354,10.906084182426078,1.7137703808515334,-0.8193919122502684,307.32090045896734,18.774111001219598,0.0,1.0,0.0,0.0,1.0,Taxi
32.0,-0.008074456524663456,-10.66861590152881,10.25096654891941,1.9720474279595686,0.12565668549838208,307.0854081310356,19.794683163195955,0.0,1.0,0.0,0.0,1.0,Taxi
32.1,-0.04093135627101667,-17.828332681098598,10.581774806335055,1.7529866304501371,0.23900974676923614,307.1570958965249,20.045409553922294,0.0,1.0,0.0,0.0,1.0,Taxi
32.2,-0.13342422360048398,27.82463779482954,9.90335223179125,1.8175144346851442,-0.7436135045633995,307.0744526514767,20.096105900622202,0.0,1.0,0.0,0.0,1.0,Taxi
32.300000000000004,0.1310487324494841,13.514090349035234,10.503633411582607,1.686332207613604,0.07986116719334842,307.13906285922735,19.613232452168784,0.0,1.0,0.0,0.0,1.0,Taxi
32.4,0.026639095474159342,28.13465948453774,9.62261599997357,1.6484788821188718,-0.12997915274993743,307.215302788881,20.065052954226566,0.0,1.0,0.0,0.0,1.0,Taxi
32.5,0.0072490738222045605,-51.234199509715644,10.28864559700602,1.709573724479522,0.3376334142930475,307.12337582907287,19.340351096145227,0.0,1.0,0.0,0.0,1.0,Taxi
32.6,-0.12512226509909435,-17.292170527964984,9.805426313233733,2.0025536935769663,0.38543788120040756,307.1144963168472,20.365891479161675,0.0,1.0,0.0,0.0,1.0,Taxi
32.7,-0.05982175716566576,-15.917515593656686,10.127043124881679,1.8614364732713131,0.42095373027195276,307.336185598322,19.61879047888785,0.0,1.0,0.0,0.0,1.0,Taxi
32.800000000000004,-0.07233850414607905,47.526125119611685,10.119614802197201,1.408571411176472,-0.6690297461599367,307.2092980779057,19.347974953923792,0.0,1.0,0.0,0.0,1.0,Taxi
32.9,0.11250836049896384,5.4661436979459905,10.134224204209218,1.8168194937775828,-0.602790119428213,307.0848642104809,19.44869100549331,0.0,1.0,0.0,0.0,1.0,Taxi
33.0,-0.03249103867593602,-13.462668350912914,11.179060078614809,1.6922614792165482,-0.9442718675134845,307.06963995112346,19.48182143621136,0.0,1.0,0.0,0.0,1.0,Taxi
33.1,-0.13965184590064383,-12.971802090242727,10.034003383913914,1.7032081768551597,-0.0357197097680558,307.23891671839397,19.703510779023983,0.0,1.0,0.0,0.0,1.0,Taxi
33.2,0.047649350047750026,23.717687083236743,9.843571641324035,1.5412452789659041,-0.16751294979070674,307.22289729680153,19.492349801230052,0.0,1.0,0.0,0.0,1.0,Taxi
33.300000000000004,0.08609739674024752,-6.629198816422426,9.974389613634328,1.3938708707434486,-0.314334242689622,306.904433483248,20.26446987989773,0.0,1.0,0.0,0.0,1.0,Taxi
33.4,-0.1727978399827561,-51.81170939007409,9.429858611657021,1.726562413452078,0.7634376752819912,307.2562751902001,19.882661869246313,0.0,1.0,0.0,0.0,1.0,Taxi
33.5,-0.21140919690262053,28.353446185679825,10.521823593456057,1.9038459625666795,-0.6107123705668689,307.19587768431495,20.041486539016358,0.0,1.0,0.0,0.0,1.0,Taxi
33.6,0.22786462766864657,23.24255241158018,9.540139127738547,1.4279874471147311,-0.2648050387433707,306.93252424855416,19.247743919342604,0.0,1.0,0.0,0.0,1.0,Taxi
33.7,-0.0565850779248553,35.86646475078217,9.884370116377559,1.7859869605050904,-0.44116453444615145,307.0323321087543,19.68028533359302,0.0,1.0,0.0,0.0,1.0,Taxi
33.800000000000004,-0.03207687314870979,-90.79200375910955,9.554556527507534,1.8716624972661977,1.3070866895066553,307.1967985444203,19.61680256388226,0.0,1.0,0.0,0.0,1.0,Taxi
33.9,-0.22609539112690136,0.6504378360800066,9.851914438341185,1.6295942340021472,-0.38765048783363454,307.036182216179,19.89591720681301,0.0,1.0,0.0,0.0,1.0,Taxi
34.0,-0.05333288874445544,4.685670377663899,8.989676282958525,1.234712268776256,0.7412631804480174,307.2882122740482,19.240131531039662,0.0,1.0,0.0,0.0,1.0,Taxi
34.1,-0.008648521260390464,58.836682787352,10.267940004338573,1.316909796124941,-0.20843300273065873,307.20907398302575,19.511836700904873,0.0,1.0,0.0,0.0,1.0,Taxi
34.2,0.06808802280985847,-30.314120122036837,8.98166412949278,1.6556825518547023,-0.22376865038326924,307.20914329085326,19.194931711116713,0.0,1.0,0.0,0.0,1.0,Taxi
34.300000000000004,-0.20490348935463976,-6.888986386367459,11.401342306305658,1.6081929235395145,-0.4027086546299946,307.19749849877235,19.91719113835583,0.0,1.0,0.0,0.0,1.0,Taxi
34.4,-0.04309345319222789,2.8236478342736766,9.845307433689637,1.6022609875543858,-0.26211513038282064,307.1056513006372,19.742457975185634,0.0,1.0,0.0,0.0,1.0,Taxi
34.5,0.08220626198122674,45.73365122818783,10.791299872934282,1.671764258486218,0.24145589908522797,307.1540895334458,19.339537227006232,0.0,1.0,0.0,0.0,1.0,Taxi
34.6,0.023764766786299307,8.613732280788744,9.655407720978193,1.8249036177112405,0.26189093119192464,307.2336243570578,19.877822751744468,0.0,1.0,0.0,0.0,1.0,Taxi
34.7,-2.4791788284316254e-05,-25.499704832249517,10.231856886585192,1.7991385077726019,-0.5122143325810915,307.0552938425931,20.00591192938331,0.0,1.0,0.0,0.0,1.0,Taxi
34.800000000000004,-0.04529226218002099,11.261032472227805,9.490180385256288,2.034564400433185,-0.7488166446681191,307.2278174606512,19.32458673443303,0.0,1.0,0.0,0.0,1.0,Taxi
34.9,0.0800699291474382,-42.74141248395943,11.685648612687082,1.9774472783835395,-0.32320339103083956,307.12396332946196,19.340117199922965,0.0,1.0,0.0,0.0,1.0,Taxi
35.0,-0.2137318542080816,-30.79897402333709,9.805784856249012,1.7307513870936382,0.4736776422547923,307.1431539593681,20.246564611346155,0.0,1.0,0.0,0.0,1.0,Taxi
35.1,-0.19928713229670658,-4.057330168401241,10.902061584445647,1.5462533577430582,0.7115818901275142,307.15495892742183,19.18561959927278,0.0,1.0,0.0,0.0,1.0,Taxi
35.2,0.059783278305431856,47.155881777468615,10.964762592094784,1.6624642727639927,-0.753802142907081,307.2608762426387,21.119312473523806,0.0,1.0,0.0,0.0,1.0,Taxi
35.300000000000004,0.02204755467926134,44.073888122828805,10.252266536480185,1.940858791539378,0.42304963428482384,307.17301214341353,20.052335712230548,0.0,1.0,0.0,0.0,1.0,Taxi
35.4,0.021082308317437296,-24.386542649481047,8.52290031278545,1.899612797925517,-0.7765167151952197,307.22828239783576,19.827351663492557,0.0,1.0,0.0,0.0,1.0,Taxi
