time_s,altitude_ft,vertical_speed_fpm,ias_kt,pitch_deg,roll_deg,heading_deg,throttle_pct,afterburner_on,gear_down,flaps_deg,speedbrake_pct,weight_on_wheels,label
0.0,-0.17015783581301205,24.07896638454648,6.976824668380785,0.32331122218853425,-0.17422522944481325,130.30170445940206,19.288714192523848,0.0,1.0,0.0,0.0,1.0,Taxi
0.1,-0.08989461453119046,28.68221685798356,7.024869336463745,0.7911779750585238,0.1608514607605542,130.46374731625605,20.374990161471477,0.0,1.0,0.0,0.0,1.0,Taxi
0.2,-0.026746751523094293,15.57769610834121,7.643555140384171,0.6616615776032571,0.2963018986292971,130.28352892589692,20.3117202223845,0.0,1.0,0.0,0.0,1.0,Taxi
0.30000000000000004,-0.09226935527130602,-1.5321184387345637,7.304900343430542,0.5679574323518157,0.7695841840091681,130.42191668460862,20.123589119193976,0.0,1.0,0.0,0.0,1.0,Taxi
0.4,-0.09755520672486329,0.6719154980576411,6.8298229409438385,0.9108159637703267,-0.3933844936488367,130.57853625914072,20.406924651881827,0.0,1.0,0.0,0.0,1.0,Taxi
0.5,-0.023387174032806067,28.183509426276334,7.62698722793934,0.6291303417068634,0.04007351712814196,130.4112006568123,20.15621920726958,0.0,1.0,0.0,0.0,1.0,Taxi
0.6000000000000001,0.04864819186007569,7.889630133917787,5.890442915440599,0.6651484347414484,-0.3891884838631337,130.50249442840158,19.71829075371512,0.0,1.0,0.0,0.0,1.0,Taxi
0.7000000000000001,-0.05810705605527431,-0.5603308716125189,8.08448346796578,0.5943267780277967,-0.46029290358337416,130.4439624878891,20.343602730318427,0.0,1.0,0.0,0.0,1.0,Taxi
0.8,-0.026188828390868637,-3.7926221290283473,7.263914639157814,0.9605997938296457,0.39332730854987924,130.36365839761174,20.1681114348751,0.0,1.0,0.0,0.0,1.0,Taxi
0.9,0.02968508121493396,14.435102700173472,6.704316689966319,0.4310087518913653,-0.7394801753098242,130.47107166394255,19.871331095743283,0.0,1.0,0.0,0.0,1.0,Taxi
1.0,0.014068457445593036,18.767636014452872,6.292369880815113,0.5211872734525703,-0.054911956429631884,130.25670947696688,19.89571015201598,0.0,1.0,0.0,0.0,1.0,Taxi
1.1,0.06764935168139571,-1.271227453657854,7.421584585719141,0.7524441481168029,0.0040070178415468295,130.45157114511522,20.16487191459923,0.0,1.0,0.0,0.0,1.0,Taxi
1.2000000000000002,0.02332894394664469,5.204319166945277,7.936813855056305,0.6072943792068043,0.7572832390505282,130.30525887302701,19.238442758040872,0.0,1.0,0.0,0.0,1.0,Taxi
1.3,0.04009005328031942,-20.95477379981569,6.833463748282702,0.6130701201423095,-0.03753420081213929,130.39623841541066,19.749691785639953,0.0,1.0,0.0,0.0,1.0,Taxi
1.4000000000000001,-0.037124517317682744,-15.664556934118776,7.825581252459272,0.782993812489537,-0.34330202152275013,130.477458106904,19.29765960639259,0.0,1.0,0.0,0.0,1.0,Taxi
1.5,-0.054993840723949194,14.75279982012014,5.853020771001882,0.9292799973686858,0.8990296942218432,130.50867137092268,18.965849570180556,0.0,1.0,0.0,0.0,1.0,Taxi
1.6,0.11385405238092013,14.862044438744912,7.754284187031259,0.5084574547511671,-0.31479482971741274,130.53247227357622,20.689673569935636,0.0,1.0,0.0,0.0,1.0,Taxi
1.7000000000000002,0.03718570487604181,19.875320952747273,6.6355700968468305,0.568422944993056,0.7318234905086644,130.46097894698096,19.703747761859915,0.0,1.0,0.0,0.0,1.0,Taxi
1.8,0.04438276403978716,-21.096789115279876,7.47924211477853,0.46885287122248576,-0.21417949001490139,130.43475727774666,19.59069076828095,0.0,1.0,0.0,0.0,1.0,Taxi
1.9000000000000001,0.008370106804520753,-30.34680635310976,7.279195547432141,0.41845906787932896,0.7266436397799313,130.17082708895816,20.191312140577157,0.0,1.0,0.0,0.0,1.0,Taxi
2.0,-0.114548326889507,28.276216618301433,8.32990698702491,0.6704721698601407,-0.3446686583376187,130.42237314126828,19.70960682240459,0.0,1.0,0.0,0.0,1.0,Taxi
2.1,0.18576384713129432,16.319799472177568,7.459781753488541,0.7687220728340237,-0.30174856070775835,130.43246073558026,19.653503194578786,0.0,1.0,0.0,0.0,1.0,Taxi
2.2,0.0899691041654086,10.099595921746692,8.168979116758848,0.7822015659742513,-1.114130380738562,130.34824528959894,20.14019271446569,0.0,1.0,0.0,0.0,1.0,Taxi
2.3000000000000003,-0.06405034728077351,-21.7002433359158,6.620302025087909,0.6078985813029718,-0.28581498776091835,130.64133864264295,19.99680982444635,0.0,1.0,0.0,0.0,1.0,Taxi
2.4000000000000004,0.07726263045171528,-4.709708777851658,6.585529344451472,0.5902517613705854,-0.868691628220198,130.2759123739704,20.66559732619905,0.0,1.0,0.0,0.0,1.0,Taxi
2.5,0.06642056027615026,-2.252663657617243,8.167759815175778,0.45018564572239944,-0.41047206723064256,130.35056882997185,20.80355342651998,0.0,1.0,0.0,0.0,1.0,Taxi
2.6,-0.0753136655688598,-21.852919439107513,7.753381927161282,0.5642915478848731,0.5817737123604949,130.238925599244,20.18645798473861,0.0,1.0,0.0,0.0,1.0,Taxi
2.7,-0.03200196674382234,-18.442187205897355,6.581044698910193,0.45931198464858397,-0.45408234540436077,130.43132075816152,20.46102970180477,0.0,1.0,0.0,0.0,1.0,Taxi
2.8000000000000003,-0.025790375753336543,42.00161575800328,6.8936445021161665,0.6120366892310547,-0.24173157714947416,130.52179955717094,19.415869597419942,0.0,1.0,0.0,0.0,1.0,Taxi
2.9000000000000004,0.1346944132211566,-15.597447236982424,6.34755363576295,0.5686506762536102,-0.37977180335641264,130.46639203811378,20.027861201594984,0.0,1.0,0.0,0.0,1.0,Taxi
3.0,-0.10998920292873443,12.45921087303446,7.617684452467394,0.04916665896288097,0.06502284387909905,130.46244981729126,20.09642651205239,0.0,1.0,0.0,0.0,1.0,Taxi
3.1,0.03650567861183576,-44.67410083402681,7.443560380780507,0.9322318465529422,-0.3222613436919919,130.4962409168836,19.77270609260432,0.0,1.0,0.0,0.0,1.0,Taxi
3.2,-0.08867609094897748,-10.476917887885078,6.900091692753759,0.5300124781824617,-0.6781212156699122,130.4055581158364,20.267988522124927,0.0,1.0,0.0,0.0,1.0,Taxi
3.3000000000000003,-0.16237379236815985,-27.124189487725186,7.119897334403117,0.291325488832046,-0.4377437270532196,130.46908977801388,19.309775286586945,0.0,1.0,0.0,0.0,1.0,Taxi
3.4000000000000004,-0.0991152688267902,29.730990949324035,6.806005754705238,0.2759336461756019,0.32542147073765487,130.60099830375748,19.33998156574981,0.0,1.0,0.0,0.0,1.0,Taxi
3.5,0.05997886379764264,78.0058031813828,7.083608293923146,0.5985021985115286,0.04445376564042824,130.3503895585344,19.75895635735344,0.0,1.0,0.0,0.0,1.0,Taxi
3.6,0.2276552235387541,23.03136411884059,7.781940921208118,0.5634082058114677,0.3198376117263804,130.4848029358546,18.958754333874374,0.0,1.0,0.0,0.0,1.0,Taxi
3.7,0.016041551767412718,-30.267272562915007,7.6559920721803065,0.3932666066077974,0.10291473756164347,130.62463121081555,20.30497530038737,0.0,1.0,0.0,0.0,1.0,Taxi
3.8000000000000003,-0.09135749901693241,-41.71143315571951,7.525362356684014,0.5930356793684478,0.28984405090048504,130.47777320921807,19.408763128410484,0.0,1.0,0.0,0.0,1.0,Taxi
3.9000000000000004,0.01909805776015657,16.63050400522383,8.20542844160957,0.2956632402990597,0.3118362434954489,130.33502091179707,19.462991198056006,0.0,1.0,0.0,0.0,1.0,Taxi
4.0,0.09919407179353185,35.104600415796696,7.450470598701285,0.8148878496030052,-0.7040210446821847,130.59409341844184,20.123487358065084,0.0,1.0,0.0,0.0,1.0,Taxi
4.1000000000000005,0.08416550306205105,-32.98559970221708,6.862073875959668,0.5971212860398827,-0.22322259834801156,130.2935290423619,19.39944497045523,0.0,1.0,0.0,0.0,1.0,Taxi
4.2,-0.1458299407509289,-29.11066776046304,7.6377311780375585,0.4569771485542128,-0.10663506251604801,130.349951444716,19.50613622717699,0.0,1.0,0.0,0.0,1.0,Taxi
4.3,-0.04635926700878343,-24.45288136733235,6.952056601673734,0.16907538337072436,-0.22454038358193742,130.28034656734417,20.006942994273228,0.0,1.0,0.0,0.0,1.0,Taxi
4.4,-0.03809890377461078,18.980976968699128,7.443831717273432,0.9213386417373364,0.13517926689521773,130.53304991397476,19.623724711474,0.0,1.0,0.0,0.0,1.0,Taxi
4.5,-0.05092505590743329,-13.518974448227333,7.69910144855721,0.4732552429800826,-0.7664113825767822,130.2239099015854,19.837368945869464,0.0,1.0,0.0,0.0,1.0,Taxi
4.6000000000000005,-0.11395413924992014,-36.49215611334943,7.162093582546425,0.6314945521866442,1.0643427003241404,130.36410983615679,19.336773111547426,0.0,1.0,0.0,0.0,1.0,Taxi
4.7,-0.22055968434135798,14.577130247999682,7.41300242801567,0.47920585029290963,0.33104446177314045,130.30825519838788,19.14050114128655,0.0,1.0,0.0,0.0,1.0,Taxi
4.800000000000001,0.02196059533256502,14.81674841229234,6.634894901550163,0.6662865584529156,-0.5172265400692887,130.56792164581157,20.250788200606383,0.0,1.0,0.0,0.0,1.0,Taxi
4.9,-0.03987039718845854,43.36759327458642,7.134894529729465,0.9797081753807477,-0.1953848448122493,130.2892675964501,19.33866515788021,0.0,1.0,0.0,0.0,1.0,Taxi
5.0,-0.003721717968426026,-33.67631998009409,6.99400334063871,0.5672696073782,0.6357157902591599,130.35869080078078,19.634810038393372,0.0,1.0,0.0,0.0,1.0,Taxi
5.1000000000000005,-0.1464210045679055,30.405734038900135,7.513384300358719,0.46746483278108547,0.9422086458474135,130.3500649971176,19.133827814654804,0.0,1.0,0.0,0.0,1.0,Taxi
5.2,0.11215827300604209,-2.3081201177268156,7.192110652034957,0.5293450200086376,0.2423494196930455,130.43225143354869,19.660755229202383,0.0,1.0,0.0,0.0,1.0,Taxi
5.300000000000001,-0.015262318557060145,29.007064440352,8.088178030486445,0.4449270413946451,-1.0048508505865141,130.29487984816853,20.19911765170001,0.0,1.0,0.0,0.0,1.0,Taxi
5.4,-0.0013856823661455363,-20.05617566090608,6.311398155340337,0.5685102677278512,0.5044038729914582,130.3339966761813,19.630838929900168,0.0,1.0,0.0,0.0,1.0,Taxi
5.5,0.011877394701511619,-15.525805809569666,6.39461106582884,0.2809952878678939,-0.013397443555054893,130.35166750161773,19.43390617641503,0.0,1.0,0.0,0.0,1.0,Taxi
5.6000000000000005,-0.09289134760490854,-8.026205205865484,8.57862501163703,0.5967932946685381,0.004700946691516981,130.44648536251702,19.144110994771538,0.0,1.0,0.0,0.0,1.0,Taxi
5.7,-0.041516708395473015,-65.32957363612442,6.722520760508182,0.26553513300040504,-0.4156241594115583,130.46690573183832,19.516054588072247,0.0,1.0,0.0,0.0,1.0,Taxi
5.800000000000001,-0.3147704734791106,32.377343078875505,6.726001997699769,0.2904674277657166,-0.7228906429571996,130.40288542578787,20.20037287728592,0.0,1.0,0.0,0.0,1.0,Taxi
5.9,0.06899536778946892,11.14976762794421,8.533113979798516,0.6255093478476191,-0.34649450644405755,130.45823652685488,19.55301462181305,0.0,1.0,0.0,0.0,1.0,Taxi
6.0,0.014232129744247937,35.053939517164075,8.01921256250202,0.7355990800029102,0.17421664442472334,130.50907787863116,20.26606406896322,0.0,1.0,0.0,0.0,1.0,Taxi
6.1000000000000005,-0.1395007758932903,-1.3949714875558452,7.881248227346698,0.19501142626684315,0.4795423060453154,130.61983641088796,19.992045515207966,0.0,1.0,0.0,0.0,1.0,Taxi
6.2,0.06202051035168962,11.597707593166012,6.982037632392123,0.06725786265847333,-0.3220491108142219,130.4419569123586,20.64658694562486,0.0,1.0,0.0,0.0,1.0,Taxi
6.300000000000001,0.07222066771007793,40.29917326371852,7.286640202335519,0.6020886589798365,0.056640849675775165,130.4339949670188,19.479827039960085,0.0,1.0,0.0,0.0,1.0,Taxi
6.4,0.06199509042530224,-47.10236792205445,7.0370762130346325,0.5210700092979984,-1.2349574882409569,130.46508252834258,20.051412334951415,0.0,1.0,0.0,0.0,1.0,Taxi
6.5,-0.1734913292585827,-7.546499822723097,7.341105224393263,0.7147953848702773,-0.319097939947391,130.62088857232806,19.390657463023366,0.0,1.0,0.0,0.0,1.0,Taxi
6.6000000000000005,0.03448816859646237,14.850266442937837,8.013207108657914,0.6891275653405823,0.3830952003859494,130.48724179068165,18.883989262818506,0.0,1.0,0.0,0.0,1.0,Taxi
6.7,0.13624642263999134,11.574439234266142,6.6923341929300335,0.4655202267438741,0.9159003873544288,130.40104170217103,20.067555848141748,0.0,1.0,0.0,0.0,1.0,Taxi
6.800000000000001,-0.11561913308725214,1.0531671116112686,7.10298413053366,0.6632934941962946,0.6417748208642491,130.2729696211286,19.94365606177557,0.0,1.0,0.0,0.0,1.0,Taxi
6.9,0.039754004154518574,-47.98409167683303,6.72014000095753,0.5213001721957337,-0.8259684004844995,130.5479557475158,19.849160507725244,0.0,1.0,0.0,0.0,1.0,Taxi
7.0,-0.10367403574417396,11.276675760893683,7.348809993824265,0.8148992490861762,0.22590046491942845,130.4378690254714,19.659309341488466,0.0,1.0,0.0,0.0,1.0,Taxi
7.1000000000000005,-0.05923575428278385,-6.767734215390564,7.730055242251869,0.6043957464409262,0.7801407700946797,130.30550317303346,20.619261480984537,0.0,1.0,0.0,0.0,1.0,Taxi
7.2,0.0059153330775656154,49.88229643880171,7.228755759807576,0.49199052063774945,0.4222384904743153,130.35241680290255,19.964082401427,0.0,1.0,0.0,0.0,1.0,Taxi
7.300000000000001,0.1457374464498345,-23.040071647908007,7.402448765733983,0.6028757166241866,0.3714424666165126,130.44257520154542,19.8073536167228,0.0,1.0,0.0,0.0,1.0,Taxi
7.4,-0.17443611252232405,-23.260385675407576,8.312716167421895,0.6126944869472752,0.3545177531130488,130.3949237284907,20.059123194778444,0.0,1.0,0.0,0.0,1.0,Taxi
7.5,-0.11038659529947244,-7.048627115728503,7.294932871088111,0.8351872736279418,-0.014241479482888359,130.2156987826143,20.609728324429234,0.0,1.0,0.0,0.0,1.0,Taxi
7.6000000000000005,0.11049431087119188,46.7866928941003,6.415092252915759,0.6363712465679628,0.0879156428820019,130.37627137525112,19.77240522762046,0.0,1.0,0.0,0.0,1.0,Taxi
7.7,0.05949735194817734,43.46750245035458,7.16892720276841,0.2962275814121088,-0.8334216873636021,130.18208784239175,20.231548032584143,0.0,1.0,0.0,0.0,1.0,Taxi
7.800000000000001,0.10695091695230037,-39.366768132546284,7.284376612311133,0.8341249440208014,-0.1902769494685459,130.42138173753995,19.69740586508209,0.0,1.0,0.0,0.0,1.0,Taxi
7.9,-0.0863395297915397,18.82622502906094,6.899710373659992,0.6338663637735135,0.04204624910533666,130.3770574944507,20.05160226202389,0.0,1.0,0.0,0.0,1.0,Taxi
8.0,0.15362847709348187,-20.18062879392734,7.817571629617237,0.5503742348146631,0.36318357034812976,130.59624958965253,20.338633801454243,0.0,1.0,0.0,0.0,1.0,Taxi
8.1,0.006047772982663514,7.990181354514079,7.46736353935958,1.0352145847463736,-1.0154566316232663,130.29745757994715,19.812287075754753,0.0,1.0,0.0,0.0,1.0,Taxi
8.200000000000001,-0.04638862301896945,-27.273940757942142,8.384828516062324,0.6477771568035771,0.02765027225525531,130.3583666020897,21.16671461447784,0.0,1.0,0.0,0.0,1.0,Taxi
8.3,0.017258773303771038,37.873146990816565,7.046565509950859,0.31287208926755505,-1.2432225048162062,130.50928375999,20.085209622573817,0.0,1.0,0.0,0.0,1.0,Taxi
8.4,0.1954135079367462,-4.863975165707511,6.878897100925027,0.25312250847572976,0.03467588417611108,130.3481473305668,20.045851754771764,0.0,1.0,0.0,0.0,1.0,Taxi
8.5,-0.07070849884750718,-5.216203950819394,8.431303422475162,0.4506568969044996,0.33350526595813057,130.42581931159833,20.182438552034395,0.0,1.0,0.0,0.0,1.0,Taxi
8.6,-0.008822246450326109,-71.40720468352806,7.205824164062106,0.23230003780193764,-0.5640021534046568,130.44621757555592,19.98714117848588,0.0,1.0,0.0,0.0,1.0,Taxi
8.700000000000001,-0.16162251548089435,-10.013666316537178,6.299789208133106,0.7172418922760041,0.6658612297423149,130.4623307412337,20.439308037946535,0.0,1.0,0.0,0.0,1.0,Taxi
8.8,-0.12077683043019323,5.8928922409327145,7.197402636496852,0.49652564125771675,0.3389648679761871,130.29756619642956,19.61616303824955,0.0,1.0,0.0,0.0,1.0,Taxi
8.9,0.020642214754337338,-1.6905865469984036,7.771418995171516,0.25740216048524345,0.4537829794612776,130.5093549295441,20.22924187277538,0.0,1.0,0.0,0.0,1.0,Taxi
9.0,-0.17007544821588647,30.972698785560578,7.573395430238666,0.3592748449399549,0.1977551283007287,130.61421959575273,20.0933417744568,0.0,1.0,0.0,0.0,1.0,Taxi
9.1,0.03408666349760955,-26.540634056456664,8.379895163428744,0.3320811870885573,-0.45368225995679734,130.3712349443531,19.142254738597718,0.0,1.0,0.0,0.0,1.0,Taxi
9.200000000000001,-0.11206095552794611,27.17782756910204,7.125925989467632,0.6467933100164158,-1.1645272205475776,130.45478045973618,19.68577671606999,0.0,1.0,0.0,0.0,1.0,Taxi
9.3,-0.03418631037037637,-19.070082215235185,7.224927912253518,0.38347511519698296,-0.01511757302601971,130.3532085476964,19.26528982389301,0.0,1.0,0.0,0.0,1.0,Taxi
9.4,-0.06126374757856648,7.700506035678459,7.500636792831827,0.44095213061847294,-1.1139136074910425,130.3619314858322,19.771178300061994,0.0,1.0,0.0,0.0,1.0,Taxi
9.5,-0.07355842534955391,-8.238046932978817,7.3773148578004175,0.40575573200857573,-0.3374534746494255,130.57634772901196,19.045457233712714,0.0,1.0,0.0,0.0,1.0,Taxi
9.600000000000001,-0.07537654503527057,-4.6707587642050195,7.561475454971004,0.2761776657378145,-0.9668545100737208,130.43840733723374,20.71953068561781,0.0,1.0,0.0,0.0,1.0,Taxi
9.700000000000001,-0.0846175413995917,10.45688238660538,7.908358717251985,1.034754095641161,0.07286615454097906,130.55549165509154,20.455579852573404,0.0,1.0,0.0,0.0,1.0,Taxi
9.8,-0.021274013416527127,1.2428717988281868,7.876217729151823,0.8542383070049205,0.7165479141328521,130.56759339298014,20.79063427731797,0.0,1.0,0.0,0.0,1.0,Taxi
9.9,-0.06916218604112975,9.320338242002178,6.999546160439319,0.4256739112535085,-0.9352417250507719,130.3789503183824,20.19165460698545,0.0,1.0,0.0,0.0,1.0,Taxi
10.0,-0.038015850189580924,1.2217199559061551,7.467538172853244,0.9685790159379506,0.5257830360575851,130.44866833585525,19.64117553364177,0.0,1.0,0.0,0.0,1.0,Taxi
10.100000000000001,-0.015165413636996472,-4.214776477194708,8.120097364014914,0.638140017092597,0.6180239698406003,130.3112804404401,19.050502110586223,0.0,1.0,0.0,0.0,1.0,Taxi
10.200000000000001,-0.09023606842710341,13.050179335844424,7.830729086152436,0.8407052906307095,-0.3196280619430171,130.60683860419692,19.832864590664727,0.0,1.0,0.0,0.0,1.0,Taxi
10.3,0.02723504648964105,10.559223170495066,7.617531084279649,0.5307800109796778,0.4286327199916343,130.3747813022129,20.153025106850222,0.0,1.0,0.0,0.0,1.0,Taxi
10.4,0.03763070221547871,20.723698085681864,7.213682013485795,0.6654877419498999,0.047336640575690814,130.42311825192928,20.526703101114464,0.0,1.0,0.0,0.0,1.0,Taxi
10.5,0.013382422001305759,-2.1713103135820764,8.211120242369763,0.5000936386732792,-0.717927469724361,130.4803137937845,19.76294700505156,0.0,1.0,0.0,0.0,1.0,Taxi
10.600000000000001,0.016378494921730557,-9.924918761911758,7.133644348566133,0.45048272214681273,-0.009880905563248792,130.331465877754,20.27132296394314,0.0,1.0,0.0,0.0,1.0,Taxi
10.700000000000001,-0.011993891594080187,8.29808303328995,7.266525165758176,0.4913690436226147,-0.5717439225428338,130.56324307963695,19.790598082583514,0.0,1.0,0.0,0.0,1.0,Taxi
10.8,0.0548728371677554,-11.401884197649238,6.603316402519694,0.8126849068903279,-0.6782089962025425,130.1873074523607,20.523765215299687,0.0,1.0,0.0,0.0,1.0,Taxi
10.9,-0.040630926066515735,-46.13041199260005,7.2397994349743175,0.3949485013952173,-0.20296892020788834,130.35466824573848,19.652687523994402,0.0,1.0,0.0,0.0,1.0,Taxi
11.0,-0.24264595155708057,25.110773662511672,7.441406315894724,0.846737800007347,-0.5627883422438731,130.46038377609494,19.07415445359495,0.0,1.0,0.0,0.0,1.0,Taxi
11.100000000000001,0.1804267054803137,23.611065977210714,8.496643576300144,0.8823947906335969,-0.35099316974166234,130.57320603838173,19.98177276267121,0.0,1.0,0.0,0.0,1.0,Taxi
11.200000000000001,0.07742440381953775,79.86816326620296,8.635379067406383,0.8042309945422552,-0.6269998105060689,130.33810148115958,19.354727833968717,0.0,1.0,0.0,0.0,1.0,Taxi
11.3,0.15669486477393416,-59.63627552838117,7.918974070762121,0.8073855272762648,0.5750845304570664,130.5158429725376,20.20627057121763,0.0,1.0,0.0,0.0,1.0,Taxi
11.4,-0.11775467216159222,-20.123675144042604,6.767581535980934,0.7358894555308761,-0.2868511082865161,130.42855179597586,20.792920173945877,0.0,1.0,0.0,0.0,1.0,Taxi
11.5,-0.023193971900675313,-29.011109800679893,7.198907894419358,0.35612613245170677,0.47453566793156166,130.17690610991212,19.59550992294996,0.0,1.0,0.0,0.0,1.0,Taxi
11.600000000000001,0.011639315770534623,38.522030293016925,7.503471120094868,0.7558618945969242,-0.5778250845768543,130.52239372872543,20.087257937309378,0.0,1.0,0.0,0.0,1.0,Taxi
11.700000000000001,0.07485547930349234,-17.584342471436603,5.895923126014691,0.2092370323746906,-0.16470392043607512,130.50025368130292,20.08660506277351,0.0,1.0,0.0,0.0,1.0,Taxi
11.8,-0.1111156842578584,-12.227463345738707,7.346034819202675,0.6857305427139381,0.44954642506624826,130.3475894798014,19.3756731001019,0.0,1.0,0.0,0.0,1.0,Taxi
11.9,-0.049498000958158955,-45.02004764941639,7.427341145541195,0.3944839552114432,-0.6304423836877107,130.4137122164584,19.887848359178705,0.0,1.0,0.0,0.0,1.0,Taxi
12.0,-0.15024475894358966,-14.008581992483956,6.713222851368218,0.574083082265025,-0.35054960844795674,130.3672744897035,19.536123460929307,0.0,1.0,0.0,0.0,1.0,Taxi
12.100000000000001,-0.18115859422027825,37.06126712713547,6.823137290957427,0.6847098701622529,0.21408297754464004,130.3944191009366,19.73704827315169,0.0,1.0,0.0,0.0,1.0,Taxi
12.200000000000001,0.13580833467751835,40.41216748521455,7.052024805700637,0.7784372344490177,-0.3300632508702586,130.2807751952048,19.884675747833793,0.0,1.0,0.0,0.0,1.0,Taxi
12.3,0.051816078482483055,21.577830797370655,8.774218704328828,0.8320896966983675,0.5543677766807441,130.4317134975995,20.216053933798797,0.0,1.0,0.0,0.0,1.0,Taxi
12.4,-0.07326944023342502,-47.59614850447968,6.728467384863809,0.7832498563930562,-0.18423289587738895,130.55258329487077,19.954133944938807,0.0,1.0,0.0,0.0,1.0,Taxi
12.5,-0.10217240784488012,-29.019561902426233,7.347376573886241,0.29521274346943455,0.5290244884252068,130.4431621108186,20.433273143080232,0.0,1.0,0.0,0.0,1.0,Taxi
12.600000000000001,-0.09328173102964822,31.452166001373556,7.258715146002784,0.46353681893993026,0.15094014264749564,130.43532564179105,19.963463650367757,0.0,1.0,0.0,0.0,1.0,Taxi
12.700000000000001,0.08399138977344264,11.95121042158369,7.008315731586437,0.8728551763510848,0.17115979541248458,130.57409526248443,20.0768531816593,0.0,1.0,0.0,0.0,1.0,Taxi
12.8,-0.042416355736961765,29.793213898799724,7.2772628674384086,0.41243346921786694,-0.9028888240896414,130.40371372067102,19.417484703313917,0.0,1.0,0.0,0.0,1.0,Taxi
12.9,0.05568433846435031,-40.043173732106276,6.6892315269935505,0.5218610410575113,-0.15968727095223284,130.37153230894046,18.759220910723766,0.0,1.0,0.0,0.0,1.0,Taxi
13.0,-0.11622447888708885,-0.8121370804323504,6.696255587422991,0.43111518134397725,0.7925291261128498,130.39096472929094,20.215497110612585,0.0,1.0,0.0,0.0,1.0,Taxi
13.100000000000001,-0.046477041139123626,14.49974192842896,7.58574602860985,0.7861709665948458,0.0718188022336833,130.25036640954028,21.948071684632932,0.0,1.0,0.0,0.0,1.0,Taxi
13.200000000000001,0.128183048106495,20.266539940848194,7.1197908680082405,0.5229973450414599,-0.2624217088979658,130.45972090671307,19.62457085118562,0.0,1.0,0.0,0.0,1.0,Taxi
13.3,-0.01489177918284796,28.006034177135916,7.702179800100871,0.6339275331605315,0.2339769941175219,130.25453004271736,19.53787147688964,0.0,1.0,0.0,0.0,1.0,Taxi
13.4,0.09355312974655589,-32.462997613663134,7.142695160110158,0.6798409716876974,-0.19323167259033908,130.30618608578766,19.308578396743385,0.0,1.0,0.0,0.0,1.0,Taxi
13.5,-0.03413193996182075,30.153053427403602,8.051008577871814,0.5929254930172807,0.34567004864339806,130.54487970672528,19.392176608359204,0.0,1.0,0.0,0.0,1.0,Taxi
13.600000000000001,0.13587348795416995,27.62463886411364,6.892585208360625,0.8068050395304782,0.4632442842083268,130.33198568622868,19.9065384771082,0.0,1.0,0.0,0.0,1.0,Taxi
13.700000000000001,0.231676324067124,12.949551717752703,7.4537665989587545,0.737007881643211,0.3705650653326415,130.4283411302274,20.239714734738907,0.0,1.0,0.0,0.0,1.0,Taxi
13.8,0.03061581862694264,-21.36702939429077,6.8706975480717825,0.38285172079673446,0.18724062593779928,130.492811152763,20.48728633592118,0.0,1.0,0.0,0.0,1.0,Taxi
13.9,0.029038340982715988,-34.329852992700374,7.8891175578919,0.29957787504265854,0.2986585730263514,130.46578130335217,19.53128798052623,0.0,1.0,0.0,0.0,1.0,Taxi
14.0,0.06002705910362197,37.8812222111333,8.183836299729723,0.5131247498320521,0.2588795542943516,130.45562328539927,19.55798454878181,0.0,1.0,0.0,0.0,1.0,Taxi
14.100000000000001,0.22002192968260903,31.740644528807604,7.535488029946908,0.12499829583992278,-0.3280120408378496,130.3905455616689,20.51826292165966,0.0,1.0,0.0,0.0,1.0,Taxi
14.200000000000001,0.18774156362675387,-10.322560766835783,6.652376402591881,0.4600141009104335,0.461935802425083,130.24201571964477,18.95157886805155,0.0,1.0,0.0,0.0,1.0,Taxi
14.3,0.008414255269442943,-62.6363687362774,6.428361326720305,0.9171087298165277,-0.4201016436018132,130.05172104502748,19.459690715670057,0.0,1.0,0.0,0.0,1.0,Taxi
14.4,-0.09315991399877804,-48.6911445690506,8.107679938496123,0.2769826890093902,0.2553673567529987,130.4842687424059,19.90403844962175,0.0,1.0,0.0,0.0,1.0,Taxi
14.5,-0.05571415921849922,-24.193432391752072,7.127676001980656,0.8062950371528579,0.02027771910098397,130.51463933392324,20.746601414853174,0.0,1.0,0.0,0.0,1.0,Taxi
14.600000000000001,-0.1125529066893175,0.4816748200481129,6.381353942273426,0.7791788527668899,-0.18319387557593755,130.32479347711956,19.637484214908596,0.0,1.0,0.0,0.0,1.0,Taxi
14.700000000000001,-0.09075153989853757,7.861780552348446,6.121272322535704,0.8329426151455758,-0.4275384661898255,130.50479216444165,21.25619394583588,0.0,1.0,0.0,0.0,1.0,Taxi
14.8,-0.016405256456757077,34.10231172595919,7.721476237992189,0.30831848867978207,0.09697337484924004,130.4809854230665,20.025949244832436,0.0,1.0,0.0,0.0,1.0,Taxi
14.9,0.05795865194047837,0.8142705882162602,8.130147449494611,0.647440080715362,0.2969409498766443,130.23665692937266,20.447846193992078,0.0,1.0,0.0,0.0,1.0,Taxi
15.0,-0.08668018695745631,0.09152389729827111,7.246580599585167,0.29750932514500134,-0.09368346276991743,130.55053793762124,20.035085843650666,0.0,1.0,0.0,0.0,1.0,Taxi
15.100000000000001,-0.015947636970265782,-12.351175243591134,7.667672203502705,0.36222916522249116,-0.2849144181854215,130.4820366785284,19.719035472290933,0.0,1.0,0.0,0.0,1.0,Taxi
15.200000000000001,-0.003797224277477368,23.45771477727123,7.938478824298414,0.3808276373427818,-0.16488857015304878,130.4562078866877,19.279215316867443,0.0,1.0,0.0,0.0,1.0,Taxi
15.3,0.030608386928899767,19.370479290814618,5.79273673613974,0.7484098569958759,-0.10512693431024042,130.35056436791115,20.296015311079024,0.0,1.0,0.0,0.0,1.0,Taxi
15.4,0.08090475948380722,-2.4037982955978685,7.273081926424256,0.43031741635510523,-0.23163818936100627,130.51929465356045,19.536949639268958,0.0,1.0,0.0,0.0,1.0,Taxi
15.5,-0.01581621575546679,-29.40221473783184,6.751037722202803,0.27448157520912386,-0.06004345668941525,130.4053922998039,20.281435159024994,0.0,1.0,0.0,0.0,1.0,Taxi
15.600000000000001,-0.11640268676025951,40.00839282275208,6.98519657008481,0.645711215832613,-0.2869359542616134,130.57228376469521,20.46443946473546,0.0,1.0,0.0,0.0,1.0,Taxi
15.700000000000001,0.28094672359756756,-32.66668330423588,8.290610401235446,0.6447977771976872,0.5077995784223878,130.41268326871676,19.343563602925613,0.0,1.0,0.0,0.0,1.0,Taxi
15.8,-0.1791496322766462,24.960775872220406,6.775018686339423,0.3415224384688622,-0.32360423636539715,130.44681133008407,19.442933647389168,0.0,1.0,0.0,0.0,1.0,Taxi
15.9,0.00840119260084248,-62.01009211175182,7.848239337777469,0.6122436197377182,-0.10259262832415707,130.33108399956666,19.659367651949363,0.0,1.0,0.0,0.0,1.0,Taxi
16.0,-0.02910373696119156,25.19026612878275,7.499104278757521,0.5616534924269402,-0.18978204965588732,130.58738053147647,19.919180160516486,0.0,1.0,0.0,0.0,1.0,Taxi
16.1,-0.053198301632732516,-28.23430637982048,8.009342722770182,0.847031569517057,-0.29541922919829194,130.4834711702091,19.61634997017574,0.0,1.0,0.0,0.0,1.0,Taxi
16.2,-0.13277033929826,13.306824346238315,7.98766462643746,0.26909647052894486,0.6846101751808997,130.41608649537812,19.74258973827655,0.0,1.0,0.0,0.0,1.0,Taxi
16.3,0.03743038476999995,9.759399953626344,6.846739243192865,0.3178208898245015,-0.138017057127136,130.51039105512962,19.81701367692371,0.0,1.0,0.0,0.0,1.0,Taxi
16.400000000000002,-0.00440130186460086,3.4563841609100243,6.484788493336228,0.5715270768472926,0.4952083431796806,130.35149238817428,20.765062684974495,0.0,1.0,0.0,0.0,1.0,Taxi
16.5,-0.11548841849370993,-0.8320188145945148,7.91099240619551,0.3200822715290579,0.1283909134858815,130.35037410474865,20.08230592620812,0.0,1.0,0.0,0.0,1.0,Taxi
16.6,0.033270290697027305,11.895008581880518,7.248265780341755,0.4274376429305362,0.2837281670425822,130.4946296798796,19.40192744267072,0.0,1.0,0.0,0.0,1.0,Taxi
16.7,0.055073741044801665,4.3276572421280735,6.9231830170076485,0.5537695361342875,-0.891905295988525,130.45164158698583,19.64458980510548,0.0,1.0,0.0,0.0,1.0,Taxi
16.8,-0.0938501322830696,12.457276917807562,6.843190086891958,0.49580869412256295,0.13179111284194658,130.39625603284708,19.549308309788543,0.0,1.0,0.0,0.0,1.0,Taxi
16.900000000000002,0.09555667528606511,11.480614234827927,6.690522064492356,0.46815689932278615,0.3647444588876566,130.27928702465653,19.802408004104148,0.0,1.0,0.0,0.0,1.0,Taxi
17.0,0.1124768122189413,59.17708649416797,7.904848167147751,0.6279931082617782,0.5454123390086214,130.38823138744823,19.70847290613438,0.0,1.0,0.0,0.0,1.0,Taxi
17.1,0.20203530018777027,3.815882581562209,7.270975465176099,0.6301708789635903,-0.3226581434946476,130.43471061586388,21.331510857904178,0.0,1.0,0.0,0.0,1.0,Taxi
17.2,0.11463608819387612,-25.08003990722287,7.769738607115915,0.47106527562226724,0.4866626863166712,130.4118631848404,19.978706955897326,0.0,1.0,0.0,0.0,1.0,Taxi
17.3,-0.012923387317173077,-18.224429775539807,6.101896603845962,0.5852762988164302,-0.24791884523331287,130.3625753819341,20.127073998538293,0.0,1.0,0.0,0.0,1.0,Taxi
17.400000000000002,0.11091315131007116,-36.2189101526455,7.227945241747557,0.7566111276164301,0.2716990447978874,130.36047079741832,19.218979658868815,0.0,1.0,0.0,0.0,1.0,Taxi
17.5,-0.06645846256935148,18.558489855685835,6.951837141778228,0.5458169993850773,0.3680674544181373,130.38539552366365,19.592752548675776,0.0,1.0,0.0,0.0,1.0,Taxi
17.6,0.079869061961256,-27.10570234107443,7.5089465634171715,0.8506606514450963,0.13250837864183312,130.41092970102602,20.74318687822572,0.0,1.0,0.0,0.0,1.0,Taxi
17.7,-0.024615360395301072,-1.5441614790543727,8.006770888414085,0.5744422933382639,0.3393975368810196,130.3718703923446,19.95791991245485,0.0,1.0,0.0,0.0,1.0,Taxi
17.8,-0.07417926996462341,-45.842365414501295,7.121059123221514,0.40882347153070364,-0.2078841333166175,130.49211885313645,20.011548128961994,0.0,1.0,0.0,0.0,1.0,Taxi
17.900000000000002,-0.14934276511125053,15.46106608752934,7.086868203345125,0.6970101798751787,0.29188330980746463,130.38615823464994,19.78702719254128,0.0,1.0,0.0,0.0,1.0,Taxi
18.0,0.052689970042345574,11.55968618000682,7.743128234915212,1.0307077477444644,0.08781227980551208,130.33760107905135,20.25158520376538,0.0,1.0,0.0,0.0,1.0,Taxi
18.1,-0.01638083906458938,64.89926986601574,7.380319813687252,0.7284293517215878,0.044359774216013,130.26020345086124,19.55332329888021,0.0,1.0,0.0,0.0,1.0,Taxi
18.2,0.17515358421882815,13.683845172988663,7.116372958251387,0.23972240182704824,-0.7845718130192628,130.47083838524213,19.5020843798535,0.0,1.0,0.0,0.0,1.0,Taxi
18.3,0.12110919590728884,-4.926909656865443,7.0364672185482355,0.742910600697733,-0.7982666725602671,130.41554589999265,19.68008343538835,0.0,1.0,0.0,0.0,1.0,Taxi
18.400000000000002,-0.04101538734891664,-25.488233215231393,6.498847754421163,0.594631731162271,0.29732868808507784,130.40235393752977,19.520332328404123,0.0,1.0,0.0,0.0,1.0,Taxi
18.5,0.04771241814267116,-38.38680803130428,6.985887747295296,0.6205013298558417,0.24469504216011254,130.38011809701572,20.62777687240523,0.0,1.0,0.0,0.0,1.0,Taxi
18.6,-0.07082484424923255,35.07773925553794,6.286712406487016,0.565411527206987,-0.11041104244833512,130.556230206848,20.08813399270973,0.0,1.0,0.0,0.0,1.0,Taxi
18.7,0.13437330892877303,2.955983770110391,6.330737318946713,0.8390584934452111,-0.5311034881321329,130.36020593566093,18.849490300995097,0.0,1.0,0.0,0.0,1.0,Taxi
18.8,0.06249233699322307,3.7778415407349777,7.848586312463462,0.8068822552376496,0.35222222207544057,130.48540009151878,19.898372387889445,0.0,1.0,0.0,0.0,1.0,Taxi
18.900000000000002,-0.05193563654555769,-51.068195553444404,6.788583337106525,0.49569095638932614,-0.5857771557483803,130.54044063063054,20.060423738218244,0.0,1.0,0.0,0.0,1.0,Taxi
19.0,-0.12096766883844903,8.420960702031218,7.248388234330156,0.4206087334179548,-0.14293990695181719,130.49233702110382,20.272657665215316,0.0,1.0,0.0,0.0,1.0,Taxi
19.1,0.1045971405033791,-13.723961766550238,6.772382203320787,0.8340689148597973,-0.21958862310337743,130.43427897500578,20.49473385838221,0.0,1.0,0.0,0.0,1.0,Taxi
19.200000000000003,-0.12055544537830898,48.760140995408356,7.965274817812286,0.3988256206439983,0.03833995239105534,130.24959023249505,19.199442809976624,0.0,1.0,0.0,0.0,1.0,Taxi
19.3,0.12283303613859264,-27.78785238140127,7.773929726650396,0.6512961348366406,-0.1493470525815496,130.33767820576531,20.4903380430935,0.0,1.0,0.0,0.0,1.0,Taxi
19.400000000000002,-0.03434212140362731,-6.3563337920119425,7.079163649495248,0.3096947245479411,-0.044770363685765154,130.40320856423557,19.282366601886537,0.0,1.0,0.0,0.0,1.0,Taxi
19.5,-0.15233711433836872,-42.66454640005913,7.420238929470074,0.6577783690860255,-0.4954926984250397,130.4336924672607,19.094759552966863,0.0,1.0,0.0,0.0,1.0,Taxi
19.6,-0.09048969586170302,20.341116635677505,7.369775183260251,0.402699377085669,-1.498942293969168,130.715619904228,19.936094021719537,0.0,1.0,0.0,0.0,1.0,Taxi
19.700000000000003,0.06736346177476017,67.04539857474212,8.52407403680438,0.7841837767559079,-0.6701960671959585,130.33477701545996,20.045909228226577,0.0,1.0,0.0,0.0,1.0,Taxi
19.8,0.18288987853534183,2.0048731083008895,6.941290722299233,0.463683699583083,0.5201531368738971,130.43575308669642,20.041329480797245,0.0,1.0,0.0,0.0,1.0,Taxi
19.900000000000002,-0.08046533032019865,31.1250658896752,6.785232741831711,0.5287737691727165,0.3304712739851982,130.32690445414346,18.52646145663268,0.0,1.0,0.0,0.0,1.0,Taxi
20.0,0.22298879122313606,-47.383928829139656,7.57642709513722,0.3340835818954263,-0.8310576647929011,130.35579386275464,19.86688417333128,0.0,1.0,0.0,0.0,1.0,Taxi
20.1,-0.05402976561035655,36.613818213617385,7.428026849588058,0.8838411802035255,-0.19275281394947175,130.54484428669264,18.721812714274545,0.0,1.0,0.0,0.0,1.0,Taxi
20.200000000000003,0.10260376074788818,-46.456642509262274,6.318015298180022,0.6459065092385112,-0.01502278711166262,130.43621321087795,19.183850706831212,0.0,1.0,0.0,0.0,1.0,Taxi
20.3,-0.009294421323175355,17.810334003298507,8.01953093664524,0.23762342402580616,-0.472063731924605,130.3323720519503,20.319830611114828,0.0,1.0,0.0,0.0,1.0,Taxi
20.400000000000002,0.03502190440613588,-27.557582877693587,8.517743933474902,0.8467855005805651,0.05446553478369491,130.42133290835176,19.442901322450204,0.0,1.0,0.0,0.0,1.0,Taxi
20.5,-0.03518415364057985,-3.817843342870256,6.76749221514602,0.9406899752100364,0.5193892234191191,130.39821038722818,19.99061929711205,0.0,1.0,0.0,0.0,1.0,Taxi
20.6,-0.028383638037526734,22.85446184694806,7.886997116964105,0.432529644755703,0.13552145132103316,130.50391649091796,19.930656779159982,0.0,1.0,0.0,0.0,1.0,Taxi
20.700000000000003,0.1492942136408761,12.25685856045555,6.713960870325719,0.5891156311337195,0.7316160115179399,130.37115878468046,20.190402125255737,0.0,1.0,0.0,0.0,1.0,Taxi
20.8,0.02610013916169783,21.71149438349148,7.095729680188828,0.4287918019488833,-0.3037331691149872,130.41072156070447,20.222145390603398,0.0,1.0,0.0,0.0,1.0,Taxi
20.900000000000002,0.0801738338799306,-17.03437957648518,7.709488051962292,0.5411238545430302,0.3749279568010972,130.35421268653386,19.4517171015873,0.0,1.0,0.0,0.0,1.0,Taxi
21.0,0.06412231575845012,-3.3879477353231544,7.618440370711265,0.6117542784916958,0.026261433926509474,130.3197248558796,19.264937952456485,0.0,1.0,0.0,0.0,1.0,Taxi
21.1,0.009160400485081967,-29.30938775034654,6.426604794360005,0.3852223399289656,-0.04449121096901093,130.3121290706746,19.156781912264552,0.0,1.0,0.0,0.0,1.0,Taxi
21.200000000000003,-0.06637310487180219,4.155929267045512,6.098729564567385,0.5026867988487371,-0.5094213875065136,130.25373874601144,20.004247577017697,0.0,1.0,0.0,0.0,1.0,Taxi
21.3,0.08490196209367758,-5.011025817033738,7.529058133639741,0.3543613882509503,-0.17758852435115033,130.37020613003995,18.722085627092916,0.0,1.0,0.0,0.0,1.0,Taxi
21.400000000000002,-0.01589472860008682,-15.19507592543974,7.052959393587239,0.5801316206241043,0.16856640602202858,130.3176371350279,19.81157177281008,0.0,1.0,0.0,0.0,1.0,Taxi
21.5,-0.14234848449900098,-41.646320262398596,7.9639575410586545,0.7976718891211937,-0.353900725663174,130.2290269481539,19.26015765280706,0.0,1.0,0.0,0.0,1.0,Taxi
21.6,-0.12332963921831547,48.33456458076577,7.113630863063308,0.6110731685324184,-0.49189042479023,130.39110455514395,19.95857987277886,0.0,1.0,0.0,0.0,1.0,Taxi
21.700000000000003,0.22577809430374196,7.097132781493552,5.711303625505993,0.6104370375873496,0.4212587266334713,130.3116647839874,19.56931679709007,0.0,1.0,0.0,0.0,1.0,Taxi
21.8,-0.10686282059153328,38.31323317907459,6.373140636586322,0.49468471647251755,-0.35753573301872654,130.33653268724095,19.059957002217512,0.0,1.0,0.0,0.0,1.0,Taxi
21.900000000000002,0.0682365266770574,-29.54790701079105,7.338879009067941,0.8516734399380226,0.5334667280525903,130.46676826081483,19.973540681613585,0.0,1.0,0.0,0.0,1.0,Taxi
22.0,0.07803855924978664,6.0862202413894835,6.904223897208415,0.46878144589296594,-0.0183464069874367,130.45777718107615,19.992360226239306,0.0,1.0,0.0,0.0,1.0,Taxi
22.1,-0.07643171938458596,8.723211831327314,7.148034597024875,0.5976220101867837,0.20313159795314356,130.44018754562148,20.707889047833728,0.0,1.0,0.0,0.0,1.0,Taxi
22.200000000000003,0.11185258583369387,14.149620687376206,7.649473653677712,0.7310026912841896,-0.13284479701401866,130.48431608894566,20.171491226956793,0.0,1.0,0.0,0.0,1.0,Taxi
22.3,0.14878666268666757,12.81046332855658,7.016477670623333,0.7041190643502843,0.8417626015064741,130.38445683566567,19.912550828584614,0.0,1.0,0.0,0.0,1.0,Taxi
22.400000000000002,-0.01237940274180314,15.124934170214425,7.293808254142184,0.3044259757727032,0.27938868539053135,130.28919180674825,19.839049623293057,0.0,1.0,0.0,0.0,1.0,Taxi
22.5,0.1874772566847659,-49.63614841378659,7.067212511425921,0.5710620701221151,0.24781225224681103,130.51100637162153,19.60140808069617,0.0,1.0,0.0,0.0,1.0,Taxi
22.6,-0.09939407938226547,-12.056040041554565,7.716365000111894,0.5820442532730139,0.791372342460722,130.4434934687223,20.356079348913614,0.0,1.0,0.0,0.0,1.0,Taxi
22.700000000000003,-0.07265960294957605,-28.247026179992208,7.229573828337053,0.7221077796897926,0.24093063159857733,130.36029260011628,19.618509254425327,0.0,1.0,0.0,0.0,1.0,Taxi
22.8,0.04624212578480476,40.4618866568577,6.313964059756989,0.8405702839306446,-0.09383685421942681,130.53835542476895,20.071531769223117,0.0,1.0,0.0,0.0,1.0,Taxi
22.900000000000002,0.10291535390202294,37.58905480122237,7.287460955140354,0.34739747894707307,-0.1576202655927167,130.33309770279038,19.548672108683853,0.0,1.0,0.0,0.0,1.0,Taxi
23.0,0.1152856710565357,-12.323754243219563,6.856968215919347,0.5590843015045025,-0.14837629643957326,130.48192442848836,19.4081726048918,0.0,1.0,0.0,0.0,1.0,Taxi
23.1,-0.015376645431293134,-19.064842424692273,7.1477075381624555,0.16107839364187065,-0.44602217641755704,130.28298643229363,19.587673641069753,0.0,1.0,0.0,0.0,1.0,Taxi
23.200000000000003,0.007591141778561488,-5.5431834391350066,6.225802147180545,0.4956637576108184,-0.34655862957156863,130.3854999429975,20.09380464528047,0.0,1.0,0.0,0.0,1.0,Taxi
23.3,0.08756975386086058,8.486092577456644,7.264775022566433,0.5379041024165426,0.36366560653196345,130.342595534706,20.953687103637964,0.0,1.0,0.0,0.0,1.0,Taxi
23.400000000000002,0.027053817455989983,-29.297151124987405,7.960150927253904,0.49679349891190716,-0.06262143889480859,130.39917227429805,20.26789780869926,0.0,1.0,0.0,0.0,1.0,Taxi
23.5,-0.13889461384637566,-10.424110344678658,6.53184579918219,0.35304031051900664,-0.06945456666178404,130.4587162932308,19.53976850165354,0.0,1.0,0.0,0.0,1.0,Taxi
23.6,0.03544920213746717,-10.556844139556164,7.501912285318439,0.5331605749559545,-0.5887403249084316,130.5880063885569,19.53111315682525,0.0,1.0,0.0,0.0,1.0,Taxi
23.700000000000003,-0.02573040324179096,47.61425325515722,6.553377789726227,0.4470982897677961,-0.03259885933221975,130.4315176280541,19.86978971838955,0.0,1.0,0.0,0.0,1.0,Taxi
23.8,0.09917665242941034,24.89303404492473,8.437390934341185,0.7040601133170652,-0.5425928447136308,130.2177634471807,19.437391223016316,0.0,1.0,0.0,0.0,1.0,Taxi
23.900000000000002,0.15991437236209072,9.245410705203545,7.98908125558284,0.7210705137121569,-0.3783210237367215,130.41673480137104,19.584279477398894,0.0,1.0,0.0,0.0,1.0,Taxi
24.0,0.02049665028422667,-8.539357584950293,7.852484309928599,0.9295930348746402,0.26967162271875017,130.5117957700187,20.292673964417492,0.0,1.0,0.0,0.0,1.0,Taxi
24.1,0.056479864504658785,-27.39553896042158,7.369514025742183,0.5542817769021792,-0.22830088133908852,130.41438610704756,19.593789238419465,0.0,1.0,0.0,0.0,1.0,Taxi
24.200000000000003,0.022936677559982716,26.169070503288395,8.027771410331264,0.37279700599815363,0.1638419479478681,130.5287030849617,20.353573836671472,0.0,1.0,0.0,0.0,1.0,Taxi
24.3,0.1513420028006686,13.199681484346433,7.434894336241788,0.5588711213245475,0.2677807162112491,130.34222688790135,19.421000737724412,0.0,1.0,0.0,0.0,1.0,Taxi
24.400000000000002,0.12247827192639088,-7.882465709485847,6.961910940790335,0.23650905947351802,-0.6662191358321331,130.43327350437772,19.710758357252644,0.0,1.0,0.0,0.0,1.0,Taxi
24.5,-0.016475650987446567,-36.64295392300783,7.645941245754403,0.6353990858984391,-0.10218168672546274,130.289930988087,19.68632280565357,0.0,1.0,0.0,0.0,1.0,Taxi
24.6,-0.031872766814370616,-11.839483758330418,6.839754059089045,0.6162025422276923,-1.0918866109643712,130.31963361267947,19.251752956029588,0.0,1.0,0.0,0.0,1.0,Taxi
24.700000000000003,0.06328085313473873,-3.5760381738979583,7.82503968218043,0.844300416820357,-0.20061410584101452,130.3170494829268,19.30893186280177,0.0,1.0,0.0,0.0,1.0,Taxi
24.8,-0.03435584185693642,-30.099246043375175,7.112262802828968,0.29353090746899324,0.6514277516841679,130.31954722634418,20.219524275029475,0.0,1.0,0.0,0.0,1.0,Taxi
24.900000000000002,-0.18236899703124654,-33.14648235881438,7.6750529631645295,0.4181891631390818,0.35437653242054684,130.37856748778586,21.026585958866157,0.0,1.0,0.0,0.0,1.0,Taxi
25.0,-0.10245155865933323,50.883185887735586,7.253355659221812,0.27964568504511883,-0.012521458081521223,130.2470324438167,19.72414528478709,0.0,1.0,0.0,0.0,1.0,Taxi
25.1,0.22006008758174148,64.96274685919235,7.146017178415296,0.5514950599445987,-0.19819519979893932,130.53764204470713,19.551253430563012,0.0,1.0,0.0,0.0,1.0,Taxi
25.200000000000003,0.14244473726471515,11.041536239996399,7.933944354734922,0.504168819948426,0.24671464806886687,130.38705574605137,20.51815031814616,0.0,1.0,0.0,0.0,1.0,Taxi
25.3,-0.0472438774593513,-35.37716730298612,8.485079545768716,0.09353341642998558,-0.2583943021467674,130.51704743247166,20.224837595025132,0.0,1.0,0.0,0.0,1.0,Taxi
25.400000000000002,0.04317425106681079,-27.285868789014227,8.483852372392837,0.7118642543043329,0.3590338581448806,130.51640058833027,19.641173632161454,0.0,1.0,0.0,0.0,1.0,Taxi
25.5,0.006015393319643968,-9.539584447592736,8.508892113642279,0.4429358413173391,-0.0954037771057844,130.32118698540586,19.917192713530184,0.0,1.0,0.0,0.0,1.0,Taxi
25.6,-0.09494179969731503,4.970931415085464,7.227021486799703,0.4884784108106257,0.2687870467522995,130.31424610730693,19.50936799629136,0.0,1.0,0.0,0.0,1.0,Taxi
25.700000000000003,0.06802890814223807,0.011575280571004024,6.981807209730437,0.5611254152309394,0.0896394119546696,130.41017820460308,19.737945135893355,0.0,1.0,0.0,0.0,1.0,Taxi
25.8,0.006073269722498951,15.289397576913002,7.477838724797238,0.4537468810914149,0.9784981770835346,130.52503111208352,20.338142059551274,0.0,1.0,0.0,0.0,1.0,Taxi
25.900000000000002,-0.018494811812750058,-38.80672787724717,7.1257435976971415,0.4764613707459507,-0.6412621064959179,130.4091476981373,20.300362715806525,0.0,1.0,0.0,0.0,1.0,Taxi
26.0,-0.12600473124399783,-2.104293582142361,6.137125090616923,0.2814176127634565,-0.34229171317624724,130.17817978935454,19.680349641728437,0.0,1.0,0.0,0.0,1.0,Taxi
26.1,-0.004448198188212934,-32.2693513482378,7.389976104257403,0.4722133609065661,-0.009700153923951273,130.32917796953814,19.673475859373053,0.0,1.0,0.0,0.0,1.0,Taxi
26.200000000000003,-0.1798415685539391,5.26922289149483,6.953368291173834,0.5075244715760424,1.0306160961135582,130.36806035255762,19.343239335271225,0.0,1.0,0.0,0.0,1.0,Taxi
26.3,-0.09965861678652373,-0.1498984613287888,7.116511705624973,0.5242498416515411,-0.19535278542667944,130.36949255677092,19.453872871916634,0.0,1.0,0.0,0.0,1.0,Taxi
26.400000000000002,-0.005197690494856923,21.24512479525821,6.759578141332373,0.6119316644018759,0.03002622496306822,130.41014810512627,20.312315856266355,0.0,1.0,0.0,0.0,1.0,Taxi
26.5,-0.07361594457764811,28.296945420669775,6.1987641142352965,0.40194860949612077,-0.01523298554403226,130.23024115981485,18.83925008981538,0.0,1.0,0.0,0.0,1.0,Taxi
26.6,0.041826110316825066,27.24854042732579,6.8579953824482285,0.550217061076698,-0.38428728056273703,130.4238092569417,19.26859317811604,0.0,1.0,0.0,0.0,1.0,Taxi
26.700000000000003,0.13104501164177193,-6.461568071718261,7.011140410844738,0.5556365830998298,0.3426513681239482,130.3380238081121,20.601665199144154,0.0,1.0,0.0,0.0,1.0,Taxi
26.8,-0.10592378493623951,-14.365336626283613,7.0895503346832855,0.4665484774485472,-0.354271429221067,130.45820646665015,19.981744713325647,0.0,1.0,0.0,0.0,1.0,Taxi
26.900000000000002,-0.030000572814593063,-1.094777120080958,7.584505018360228,0.39381505804252404,0.043470980357943834,130.38333901306692,19.601311669565245,0.0,1.0,0.0,0.0,1.0,Taxi
27.0,0.12557112604136708,30.800197770369056,6.79914959956889,0.5746843857301089,0.11635085977367224,130.2959694758714,19.16971078002445,0.0,1.0,0.0,0.0,1.0,Taxi
27.1,0.04807720391560571,-4.8232921911333335,7.283157692058892,0.7172680423435209,0.09292123787962961,130.41739105992178,19.01783190196918,0.0,1.0,0.0,0.0,1.0,Taxi
27.200000000000003,-0.05411703377025978,-10.968186324324137,6.432175279365276,0.5027182832406727,-0.8345520304678195,130.33903138904975,20.808138669874065,0.0,1.0,0.0,0.0,1.0,Taxi
27.3,0.07073019441974633,-14.254260138959149,6.5571578889596855,1.0421486677312453,-0.8415036042491413,130.4263933653922,19.486697884631273,0.0,1.0,0.0,0.0,1.0,Taxi
27.400000000000002,-0.023194096779190095,21.85505107148228,6.8457617214499695,0.5483337144501637,0.3970357425219374,130.52484832028802,20.00393462981722,0.0,1.0,0.0,0.0,1.0,Taxi
27.5,0.055158221587151536,-35.94124110896778,7.530807983428492,0.3219252744920198,-0.28489180056561336,130.3130888895081,19.9585760237313,0.0,1.0,0.0,0.0,1.0,Taxi
27.6,-0.10897601112509261,-1.5873530462377492,7.336895222735064,0.7307370094381003,0.33660707470492723,130.41977389230584,19.434855127083352,0.0,1.0,0.0,0.0,1.0,Taxi
27.700000000000003,-0.03113086201037891,-23.503371873862765,8.169970790182173,0.6458299779137218,-0.19577161222439646,130.354893625687,19.7770864201334,0.0,1.0,0.0,0.0,1.0,Taxi
27.8,-0.062358637782162364,-11.783011992264198,7.857732445487959,0.5360167551506736,0.6715141689225126,130.55819780894797,19.56509937517921,0.0,1.0,0.0,0.0,1.0,Taxi
27.900000000000002,-0.16789107108641366,36.27144492808033,6.605310150279727,0.5622191205721333,0.08365304015458112,130.48121590298,20.54674041016766,0.0,1.0,0.0,0.0,1.0,Taxi
28.0,0.1502263626300227,7.587370416195199,7.567568003758629,0.4354351398084148,0.1888998309848438,130.4246776184894,19.40236558313891,0.0,1.0,0.0,0.0,1.0,Taxi
28.1,-0.024421785701186416,50.86104618579723,6.620569223200486,0.994599837267101,0.2092171750987605,130.34553289119185,19.336087849290053,0.0,1.0,0.0,0.0,1.0,Taxi
28.200000000000003,0.08641415984257246,-19.567682804924598,7.806730376407492,0.5251019016673533,-0.5518544565449492,130.24429356840938,20.36257664997293,0.0,1.0,0.0,0.0,1.0,Taxi
28.3,0.05238794860539967,41.214752770342194,5.969368790727943,0.7749256610226665,0.07337906400203249,130.34057495949037,19.405308099926277,0.0,1.0,0.0,0.0,1.0,Taxi
28.400000000000002,0.1816519781505245,-14.500784693911413,6.565471999894555,0.26413816478641555,0.21879867080805096,130.5359148984191,20.182867948799064,0.0,1.0,0.0,0.0,1.0,Taxi
28.5,0.013910236373015347,-23.971852797925155,8.055427251993711,0.6492302325883944,0.4941288082099666,130.22949234165378,19.697304448526772,0.0,1.0,0.0,0.0,1.0,Taxi
28.6,-0.06747131538422617,-11.503372669845186,6.831990602066547,0.5632537666531299,-0.1610739763794175,130.35216937783662,18.922498924184037,0.0,1.0,0.0,0.0,1.0,Taxi
28.700000000000003,0.12413511480129849,-37.01874820203218,6.390447804263063,0.5223764164299161,0.7459219772110854,130.22415112144984,19.154491723762057,0.0,1.0,0.0,0.0,1.0,Taxi
28.8,-0.17118350463714563,16.480419884848732,6.0109903103064735,0.8917998931600537,-0.4186705835099597,130.46065569204904,19.76725554021619,0.0,1.0,0.0,0.0,1.0,Taxi
28.900000000000002,0.01493078404001745,-21.506720030239574,5.576196292169493,0.9250136265234188,-0.7980246080490377,130.56326100075864,19.88401449061587,0.0,1.0,0.0,0.0,1.0,Taxi
29.0,0.01660151465010056,31.90046966247699,8.03293147713651,0.3859946999552806,0.6297593588113121,130.30736286811532,19.57266793027034,0.0,1.0,0.0,0.0,1.0,Taxi
29.1,-0.01168115632476072,-11.509161498725796,8.409417512728496,0.37433695148815227,-0.3039325620786755,130.42694792518307,20.676852064152275,0.0,1.0,0.0,0.0,1.0,Taxi
29.200000000000003,-0.042615023453611574,25.823070983072654,8.090473686693006,0.8327573767018069,0.9517288950911786,130.39407425482023,20.309093977373387,0.0,1.0,0.0,0.0,1.0,Taxi
29.3,0.14571686956546379,-5.999690245108691,7.474094810423518,0.552917905135156,0.22928930087967983,130.43267794362896,19.884799741366724,0.0,1.0,0.0,0.0,1.0,Taxi
29.400000000000002,-0.04167960755030423,22.543552021706407,7.154693160076035,0.6039241657781811,-0.8278319435679551,130.40512256782625,19.726062620615423,0.0,1.0,0.0,0.0,1.0,Taxi
29.5,0.07010273665492041,-58.19057486700425,7.044159522864086,0.6047686742851197,-0.31111307889115586,130.34180283952372,19.512886606089673,0.0,1.0,0.0,0.0,1.0,Taxi
29.6,-0.14523600476955756,-10.38836421771779,6.325916885998869,0.4377406554985636,-0.7204108655060426,130.25227830185133,20.25629356491139,0.0,1.0,0.0,0.0,1.0,Taxi
29.700000000000003,-0.09362142863889325,-4.7921360143969975,7.301405952755011,0.9576389477098566,0.014223226588490274,130.44712086648542,19.61646382704898,0.0,1.0,0.0,0.0,1.0,Taxi
29.8,0.046142056582935354,15.147851064609378,7.317769900486161,0.4604287878318967,0.45340748967877775,130.19414981436938,19.458939824481323,0.0,1.0,0.0,0.0,1.0,Taxi
29.900000000000002,-0.06949674944651073,27.21723681895257,8.233213543424213,0.39802132299188897,0.6664712773689001,130.49814879978294,18.90286269373797,0.0,1.0,0.0,0.0,1.0,Taxi
30.0,0.04246475545586956,-6.921971158692824,6.996358059096555,0.6031289608423822,-0.13118046613136586,130.27014538285448,20.68245635758309,0.0,1.0,0.0,0.0,1.0,Taxi
30.1,0.011532200789471182,16.08421390560837,8.867045433201415,0.4791265897451295,0.5231347827270262,130.44239122188924,19.19749010817865,0.0,1.0,0.0,0.0,1.0,Taxi
30.200000000000003,0.010924320081531075,-4.636218609765643,6.278186347871503,0.5064070398610336,0.5953066018209565,130.3325771237669,19.444118505904274,0.0,1.0,0.0,0.0,1.0,Taxi
30.3,0.019283662407041293,-21.537900307932066,7.745026066003743,0.3472744343352074,-0.8839153890657927,130.43761041859898,19.227441182161392,0.0,1.0,0.0,0.0,1.0,Taxi
30.400000000000002,-0.09615730075018922,-39.72686536228941,7.429171444258885,0.9014623415575613,-0.5517259654230845,130.335685438133,18.965772053143226,0.0,1.0,0.0,0.0,1.0,Taxi
30.5,-0.18771000672991603,-30.34721342309481,8.223799586485752,0.6245875672451038,0.3066157641120047,130.339155569642,19.88937792794141,0.0,1.0,0.0,0.0,1.0,Taxi
30.6,-0.1324524047084328,1.3343302129856056,7.685214404456843,0.5236853271543496,0.7091377744929865,130.32128782123016,19.130480594382934,0.0,1.0,0.0,0.0,1.0,Taxi
30.700000000000003,-0.08948564968526124,63.087055296729204,6.783245981486723,0.8571978696063269,0.15529033966468545,130.419604940579,19.838925008981196,0.0,1.0,0.0,0.0,1.0,Taxi
30.8,0.12772526975372994,48.429978290249785,7.697566365147935,0.36103811452780604,-0.19698643722776218,130.2402202653277,19.402156185725136,0.0,1.0,0.0,0.0,1.0,Taxi
30.900000000000002,0.10969748674281601,17.926252045925974,7.919674113540072,0.5370086359659931,-0.9030447991255385,130.1870572998617,19.523485899408858,0.0,1.0,0.0,0.0,1.0,Taxi
31.0,0.00014561054436852355,-46.97991149891475,7.968398217753001,0.4387161038898302,-0.295932486372475,130.37981110785552,20.019556144755057,0.0,1.0,0.0,0.0,1.0,Taxi
31.1,-0.10717428774084387,-44.544793839229705,8.019037967212308,0.9512339298103134,-0.12422764819164044,130.46889921428863,19.944993993250723,0.0,1.0,0.0,0.0,1.0,Taxi
31.200000000000003,-0.1130264824533326,1.029038462887873,8.058113106652039,0.6224525129533118,-0.17186376581839932,130.43449029804833,19.839393812491974,0.0,1.0,0.0,0.0,1.0,Taxi
31.3,0.0052908028588078545,46.021726121192366,7.511161991265955,0.9286848233798513,0.3437297676208971,130.30029283249547,19.19600157077199,0.0,1.0,0.0,0.0,1.0,Taxi
31.400000000000002,0.12293434286511791,-29.754647579694687,7.410027056521946,0.5203732415382547,-0.124181665827596,130.39979507446122,20.285853473384055,0.0,1.0,0.0,0.0,1.0,Taxi
31.5,-0.2617997203518061,-1.5861514527841318,6.880322211051084,0.18028574090084365,-0.059918251064090655,130.53162048658407,20.14480747877617,0.0,1.0,0.0,0.0,1.0,Taxi
31.6,-0.0026399544051128945,-14.273503906045894,6.397408037841766,1.1678646386709688,-0.03506854189001855,130.49795161900227,19.892889821129387,0.0,1.0,0.0,0.0,1.0,Taxi
31.700000000000003,0.05156682333488838,47.69335412850199,6.480018888091441,0.7642490266887502,-0.8463707093095313,130.44590386815105,19.696018400992934,0.0,1.0,0.0,0.0,1.0,Taxi
31.8,-0.023332949709296228,32.04165724928642,7.507392133112224,0.5643842471095302,0.10781715848434961,130.428527509157,19.68789633717243,0.0,1.0,0.0,0.0,1.0,Taxi
31.900000000000002,0.15756833184131916,6.06030502335436,7.707873613550733,0.7127833562264829,0.6316108915069807,130.5166180537757,20.188123459551445,0.0,1.0,0.0,0.0,1.0,Taxi
32.0,0.0818683484516601,21.804297341065407,6.89300112324637,0.6915986181383177,-0.20513016739349632,130.24933144105114,19.59194975654853,0.0,1.0,0.0,0.0,1.0,Taxi
32.1,0.08568853699603074,-41.94660690394095,6.818985129828958,0.5447813452349598,0.434802821457556,130.39013138729848,19.927855656118346,0.0,1.0,0.0,0.0,1.0,Taxi
32.2,-0.05216470267838569,-24.171125766942172,8.196232643868143,0.5917959839521605,-0.27175825729387176,130.43645178245998,19.658741658454897,0.0,1.0,0.0,0.0,1.0,Taxi
32.300000000000004,-0.038987280383050826,10.393552580045489,7.32376300470909,0.7426335819692119,0.3527618648053654,130.44246951303126,19.105428148666242,0.0,1.0,0.0,0.0,1.0,Taxi
32.4,0.13765629989625813,-17.38938347645417,7.644124524140023,0.48825613524895695,-0.6239054777487124,130.44880296182208,20.34963850259066,0.0,1.0,0.0,0.0,1.0,Taxi
32.5,-0.1391116200606566,6.243047038151033,7.507443318157447,0.42677205241412275,0.15267217479144415,130.40590429100757,18.824780372701394,0.0,1.0,0.0,0.0,1.0,Taxi
32.6,-0.007772045192295737,-2.782809185410599,7.801363830098887,0.6526191466408587,0.6150980901400895,130.5200143933377,20.244535677707578,0.0,1.0,0.0,0.0,1.0,Taxi
32.7,0.12374225396920505,50.25626580683578,6.8798525475400405,0.4746002974415973,-0.12620265981699574,130.3568002645253,19.767106420327522,0.0,1.0,0.0,0.0,1.0,Taxi
32.800000000000004,0.11216970897352219,23.841368113208887,7.59032569080578,0.4189006043648487,0.17643643297056155,130.5695165285435,19.901494759581634,0.0,1.0,0.0,0.0,1.0,Taxi
32.9,0.11143479537374863,-32.5246118827453,6.561589901476753,0.35295019015326484,-0.39803365413575786,130.39627409865358,19.55206517595897,0.0,1.0,0.0,0.0,1.0,Taxi
33.0,-0.03888080544452147,-46.28421025472611,8.47719377616937,0.5402209036375483,0.5990320040709168,130.345417590108,19.806032963961417,0.0,1.0,0.0,0.0,1.0,Taxi
33.1,-0.11925134230010843,-5.060204224289426,6.7142763734790805,0.6776436348937214,0.0722703600775148,130.6057221555069,19.71667760906496,0.0,1.0,0.0,0.0,1.0,Taxi
33.2,0.08613377425230151,3.6893639905006474,7.21152594925881,0.4324183191329065,-0.4492793815250999,130.38006750014517,19.91122213084393,0.0,1.0,0.0,0.0,1.0,Taxi
33.300000000000004,-0.020433985492018282,26.163113953768036,7.386501216181794,0.349049505486662,-0.2799165105966925,130.40826457599798,20.323906179979037,0.0,1.0,0.0,0.0,1.0,Taxi
33.4,0.011564227468731716,-17.062413448408144,7.762452069041841,0.27674746878481316,-0.7617055574928007,130.4331972634301,19.667046053122466,0.0,1.0,0.0,0.0,1.0,Taxi
33.5,0.0008217070102607199,14.433976794948649,6.48123161365853,0.43864049802923644,0.3943984200817289,130.45632117916557,19.87858211702994,0.0,1.0,0.0,0.0,1.0,Taxi
33.6,0.05173589848272491,-11.849225633755005,7.3644394520673,0.5226942910899312,-0.398407068712389,130.5559025067845,19.6688497949783,0.0,1.0,0.0,0.0,1.0,Taxi
33.7,-0.047681900700043356,2.0667157576430313,6.998635133115192,0.3216208381597765,0.907521975778312,130.61055535135313,20.070785279571005,0.0,1.0,0.0,0.0,1.0,Taxi
33.800000000000004,0.011155285798475823,26.881817108602036,7.340715438517354,0.6883313199220735,-0.0023522098781394965,130.51426354424495,20.481614091986952,0.0,1.0,0.0,0.0,1.0,Taxi
33.9,0.18614498402573504,1.2301429117907314,6.785710338094677,0.4891483363448514,-0.24900804657298578,130.48857560607928,19.60920447339725,0.0,1.0,0.0,0.0,1.0,Taxi
34.0,-0.041531186141089776,4.561524733286601,6.516318527448999,0.5437534229387804,-0.1896234699712524,130.41804426247768,19.72782264886339,0.0,1.0,0.0,0.0,1.0,Taxi
34.1,0.03396290946490875,-26.12277710641102,7.62615585831878,1.239975529731623,-0.6867100935679533,130.44607214111272,19.44132057511385,0.0,1.0,0.0,0.0,1.0,Taxi
34.2,0.055531098493679834,-5.184206810760959,7.331149163610593,0.2805490577524162,-0.1705514814981464,130.45923145611442,19.757771798573774,0.0,1.0,0.0,0.0,1.0,Taxi
34.300000000000004,-0.06745222019489465,-29.22363098044214,8.322948443912644,0.1142925818172798,0.6157561456471609,130.51345396026022,19.338662640927758,0.0,1.0,0.0,0.0,1.0,Taxi
34.4,-0.11215524543730203,4.994255576352249,7.017969927102931,0.6568812787035221,-0.5033871695409647,130.43486160987266,21.048593924902633,0.0,1.0,0.0,0.0,1.0,Taxi
34.5,0.080502376375441,20.833044756336818,6.950493007688641,0.5588360339766067,0.18618200398719228,130.25267056599557,19.545446458349936,0.0,1.0,0.0,0.0,1.0,Taxi
34.6,0.03671300358678936,-0.19439270898134473,7.838012662597117,0.4372189308782094,0.2061178519939766,130.45082462920516,20.31565545736001,0.0,1.0,0.0,0.0,1.0,Taxi
34.7,-0.11312720898220884,-27.972551363463378,6.945349592928766,0.8342340189737953,-0.01439217011169105,130.33358307417063,20.04125799938414,0.0,1.0,0.0,0.0,1.0,Taxi
34.800000000000004,-0.05936038044187595,-0.8550689194789621,6.234216519313823,0.33447983653238667,-0.04752437422130044,130.27986148602395,20.735214588900348,0.0,1.0,0.0,0.0,1.0,Taxi
34.9,0.03243765898939449,5.0838066023011566,7.879599425496549,0.3883326838020447,-0.5827826094024533,130.4504955147312,19.64214560016693,0.0,1.0,0.0,0.0,1.0,Taxi
35.0,-0.08770817597070311,41.88278027126787,7.26703484848572,0.9092057550488706,-0.7592307438415934,130.2448071989022,19.168562737326454,0.0,1.0,0.0,0.0,1.0,Taxi
35.1,0.15005352091446333,-40.11543180066614,7.497412961201456,0.6140775757224514,-0.46076135653200445,130.3601838439085,19.8210706971689,0.0,1.0,0.0,0.0,1.0,Taxi
35.2,-0.1681395000139363,14.045583056922823,6.381505096736984,0.6150734709550458,-0.5948973860009703,130.44640393094488,20.019186109128885,0.0,1.0,0.0,0.0,1.0,Taxi
35.300000000000004,-0.017480260686089114,-27.698077029623292,7.422102781372721,0.5062315518611402,-0.1491753120100085,130.3542386020186,20.146871930462716,0.0,1.0,0.0,0.0,1.0,Taxi
35.4,0.011563135766346782,-17.844600632745628,7.107204172295418,0.7240425554100147,-0.7922122553773288,130.38157400573863,20.01131089156576,0.0,1.0,0.0,0.0,1.0,Taxi
