time_s,altitude_ft,vertical_speed_fpm,ias_kt,pitch_deg,roll_deg,heading_deg,throttle_pct,afterburner_on,gear_down,flaps_deg,speedbrake_pct,weight_on_wheels,label
0.0,-1.5448690651839465,-483.4456237133745,154.69504999268776,2.324487457947134,4.170461976565253,58.0569707482764,44.79763372681521,0.0,1.0,18.544542649848296,2.4003361324302674,0.0,Landing
0.1,-3.1563544775618615,-638.4117244191698,153.1387939933705,2.2377205944900616,4.197320901515287,57.9837053043193,44.99848740529406,0.0,1.0,18.544542649848296,2.4003361324302674,0.0,Landing
0.2,-4.736927687279795,-942.1034159040582,152.66720277383249,2.006690828391057,4.433605714290758,58.32189187050005,45.67870738371797,0.0,1.0,18.544542649848296,2.4003361324302674,0.0,Landing
0.30000000000000004,-6.255386144704238,-931.997903146594,154.1650269946306,1.8516328422676636,4.335022147709578,58.050055004569344,44.385108589607604,0.0,1.0,18.544542649848296,2.4003361324302674,0.0,Landing
0.4,-7.816343993294831,-925.9636913922836,156.14859124244992,1.4521571306832446,4.3223446882977745,58.0256356714566,44.972488234355325,0.0,1.0,18.544542649848296,2.4003361324302674,0.0,Landing
0.5,-9.366746144241214,-942.4804197675812,154.17655958985736,1.784962078199044,4.41303317749127,58.06107538516255,44.80282588235564,0.0,1.0,18.544542649848296,2.4003361324302674,0.0,Landing
0.6000000000000001,-10.967788243542143,-954.8045409051351,156.96486120155424,1.5474703097971267,4.36083435378677,58.51777511142137,44.483307709397195,0.0,1.0,18.544542649848296,2.4003361324302674,0.0,Landing
0.7000000000000001,-12.590366697820507,-951.0139613826396,155.17870632164733,1.9138101794229174,4.08871725707646,58.355544515103475,44.62571731000152,0.0,1.0,18.544542649848296,2.4003361324302674,0.0,Landing
0.8,-14.121815951154412,-957.5900372449506,155.65040223894997,1.9284325469396373,4.393636861894676,57.946950434333644,44.90066751252132,0.0,1.0,18.544542649848296,2.4003361324302674,0.0,Landing
0.9,-15.755738429766897,-962.3824668474809,152.84153106890506,1.8930270969565162,4.115379525264195,58.388607234409335,44.34353934576047,0.0,1.0,18.544542649848296,2.4003361324302674,0.0,Landing
1.0,-17.402279032057912,-971.1816106419104,153.68835891106804,2.228030360781931,4.629057428654588,58.099760261831534,44.95420607100719,0.0,1.0,18.544542649848296,2.4003361324302674,0.0,Landing
1.1,-18.977724004363964,-947.4570142656709,154.1521413393097,2.0368213454384,4.3219882886519,58.22985637748576,44.37173168485735,0.0,1.0,18.544542649848296,2.4003361324302674,0.0,Landing
1.2000000000000002,-20.49302350109525,-919.1045487218744,154.7889100690258,1.9139736610211815,4.214907476727142,58.3178570131937,45.00556812327882,0.0,1.0,18.544542649848296,2.4003361324302674,0.0,Landing
1.3,-21.997801775667284,-901.79468744805,153.67498661230175,1.935874430384164,3.9935745514665597,57.95487317890735,44.92491283072486,0.0,1.0,18.544542649848296,2.4003361324302674,0.0,Landing
1.4000000000000001,-23.486697441604214,-914.7254781916054,153.7241004772876,1.7950348638435403,4.3244044664642844,57.98434592828903,44.4470709679006,0.0,1.0,18.544542649848296,2.4003361324302674,0.0,Landing
1.5,-25.06665089205328,-943.6660546545603,154.47859831899822,1.428719450425945,4.433237633960476,58.24675000305638,45.05185172793397,0.0,1.0,18.544542649848296,2.4003361324302674,0.0,Landing
1.6,-26.716132048940086,-955.170407196389,153.28684768914974,1.6824436765343238,4.037356500062949,57.86109825205415,44.612462518388334,0.0,1.0,18.544542649848296,2.4003361324302674,0.0,Landing
1.7000000000000002,-28.26254947758616,-976.7911784409486,156.08010152762182,1.862537573285507,4.194902298981984,58.18510913676039,44.7067581568796,0.0,1.0,18.544542649848296,2.4003361324302674,0.0,Landing
1.8,-29.95060678425802,-967.4553968933374,155.05291044757217,1.6290328276245896,4.26462232884168,58.10978626274101,44.74239288781927,0.0,1.0,18.544542649848296,2.4003361324302674,0.0,Landing
1.9000000000000001,-31.553409033406773,-981.6470177567531,155.8967111021777,1.9592105313766544,4.443914494918118,58.112746990864025,44.9574051348873,0.0,1.0,18.544542649848296,2.4003361324302674,0.0,Landing
2.0,-33.170784566369925,-962.4923431050121,154.48179099148228,1.7077099427452431,4.040790903591046,58.18810089556638,44.263112734670166,0.0,1.0,18.544542649848296,2.4003361324302674,0.0,Landing
2.1,-34.76306849978308,-965.8864455272536,155.04668308080014,1.6628185507845394,4.412901272435216,58.34846757427124,44.66855917342017,0.0,1.0,18.544542649848296,2.4003361324302674,0.0,Landing
2.2,-36.38284126104304,-952.839116460295,154.49619664578893,1.6045912698617377,4.3013328362434375,58.12459755385987,44.23999864786138,0.0,1.0,18.544542649848296,2.4003361324302674,0.0,Landing
2.3000000000000003,-37.9349801486714,-953.2005517485019,154.0414686573135,1.6710654872801103,4.237915704787848,58.10483390668497,44.44069410622534,0.0,1.0,18.544542649848296,2.4003361324302674,0.0,Landing
2.4000000000000004,-39.52907125852559,-953.100444713553,153.98040020432194,1.4048895237853356,4.152272697210489,58.02719993254516,44.37246486549396,0.0,1.0,18.544542649848296,2.4003361324302674,0.0,Landing
2.5,-41.148343484610805,-960.6807658786507,156.22053535133423,1.8326296747580164,4.147266059110655,58.03963349657931,44.88709873163516,0.0,1.0,18.544542649848296,2.4003361324302674,0.0,Landing
2.6,-42.738383978064654,-955.7972904411287,154.74405997897767,2.0066012319360604,4.019775453259763,58.03347344559967,45.157623304424405,0.0,1.0,18.544542649848296,2.4003361324302674,0.0,Landing
2.7,-44.308057710731234,-947.491470352108,153.80496493527835,1.6000167439880972,4.269123239395307,58.34380844767361,44.71065330760933,0.0,1.0,18.544542649848296,2.4003361324302674,0.0,Landing
2.8000000000000003,-45.885800836371345,-941.1831006207179,155.1728732380289,2.1243649836188965,4.3916416925336454,57.99890497053673,45.07244318054302,0.0,1.0,18.544542649848296,2.4003361324302674,0.0,Landing
2.9000000000000004,-47.444299481168244,-936.6666519989735,154.5390077504416,1.7102445844286487,4.649171586729005,58.10543735231727,45.22465025403182,0.0,1.0,18.544542649848296,2.4003361324302674,0.0,Landing
3.0,-48.9913909707261,-922.7072392881809,155.15013622828388,1.528709031609568,4.388199015936255,58.22863573424695,44.73806422541082,0.0,1.0,18.544542649848296,2.4003361324302674,0.0,Landing
3.1,-50.49933703281225,-922.0540092116253,155.23169428577845,1.9412965621645022,4.387916418796905,58.11133150078524,44.782710441256384,0.0,1.0,18.544542649848296,2.4003361324302674,0.0,Landing
3.2,-52.05456952722637,-930.9699424889104,154.80378017568893,1.7918232358716373,4.09289047402028,58.155031784838286,45.00140634783403,0.0,1.0,18.544542649848296,2.4003361324302674,0.0,Landing
3.3000000000000003,-53.64624068317065,-959.0776136842748,154.86048917369155,1.6490963836122188,4.185464897728603,57.821811573028754,44.49238706654977,0.0,1.0,18.544542649848296,2.4003361324302674,0.0,Landing
3.4000000000000004,-55.294725101233624,-964.8401585570227,156.45038329912146,2.1171290973191335,4.089860850771745,58.042033574871255,45.08212689675941,0.0,1.0,18.544542649848296,2.4003361324302674,0.0,Landing
3.5,-56.87877032001148,-975.3784108964936,153.6001266290863,1.8595042750397373,4.136913464845839,58.30228282100899,44.40371891342414,0.0,1.0,18.544542649848296,2.4003361324302674,0.0,Landing
3.6,-58.52313273765312,-955.6331589998962,155.40698683292783,1.555953893574034,4.097776446660082,58.191093838852055,44.579293701677585,0.0,1.0,18.544542649848296,2.4003361324302674,0.0,Landing
3.7,-60.072890896233105,-943.8382524124705,156.09377701476186,2.071526534594473,4.44761126357857,58.27093907839401,44.95756036796967,0.0,1.0,18.544542649848296,2.4003361324302674,0.0,Landing
3.8000000000000003,-61.597961582073836,-949.9135561282416,156.2392996215207,2.1306370812064617,4.203811936813562,58.18227416805615,44.60417666177902,0.0,1.0,18.544542649848296,2.4003361324302674,0.0,Landing
3.9000000000000004,-63.27270051829433,-969.9698666158441,155.6388753984879,1.7266780265634543,4.162310876492811,57.86160484693892,45.028703343194266,0.0,1.0,18.544542649848296,2.4003361324302674,0.0,Landing
4.0,-64.92274022931232,-983.0319821608299,156.27656073472832,2.1002757760707707,4.288073810839798,58.47970805414104,45.03057200056736,0.0,1.0,18.544542649848296,2.4003361324302674,0.0,Landing
4.1000000000000005,-66.51312149287799,-955.9953576633034,155.3882166945225,2.012747172892152,4.427562191145411,57.87686578481015,44.84202782146853,0.0,1.0,18.544542649848296,2.4003361324302674,0.0,Landing
4.2,-68.05267730661085,-937.253256267894,155.1043764970885,1.895443034264545,4.2224341606200975,58.18252195398901,44.615304791141725,0.0,1.0,18.544542649848296,2.4003361324302674,0.0,Landing
4.3,-69.6090065106518,-919.0640786023863,153.99260980722593,2.026976487262978,4.5425253929020695,58.18435011287556,44.38258261592075,0.0,1.0,18.544542649848296,2.4003361324302674,0.0,Landing
4.4,-71.10844188588992,-927.6207427198983,154.67054669874926,2.0132804610927186,4.109011204521467,57.947497367641176,45.5261170490348,0.0,1.0,18.544542649848296,2.4003361324302674,0.0,Landing
4.5,-72.69078102021034,-923.1182003653998,155.21752197540522,1.8740625024281257,4.161781354114418,58.16609157578648,44.106495984949184,0.0,1.0,18.544542649848296,2.4003361324302674,0.0,Landing
4.6000000000000005,-74.2245975124788,-955.0384594099683,153.44756045474108,2.0081239279481973,4.109069093745436,58.22290600818951,44.74760767883043,0.0,1.0,18.544542649848296,2.4003361324302674,0.0,Landing
4.7,-75.88363418293976,-932.8435890413147,155.94810788814814,1.8475321546724919,3.849654428776652,58.07260423506676,44.78784795536958,0.0,1.0,18.544542649848296,2.4003361324302674,0.0,Landing
4.800000000000001,-77.35499896541691,-941.5367641031622,155.2401233004562,2.0394329387249015,4.180904882835491,57.851361243861334,44.30436543120828,0.0,1.0,18.544542649848296,2.4003361324302674,0.0,Landing
4.9,-78.9322813329946,-915.009455857151,154.69972173694134,2.36154996725145,4.113469227778723,58.10192343830289,45.073905080827394,0.0,1.0,18.544542649848296,2.4003361324302674,0.0,Landing
5.0,-80.45868146222551,-943.694602405384,155.416476464833,1.728680933693868,4.337865507779766,58.257994809360014,45.016693802475054,0.0,1.0,18.544542649848296,2.4003361324302674,0.0,Landing
5.1000000000000005,-82.07347197744383,-952.8726819772004,155.4283116679053,1.5280333868256961,4.381914595183574,58.0770897625103,44.78004046376996,0.0,1.0,18.544542649848296,2.4003361324302674,0.0,Landing
5.2,-83.69664474288061,-965.4171223325903,155.0023319829007,1.6448339442209934,3.8900809474384577,58.05186046453434,44.61028315686208,0.0,1.0,18.544542649848296,2.4003361324302674,0.0,Landing
5.300000000000001,-85.28576707388847,-938.5251600203247,155.42360998564365,1.9998996596877294,3.9626053752498596,58.230533173657875,45.067441118062796,0.0,1.0,18.544542649848296,2.4003361324302674,0.0,Landing
5.4,-86.76609777754545,-929.2221713430025,154.86151860299688,1.9031288571634666,4.182577756508723,58.24975464833585,44.44948664956756,0.0,1.0,18.544542649848296,2.4003361324302674,0.0,Landing
5.5,-88.34275559959562,-922.4046930140531,155.78643010770568,2.263411262568562,4.38883778825961,58.21593482011275,44.410754895595524,0.0,1.0,18.544542649848296,2.4003361324302674,0.0,Landing
5.6000000000000005,-89.89779053895873,-914.0251900932981,154.98609201586783,1.851256349417521,4.253716604715385,57.93441468336158,44.475686643024666,0.0,1.0,18.544542649848296,2.4003361324302674,0.0,Landing
5.7,-91.33622372801194,-917.117683867849,156.31917060151343,1.9448480367965824,4.301557386836694,58.17232829814111,45.08949043337342,0.0,1.0,18.544542649848296,2.4003361324302674,0.0,Landing
5.800000000000001,-92.92834401893487,-922.2030213683353,157.74133647912802,1.6049714736060214,4.462354498842734,57.93462285803315,44.3658198603582,0.0,1.0,18.544542649848296,2.4003361324302674,0.0,Landing
5.9,-94.50880564580041,-966.6494890957239,155.0532848914978,1.5845314682279759,4.023078073908322,58.21722007348967,44.788111003112355,0.0,1.0,18.544542649848296,2.4003361324302674,0.0,Landing
6.0,-96.16947117349056,-956.4251259939823,156.81302551724008,2.1617277940918775,4.207493186769267,58.0031133808655,44.868241123112476,0.0,1.0,18.544542649848296,2.4003361324302674,0.0,Landing
6.1000000000000005,-97.71046964890478,-958.03501603597,156.2764217430993,1.8459292398955285,4.528550789175461,57.91602527129771,44.50819819669054,0.0,1.0,18.544542649848296,2.4003361324302674,0.0,Landing
6.2,-99.29898072598026,-962.7323020987859,156.14016264049602,1.9076274558393425,4.193228364147647,58.082094172574955,45.21843949120585,0.0,1.0,18.544542649848296,2.4003361324302674,0.0,Landing
6.300000000000001,-100.9831326839845,-990.0473463091629,155.92087569191335,1.945635420345071,4.337546736566809,58.23124000408529,45.10228058282568,0.0,1.0,18.544542649848296,2.4003361324302674,0.0,Landing
6.4,-102.66070638045059,-976.7148195015521,155.29734388201567,1.8826917236633132,4.109921303184469,57.8722631813456,44.53739526327934,0.0,1.0,18.544542649848296,2.4003361324302674,0.0,Landing
6.5,-104.18255482348802,-955.6541308855855,154.92427255481678,1.941350984136633,4.1745109826178854,58.12669071327741,44.06997808710328,0.0,1.0,18.544542649848296,2.4003361324302674,0.0,Landing
6.6000000000000005,-105.76140333841242,-939.1387503732091,155.1272016016395,1.71163518010066,4.200696588901954,58.24328758130139,44.35684971594546,0.0,1.0,18.544542649848296,2.4003361324302674,0.0,Landing
6.7,-107.35640013231664,-979.4214068940079,155.12034935483342,1.8268202764998744,4.033261215059936,58.069547803743376,45.177832984705105,0.0,1.0,18.544542649848296,2.4003361324302674,0.0,Landing
6.800000000000001,-109.07966185795806,-989.4328913426478,155.38226975861107,2.1300230848594977,4.280501410323046,57.95305124597746,44.88110074876386,0.0,1.0,18.544542649848296,2.4003361324302674,0.0,Landing
6.9,-110.70856779512566,-981.6875807836624,155.2085308559019,1.7868125338256522,4.01471129044574,58.24126251863299,44.68592151249099,0.0,1.0,18.544542649848296,2.4003361324302674,0.0,Landing
7.0,-112.26483803623495,-960.1945956228946,154.26562668916574,1.9859979908779037,4.0370922389820345,58.075767348641534,44.942084954092905,0.0,1.0,18.544542649848296,2.4003361324302674,0.0,Landing
7.1000000000000005,-113.88063483607253,-945.7229276884333,155.35974684084346,2.0021604694082957,4.223108516412149,57.86863138619543,44.52319436369784,0.0,1.0,18.544542649848296,2.4003361324302674,0.0,Landing
7.2,-115.43718243356783,-962.0325554853877,156.22900226166902,1.9956331454745344,4.342505580566228,58.13391525136029,45.068437330183706,0.0,1.0,18.544542649848296,2.4003361324302674,0.0,Landing
7.300000000000001,-117.07500081366189,-948.8483763375798,154.92463349161918,1.539734706575982,4.143450153685425,58.01915650312219,44.495856256226894,0.0,1.0,18.544542649848296,2.4003361324302674,0.0,Landing
7.4,-118.62487671776043,-952.5104841292887,154.77151004994738,2.0334428622284646,3.634486875048982,58.12941455625338,45.133592964197774,0.0,1.0,18.544542649848296,2.4003361324302674,0.0,Landing
7.5,-120.19973485421427,-936.0543119783928,155.69888708474284,1.4813632255214002,4.230030784656659,58.020427190311466,45.31521661905941,0.0,1.0,18.544542649848296,2.4003361324302674,0.0,Landing
7.6000000000000005,-121.75527237355385,-936.7112182342368,154.03605336143258,1.968560812771658,4.0954414027668715,57.93074003176781,44.512617738836305,0.0,1.0,18.544542649848296,2.4003361324302674,0.0,Landing
7.7,-123.30843280893161,-940.169631421611,154.98179972811147,1.8779773389890657,4.146996820584876,57.9525928644872,44.65101535963762,0.0,1.0,18.544542649848296,2.4003361324302674,0.0,Landing
7.800000000000001,-124.90058301132233,-945.6501834775509,153.9160550488651,1.823195756791557,3.9648930583779007,58.35007075320834,44.74001208671122,0.0,1.0,18.544542649848296,2.4003361324302674,0.0,Landing
7.9,-126.4835232909416,-940.2113472603078,154.67761451129283,1.6451241044514016,4.500423447595062,58.07876437141903,44.81331064355076,0.0,1.0,18.544542649848296,2.4003361324302674,0.0,Landing
8.0,-128.00948954523315,-922.6270750336568,155.53656081523178,1.6158788273093019,3.9751828235243636,57.94599828513981,44.73572623102953,0.0,1.0,18.544542649848296,2.4003361324302674,0.0,Landing
8.1,-129.5137183864906,-923.9440539832572,156.12795845309205,1.8108909116354934,4.325978708459632,58.1363704938056,45.0602857280144,0.0,1.0,18.544542649848296,2.4003361324302674,0.0,Landing
8.200000000000001,-131.1032435608579,-939.9092447568534,154.11833687123624,1.6640195407402347,3.9796339457338226,58.131583324600456,45.06810301018303,0.0,1.0,18.544542649848296,2.4003361324302674,0.0,Landing
8.3,-132.70903576901742,-934.6490621744637,155.55014260182597,1.5279147835413684,4.261309963645344,58.154563337923435,44.739534838089774,0.0,1.0,18.544542649848296,2.4003361324302674,0.0,Landing
8.4,-134.18696369736293,-915.6460381821659,154.7025992314309,1.6204066968701507,4.148207395836467,58.39437509151338,44.86401187098693,0.0,1.0,18.544542649848296,2.4003361324302674,0.0,Landing
8.5,-135.68147375176872,-886.7383158974404,154.36164250206468,1.7487742598106932,4.45518249767119,58.27981428605477,44.323901605652296,0.0,1.0,18.544542649848296,2.4003361324302674,0.0,Landing
8.6,-137.14272734850462,-911.1332678619419,153.59841589519888,1.5551982395593607,4.4590911349868145,58.32411646753479,45.1093963261379,0.0,1.0,18.544542649848296,2.4003361324302674,0.0,Landing
8.700000000000001,-138.74263003667264,-913.4863407754152,155.84034288120614,1.718794735381659,4.551310585835602,57.97374900697719,45.27002589999992,0.0,1.0,18.544542649848296,2.4003361324302674,0.0,Landing
8.8,-140.2489054556458,-929.8831786933248,156.95114878993093,1.8570554748425983,4.3957081888235985,58.10247490657969,44.543245091185184,0.0,1.0,18.544542649848296,2.4003361324302674,0.0,Landing
8.9,-141.79214324197125,-924.8672765304206,155.00004319854938,1.9698876605907691,3.937033845391195,58.13683015556916,44.10985437291564,0.0,1.0,18.544542649848296,2.4003361324302674,0.0,Landing
9.0,-143.36696641932474,-924.2066578205026,155.84339264588777,1.9630970013668243,4.2030900780562535,58.18755863604673,44.945467588045304,0.0,1.0,18.544542649848296,2.4003361324302674,0.0,Landing
9.1,-144.8699387447483,-930.0981615548666,155.75884367163368,1.7033322999242493,4.252190715118678,57.99116034645027,44.4330705400302,0.0,1.0,18.544542649848296,2.4003361324302674,0.0,Landing
9.200000000000001,-146.44263404974558,-941.7242940197015,155.90510325615074,1.9692116306882124,4.463605206233285,57.92196771213344,44.706838622979184,0.0,1.0,18.544542649848296,2.4003361324302674,0.0,Landing
9.3,-148.07558788942325,-939.2490196612983,155.90633884164208,1.4916298052043633,4.4995600809661065,58.0270901853703,44.74413215270124,0.0,1.0,18.544542649848296,2.4003361324302674,0.0,Landing
9.4,-149.5661838430548,-934.4625473380347,154.84399007283494,1.690957643314272,4.209026194953906,58.157747417283645,44.633271310550434,0.0,1.0,18.544542649848296,2.4003361324302674,0.0,Landing
9.5,-151.11494678643575,-913.171561561336,154.6377119772283,1.7205638609946297,4.540288066512539,58.36117901676914,44.97578657837999,0.0,1.0,18.544542649848296,2.4003361324302674,0.0,Landing
9.600000000000001,-152.64144569722993,-930.7874284298009,156.27930792679808,1.7040547707703864,4.207215627269619,57.85126979749185,45.14789032262514,0.0,1.0,18.544542649848296,2.4003361324302674,0.0,Landing
9.700000000000001,-154.2201209852038,-935.7022500469157,155.46069167768337,1.8307227357059361,4.035975908403376,58.036832325949774,44.639237192138665,0.0,1.0,18.544542649848296,2.4003361324302674,0.0,Landing
9.8,-155.79345803667033,-940.1941957524514,155.72598992971788,2.1528306313313803,4.4083272728591485,58.1614856717473,44.45721730695919,0.0,1.0,18.544542649848296,2.4003361324302674,0.0,Landing
9.9,-157.34241667599218,-928.0895041180826,154.5841445234368,1.827541105293817,4.246807445882054,58.064581423302286,44.74702110070291,0.0,1.0,18.544542649848296,2.4003361324302674,0.0,Landing
10.0,-158.86056850579422,-923.3449489414455,155.28215561770244,1.6618267017499868,3.981767437900942,58.28007690110326,44.753190652267214,0.0,1.0,18.544542649848296,2.4003361324302674,0.0,Landing
10.100000000000001,-160.41018278137756,-930.3075792922358,156.69212563270196,1.9026032777658222,4.189612075841336,58.21462605664334,44.70439100103186,0.0,1.0,18.544542649848296,2.4003361324302674,0.0,Landing
10.200000000000001,-161.99395457245336,-932.2961736739444,155.50349324425852,1.856946722603719,3.8196757961489,58.05626510812948,44.6866603186783,0.0,1.0,18.544542649848296,2.4003361324302674,0.0,Landing
10.3,-163.52204937416394,-921.6783892991202,154.00226274692025,2.027006545824875,4.009174770628628,58.29858414092644,44.758794088126045,0.0,1.0,18.544542649848296,2.4003361324302674,0.0,Landing
10.4,-165.01857472787316,-915.6405532708219,156.08228439596422,1.7155309505124798,3.9949948891686,58.13445411353496,44.583319652749616,0.0,1.0,18.544542649848296,2.4003361324302674,0.0,Landing
10.5,-166.57215733880747,-921.1239846670878,155.82735125259453,2.0070200411809553,4.3080882425192994,58.33566520901826,44.84344233649775,0.0,1.0,18.544542649848296,2.4003361324302674,0.0,Landing
10.600000000000001,-168.12766929749938,-938.9648787194233,155.50641049875813,1.6895246156203614,4.493457654543212,58.009802135755706,44.65330264018528,0.0,1.0,18.544542649848296,2.4003361324302674,0.0,Landing
10.700000000000001,-169.71339912147027,-934.7687173033195,154.83734719680052,1.7695541073000007,4.112554173867897,58.199346523677775,44.561024430511544,0.0,1.0,18.544542649848296,2.4003361324302674,0.0,Landing
10.8,-171.24600092532407,-912.0856458506238,154.6901021624051,1.9195447818511813,4.028279137616487,58.27295120545921,44.9423262654875,0.0,1.0,18.544542649848296,2.4003361324302674,0.0,Landing
10.9,-172.6880975267525,-918.8281926782851,153.50857181055977,2.013838798562814,4.2762976219108975,58.1184228152585,44.917948843220785,0.0,1.0,18.544542649848296,2.4003361324302674,0.0,Landing
11.0,-174.3075400848617,-923.9539168015995,154.15220674771177,1.9096412889208916,4.39501624002135,58.147514701019134,44.84165278232535,0.0,1.0,18.544542649848296,2.4003361324302674,0.0,Landing
11.100000000000001,-175.86577050933207,-950.8663824190704,155.1910035705007,1.4534757408199688,3.905955673143122,57.96574790600744,44.19298803656287,0.0,1.0,18.544542649848296,2.4003361324302674,0.0,Landing
11.200000000000001,-177.44242943884785,-939.5114821915,154.059043643945,1.4740693860755218,4.327452574826632,58.308439054421456,44.92728192810354,0.0,1.0,18.544542649848296,2.4003361324302674,0.0,Landing
11.3,-179.0050974958192,-936.2944740255671,156.8975419315611,1.7231488535161232,4.266614556484165,58.09344888014584,44.5388063641097,0.0,1.0,18.544542649848296,2.4003361324302674,0.0,Landing
11.4,-180.5472428794599,-924.2546157332299,156.32945013941932,1.7911137675952375,4.378079016262586,58.20132607115181,44.47153619105851,0.0,1.0,18.544542649848296,2.4003361324302674,0.0,Landing
11.5,-182.063702517514,-924.4525486226224,153.32372756701514,1.8853551589456992,3.956774126666697,58.28908345835663,44.82818584091611,0.0,1.0,18.544542649848296,2.4003361324302674,0.0,Landing
11.600000000000001,-183.6273602389323,-911.5087966948295,154.40748511268944,1.719322166902122,4.108392361546635,58.039071283805356,44.58906896710695,0.0,1.0,18.544542649848296,2.4003361324302674,0.0,Landing
11.700000000000001,-185.10478686293405,-912.5064098999416,154.87850236765237,1.7366681489265006,4.295657080488519,58.31108776629213,44.82082253086784,0.0,1.0,18.544542649848296,2.4003361324302674,0.0,Landing
11.8,-186.6262345670137,-910.0758203897158,154.89736468481053,2.155196755528821,4.232388310182118,58.28647337180797,44.690340673086894,0.0,1.0,18.544542649848296,2.4003361324302674,0.0,Landing
11.9,-188.1777393408809,-923.854780489728,153.73964269043464,1.822753603756733,4.300022153538049,58.05765616033699,44.80164083943964,0.0,1.0,18.544542649848296,2.4003361324302674,0.0,Landing
12.0,-189.7240607653827,-920.3132193902661,155.6293306214425,1.8665476974546547,4.26839458379634,58.21195844062129,44.16888898732327,0.0,1.0,18.544542649848296,2.4003361324302674,0.0,Landing
12.100000000000001,-191.22780066396504,-908.3751387326629,154.05589710088452,1.7957768258219968,3.849756030565264,58.04518760548751,44.87291278159746,0.0,1.0,18.544542649848296,2.4003361324302674,0.0,Landing
12.200000000000001,-192.7196150345442,-918.5366129956777,156.02597139472542,1.6330515360182507,4.131874185604492,58.183583575505565,44.85208514155825,0.0,1.0,18.544542649848296,2.4003361324302674,0.0,Landing
12.3,-194.31674383036108,-943.8066916766729,154.80141158437175,1.8982259282541454,4.019896081754125,57.90757365222544,44.53152303613685,0.0,1.0,18.544542649848296,2.4003361324302674,0.0,Landing
12.4,-195.9468341223484,-956.9961166143627,156.05669360814767,1.7939536286765954,4.011481049742288,57.928340467496525,44.86055291349026,0.0,1.0,18.544542649848296,2.4003361324302674,0.0,Landing
12.5,-197.50459561761602,-952.5535033132825,155.02598290250515,1.5985913046524334,4.169534670950625,58.27980067441683,45.12378535113076,0.0,1.0,18.544542649848296,2.4003361324302674,0.0,Landing
12.600000000000001,-199.0795113469275,-929.9556954482738,155.38090781193026,1.8202573532392357,4.1219591789863985,57.90412403869982,45.17440337303178,0.0,1.0,18.544542649848296,2.4003361324302674,0.0,Landing
12.700000000000001,-200.59661259958978,-912.1624628659844,154.84068827233176,1.7820862328867624,4.088035943933943,58.09713775210645,43.997401181831584,0.0,1.0,18.544542649848296,2.4003361324302674,0.0,Landing
12.8,-202.06540793194594,-895.8296387472104,157.61198342336047,1.764945681050943,4.0022317317438105,58.0533639055609,44.86287999728817,0.0,1.0,18.544542649848296,2.4003361324302674,0.0,Landing
12.9,-203.55865954066354,-890.8726614684098,155.3630986513294,1.637218764517141,4.058605146648068,58.24855630719719,44.779153000116104,0.0,1.0,18.544542649848296,2.4003361324302674,0.0,Landing
13.0,-205.05097590693182,-898.6706038589376,155.9337201826823,2.001032686984639,4.204705737286288,57.90183102494046,44.35083040898746,0.0,1.0,18.544542649848296,2.4003361324302674,0.0,Landing
13.100000000000001,-206.55876095124063,-904.1739397046285,156.44288659193367,1.7092824726829905,4.402304188873149,57.98346150628322,45.05029240193295,0.0,1.0,18.544542649848296,2.4003361324302674,0.0,Landing
13.200000000000001,-208.07952923918668,-923.025533456945,154.25509532943022,1.747749473431751,4.456321146870061,58.17155333548044,45.47933334722536,0.0,1.0,18.544542649848296,2.4003361324302674,0.0,Landing
13.3,-209.66610357421655,-919.3732910550294,154.48987678756563,2.06974225699619,4.488906426616928,58.09572194040226,44.75862501139947,0.0,1.0,18.544542649848296,2.4003361324302674,0.0,Landing
13.4,-211.15562740651578,-920.1100593120032,155.45176243415034,1.7847808766857916,4.527025364977966,58.082169923619915,45.03918308559745,0.0,1.0,18.544542649848296,2.4003361324302674,0.0,Landing
13.5,-212.6800795357467,-916.7131946183417,153.9703030689686,1.6493978341251896,3.998932501653204,57.97807369356667,44.66545909922035,0.0,1.0,18.544542649848296,2.4003361324302674,0.0,Landing
13.600000000000001,-214.24966954730826,-909.840033041513,155.47785369081748,1.9342283071123538,4.092010125768828,58.302130122519316,44.81166069040773,0.0,1.0,18.544542649848296,2.4003361324302674,0.0,Landing
13.700000000000001,-215.70482757172334,-918.2096698892052,153.9078635166748,1.6872210826830636,4.160733506957479,58.443007234531706,44.56235119725437,0.0,1.0,18.544542649848296,2.4003361324302674,0.0,Landing
13.8,-217.27112788519273,-914.7521089880742,154.8677215923373,1.8426700935742255,4.200447280397837,58.19605653432859,44.481316327027045,0.0,1.0,18.544542649848296,2.4003361324302674,0.0,Landing
13.9,-218.82343009224863,-913.1312403939319,153.819778847828,1.8496942798752658,4.003067606693142,58.07948333267029,44.872672007053914,0.0,1.0,18.544542649848296,2.4003361324302674,0.0,Landing
14.0,-220.270483773693,-900.2552996742282,154.03629348381264,1.8078568306229323,4.142512445210886,58.22599266318059,44.401434116974904,0.0,1.0,18.544542649848296,2.4003361324302674,0.0,Landing
14.100000000000001,-221.77240438356387,-881.4685210397897,154.68411402916928,1.5316846306869887,4.148686450154627,57.96280643148822,44.89604956324724,0.0,1.0,18.544542649848296,2.4003361324302674,0.0,Landing
14.200000000000001,-223.23077269744758,-883.2168556229532,155.8740557631125,1.7092785895031752,4.17294640327775,57.9746504031998,44.4678784507923,0.0,1.0,18.544542649848296,2.4003361324302674,0.0,Landing
14.3,-224.68656805180777,-877.8308422321685,154.15502314759,1.727335125501046,4.368653024357764,57.9948074695688,44.464502952489816,0.0,1.0,18.544542649848296,2.4003361324302674,0.0,Landing
14.4,-226.1615585947247,-891.9616600705581,153.74427680186665,1.6507448883399247,4.288426022585032,58.021191390731985,44.81645086619734,0.0,1.0,18.544542649848296,2.4003361324302674,0.0,Landing
14.5,-227.69058099780037,-881.8199176174971,153.93272420964297,1.6898464135816924,4.31626276959559,58.08290654516691,44.636158495627434,0.0,1.0,18.544542649848296,2.4003361324302674,0.0,Landing
14.600000000000001,-229.09566763989525,-873.2303492900143,154.11497646147285,2.0609031550773036,4.175288967310739,58.3179271171345,44.613737293841616,0.0,1.0,18.544542649848296,2.4003361324302674,0.0,Landing
14.700000000000001,-230.52771034117478,-863.5546541286999,155.8941099132227,1.988888029476709,4.488808198798332,57.81331737538602,44.78988192316951,0.0,1.0,18.544542649848296,2.4003361324302674,0.0,Landing
14.8,-232.00835426844387,-904.3870486367665,155.05570322823405,2.005905604757516,4.1991369506107645,58.14217862814564,45.18343107207709,0.0,1.0,18.544542649848296,2.4003361324302674,0.0,Landing
14.9,-233.6176028830791,-916.3511055638651,155.2979161495014,1.8345408305829471,4.308122047549484,58.26423313355684,45.00504191845575,0.0,1.0,18.544542649848296,2.4003361324302674,0.0,Landing
15.0,-235.1094658689941,-920.9180375426172,156.53833705824667,1.9006800027742252,4.358496958368042,57.919679817042265,45.03106980588637,0.0,1.0,18.544542649848296,2.4003361324302674,0.0,Landing
15.100000000000001,-236.61294445615695,-894.4024044249376,156.26272935223685,2.0153041657002078,4.138746171593391,58.04697129527068,44.6746911235855,0.0,1.0,18.544542649848296,2.4003361324302674,0.0,Landing
15.200000000000001,-238.08961490520377,-910.47204202261,155.16710687416466,1.670188800634992,3.9577313039674955,58.29596356727359,45.05151901424224,0.0,1.0,18.544542649848296,2.4003361324302674,0.0,Landing
15.3,-239.66182607910716,-910.9960016878176,154.6414470204796,1.5446911011314244,4.374344122973752,58.26529633871519,44.83361854697563,0.0,1.0,18.544542649848296,2.4003361324302674,0.0,Landing
15.4,-241.16792446459604,-928.841703496579,155.94099388319017,1.6585679962386262,4.684234478104271,58.10192899621131,44.83102100334254,0.0,1.0,18.544542649848296,2.4003361324302674,0.0,Landing
15.5,-242.73382342268667,-909.4862332384251,154.0056033339219,1.3330281339833034,4.298125402242573,58.30817525721778,44.78974421352091,0.0,1.0,18.544542649848296,2.4003361324302674,0.0,Landing
15.600000000000001,-244.20925724529928,-921.0910923091491,153.57791954726014,1.9259793145887205,4.011102501076108,58.368953912845825,45.43291416606544,0.0,1.0,18.544542649848296,2.4003361324302674,0.0,Landing
15.700000000000001,-245.77337992614179,-921.0657766612427,155.77594246727844,1.5736140294396745,4.102117271663258,58.1960174251567,44.714495102389044,0.0,1.0,18.544542649848296,2.4003361324302674,0.0,Landing
15.8,-247.33915230599288,-921.9144596160277,156.9564745268516,1.9558439541635413,4.476598769460263,57.8803790985956,44.876568835563376,0.0,1.0,18.544542649848296,2.4003361324302674,0.0,Landing
15.9,-248.81882954337942,-910.6839110299234,152.83313253196553,1.6565221332666606,4.297409303769299,57.834314603773464,44.937758629400186,0.0,1.0,18.544542649848296,2.4003361324302674,0.0,Landing
16.0,-250.3267994812914,-903.1467861628868,155.68062584219845,1.5484272216981332,4.434394925822967,57.937611101513596,43.87770028500577,0.0,1.0,18.544542649848296,2.4003361324302674,0.0,Landing
16.1,-251.85488623680732,-920.8066454012227,157.31502859997624,1.3778041759089563,4.133390806406,58.36478283794861,44.337641123931064,0.0,1.0,18.544542649848296,2.4003361324302674,0.0,Landing
16.2,-253.42286277038554,-923.2809944803251,154.83372910872058,1.9538727655129509,4.091827881928233,57.90096572154033,44.97455606744538,0.0,1.0,18.544542649848296,2.4003361324302674,0.0,Landing
16.3,-254.94320445369303,-907.6108346485285,155.03654729813562,1.8093428979860138,4.601190552248552,57.87982798289056,44.56664726942252,0.0,1.0,18.544542649848296,2.4003361324302674,0.0,Landing
16.400000000000002,-256.39294041004996,-899.1832569947804,154.83760870629672,1.8841090077195937,4.145177355945057,58.257192958757514,44.66715816664514,0.0,1.0,18.544542649848296,2.4003361324302674,0.0,Landing
16.5,-257.91877905535944,-888.3618485916428,156.0438477136557,1.6724949637825528,4.171294160611194,58.04270750559908,44.511762676309225,0.0,1.0,18.544542649848296,2.4003361324302674,0.0,Landing
16.6,-259.38501369665124,-911.9792982038575,155.9585968212203,1.6981973397857215,4.3043638182824315,58.25727504329359,45.0974323616286,0.0,1.0,18.544542649848296,2.4003361324302674,0.0,Landing
16.7,-260.95283690106925,-906.9228369085863,155.64001434548985,1.5613828852621012,4.229168612579109,58.20682692907826,44.82175978337887,0.0,1.0,18.544542649848296,2.4003361324302674,0.0,Landing
16.8,-262.45339323990237,-910.1122225178301,155.3391935518241,1.9118675771436604,4.207814619742876,57.98688207131954,44.44076734715208,0.0,1.0,18.544542649848296,2.4003361324302674,0.0,Landing
16.900000000000002,-263.9355748092404,-899.6268765075797,154.51486652514546,1.9132841817566812,4.441298867858513,58.16680526214441,44.47786565749249,0.0,1.0,18.544542649848296,2.4003361324302674,0.0,Landing
17.0,-265.45097128360715,-904.8199233066725,153.1818923737537,1.8127067780321227,4.136496133295517,58.101750878882,44.98434186724646,0.0,1.0,18.544542649848296,2.4003361324302674,0.0,Landing
17.1,-266.97749285643573,-899.2592591294624,155.64944917208874,1.9348393216393174,4.542912340265578,58.13016070137144,45.03591142048518,0.0,1.0,18.544542649848296,2.4003361324302674,0.0,Landing
17.2,-268.4318711048877,-904.298965974408,157.60184309557914,1.9059186931160734,4.318530796547,58.268728928194435,45.08659009959295,0.0,1.0,18.544542649848296,2.4003361324302674,0.0,Landing
17.3,-269.9724661134792,-890.0374005736808,154.87694347327417,1.76301642835612,4.485661440507401,58.09747213719817,44.916199820075434,0.0,1.0,18.544542649848296,2.4003361324302674,0.0,Landing
17.400000000000002,-271.42767985930413,-902.1931977815939,156.60299946566755,1.5501964476912553,4.220367459506341,58.10638150376269,44.15919878218195,0.0,1.0,18.544542649848296,2.4003361324302674,0.0,Landing
17.5,-272.9428370937957,-897.5589114402624,154.6608055609582,1.7789899912566334,4.238520394172437,58.027417098532794,45.09379034541253,0.0,1.0,18.544542649848296,2.4003361324302674,0.0,Landing
17.6,-274.4602606706805,-940.5704707738437,155.4649772280017,2.085492421378129,4.275861121956824,58.03496094583079,45.02245781970914,0.0,1.0,18.544542649848296,2.4003361324302674,0.0,Landing
17.7,-276.13053221317335,-923.6407152642073,155.94268329467232,2.024982239823742,4.47689065527035,58.24603314748572,44.698181421572,0.0,1.0,18.544542649848296,2.4003361324302674,0.0,Landing
17.8,-277.5610406701167,-909.663237600796,155.431283018557,1.6218193988371696,4.195708141625876,58.32923443228498,44.640997336216685,0.0,1.0,18.544542649848296,2.4003361324302674,0.0,Landing
17.900000000000002,-279.0085768586845,-879.5860966877854,155.3258950951023,1.7238502519816183,4.224177000377374,58.28726926584102,44.729905179747874,0.0,1.0,18.544542649848296,2.4003361324302674,0.0,Landing
18.0,-280.5284626966123,-905.5100363499832,154.6606299894693,1.7383497434229993,4.110933892402092,58.100151621408486,44.687849812638085,0.0,1.0,18.544542649848296,2.4003361324302674,0.0,Landing
18.1,-282.0885908518666,-918.5773361725978,155.464715787987,2.087970489994473,4.102840346077865,58.505974208156545,44.33579792084014,0.0,1.0,18.544542649848296,2.4003361324302674,0.0,Landing
18.2,-283.60146353954747,-900.7226989065316,155.62421198205752,2.0492327996215565,4.168536636722475,58.26466031864442,43.84578840727199,0.0,1.0,18.544542649848296,2.4003361324302674,0.0,Landing
18.3,-285.03207619114494,-896.6612456041958,155.51339440512626,1.5782380878649611,4.055314629449661,58.257973552360056,45.11111736049944,0.0,1.0,18.544542649848296,2.4003361324302674,0.0,Landing
18.400000000000002,-286.5718970798876,-882.9873038274286,153.40564923964826,1.8351212865123385,4.086315860661452,58.10822040961364,44.36856345978033,0.0,1.0,18.544542649848296,2.4003361324302674,0.0,Landing
18.5,-288.0164000586846,-894.641473063632,152.3259932242232,2.226635867261746,4.002955970237607,58.03141089748891,44.83133237299281,0.0,1.0,18.544542649848296,2.4003361324302674,0.0,Landing
18.6,-289.5052835564631,-886.2555128030863,154.3200191159575,1.6788735462748863,4.355880630341285,58.05634788009388,44.51068683447629,0.0,1.0,18.544542649848296,2.4003361324302674,0.0,Landing
18.7,-291.00317464390304,-893.672819598703,154.19141330417335,1.4534856301093293,4.23404380620363,58.06204266897754,44.36663678205035,0.0,1.0,18.544542649848296,2.4003361324302674,0.0,Landing
18.8,-292.4847641566781,-909.0744245051269,154.55869505499973,1.825415753548515,4.030617913141297,58.32723040720521,44.2273090857655,0.0,1.0,18.544542649848296,2.4003361324302674,0.0,Landing
18.900000000000002,-294.05065567898873,-918.6089021821431,155.47739416211888,2.178248916549341,4.223919614844103,58.11238551094209,44.60645891284854,0.0,1.0,18.544542649848296,2.4003361324302674,0.0,Landing
19.0,-295.59621915481375,-912.8612207032461,154.014054606388,1.6210907503517884,3.7882256457356434,57.92486381150411,44.828138522870866,0.0,1.0,18.544542649848296,2.4003361324302674,0.0,Landing
19.1,-297.04907026019436,-885.7010841715692,153.04162425853298,1.6137825668526222,4.119668694332126,58.23492826501081,44.75086768791829,0.0,1.0,18.544542649848296,2.4003361324302674,0.0,Landing
19.200000000000003,-298.4791610998466,-872.1455262616587,154.18748637892915,2.106792099540834,4.359280619467473,58.01477792303308,44.377957410279876,0.0,1.0,18.544542649848296,2.4003361324302674,0.0,Landing
19.3,-299.95694678612205,-878.5114715157988,156.90495168601964,1.9595719145934505,4.413139722021287,57.951158255548876,44.659236242742914,0.0,1.0,18.544542649848296,2.4003361324302674,0.0,Landing
19.400000000000002,-301.44162761777335,-895.624801790666,156.02279685267595,2.108001018702842,4.057325718475084,58.24918783013925,44.96369669037502,0.0,1.0,18.544542649848296,2.4003361324302674,0.0,Landing
19.5,-302.9572851087999,-915.2245729416563,153.2155845128444,1.710305447314447,3.956325733919077,58.23187766433665,45.02323064322558,0.0,1.0,18.544542649848296,2.4003361324302674,0.0,Landing
19.6,-304.5330696508303,-915.2524218470603,157.14545571999446,1.8475701991960747,4.385710098643456,58.23294062153684,44.325502315486496,0.0,1.0,18.544542649848296,2.4003361324302674,0.0,Landing
19.700000000000003,-306.01788972700865,-888.1026455836263,154.9488368969145,1.590491240831979,4.643911250973031,58.16435193934876,45.49917074585836,0.0,1.0,18.544542649848296,2.4003361324302674,0.0,Landing
19.8,-307.39779833671804,-880.252927235972,153.77047116357022,1.6561419544933897,4.302418709687263,58.35151787797406,44.465407162688635,0.0,1.0,18.544542649848296,2.4003361324302674,0.0,Landing
19.900000000000002,-308.9343342870102,-867.9580845096211,153.2726448122981,1.8623543294700429,4.389227386439846,58.07461375330183,44.45843719046039,0.0,1.0,18.544542649848296,2.4003361324302674,0.0,Landing
20.0,-310.35768014955676,-886.0095259819445,154.43941404698637,1.543487481203721,4.227363947580126,58.27764256240647,44.75915711037532,0.0,1.0,18.544542649848296,2.4003361324302674,0.0,Landing
20.1,-311.82784596662776,-892.5309668368755,156.11901574706883,1.820962452238364,4.112401120510009,58.38087086682623,44.804400923223874,0.0,1.0,18.544542649848296,2.4003361324302674,0.0,Landing
20.200000000000003,-313.39698912119457,-896.815905067092,154.99373551822617,1.7226595293101143,4.0018693929359275,58.34008577744936,45.175886377759255,0.0,1.0,18.544542649848296,2.4003361324302674,0.0,Landing
20.3,-314.8417596748922,-899.391354516581,155.2325186958559,1.8937243290650914,4.009869109925881,57.8780167636383,44.8694331192214,0.0,1.0,18.544542649848296,2.4003361324302674,0.0,Landing
20.400000000000002,-316.32480273921067,-887.0203582201498,154.28670204703343,2.0973237695538822,4.219062056641503,58.43138320352068,44.72271520529923,0.0,1.0,18.544542649848296,2.4003361324302674,0.0,Landing
20.5,-317.8320909122953,-906.9822664583626,153.1793794524586,1.7795464459084958,4.5219889046396995,58.44614590329098,44.20216571791553,0.0,1.0,18.544542649848296,2.4003361324302674,0.0,Landing
20.6,-319.37667100718403,-921.3924035828882,154.2905799441136,1.6230707545424092,4.249679000841114,58.14939254541463,44.77757051278152,0.0,1.0,18.544542649848296,2.4003361324302674,0.0,Landing
20.700000000000003,-320.9317647571251,-920.4845001922536,154.3092457382777,1.6477954212721888,4.144724290894305,58.18585236054213,45.02916107297799,0.0,1.0,18.544542649848296,2.4003361324302674,0.0,Landing
20.8,-322.4345134132566,-900.5336983211464,154.73952832755643,1.805199974791017,4.379971540812312,58.226216542798056,44.52487414274128,0.0,1.0,18.544542649848296,2.4003361324302674,0.0,Landing
20.900000000000002,-323.87933949878976,-904.5664153774169,155.36365663587625,1.7833563284697858,4.287881358845886,57.99023550671325,44.807457588821,0.0,1.0,18.544542649848296,2.4003361324302674,0.0,Landing
21.0,-325.4545968340122,-899.8951624222059,155.3366060292527,1.8207768236370687,4.138682072712409,57.99106063248951,44.98106163401199,0.0,1.0,18.544542649848296,2.4003361324302674,0.0,Landing
21.1,-326.9339892253676,-898.7047389656482,156.55323809043972,2.1753378099577616,4.258440220687454,58.15249411216297,45.222123956390924,0.0,1.0,18.544542649848296,2.4003361324302674,0.0,Landing
21.200000000000003,-328.372863193618,-875.3606839307736,156.1943537876779,2.0500021376377635,4.253901811251249,58.26271575518456,45.06151753936253,0.0,1.0,18.544542649848296,2.4003361324302674,0.0,Landing
21.3,-329.83140025366606,-873.277793925547,156.49953099395208,1.7273071647577258,4.319130960368033,57.98566821303518,44.42044263975858,0.0,1.0,18.544542649848296,2.4003361324302674,0.0,Landing
21.400000000000002,-331.30037819499535,-882.1653403929758,155.89913890534453,2.2673224713505364,4.1672692184885065,57.90568341765123,45.13046060118258,0.0,1.0,18.544542649848296,2.4003361324302674,0.0,Landing
21.5,-332.7836898955829,-879.5526811606578,155.63783596903718,1.7388327746773677,4.227789386206585,58.17877866026214,44.76431634418923,0.0,1.0,18.544542649848296,2.4003361324302674,0.0,Landing
21.6,-334.22916365946935,-898.7688540086197,155.47903895869197,1.841029718804677,4.45008793822126,58.159152055034156,44.974136446219674,0.0,1.0,18.544542649848296,2.4003361324302674,0.0,Landing
21.700000000000003,-335.79422246503844,-893.132756934699,154.3025670425901,1.5489009540398526,4.397084202449583,58.12260981806929,44.57694502750755,0.0,1.0,18.544542649848296,2.4003361324302674,0.0,Landing
21.8,-337.2493536802564,-902.2043418348176,154.9918620801116,1.8608218196219133,4.090071252762513,58.18905547108284,44.50859728918178,0.0,1.0,18.544542649848296,2.4003361324302674,0.0,Landing
21.900000000000002,-338.74018536864344,-888.654837189074,155.19602596086608,1.9339511187242147,4.354267320105877,57.89731823839361,45.16825762405482,0.0,1.0,18.544542649848296,2.4003361324302674,0.0,Landing
22.0,-340.2374966509838,-905.1269202592152,156.50730470547123,1.6438466135091685,4.023726180688852,58.00840781263332,44.699875531063384,0.0,1.0,18.544542649848296,2.4003361324302674,0.0,Landing
22.1,-341.77498828155245,-898.5659376045191,156.7055855725317,1.8883317722685706,4.397370564575187,58.27821424025922,44.861178345465376,0.0,1.0,18.544542649848296,2.4003361324302674,0.0,Landing
22.200000000000003,-343.23301505666603,-898.016002123336,155.82027587099338,1.6656936976532006,4.12992148468004,58.031760636590604,44.268535533773,0.0,1.0,18.544542649848296,2.4003361324302674,0.0,Landing
22.3,-344.7275766616005,-894.9998395910256,155.128532132284,1.9130063074340036,4.470889173692935,58.19277711388571,44.3983599419462,0.0,1.0,18.544542649848296,2.4003361324302674,0.0,Landing
22.400000000000002,-346.2499874795076,-921.676762283505,155.76965779393913,1.6565032427220583,4.024727437670091,58.132357291241135,44.30189155086293,0.0,1.0,18.544542649848296,2.4003361324302674,0.0,Landing
22.5,-347.84139886808356,-925.470360033421,155.96380209417072,1.4736319482499207,3.8800856037235754,58.08207031406528,44.172381543470415,0.0,1.0,18.544542649848296,2.4003361324302674,0.0,Landing
22.6,-349.3549284617676,-904.645898261117,153.63214538282537,1.672293006941023,3.989149192306579,58.067858900875365,44.84861978061573,0.0,1.0,18.544542649848296,2.4003361324302674,0.0,Landing
22.700000000000003,-350.77321697081317,-881.0307250388064,154.97868706948,1.6116381799831627,4.242760451441765,58.08783256515636,44.30142411613249,0.0,1.0,18.544542649848296,2.4003361324302674,0.0,Landing
22.8,-352.2465524932776,-863.5096194396624,153.40597809133342,1.998092061739592,4.083780404040669,58.071471771749316,44.628030448964665,0.0,1.0,18.544542649848296,2.4003361324302674,0.0,Landing
22.900000000000002,-353.6724765589659,-883.9195757881839,156.89828147252837,1.814198268753333,3.7322084690671815,58.14616247058518,44.56907490833091,0.0,1.0,18.544542649848296,2.4003361324302674,0.0,Landing
23.0,-355.1928148497541,-880.4458253792177,155.82504891284762,1.8404924707140922,4.421463434671405,58.160017637022634,44.64830811499425,0.0,1.0,18.544542649848296,2.4003361324302674,0.0,Landing
23.1,-356.6487816201737,-888.8895901649335,154.1811236799172,1.8821365508744705,3.941488808933928,58.005370531450126,44.1525351162982,0.0,1.0,18.544542649848296,2.4003361324302674,0.0,Landing
23.200000000000003,-358.1169245097906,-900.1539177189898,154.77850565861877,1.8074559469418199,4.449474756785046,58.02051210161534,45.00952982170605,0.0,1.0,18.544542649848296,2.4003361324302674,0.0,Landing
23.3,-359.69358443834903,-902.8369147648277,156.1119533583736,1.566144947354053,4.339524079240703,58.01557009870123,44.158742933645684,0.0,1.0,18.544542649848296,2.4003361324302674,0.0,Landing
23.400000000000002,-361.1629661939978,-890.0242226061437,157.30545762309998,1.9828865114382395,4.020764789998886,58.142945723785544,44.7992564168163,0.0,1.0,18.544542649848296,2.4003361324302674,0.0,Landing
23.5,-362.5670456228213,-869.1116971194106,153.89064306211012,1.671886733074645,4.187935127196861,57.81521777075994,44.76051574201832,0.0,1.0,18.544542649848296,2.4003361324302674,0.0,Landing
23.6,-364.0391429239461,-868.6844660584484,156.0201779556408,1.8342880011313611,4.369970661180341,58.15166481638545,44.155674882631644,0.0,1.0,18.544542649848296,2.4003361324302674,0.0,Landing
23.700000000000003,-365.50638852429006,-881.7164718849995,156.53273514545108,2.0431421047794656,4.261364708185116,57.93079810793597,44.89668692928333,0.0,1.0,18.544542649848296,2.4003361324302674,0.0,Landing
23.8,-366.9756279822463,-876.7187338585472,155.9387352317731,2.2944570960670694,4.459437984271338,57.946806571645936,44.9123356268799,0.0,1.0,18.544542649848296,2.4003361324302674,0.0,Landing
23.900000000000002,-368.4227365932388,-868.0981848847523,154.8510844923133,2.0481296136977374,4.479673787531797,58.17754666304501,45.06644294746705,0.0,1.0,18.544542649848296,2.4003361324302674,0.0,Landing
24.0,-369.8468794487138,-853.1563186122867,153.6121046161681,1.556414107876931,4.186516561874263,58.20594370420247,44.43485705396686,0.0,1.0,18.544542649848296,2.4003361324302674,0.0,Landing
24.1,-371.2414095753077,-851.6834699562196,153.2019038511988,1.8085062787639758,4.209907411422576,58.196397992989205,44.750883966475875,0.0,1.0,18.544542649848296,2.4003361324302674,0.0,Landing
24.200000000000003,-372.6811539430199,-851.8539746273632,153.67368696963274,1.613617770370065,4.239054929534932,58.295742289809766,44.42907993291102,0.0,1.0,18.544542649848296,2.4003361324302674,0.0,Landing
24.3,-374.10614932185064,-860.1468861478679,153.37480109102464,1.8110777332668757,4.537889280853867,58.25283417936038,45.231082597260645,0.0,1.0,18.544542649848296,2.4003361324302674,0.0,Landing
24.400000000000002,-375.54214400604707,-852.6090667996414,156.46988709747654,1.58277789025502,4.1233969714984,58.31039565225825,45.218632066384096,0.0,1.0,18.544542649848296,2.4003361324302674,0.0,Landing
24.5,-376.94419927701813,-872.622705401443,154.874530374609,1.9013921828508837,3.8415032627937395,58.09551920778637,45.16249024644442,0.0,1.0,18.544542649848296,2.4003361324302674,0.0,Landing
24.6,-378.46926284885785,-873.2838379013288,154.6261354023855,1.7238360304881524,4.137571011605204,58.243244403053495,44.73227740441569,0.0,1.0,18.544542649848296,2.4003361324302674,0.0,Landing
24.700000000000003,-379.9085631955537,-892.8881405294419,156.05956885979987,1.921964046466691,4.309718899968415,58.068345016849776,45.025226036535464,0.0,1.0,18.544542649848296,2.4003361324302674,0.0,Landing
24.8,-381.40863997966534,-855.0044950236384,155.62591264355598,1.427889474118184,4.074231054157227,58.145929417915966,44.98824596298221,0.0,1.0,18.544542649848296,2.4003361324302674,0.0,Landing
24.900000000000002,-382.74428532397604,-865.1277313082119,156.12977414986685,1.8159563925608533,3.894917401588893,58.245441930173,45.27099835756775,0.0,1.0,18.544542649848296,2.4003361324302674,0.0,Landing
25.0,-384.23420185209477,-853.8785838975855,155.61833668542494,1.7032928664824951,4.485900310477668,58.1875755431588,44.81999303932274,0.0,1.0,18.544542649848296,2.4003361324302674,0.0,Landing
25.1,-385.67803289915327,-874.4047467830114,154.50932313517856,1.7578096234393803,4.233397532089015,57.814296756506735,44.63075592963507,0.0,1.0,18.544542649848296,2.4003361324302674,0.0,Landing
25.200000000000003,-387.1163090578911,-876.8971554051291,156.36563610655537,1.681429589065383,4.487188994902261,58.086148536140456,44.69950642973796,0.0,1.0,18.544542649848296,2.4003361324302674,0.0,Landing
25.3,-388.6186876291204,-882.8281428453693,156.37443231128486,2.0630664260258373,4.168604266434488,58.084687430705515,44.48928164474175,0.0,1.0,18.544542649848296,2.4003361324302674,0.0,Landing
25.400000000000002,-390.0921736133801,-888.7217546456895,155.22830157349713,1.4844516002571435,4.023439024930327,58.281814469677386,44.61280212654498,0.0,1.0,18.544542649848296,2.4003361324302674,0.0,Landing
25.5,-391.55991783111955,-896.5540729079294,157.26196657600184,1.5410823980789365,4.1874582719214235,58.25209278654853,44.83870800155098,0.0,1.0,18.544542649848296,2.4003361324302674,0.0,Landing
25.6,-393.10145799366006,-881.1287586178537,154.27575095289626,2.160671619615833,3.803275984352095,58.26527837830855,44.20074981819667,0.0,1.0,18.544542649848296,2.4003361324302674,0.0,Landing
25.700000000000003,-394.4978174064694,-885.2275013786539,156.1848205898143,1.7105383154088856,4.385773218120585,58.132917463337435,45.2307560649005,0.0,1.0,18.544542649848296,2.4003361324302674,0.0,Landing
25.8,-395.9860553380128,-880.280903092023,155.6796316465176,1.9248256537303607,4.313685359814908,58.11712276818298,44.643384010275625,0.0,1.0,18.544542649848296,2.4003361324302674,0.0,Landing
25.900000000000002,-397.5028625091202,-884.1681519650251,155.20785993280947,1.6921140014226372,4.51407670815746,58.01219757790375,44.52469342142962,0.0,1.0,18.544542649848296,2.4003361324302674,0.0,Landing
26.0,-398.9186581662945,-872.6727575575069,154.11059487975902,1.755512556300431,4.257023175028838,58.06629660712957,44.745393103671425,0.0,1.0,18.544542649848296,2.4003361324302674,0.0,Landing
26.1,-400.34941912580035,-857.3210065115973,154.06924499204302,1.856990378849826,3.979816243505145,58.01030311860001,44.594692383232186,0.0,1.0,18.544542649848296,2.4003361324302674,0.0,Landing
26.200000000000003,-401.78946754167816,-847.7704738581679,155.3634207102105,1.8785567790128275,4.506030002999983,57.87985718947476,44.47108692352136,0.0,1.0,18.544542649848296,2.4003361324302674,0.0,Landing
26.3,-403.15751053558535,-860.7402346735057,155.0020065542905,1.6648972421362456,4.389723055654048,58.211109223780795,44.59186079576279,0.0,1.0,18.544542649848296,2.4003361324302674,0.0,Landing
26.400000000000002,-404.6531202991679,-861.0915592427773,152.90831657450306,1.8794000676216143,4.148523020859893,57.83821768090945,45.027777049323255,0.0,1.0,18.544542649848296,2.4003361324302674,0.0,Landing
26.5,-406.09492533789205,-870.4556321732639,154.54738581923473,1.5761655434936874,4.118696102441585,58.07224479258906,45.04537382950415,0.0,1.0,18.544542649848296,2.4003361324302674,0.0,Landing
26.6,-407.50978869645166,-856.7594973315295,155.75951878281626,1.689267451190803,4.10108496802866,58.26530473115781,44.278191066449644,0.0,1.0,18.544542649848296,2.4003361324302674,0.0,Landing
26.700000000000003,-408.93691778582553,-856.0175538285762,156.02152682407453,2.06776802572573,4.214906329411187,58.07841119483652,44.48522905171962,0.0,1.0,18.544542649848296,2.4003361324302674,0.0,Landing
26.8,-410.37501310703493,-857.7295886098682,155.75495991715198,1.8085671033412967,4.021098187907322,58.006472064930165,45.02725211974321,0.0,1.0,18.544542649848296,2.4003361324302674,0.0,Landing
26.900000000000002,-411.798436639501,-863.7815623803249,157.49394681774305,1.594644724034042,4.216311129144652,57.91927754763236,45.32931466678906,0.0,1.0,18.544542649848296,2.4003361324302674,0.0,Landing
27.0,-413.25582559772715,-856.0824137198892,154.51907314221864,1.542132753777002,4.311948288484295,58.43318905195906,44.6133535040003,0.0,1.0,18.544542649848296,2.4003361324302674,0.0,Landing
27.1,-414.6554251756344,-875.912968255534,155.57866169680705,1.700952038042068,4.0456165883658395,57.784639385244645,44.618449915691635,0.0,1.0,18.544542649848296,2.4003361324302674,0.0,Landing
27.200000000000003,-416.1780014807787,-859.8893660172848,154.46021758862835,1.8299328250845996,4.202798557151274,57.86156511206758,44.63729062897842,0.0,1.0,18.544542649848296,2.4003361324302674,0.0,Landing
27.3,-417.5552724278136,-878.7808642751543,156.37254785938626,2.0898383428375173,4.400197970853947,58.13934343638573,45.08502780718733,0.0,1.0,18.544542649848296,2.4003361324302674,0.0,Landing
27.400000000000002,-419.04932949701015,-868.7963167252065,155.09922304921707,1.8926755527221428,4.223221488812619,58.30593722605215,45.01635706419999,0.0,1.0,18.544542649848296,2.4003361324302674,0.0,Landing
27.5,-420.5219830644047,-891.5630522930883,155.68695785668908,2.181531780549318,4.387204113258076,57.748603880162136,44.831357418075314,0.0,1.0,18.544542649848296,2.4003361324302674,0.0,Landing
27.6,-422.013087689279,-880.4399019148264,154.32591278612296,1.948750697798776,4.167989598198095,58.05806444921461,44.60550628226133,0.0,1.0,18.544542649848296,2.4003361324302674,0.0,Landing
27.700000000000003,-423.4515290065843,-863.8036021997664,155.32321750845225,1.6691015276695422,4.430225834741203,58.43325022199548,44.86569296772862,0.0,1.0,18.544542649848296,2.4003361324302674,0.0,Landing
27.8,-424.84100107540354,-850.171046433718,157.12939828633606,1.4816684130086317,4.488613297521241,58.16060775780852,45.181658713629744,0.0,1.0,18.544542649848296,2.4003361324302674,0.0,Landing
27.900000000000002,-426.2639429214476,-839.5233190377894,155.27200068644245,1.5105829979650598,4.065540798823959,58.30087358846379,44.41501433788353,0.0,1.0,18.544542649848296,2.4003361324302674,0.0,Landing
28.0,-427.6491456017732,-850.5117462403632,155.7503460212779,2.0877661516999515,4.464690619916128,58.172045870929026,45.02479763311468,0.0,1.0,18.544542649848296,2.4003361324302674,0.0,Landing
28.1,-429.09355980660536,-853.9662212919893,155.39953205634947,1.5669346551065795,4.016687016957116,58.103348406809516,44.625464604964876,0.0,1.0,18.544542649848296,2.4003361324302674,0.0,Landing
28.200000000000003,-430.53377402790755,-869.5640107146005,155.9599001559148,1.534322965308502,4.189305264312891,57.96891477965198,44.89730348671791,0.0,1.0,18.544542649848296,2.4003361324302674,0.0,Landing
28.3,-431.99696565534623,-886.1497254693404,155.28679572855816,1.915132728871453,4.016858809643764,57.961342346384754,44.48330159756336,0.0,1.0,18.544542649848296,2.4003361324302674,0.0,Landing
28.400000000000002,-433.52430843395206,-882.3743402085711,154.8992421545898,1.973345541573737,4.448400618287813,58.485986550013536,44.46710771855871,0.0,1.0,18.544542649848296,2.4003361324302674,0.0,Landing
28.5,-434.9456457289504,-868.9566490375228,155.70406835736273,1.561899441380857,4.004986485935502,58.06731913291168,44.5669886056942,0.0,1.0,18.544542649848296,2.4003361324302674,0.0,Landing
28.6,-436.34174890053384,-858.4345420814316,156.7089708441217,1.932524612829643,4.031577037811248,57.95642448906494,44.82321540114846,0.0,1.0,18.544542649848296,2.4003361324302674,0.0,Landing
28.700000000000003,-437.8164811443592,-870.955816994649,154.97950517310073,1.6930950520997756,4.4524166288066,58.24288818518846,45.011745741111085,0.0,1.0,18.544542649848296,2.4003361324302674,0.0,Landing
28.8,-439.30042481392366,-880.0210847845165,154.91619512900104,1.7421581034075702,4.197868097178009,58.00367532853386,44.57892767972544,0.0,1.0,18.544542649848296,2.4003361324302674,0.0,Landing
28.900000000000002,-440.7418543244564,-864.9909373780588,154.91582105298542,1.8954864454295905,4.130557852714069,58.0880340124524,44.923401497298755,0.0,1.0,18.544542649848296,2.4003361324302674,0.0,Landing
29.0,-442.1414358312495,-854.0047026206253,154.87051504772117,1.799069503689987,4.0607169788627155,58.239046284992924,44.66613161869969,0.0,1.0,18.544542649848296,2.4003361324302674,0.0,Landing
29.1,-443.5704483270268,-853.6814320490407,155.61335686513831,1.7254449997950059,4.198434274024919,58.50264939329145,44.185011465881594,0.0,1.0,18.544542649848296,2.4003361324302674,0.0,Landing
29.200000000000003,-445.01026148470163,-855.5259715833927,154.54928956873388,1.695170462013201,4.002609094634223,58.24022746961663,44.823565748045006,0.0,1.0,18.544542649848296,2.4003361324302674,0.0,Landing
29.3,-446.4190656891665,-864.3437429362507,156.0222280702262,1.936997876847555,4.366865786147406,58.181734892412464,44.623576784711084,0.0,1.0,18.544542649848296,2.4003361324302674,0.0,Landing
29.400000000000002,-447.89216704170803,-867.2391308844794,152.8716627706434,1.9763012658735015,4.051160150556922,57.95557940285204,44.62504177979376,0.0,1.0,18.544542649848296,2.4003361324302674,0.0,Landing
29.5,-449.346457139124,-853.2698579233511,154.22448655741326,1.5226267742924429,4.16590248513096,57.90146031771934,44.679659003636644,0.0,1.0,18.544542649848296,2.4003361324302674,0.0,Landing
29.6,-450.68541497878323,-839.5266759851438,155.0139920746004,1.342523859057403,4.2143931356947775,58.09121578198756,44.83595213036925,0.0,1.0,18.544542649848296,2.4003361324302674,0.0,Landing
29.700000000000003,-452.08980042163375,-843.4949123614956,156.24400325736048,1.5215354353853838,4.436261704577189,58.1246010147629,44.45474405371158,0.0,1.0,18.544542649848296,2.4003361324302674,0.0,Landing
29.8,-453.5639317009315,-857.4683590945256,152.9213078167959,1.8175452348879975,4.1009002030607755,58.087494520740165,44.93964134222918,0.0,1.0,18.544542649848296,2.4003361324302674,0.0,Landing
29.900000000000002,-454.97275677425586,-852.7285502007885,154.53355689055778,1.5649266941191275,4.140051800227772,58.141134774516445,45.39745018579094,0.0,1.0,18.544542649848296,2.4003361324302674,0.0,Landing
30.0,-456.3534431726377,-854.1340853086353,156.17016200751237,1.9244594031622593,3.8796701773048907,58.082676233350696,44.54244598818629,0.0,1.0,18.544542649848296,2.4003361324302674,0.0,Landing
30.1,-457.8346021274747,-839.321561378506,155.31765108527088,1.8388430197194843,4.453850502941007,58.303753280475064,44.199672132159826,0.0,1.0,18.544542649848296,2.4003361324302674,0.0,Landing
