time_s,altitude_ft,vertical_speed_fpm,ias_kt,pitch_deg,roll_deg,heading_deg,throttle_pct,afterburner_on,gear_down,flaps_deg,speedbrake_pct,weight_on_wheels,label
0.0,-2.0112384851381657,-586.0822499853078,153.58699333503316,3.685196284635474,-4.556942063448459,25.682923861563722,31.985356311570374,0.0,1.0,10.33130400584621,16.87464371126436,0.0,Landing
0.1,-3.964845985089192,-767.6756183829912,153.85424390364687,3.713990865412587,-4.82120793332916,25.8567360499776,32.226233631393285,0.0,1.0,10.33130400584621,16.87464371126436,0.0,Landing
0.2,-5.849616577053122,-1163.2090456099884,153.75490934139017,3.682401167820595,-4.971892939006906,25.772301154114018,32.142564178223736,0.0,1.0,10.33130400584621,16.87464371126436,0.0,Landing
0.30000000000000004,-7.827283713188107,-1176.5976164633855,154.17440204497882,3.426731267628605,-4.306626796135407,25.626744055775873,31.540684214683157,0.0,1.0,10.33130400584621,16.87464371126436,0.0,Landing
0.4,-9.847834067406119,-1189.2692996640105,154.91114791656537,3.6918505428932336,-4.3615012834329505,26.091060311732747,31.93417030289505,0.0,1.0,10.33130400584621,16.87464371126436,0.0,Landing
0.5,-11.795963075373173,-1197.2904371283105,153.60345407138004,3.420721050996678,-4.80862249643614,25.664831969647025,32.116401503500775,0.0,1.0,10.33130400584621,16.87464371126436,0.0,Landing
0.6000000000000001,-13.813735898829659,-1193.548631593196,155.65501557874552,3.0720215203508987,-4.479833135398984,25.872378485311458,31.69603175456304,0.0,1.0,10.33130400584621,16.87464371126436,0.0,Landing
0.7000000000000001,-15.815577225372099,-1206.620359106775,152.41764393851165,3.5662068643238802,-4.483878486078996,25.73967875527518,32.14003709613148,0.0,1.0,10.33130400584621,16.87464371126436,0.0,Landing
0.8,-17.829064870907047,-1213.0493027570474,153.65828427509368,3.0740906580089127,-4.762238507472445,25.857692065248955,31.25290840501986,0.0,1.0,10.33130400584621,16.87464371126436,0.0,Landing
0.9,-19.878982412614896,-1208.9620544108877,153.06813993744834,3.7656554553730532,-4.789963616586434,25.958742217022973,31.56069690978828,0.0,1.0,10.33130400584621,16.87464371126436,0.0,Landing
1.0,-21.860387497426537,-1195.3375242846264,154.10488399682973,3.468007418901619,-4.542207824286971,25.563576216356466,32.19033005587237,0.0,1.0,10.33130400584621,16.87464371126436,0.0,Landing
1.1,-23.80575249233018,-1185.1097606945195,154.7323418601381,3.5916417544040793,-4.571905125509048,25.800114348910256,31.842231068093177,0.0,1.0,10.33130400584621,16.87464371126436,0.0,Landing
1.2000000000000002,-25.804531216087494,-1189.8045046074358,156.3227378974244,3.1823606267758695,-4.479868002865825,25.865960849864166,32.39029871626353,0.0,1.0,10.33130400584621,16.87464371126436,0.0,Landing
1.3,-27.809410020463716,-1194.8306638543643,153.2630553704071,3.391272454841039,-4.515215852575862,25.54771148627566,31.670177999692125,0.0,1.0,10.33130400584621,16.87464371126436,0.0,Landing
1.4000000000000001,-29.779905811602,-1210.7205853074036,154.94714961578842,3.6287401818075287,-4.448588234784218,25.80442640904323,32.03461242757862,0.0,1.0,10.33130400584621,16.87464371126436,0.0,Landing
1.5,-31.85813414262451,-1195.9405446184148,154.669145639637,3.6293732363471274,-4.661164928095077,25.88201125953077,32.76196084024764,0.0,1.0,10.33130400584621,16.87464371126436,0.0,Landing
1.6,-33.78911274355579,-1195.024947292785,154.84150837620783,3.429299392094805,-4.398442550908915,25.422662832031392,31.938036760870798,0.0,1.0,10.33130400584621,16.87464371126436,0.0,Landing
1.7000000000000002,-35.755030548065925,-1187.0259839197295,154.22079468040417,3.649151453203521,-4.690278202560235,25.652034205602263,31.868683752212576,0.0,1.0,10.33130400584621,16.87464371126436,0.0,Landing
1.8,-37.79326406222316,-1192.0043027621277,155.25578566466842,3.5581286423411402,-4.578257645418493,25.79634975230431,31.458433043476063,0.0,1.0,10.33130400584621,16.87464371126436,0.0,Landing
1.9000000000000001,-39.74913425736643,-1183.9525148379096,153.00949017074333,3.055529195279563,-4.197059564877277,25.96747850445746,32.30006524297964,0.0,1.0,10.33130400584621,16.87464371126436,0.0,Landing
2.0,-41.67479312225547,-1163.7741434077682,155.322968511936,3.7065119058495766,-4.349172680455461,25.847614115772444,32.05885961788803,0.0,1.0,10.33130400584621,16.87464371126436,0.0,Landing
2.1,-43.612134779262,-1159.9052785273386,153.94631174639017,3.517068982475526,-4.605685220871291,25.835536407600387,32.004363230980296,0.0,1.0,10.33130400584621,16.87464371126436,0.0,Landing
2.2,-45.54866065000312,-1172.9540037622812,154.48791357415834,3.4906793402647707,-4.4858678905371665,25.582317329766624,32.223098664700025,0.0,1.0,10.33130400584621,16.87464371126436,0.0,Landing
2.3000000000000003,-47.53956314106688,-1172.4986658065363,154.53479028665097,3.6643388931726557,-4.256628390222287,25.495969417290837,31.847360505201102,0.0,1.0,10.33130400584621,16.87464371126436,0.0,Landing
2.4000000000000004,-49.47462810829468,-1176.9545930465727,154.75375652077315,3.308193207264297,-4.583329690495012,25.806485750242132,32.024446198259135,0.0,1.0,10.33130400584621,16.87464371126436,0.0,Landing
2.5,-51.433433615235984,-1158.358280338193,154.97752832447503,3.419803801630202,-4.510869877215823,25.646708486395994,32.46815927353789,0.0,1.0,10.33130400584621,16.87464371126436,0.0,Landing
2.6,-53.33135454275784,-1175.3244744210945,154.2531765304872,3.4691021462715654,-4.851523411994667,25.7517798455645,32.16009629488263,0.0,1.0,10.33130400584621,16.87464371126436,0.0,Landing
2.7,-55.351250480400154,-1161.8055557719244,154.49611896580464,3.7961807951132167,-4.437498351581201,25.73044038045731,31.74946635702027,0.0,1.0,10.33130400584621,16.87464371126436,0.0,Landing
2.8000000000000003,-57.242461394095606,-1170.0992755336713,154.06036147050898,3.9764054561452786,-4.657026210758628,25.862626821352478,32.223307299548395,0.0,1.0,10.33130400584621,16.87464371126436,0.0,Landing
2.9000000000000004,-59.1818509204262,-1148.6226573139431,154.27325780748825,3.7709758102952686,-4.598370813682869,25.670059357087098,31.52221736911965,0.0,1.0,10.33130400584621,16.87464371126436,0.0,Landing
3.0,-61.09436376696987,-1165.8907802198898,155.1566574655952,3.390998741730463,-4.4941622181266,25.609315987077423,31.69071596742827,0.0,1.0,10.33130400584621,16.87464371126436,0.0,Landing
3.1,-63.071915295195055,-1151.6930058212977,154.25418232729206,3.6504841205250527,-4.61230029599203,25.879061091123276,32.25861074980533,0.0,1.0,10.33130400584621,16.87464371126436,0.0,Landing
3.2,-64.94031594953269,-1164.614905100497,155.17055464222918,3.4177082194931954,-4.571041436592198,25.8739835070229,31.933507019233243,0.0,1.0,10.33130400584621,16.87464371126436,0.0,Landing
3.3000000000000003,-66.91743829247235,-1157.5872719398121,154.03137296365813,3.696989053127333,-4.913537517777492,25.909761190493782,32.24532697477249,0.0,1.0,10.33130400584621,16.87464371126436,0.0,Landing
3.4000000000000004,-68.85985165489411,-1191.2686019839841,154.34776409180571,3.5295741052855623,-4.5038421479398325,25.575723125319314,31.93765695842694,0.0,1.0,10.33130400584621,16.87464371126436,0.0,Landing
3.5,-70.89665895945261,-1203.3730836201019,154.94630150786847,3.610423890012684,-4.857837629808416,25.683887256249932,31.921250780072313,0.0,1.0,10.33130400584621,16.87464371126436,0.0,Landing
3.6,-72.93430371057286,-1217.753880757485,154.9110181885115,3.4500884217973247,-4.491554583932608,25.819382860657925,31.01814263782598,0.0,1.0,10.33130400584621,16.87464371126436,0.0,Landing
3.7,-74.94862105868154,-1209.625192223564,153.39849982023838,3.196899438786005,-4.420582329177197,25.692282316192916,31.808698133855867,0.0,1.0,10.33130400584621,16.87464371126436,0.0,Landing
3.8000000000000003,-76.94478492057043,-1187.8170608604905,154.80299715864962,3.766822060039404,-4.945941360017654,25.542463884812037,31.550322920417823,0.0,1.0,10.33130400584621,16.87464371126436,0.0,Landing
3.9000000000000004,-78.87338901487531,-1174.0535471699131,153.0522847143051,3.5028072520478153,-4.702916365304138,25.813961051158856,31.8201570168568,0.0,1.0,10.33130400584621,16.87464371126436,0.0,Landing
4.0,-80.8188887945311,-1173.2482565250505,154.11185387448043,3.1081020042458025,-4.425183567578615,25.772790095743687,31.497914804110305,0.0,1.0,10.33130400584621,16.87464371126436,0.0,Landing
4.1000000000000005,-82.81102620319568,-1169.8899670128355,154.74621164598057,3.9449765493687616,-4.388127000086017,25.605696338351947,32.07939233793517,0.0,1.0,10.33130400584621,16.87464371126436,0.0,Landing
4.2,-84.72283884993949,-1169.2839626674302,153.15392143946175,3.639091989342683,-4.721412027847469,25.700987843190603,32.01783392493636,0.0,1.0,10.33130400584621,16.87464371126436,0.0,Landing
4.3,-86.66530860786825,-1166.8150549682196,153.35213547595924,3.9788377886526023,-4.771646870488731,25.839600269456355,31.703525398715026,0.0,1.0,10.33130400584621,16.87464371126436,0.0,Landing
4.4,-88.64510147803678,-1158.8795972435491,152.4203666762411,3.4503430531000503,-4.257856121199056,25.37378651876361,31.568701894672774,0.0,1.0,10.33130400584621,16.87464371126436,0.0,Landing
4.5,-90.51723683615724,-1155.0644331421693,155.63028017814503,3.7800996637091275,-4.924185675020881,25.801869886596705,32.17870579373443,0.0,1.0,10.33130400584621,16.87464371126436,0.0,Landing
4.6000000000000005,-92.4406307735791,-1140.253588786979,154.01399170596932,3.791431082993418,-4.438088489538554,25.868411811904252,31.616514373331572,0.0,1.0,10.33130400584621,16.87464371126436,0.0,Landing
4.7,-94.34636942197167,-1160.4670703458025,155.2436144021742,3.667064533880518,-4.294140901025489,25.74151318943501,32.09719692359851,0.0,1.0,10.33130400584621,16.87464371126436,0.0,Landing
4.800000000000001,-96.31957218788625,-1158.801558156628,154.91074991340452,3.3354567573370906,-4.855390614260062,25.552527671900577,31.67296063435044,0.0,1.0,10.33130400584621,16.87464371126436,0.0,Landing
4.9,-98.23463856436224,-1165.9445855671381,155.5470963617184,3.2115230499230467,-4.502319854426474,25.84376541078626,32.144378442461345,0.0,1.0,10.33130400584621,16.87464371126436,0.0,Landing
5.0,-100.17609234980736,-1157.5715918879325,155.73116615843605,3.4432585884585967,-4.895594151585714,25.6906208306886,31.70849414573954,0.0,1.0,10.33130400584621,16.87464371126436,0.0,Landing
5.1000000000000005,-102.10743014732591,-1146.0046856252347,153.20316490898702,3.5424366316272726,-4.809339394408796,25.764620574831213,31.902198425689207,0.0,1.0,10.33130400584621,16.87464371126436,0.0,Landing
5.2,-103.96466199248842,-1137.7645453234718,154.95326134680346,3.4152332250717228,-4.488185305435046,25.695696539132598,32.17487888770228,0.0,1.0,10.33130400584621,16.87464371126436,0.0,Landing
5.300000000000001,-105.86491507642472,-1158.1801273953715,154.98702056826383,3.423404598389941,-4.6191579840934365,25.836673096454774,31.82773611863804,0.0,1.0,10.33130400584621,16.87464371126436,0.0,Landing
5.4,-107.89833078430277,-1166.3546288131215,155.97844312048812,3.636445974880118,-4.414105518294157,25.68431479544728,31.537152133651112,0.0,1.0,10.33130400584621,16.87464371126436,0.0,Landing
5.5,-109.79643513655402,-1172.8316870866563,153.02697533507938,3.2412603475153983,-4.430513211147468,25.873429095218,32.36082049365285,0.0,1.0,10.33130400584621,16.87464371126436,0.0,Landing
5.6000000000000005,-111.729073511858,-1149.9945539173466,152.58592063668706,3.54782745308973,-4.61661464110957,25.595290699818065,31.336015100020056,0.0,1.0,10.33130400584621,16.87464371126436,0.0,Landing
5.7,-113.6483035538895,-1140.9734194402092,153.82480275643314,3.5166880263592426,-4.585482795669237,25.63893930502195,31.95615695958226,0.0,1.0,10.33130400584621,16.87464371126436,0.0,Landing
5.800000000000001,-115.50130223375507,-1118.4471655312707,155.29641777659145,3.5223943212262645,-4.607546525025217,26.006662384156698,32.009126346422754,0.0,1.0,10.33130400584621,16.87464371126436,0.0,Landing
5.9,-117.32130933951436,-1140.6357565395126,154.55036593932164,3.6710326171374694,-4.317381981464536,25.96214694695226,31.758680410453177,0.0,1.0,10.33130400584621,16.87464371126436,0.0,Landing
6.0,-119.35148233658707,-1150.2528561201386,153.4708004900767,3.5100613991396896,-4.63349821124455,25.893071893594254,32.38440968791811,0.0,1.0,10.33130400584621,16.87464371126436,0.0,Landing
6.1000000000000005,-121.25256651435576,-1173.6959937830507,154.06038550162705,3.5837273634593294,-4.053815834158924,25.784499510009937,32.10940513432312,0.0,1.0,10.33130400584621,16.87464371126436,0.0,Landing
6.2,-123.18978930842961,-1159.4976776482838,153.61808293740458,3.7475177507724395,-4.688779069246198,25.63062629698743,31.357356078759544,0.0,1.0,10.33130400584621,16.87464371126436,0.0,Landing
6.300000000000001,-125.14897072482849,-1173.5442190697624,154.7041803290054,3.4082711279596025,-4.574750125893772,25.761802078552137,32.12931530012478,0.0,1.0,10.33130400584621,16.87464371126436,0.0,Landing
6.4,-127.12028760970458,-1151.6797830209412,155.39299003996314,3.5792485686245974,-4.653258675507695,25.776476369279692,32.034892975633944,0.0,1.0,10.33130400584621,16.87464371126436,0.0,Landing
6.5,-128.94818822353432,-1150.8395164576684,153.2477849847665,3.248005041961147,-4.495282777525517,25.57855197329775,31.69571133410378,0.0,1.0,10.33130400584621,16.87464371126436,0.0,Landing
6.6000000000000005,-130.90316830711683,-1114.288736417052,154.6786892418951,3.438558195285248,-4.381052715311828,25.680505256340666,32.27336668605833,0.0,1.0,10.33130400584621,16.87464371126436,0.0,Landing
6.7,-132.69173129178984,-1133.487486233787,155.59919769301976,2.9216872188952205,-4.274221752257636,25.6496883770223,31.894077054424216,0.0,1.0,10.33130400584621,16.87464371126436,0.0,Landing
6.800000000000001,-134.61562565470325,-1119.8654355831306,151.99480150829615,3.3781390958113007,-4.402345836103535,25.886338002550417,31.181346294829186,0.0,1.0,10.33130400584621,16.87464371126436,0.0,Landing
6.9,-136.50249548503248,-1151.2286916423193,152.87543419632257,3.550133703579548,-4.635727039934839,25.6176818492807,31.978984644631446,0.0,1.0,10.33130400584621,16.87464371126436,0.0,Landing
7.0,-138.44787475000143,-1143.311410405937,154.48445435257307,3.8253875878487933,-4.714683223726616,25.667307310901208,31.829150739461898,0.0,1.0,10.33130400584621,16.87464371126436,0.0,Landing
7.1000000000000005,-140.33218270673294,-1156.8294818005031,154.27740981980153,3.67305494199032,-4.705094224771984,25.7942259149018,31.984579257180076,0.0,1.0,10.33130400584621,16.87464371126436,0.0,Landing
7.2,-142.286642894035,-1126.0779638240308,154.75174804846938,3.4728775852038534,-4.374758500289023,25.97233526031124,31.890581468374865,0.0,1.0,10.33130400584621,16.87464371126436,0.0,Landing
7.300000000000001,-144.0782645691216,-1136.000842073787,153.15491274169236,3.657028702583513,-5.037217601193217,25.657953440719666,31.429095299728132,0.0,1.0,10.33130400584621,16.87464371126436,0.0,Landing
7.4,-146.01218691710187,-1136.0390771465861,152.60698710723577,3.638344488583153,-4.600803091292413,25.594649793720464,31.897692384983962,0.0,1.0,10.33130400584621,16.87464371126436,0.0,Landing
7.5,-147.96683827976793,-1151.8776686659294,154.73394857240592,3.849963651877557,-4.776453290859714,25.782059147541986,31.75470314459761,0.0,1.0,10.33130400584621,16.87464371126436,0.0,Landing
7.6000000000000005,-149.83765291245123,-1153.429701276474,154.08920584099255,3.5628662034002856,-4.240331567082304,25.754366239052388,31.670345257654613,0.0,1.0,10.33130400584621,16.87464371126436,0.0,Landing
7.7,-151.77933542348424,-1139.0982076747378,155.52891051224583,3.267973567125728,-4.503143344336649,25.676431240562408,32.55494518800314,0.0,1.0,10.33130400584621,16.87464371126436,0.0,Landing
7.800000000000001,-153.66232931814162,-1148.116509512903,154.7032503132638,3.3289646150173047,-4.58621470221388,25.813391246285846,31.948521118174575,0.0,1.0,10.33130400584621,16.87464371126436,0.0,Landing
7.9,-155.57823546001575,-1145.4516819053367,153.54390613945571,3.6778151378933797,-4.670705761208875,25.890858655640727,32.336478473806864,0.0,1.0,10.33130400584621,16.87464371126436,0.0,Landing
8.0,-157.50659383301092,-1160.5197455105042,153.03615078328673,3.2265577436174686,-4.513716007135731,26.064655824826332,31.67125841223038,0.0,1.0,10.33130400584621,16.87464371126436,0.0,Landing
8.1,-159.46492804569414,-1153.3650755997314,154.95228641520586,3.6923150706652317,-4.1806983013563945,25.786230965137463,32.30029103087499,0.0,1.0,10.33130400584621,16.87464371126436,0.0,Landing
8.200000000000001,-161.3450608380144,-1139.6080226771971,153.2064404023218,3.2741831395631804,-4.290711367315656,25.692282596791472,31.583775071811083,0.0,1.0,10.33130400584621,16.87464371126436,0.0,Landing
8.3,-163.2046339463969,-1132.9218447405765,154.38311157262706,2.9486144953087012,-4.718996431811225,25.60430280599695,31.480835709387204,0.0,1.0,10.33130400584621,16.87464371126436,0.0,Landing
8.4,-165.12953726939702,-1143.2547320742003,155.31758852976492,3.740702152545017,-4.630082178215556,25.42760437839695,31.733983865730725,0.0,1.0,10.33130400584621,16.87464371126436,0.0,Landing
8.5,-167.0613344983854,-1153.9558604385204,155.78828785459825,3.9732252070985252,-4.51263703984053,25.61021555797248,32.12773223958157,0.0,1.0,10.33130400584621,16.87464371126436,0.0,Landing
8.6,-168.9744132485895,-1145.2052986555486,154.35155565788767,3.7059779775730557,-4.286790421401036,25.948875301854912,32.1909915046225,0.0,1.0,10.33130400584621,16.87464371126436,0.0,Landing
8.700000000000001,-170.85556376267476,-1128.902852269914,152.71784350705545,3.448706159524096,-4.473954868748233,25.776401609977768,31.92649043002557,0.0,1.0,10.33130400584621,16.87464371126436,0.0,Landing
8.8,-172.70584875973498,-1133.2196976423518,154.31777008981126,3.411678060443552,-4.535721446291357,25.796883344907883,31.759663540267645,0.0,1.0,10.33130400584621,16.87464371126436,0.0,Landing
8.9,-174.64051173680127,-1158.3161499288337,153.31995044871832,3.819215925024164,-4.820292074509151,25.890685249194064,31.80257527904325,0.0,1.0,10.33130400584621,16.87464371126436,0.0,Landing
9.0,-176.64714451231893,-1160.2153981003994,155.43411420564,3.469861881661805,-4.670023761649464,25.674810998251246,31.859802574472248,0.0,1.0,10.33130400584621,16.87464371126436,0.0,Landing
9.1,-178.50692575023697,-1155.1039932506285,151.44463223669158,3.271460682793112,-4.966350935266859,25.783829591917822,31.467939186367797,0.0,1.0,10.33130400584621,16.87464371126436,0.0,Landing
9.200000000000001,-180.41603170305441,-1128.0907579057045,152.96719223837258,3.644134885968609,-4.761131702402287,25.597099628769172,31.99911063549872,0.0,1.0,10.33130400584621,16.87464371126436,0.0,Landing
9.3,-182.28759830184745,-1125.2754091168015,154.55493425221056,3.685515956635096,-4.404633635820189,25.62213118418532,31.940232624906503,0.0,1.0,10.33130400584621,16.87464371126436,0.0,Landing
9.4,-184.13330279582098,-1131.4071094396866,153.7838471657294,3.0510263192481535,-4.771067128336137,25.631509890220457,32.4752382317113,0.0,1.0,10.33130400584621,16.87464371126436,0.0,Landing
9.5,-186.07306725025285,-1105.7452075444528,155.02615745022914,3.701460671888312,-4.626853901539083,25.724750868496585,31.737526413707407,0.0,1.0,10.33130400584621,16.87464371126436,0.0,Landing
9.600000000000001,-187.81632433956972,-1112.1514552270128,155.64022703047766,3.701216520472675,-4.729784819066438,25.62424159361018,32.66031404267137,0.0,1.0,10.33130400584621,16.87464371126436,0.0,Landing
9.700000000000001,-189.69406007195605,-1090.8839441440534,153.35206333487653,3.294206789750952,-4.319554101519584,25.77352312334142,31.74249679260722,0.0,1.0,10.33130400584621,16.87464371126436,0.0,Landing
9.8,-191.52748697097311,-1132.0500302849894,155.52849244993513,3.2095070466265945,-4.560777565015142,25.639032732157318,32.15300018293331,0.0,1.0,10.33130400584621,16.87464371126436,0.0,Landing
9.9,-193.47657449099466,-1145.102327296189,154.6532651686851,3.734513305453654,-4.37133210368441,25.54958279395879,32.0343115898759,0.0,1.0,10.33130400584621,16.87464371126436,0.0,Landing
10.0,-195.419571708437,-1168.2412355287227,153.80256930851965,3.19926702852609,-4.552773120598544,25.661538587268126,32.067951063463,0.0,1.0,10.33130400584621,16.87464371126436,0.0,Landing
10.100000000000001,-197.36869314861673,-1159.872863260506,155.7051572255345,3.147612000715047,-4.714004706235552,25.54476116397666,31.99474207728231,0.0,1.0,10.33130400584621,16.87464371126436,0.0,Landing
10.200000000000001,-199.2759388072972,-1143.4015767176163,153.2601148761911,3.437171593135938,-4.504551309882981,25.588221184997167,31.95714226491337,0.0,1.0,10.33130400584621,16.87464371126436,0.0,Landing
10.3,-201.13657959202507,-1151.8928390621056,152.03069528090418,3.4552657381223364,-4.594862810771083,25.78983534036354,32.358630130189965,0.0,1.0,10.33130400584621,16.87464371126436,0.0,Landing
10.4,-203.12815734392726,-1144.7066508734736,155.88044137054868,3.7578586350254795,-4.5391730779238415,25.551970103806184,32.1686374127655,0.0,1.0,10.33130400584621,16.87464371126436,0.0,Landing
10.5,-204.99947206166456,-1147.349000754218,152.96314526892127,3.4800293090020773,-4.4022309092494,25.680115195085648,31.532858106443495,0.0,1.0,10.33130400584621,16.87464371126436,0.0,Landing
10.600000000000001,-206.87332459579616,-1135.9008532349037,154.6582410918086,3.6808444494013277,-4.649462341041362,25.59654553063831,32.09167985586774,0.0,1.0,10.33130400584621,16.87464371126436,0.0,Landing
10.700000000000001,-208.80766161010177,-1148.657707527775,153.81015553922518,3.5750440067164444,-4.349018543895899,25.785781484896006,32.1335139865243,0.0,1.0,10.33130400584621,16.87464371126436,0.0,Landing
10.8,-210.74276059930344,-1149.4100913936165,153.75241160091005,3.38321037778682,-4.37707179550842,25.768058489446616,31.20698216952431,0.0,1.0,10.33130400584621,16.87464371126436,0.0,Landing
10.9,-212.62037505276425,-1140.862201554512,153.7085563722758,3.5415597360225384,-4.640114671149813,25.944097510621305,31.5459488021216,0.0,1.0,10.33130400584621,16.87464371126436,0.0,Landing
11.0,-214.51197261787433,-1132.1156058062854,154.1006611807093,3.707174343636333,-4.550238835006797,25.85843397773067,31.960618524564513,0.0,1.0,10.33130400584621,16.87464371126436,0.0,Landing
11.100000000000001,-216.40333862833486,-1140.6635844457412,153.62108618760817,3.6741901988543395,-4.406707810313051,25.789917419393532,31.825092847876334,0.0,1.0,10.33130400584621,16.87464371126436,0.0,Landing
11.200000000000001,-218.32369297499295,-1133.417946824494,153.7618855033715,3.603697957562179,-4.5528234053109164,25.654909921633077,32.07072559924627,0.0,1.0,10.33130400584621,16.87464371126436,0.0,Landing
11.3,-220.1790623519968,-1130.882611744272,154.63115800714831,3.934564227663746,-4.736561216133627,25.56160180499711,32.79977566158987,0.0,1.0,10.33130400584621,16.87464371126436,0.0,Landing
11.4,-222.05775168705622,-1110.1803189852828,151.837449779884,3.373197395114974,-4.951666530419436,26.006539715222345,32.13807111961561,0.0,1.0,10.33130400584621,16.87464371126436,0.0,Landing
11.5,-223.87459456991937,-1107.8712457301092,155.04987104122836,3.2635767819005097,-4.682224431773585,25.71816108398974,32.01103382854859,0.0,1.0,10.33130400584621,16.87464371126436,0.0,Landing
11.600000000000001,-225.71841858064735,-1101.2697814253897,154.80737873271562,3.5596528920564827,-4.918706527798896,25.89039112598232,31.858598508529553,0.0,1.0,10.33130400584621,16.87464371126436,0.0,Landing
11.700000000000001,-227.56410059418317,-1112.5418925581587,154.25641940887823,3.1378680949660906,-4.6728719458946575,26.107545828686796,31.842605401230163,0.0,1.0,10.33130400584621,16.87464371126436,0.0,Landing
11.8,-229.43730403271016,-1129.118296040241,153.84250076871243,3.678165903445224,-4.6572597101886455,25.921646648402657,31.970253071181038,0.0,1.0,10.33130400584621,16.87464371126436,0.0,Landing
11.9,-231.36401006084856,-1121.349530392689,154.17679460312837,3.289388461322427,-4.688449686601793,25.574990570076068,31.76255365791057,0.0,1.0,10.33130400584621,16.87464371126436,0.0,Landing
12.0,-233.17084824614662,-1115.995360626209,154.37788432212173,3.595624234319303,-4.3510302610443095,25.795028440887165,31.72263552518136,0.0,1.0,10.33130400584621,16.87464371126436,0.0,Landing
12.100000000000001,-235.0172808358412,-1091.1388087853084,154.72036126705328,3.4665086354669388,-4.92073711991195,25.67978475412974,31.84737922769925,0.0,1.0,10.33130400584621,16.87464371126436,0.0,Landing
12.200000000000001,-236.8197041047751,-1089.9538226782113,155.3848663395946,3.6745682314477426,-4.6432275187400185,25.699780543862516,31.93575756515507,0.0,1.0,10.33130400584621,16.87464371126436,0.0,Landing
12.3,-238.62061735953768,-1091.22742998332,154.5052972249113,3.7746719716565154,-4.6942744685681514,25.827096449584985,32.43104411182984,0.0,1.0,10.33130400584621,16.87464371126436,0.0,Landing
12.4,-240.4734179857578,-1114.9529255385005,154.8854174144117,3.4572461283889337,-4.469953594877969,25.465096492360544,32.14208767912184,0.0,1.0,10.33130400584621,16.87464371126436,0.0,Landing
12.5,-242.3944687324676,-1116.52795764374,153.82390300229477,3.438581432242587,-4.60723204697917,25.973107219500093,32.18379010193601,0.0,1.0,10.33130400584621,16.87464371126436,0.0,Landing
12.600000000000001,-244.20325714775637,-1130.7045937854355,154.53944894991614,3.272552862904751,-4.660420577677523,25.755093473116233,31.564525940130515,0.0,1.0,10.33130400584621,16.87464371126436,0.0,Landing
12.700000000000001,-246.12694095468498,-1144.5150412424653,155.40372314085252,3.6850782929880856,-4.510334400274721,25.80301996026668,31.627638685511933,0.0,1.0,10.33130400584621,16.87464371126436,0.0,Landing
12.8,-248.11704393867993,-1153.8712012970166,154.68369625023354,3.3965657886340055,-4.404130262143498,25.680434472587933,32.01296752508735,0.0,1.0,10.33130400584621,16.87464371126436,0.0,Landing
12.9,-249.97261315424146,-1136.37534032884,154.14001986611538,3.7559031413428094,-4.276549431465806,25.667621536424974,31.555162751937413,0.0,1.0,10.33130400584621,16.87464371126436,0.0,Landing
13.0,-251.80881765632918,-1111.8532906484916,155.45554348712201,3.5304336724992362,-4.675694895857368,25.958773107563047,31.872620857445117,0.0,1.0,10.33130400584621,16.87464371126436,0.0,Landing
13.100000000000001,-253.67631039192239,-1113.2312727495787,153.20546266157652,3.5918687717308297,-4.543114880060737,25.7897472997779,31.5377535643517,0.0,1.0,10.33130400584621,16.87464371126436,0.0,Landing
13.200000000000001,-255.53876951798935,-1122.43296830772,153.61910140044984,3.576724296036571,-4.828285842268393,25.677254009880983,31.891854466818938,0.0,1.0,10.33130400584621,16.87464371126436,0.0,Landing
13.3,-257.4209824978678,-1125.0207575877141,155.60843532253742,3.3214751149696546,-4.532210649989409,25.57028766206446,32.18798907422667,0.0,1.0,10.33130400584621,16.87464371126436,0.0,Landing
13.4,-259.30141417986096,-1109.1804636443271,153.77113782509167,3.3508148661592427,-4.632986732586018,25.723768931346683,32.47217128651402,0.0,1.0,10.33130400584621,16.87464371126436,0.0,Landing
13.5,-261.084671836211,-1105.5995493390355,153.65275328031623,3.7239858495878786,-4.629681034593079,25.765322187367758,31.892627596950486,0.0,1.0,10.33130400584621,16.87464371126436,0.0,Landing
13.600000000000001,-262.94898024456296,-1089.9284238375685,154.33708103372263,3.453018782770814,-4.727469422819381,25.548816573739657,31.872524760520516,0.0,1.0,10.33130400584621,16.87464371126436,0.0,Landing
13.700000000000001,-264.7510562990488,-1090.171498638756,153.39907730534577,3.4363424653674826,-4.796530530901975,26.01213726676633,32.28793963761872,0.0,1.0,10.33130400584621,16.87464371126436,0.0,Landing
13.8,-266.53552932940477,-1076.2091458445184,155.01268657773707,3.3772178816192953,-4.658840459256407,25.760437828934187,32.39030920877285,0.0,1.0,10.33130400584621,16.87464371126436,0.0,Landing
13.9,-268.33002597378555,-1052.0459787044615,154.88506802065817,3.3262684010675136,-4.855533117697872,25.462021849370842,31.726135469374096,0.0,1.0,10.33130400584621,16.87464371126436,0.0,Landing
14.0,-270.0112861925711,-1068.7548621189762,154.7007584685552,3.43280549550594,-4.6152907513115675,25.869283731235782,32.450607141396894,0.0,1.0,10.33130400584621,16.87464371126436,0.0,Landing
14.100000000000001,-271.87930363999965,-1068.464252238516,156.56757633615314,3.534091596358884,-4.491055393269061,25.67564507712558,31.95178399772289,0.0,1.0,10.33130400584621,16.87464371126436,0.0,Landing
14.200000000000001,-273.67234723497813,-1110.0258954529295,154.44606824952433,3.3764242960563466,-4.7293145350960435,25.79386805953095,31.904312937636405,0.0,1.0,10.33130400584621,16.87464371126436,0.0,Landing
14.3,-275.56141566983575,-1111.9701659037219,154.42199233251634,3.683330931196245,-4.692789997651508,25.8560626007706,31.737065699884,0.0,1.0,10.33130400584621,16.87464371126436,0.0,Landing
14.4,-277.43915446951826,-1122.4678000036079,154.65298602189662,3.0275222743492494,-4.229695590748821,25.504510640924423,31.993469487321555,0.0,1.0,10.33130400584621,16.87464371126436,0.0,Landing
14.5,-279.2846862349962,-1093.821405329163,153.26089835949605,3.735660911252074,-4.614394297655955,25.979965838496355,32.160417674613655,0.0,1.0,10.33130400584621,16.87464371126436,0.0,Landing
14.600000000000001,-281.03052269648157,-1076.78081918707,153.63148406090306,3.4383647686389613,-4.388813283408055,25.76204720032092,31.653386567018863,0.0,1.0,10.33130400584621,16.87464371126436,0.0,Landing
14.700000000000001,-282.8230585654536,-1073.3820441458079,155.79250304872454,3.7379816024437647,-4.704760257185642,26.056100221788824,31.50046325673292,0.0,1.0,10.33130400584621,16.87464371126436,0.0,Landing
14.8,-284.6515964557252,-1113.8054589458761,154.1660998083416,3.5440760012153403,-4.27640878054631,25.996571782634646,31.5586598919895,0.0,1.0,10.33130400584621,16.87464371126436,0.0,Landing
14.9,-286.59954999121095,-1112.7545379578237,154.5672331017593,3.776137691772895,-4.580629946996696,25.791316366581782,31.750435300984005,0.0,1.0,10.33130400584621,16.87464371126436,0.0,Landing
15.0,-288.3868312552427,-1114.5513436370834,153.0877679641053,3.58852444510654,-4.285658253879587,25.64140218755358,31.991101259843955,0.0,1.0,10.33130400584621,16.87464371126436,0.0,Landing
15.100000000000001,-290.22435317391063,-1084.330114588738,154.2682721737697,3.5423276068070115,-4.383144453563069,25.577344832547396,31.731693219298283,0.0,1.0,10.33130400584621,16.87464371126436,0.0,Landing
15.200000000000001,-292.02120056415464,-1086.4346405514539,155.11478905770358,3.4428492070252568,-4.623997747284422,25.694755722086597,32.163289092694505,0.0,1.0,10.33130400584621,16.87464371126436,0.0,Landing
15.3,-293.819004458,-1074.9646058860549,155.30691907022242,3.4413383826574213,-4.57723860156408,25.618596014487082,32.16481231914729,0.0,1.0,10.33130400584621,16.87464371126436,0.0,Landing
15.4,-295.5991762033409,-1072.9284060033592,154.18942113040157,3.4090120664635593,-4.098800200711452,25.65585129753225,32.11359755454978,0.0,1.0,10.33130400584621,16.87464371126436,0.0,Landing
15.5,-297.38584259417144,-1067.1879616440378,154.0016647382549,3.920126689097674,-5.031824150403328,25.830473472450535,31.705744783732595,0.0,1.0,10.33130400584621,16.87464371126436,0.0,Landing
15.600000000000001,-299.1549442662202,-1077.3665807758334,154.00039529526026,3.413556547565989,-4.315197333604586,25.890802289710678,32.37922662626655,0.0,1.0,10.33130400584621,16.87464371126436,0.0,Landing
15.700000000000001,-300.98600910722007,-1075.129769850696,153.00311582866377,3.6970582294758962,-4.534019852942884,25.837629766998987,32.29224913841323,0.0,1.0,10.33130400584621,16.87464371126436,0.0,Landing
15.8,-302.7614914434249,-1079.3383905709902,151.96596007643885,3.0663320753745382,-4.437889998329879,25.453084497950954,32.59098902207137,0.0,1.0,10.33130400584621,16.87464371126436,0.0,Landing
15.9,-304.55163621907514,-1067.2139594953933,153.85432225269759,3.321459498638669,-4.765816035702246,25.80740418577227,32.260485060854,0.0,1.0,10.33130400584621,16.87464371126436,0.0,Landing
16.0,-306.32207890469704,-1086.483455325299,154.75647477281035,3.3297615256870334,-4.473527224906785,25.72737887687822,31.82103209291074,0.0,1.0,10.33130400584621,16.87464371126436,0.0,Landing
16.1,-308.1939087200514,-1084.8925652913294,155.3160848186655,3.3572405385411637,-4.390352578411531,25.977133235373515,32.15852751737451,0.0,1.0,10.33130400584621,16.87464371126436,0.0,Landing
16.2,-309.9760990455318,-1086.5700609170517,155.1994627587862,3.682749247199604,-4.55152523584692,25.915458461240576,31.653155882235534,0.0,1.0,10.33130400584621,16.87464371126436,0.0,Landing
16.3,-311.7549292092823,-1079.8617846893535,155.96409290338036,3.5668641987663974,-4.613225687997146,25.844000384177036,31.751738002424727,0.0,1.0,10.33130400584621,16.87464371126436,0.0,Landing
16.400000000000002,-313.5932176434982,-1075.1391999999214,152.4298648269429,3.522507750045173,-4.601588215374535,25.65554773422798,32.16098084910247,0.0,1.0,10.33130400584621,16.87464371126436,0.0,Landing
16.5,-315.3517950455314,-1075.066790911012,155.5180707452125,2.9655017546719162,-4.5085928504738435,25.7853999708189,32.0854178077569,0.0,1.0,10.33130400584621,16.87464371126436,0.0,Landing
16.6,-317.13026316383736,-1060.0141300328005,153.75637484283672,3.4240212771257914,-4.827292751532618,25.75047042606917,31.74830584491372,0.0,1.0,10.33130400584621,16.87464371126436,0.0,Landing
16.7,-318.8932882936622,-1068.8228298306626,153.557635257159,3.678373168872413,-4.928938560271292,25.850659532226928,32.105678393889704,0.0,1.0,10.33130400584621,16.87464371126436,0.0,Landing
16.8,-320.6959091946847,-1079.5728212219046,155.14089646301434,3.5677580724329254,-4.679219806469945,25.735710417900464,31.829737658609712,0.0,1.0,10.33130400584621,16.87464371126436,0.0,Landing
16.900000000000002,-322.5281272699469,-1080.0123409320122,154.24408227775797,3.3911833412854664,-4.706247448899739,25.298039006723684,31.917557710967397,0.0,1.0,10.33130400584621,16.87464371126436,0.0,Landing
17.0,-324.29334999832224,-1084.54220297466,154.7125908241364,3.2872189283037603,-4.538934943860937,25.941030291380514,31.804411519557206,0.0,1.0,10.33130400584621,16.87464371126436,0.0,Landing
17.1,-326.118620209558,-1069.8986628409784,152.8726926145448,2.9233859847760515,-4.689937828296477,25.873567985497516,31.98771911595189,0.0,1.0,10.33130400584621,16.87464371126436,0.0,Landing
17.2,-327.87762058415177,-1073.5841537082706,155.82641134191152,3.2921213292634635,-4.729859427167012,25.908817749667662,32.48726099226002,0.0,1.0,10.33130400584621,16.87464371126436,0.0,Landing
17.3,-329.6612707668636,-1067.4422832863115,152.3884372052751,3.7700354069271214,-4.718436260067578,25.711330675946556,32.185959333870166,0.0,1.0,10.33130400584621,16.87464371126436,0.0,Landing
17.400000000000002,-331.45583162598956,-1078.1731455755903,152.6935268519793,3.775845469816958,-4.933272278398433,25.56447502079675,31.856223229873144,0.0,1.0,10.33130400584621,16.87464371126436,0.0,Landing
17.5,-333.2684863120297,-1070.0720278886024,153.0995020361008,3.6713664509563992,-4.7170753783204855,25.761338810840186,31.479146447818444,0.0,1.0,10.33130400584621,16.87464371126436,0.0,Landing
17.6,-335.0116309063066,-1070.3747325754307,152.96841037485856,3.6382550282947648,-4.48063478570872,25.83364508440394,32.51067945489248,0.0,1.0,10.33130400584621,16.87464371126436,0.0,Landing
17.7,-336.8077052888667,-1061.2120459529706,152.29168090847378,3.5505495154147004,-4.4064977100552,25.68772713620183,31.91002099341845,0.0,1.0,10.33130400584621,16.87464371126436,0.0,Landing
17.8,-338.5745465417946,-1080.1787279901419,154.60154718166078,3.5096458749293102,-4.235152938550011,25.577671945697944,32.08477086938518,0.0,1.0,10.33130400584621,16.87464371126436,0.0,Landing
17.900000000000002,-340.4125245462573,-1089.8392800491933,154.8481908328382,3.8104226621468946,-4.6367521801066935,25.577982190035584,32.26460778014531,0.0,1.0,10.33130400584621,16.87464371126436,0.0,Landing
18.0,-342.2569016891127,-1089.0036032942476,155.84975765990313,3.1137706554085662,-4.007676656837087,25.788683054930175,32.16957155344211,0.0,1.0,10.33130400584621,16.87464371126436,0.0,Landing
18.1,-344.0195645582658,-1073.457354063487,154.68878537490937,3.4961285442552437,-4.907548530598795,25.796650475255433,31.902604666689058,0.0,1.0,10.33130400584621,16.87464371126436,0.0,Landing
18.2,-345.77981131657475,-1054.7165741282015,151.95981365704984,3.107766272311712,-4.689967511918515,25.87231252937454,31.78176772177425,0.0,1.0,10.33130400584621,16.87464371126436,0.0,Landing
18.3,-347.5304845597537,-1067.7904877065089,155.07041347222872,3.514920634307445,-4.464069153406783,25.725949936961,31.886955879022505,0.0,1.0,10.33130400584621,16.87464371126436,0.0,Landing
18.400000000000002,-349.35851699679836,-1066.4677414422385,154.3353363585715,3.3987982014801257,-4.447991203905466,25.634835302507895,32.67981247277249,0.0,1.0,10.33130400584621,16.87464371126436,0.0,Landing
18.5,-351.11215002378594,-1054.1828411910956,154.08585749998852,3.181237165011098,-4.364800117742845,25.89173003638905,32.01445469734544,0.0,1.0,10.33130400584621,16.87464371126436,0.0,Landing
18.6,-352.80139876570917,-1038.7680061412084,152.29015044983717,3.3800728665970867,-4.897672146955968,25.854884121734074,32.11200290260427,0.0,1.0,10.33130400584621,16.87464371126436,0.0,Landing
18.7,-354.5523570275044,-1052.1708546054015,154.04606043111957,3.2835264236481434,-4.579774222766088,25.731925035583288,31.486796533134328,0.0,1.0,10.33130400584621,16.87464371126436,0.0,Landing
18.8,-356.37300429681295,-1067.752588219696,153.6928415528696,3.66916871672277,-4.584664032211132,25.473626276256482,32.098858975146804,0.0,1.0,10.33130400584621,16.87464371126436,0.0,Landing
18.900000000000002,-358.14016170680765,-1062.4653490339028,156.4829670129445,3.4229756736108876,-4.419289168725311,25.67971451095383,32.091065256103235,0.0,1.0,10.33130400584621,16.87464371126436,0.0,Landing
19.0,-359.8646837726739,-1053.542133862311,153.99761377157446,3.545189702667816,-4.49508963125384,25.93084368104269,31.736224078680475,0.0,1.0,10.33130400584621,16.87464371126436,0.0,Landing
19.1,-361.6407149661245,-1063.5688929595403,152.09072869970512,3.315466079134894,-4.286871041243813,25.818273172148338,32.443919736025784,0.0,1.0,10.33130400584621,16.87464371126436,0.0,Landing
19.200000000000003,-363.45800617160535,-1074.985563572659,153.44503754862973,3.530831688460526,-4.856721074940086,25.685429950974196,32.006981113769136,0.0,1.0,10.33130400584621,16.87464371126436,0.0,Landing
19.3,-365.2396115905372,-1075.7221786131595,155.20023510946044,3.106280738907051,-4.472612495492068,25.730580786036285,32.14084730471785,0.0,1.0,10.33130400584621,16.87464371126436,0.0,Landing
19.400000000000002,-367.0193258591903,-1068.422651334015,153.6643426419289,3.7715170486032292,-4.726839117061778,25.918562665188347,32.02613388345209,0.0,1.0,10.33130400584621,16.87464371126436,0.0,Landing
19.5,-368.8001194282754,-1053.1071794875288,156.08684435007171,3.6426538312269043,-4.286906074301939,25.66114184817434,31.324889275384493,0.0,1.0,10.33130400584621,16.87464371126436,0.0,Landing
19.6,-370.50514748797485,-1052.5884315386406,154.5535877824046,3.4239575608663695,-4.435858960613129,25.74043825405664,32.38030297711342,0.0,1.0,10.33130400584621,16.87464371126436,0.0,Landing
19.700000000000003,-372.2822680168835,-1056.1491985773728,153.25407921318134,3.668310996577301,-4.614649687073689,25.755802702447056,32.15716567669112,0.0,1.0,10.33130400584621,16.87464371126436,0.0,Landing
19.8,-374.0808654211623,-1056.2816233093145,156.33781899199204,3.528703166003437,-4.566246878783135,25.80289424507282,31.835523753973973,0.0,1.0,10.33130400584621,16.87464371126436,0.0,Landing
19.900000000000002,-375.7865556045214,-1052.5541316941485,151.54217731579476,3.505713349892788,-4.630691820374481,25.500489100216384,31.729771677419176,0.0,1.0,10.33130400584621,16.87464371126436,0.0,Landing
20.0,-377.54503867535425,-1044.7125277834175,153.50302155711336,3.723884964041567,-4.842282016635735,25.629302596312527,32.29694885976043,0.0,1.0,10.33130400584621,16.87464371126436,0.0,Landing
20.1,-379.3044280600794,-1043.1082480079453,155.17635867827926,3.721196841991425,-4.442728402900894,25.577907449625116,31.77813642726731,0.0,1.0,10.33130400584621,16.87464371126436,0.0,Landing
20.200000000000003,-381.00209684456115,-1037.2530473243728,155.2042034883305,3.3137151444591133,-4.945330648889013,25.673921681142076,32.083191324218774,0.0,1.0,10.33130400584621,16.87464371126436,0.0,Landing
20.3,-382.7313039119761,-1026.1773283924185,155.09848838060572,3.5496992159070153,-4.238039112847326,25.951363456931972,32.081593773376824,0.0,1.0,10.33130400584621,16.87464371126436,0.0,Landing
20.400000000000002,-384.43531470204147,-1023.9340193762246,153.8377319024151,3.5232267387597624,-4.6027709525838185,25.893263940831844,31.810589802458622,0.0,1.0,10.33130400584621,16.87464371126436,0.0,Landing
20.5,-386.1217669414423,-1028.2529335905338,153.64193723131086,3.505350272586423,-4.890037860155081,25.84815598611175,31.988772737647956,0.0,1.0,10.33130400584621,16.87464371126436,0.0,Landing
20.6,-387.8725685799288,-1050.9357597207213,154.26230930841302,3.4923479728490023,-4.715761740169592,25.880085947872146,31.627665318177787,0.0,1.0,10.33130400584621,16.87464371126436,0.0,Landing
20.700000000000003,-389.6899935006451,-1084.8665947738823,154.7307345906464,3.7655870834699905,-4.803137653629558,25.765989496086945,31.90709119100503,0.0,1.0,10.33130400584621,16.87464371126436,0.0,Landing
20.8,-391.5460999153117,-1076.2363826579872,153.8992713380005,3.1413877491010607,-4.571439002613621,25.670079076328193,32.15615210094315,0.0,1.0,10.33130400584621,16.87464371126436,0.0,Landing
20.900000000000002,-393.2537504932187,-1057.372141779831,155.85133205210784,3.6285041491601313,-4.554253453030272,25.823391905538926,31.98267676756039,0.0,1.0,10.33130400584621,16.87464371126436,0.0,Landing
21.0,-394.97685420954423,-1040.1918905091065,153.77316719366036,3.7706171728397835,-4.270399314623386,25.8535176391718,31.810398133341533,0.0,1.0,10.33130400584621,16.87464371126436,0.0,Landing
21.1,-396.7470593678572,-1043.127105021597,154.6677397117223,3.535483787591449,-4.6052483686833945,25.93321321741854,31.605484204837857,0.0,1.0,10.33130400584621,16.87464371126436,0.0,Landing
21.200000000000003,-398.4693860183267,-1028.6794147845967,153.01420937915663,3.4135408019616054,-4.4927328938388715,25.744007630718215,31.777072826122883,0.0,1.0,10.33130400584621,16.87464371126436,0.0,Landing
21.3,-400.1202512834672,-1025.8698621502617,153.9180415032606,3.663411904112091,-4.683760808744514,25.803463175963998,31.37603812354185,0.0,1.0,10.33130400584621,16.87464371126436,0.0,Landing
21.400000000000002,-401.8764086786085,-1039.5590097651393,154.84038315257612,3.9353851858618336,-4.429309127354308,25.70297044643212,32.236735943194034,0.0,1.0,10.33130400584621,16.87464371126436,0.0,Landing
21.5,-403.6671810671524,-1066.6005578911609,153.25227662021317,3.6024562056459306,-4.698047845495537,25.793064412538286,32.08056971168984,0.0,1.0,10.33130400584621,16.87464371126436,0.0,Landing
21.6,-405.453254072923,-1065.861881772048,153.54113155114186,3.533927832349004,-4.742466352843799,25.616962658869227,32.06501381282567,0.0,1.0,10.33130400584621,16.87464371126436,0.0,Landing
21.700000000000003,-407.20571808746877,-1059.7514747701211,154.43014459341921,3.623302843792341,-4.798633076538608,25.536897477149807,32.20585324527175,0.0,1.0,10.33130400584621,16.87464371126436,0.0,Landing
21.8,-408.965938441003,-1032.3628900777976,154.7390779178286,3.1616058405823364,-4.415963794931434,25.44211045404967,31.72446084838473,0.0,1.0,10.33130400584621,16.87464371126436,0.0,Landing
21.900000000000002,-410.615068523312,-1018.8863142179912,152.30535890278153,3.7545275999661083,-4.459757641534877,25.852961578960503,31.845375367949785,0.0,1.0,10.33130400584621,16.87464371126436,0.0,Landing
22.0,-412.3001496585587,-1008.543075079649,154.22702747198238,3.6373730394490797,-5.008647910380984,25.952836059087474,31.987013959923175,0.0,1.0,10.33130400584621,16.87464371126436,0.0,Landing
22.1,-414.00865381640125,-1017.4548741904914,154.7485767752295,3.4098629778005844,-4.1043868182416,25.91197810738123,31.473259222889908,0.0,1.0,10.33130400584621,16.87464371126436,0.0,Landing
22.200000000000003,-415.70234289426446,-1013.9577707240846,155.22150600950565,3.3423615268779727,-4.471441105594454,25.78068070243512,32.473728376271886,0.0,1.0,10.33130400584621,16.87464371126436,0.0,Landing
22.3,-417.36993851217915,-1024.2198559844041,154.84639025530947,3.6112149937801097,-4.660132798406683,25.537785550560272,32.27154211173738,0.0,1.0,10.33130400584621,16.87464371126436,0.0,Landing
22.400000000000002,-419.12975309632327,-1035.6186199124977,154.6117512409301,3.915890075429279,-4.622550873718925,25.774234155043246,32.00319846612419,0.0,1.0,10.33130400584621,16.87464371126436,0.0,Landing
22.5,-420.88043599382695,-1047.3712069513795,153.4042280326488,3.6764144013147804,-4.144365603178795,25.694426663370393,32.05305193685474,0.0,1.0,10.33130400584621,16.87464371126436,0.0,Landing
22.6,-422.60679454693604,-1047.9387529154906,155.28703448369336,3.640749474948059,-4.5668279618596355,25.78256439033322,32.778539902487516,0.0,1.0,10.33130400584621,16.87464371126436,0.0,Landing
22.700000000000003,-424.3694468609007,-1045.0573177140654,154.67261573611162,3.6927661576176427,-4.506446957869665,25.550752635092067,31.635168529591702,0.0,1.0,10.33130400584621,16.87464371126436,0.0,Landing
22.8,-426.1057225823973,-1042.4041606519495,155.27682173870912,3.4891742591252366,-4.466627122884245,25.4700464226363,31.921507083517522,0.0,1.0,10.33130400584621,16.87464371126436,0.0,Landing
22.900000000000002,-427.8188153501958,-1041.829460222823,154.06995733502814,3.521411836539409,-4.219909771126876,25.815404203191065,31.63725640813607,0.0,1.0,10.33130400584621,16.87464371126436,0.0,Landing
23.0,-429.57859416201484,-1032.68579652281,155.3286971458563,3.232360363176165,-4.414596633605337,25.876615554072544,32.08859547831239,0.0,1.0,10.33130400584621,16.87464371126436,0.0,Landing
23.1,-431.2691515650113,-1028.600616163385,155.40366264281332,3.5804608499709984,-4.417084013963338,25.856566278505852,31.781595695626084,0.0,1.0,10.33130400584621,16.87464371126436,0.0,Landing
23.200000000000003,-432.9618184310127,-1015.4209774350534,154.76778009009678,3.6808137130843446,-4.8875645414285005,25.622671880384075,31.492263696470623,0.0,1.0,10.33130400584621,16.87464371126436,0.0,Landing
23.3,-434.6556990491901,-1026.0744139348958,153.7174235815595,3.4581345072048357,-4.451039356460195,25.626131441547614,32.24728567857864,0.0,1.0,10.33130400584621,16.87464371126436,0.0,Landing
23.400000000000002,-436.3995236346858,-1026.1476499559876,153.83644966614102,3.4964503499245048,-4.449758324972468,25.957140038546243,32.07260248982643,0.0,1.0,10.33130400584621,16.87464371126436,0.0,Landing
23.5,-438.09255668079265,-1035.290543139672,154.42255462583142,3.526250412434902,-4.511431225763987,25.933618105155233,32.1583949449857,0.0,1.0,10.33130400584621,16.87464371126436,0.0,Landing
23.6,-439.83215176488847,-1035.2981196068072,154.72834944592026,3.2712447652949095,-4.404160537611002,25.768161991472084,32.61701172739369,0.0,1.0,10.33130400584621,16.87464371126436,0.0,Landing
23.700000000000003,-441.57601423271984,-1042.2455693063966,154.84708361527123,3.6822076525455345,-4.210759845942217,25.524677835224338,32.42772715620856,0.0,1.0,10.33130400584621,16.87464371126436,0.0,Landing
23.8,-443.30378452732464,-1046.7337228210795,153.22498161266628,3.7177078599496673,-4.340390833436025,25.812024871327765,31.73811253843696,0.0,1.0,10.33130400584621,16.87464371126436,0.0,Landing
23.900000000000002,-445.06582037899386,-1047.4196003230873,154.2147006412388,3.606329521004105,-4.431909303917618,25.729828449147362,32.01321755108667,0.0,1.0,10.33130400584621,16.87464371126436,0.0,Landing
24.0,-446.8131122343353,-1053.5189614954675,155.40074478842945,3.8260909967921624,-4.5578876650895355,25.92560635418306,31.8219989317733,0.0,1.0,10.33130400584621,16.87464371126436,0.0,Landing
24.1,-448.571379334802,-1053.857465614476,154.60669668632613,3.465398477459406,-4.647790809404719,25.873009976423077,31.853539075660514,0.0,1.0,10.33130400584621,16.87464371126436,0.0,Landing
24.200000000000003,-450.33510770706624,-1061.4447047705653,153.72212366864704,3.7079352512899617,-4.515067444429888,25.689750132871495,31.85122714142656,0.0,1.0,10.33130400584621,16.87464371126436,0.0,Landing
24.3,-452.1203357581881,-1047.843663509036,151.83650537220973,3.352623382910994,-4.756818883020147,25.81192147361685,32.12833395753233,0.0,1.0,10.33130400584621,16.87464371126436,0.0,Landing
24.400000000000002,-453.81059765234716,-1046.0036926342582,152.9803633297529,3.50465776606943,-4.594816597567276,25.792411190907444,31.649782427891317,0.0,1.0,10.33130400584621,16.87464371126436,0.0,Landing
24.5,-455.56512617023753,-1043.4056161599187,153.4814067313915,3.488942170267546,-4.381813026163506,25.7314009452262,32.196869323787396,0.0,1.0,10.33130400584621,16.87464371126436,0.0,Landing
24.6,-457.3373638389877,-1055.4398023115596,153.5514554147977,3.3569146188391015,-4.522684895025937,25.730270892930946,32.01231451662994,0.0,1.0,10.33130400584621,16.87464371126436,0.0,Landing
24.700000000000003,-459.08779666390495,-1060.4581340375603,155.72211411524765,3.4056861477333453,-4.622778572672085,25.980000652388355,32.04600222423025,0.0,1.0,10.33130400584621,16.87464371126436,0.0,Landing
24.8,-460.86741684042534,-1038.571251890903,152.81009514307235,3.5003088805421068,-4.5600272027256095,25.946947732244382,31.763390901467645,0.0,1.0,10.33130400584621,16.87464371126436,0.0,Landing
24.900000000000002,-462.5302200984422,-1024.8463343794697,154.1848706055378,3.7063697879017683,-5.007278923515668,26.07718273795183,32.084547409242994,0.0,1.0,10.33130400584621,16.87464371126436,0.0,Landing
25.0,-464.2120283358023,-1000.2301252656935,153.96929855815824,4.035454294299908,-4.312107816323002,25.680802308711236,31.975193220379115,0.0,1.0,10.33130400584621,16.87464371126436,0.0,Landing
25.1,-465.8685674667538,-1020.7383110501951,152.8191500350347,3.1343109045549298,-4.578824410750719,25.657597650213006,31.89195919279508,0.0,1.0,10.33130400584621,16.87464371126436,0.0,Landing
25.200000000000003,-467.6339116536932,-1016.3179960758043,152.96713460599364,3.5963862971801173,-4.587160233672974,25.648146574826285,31.948493926742973,0.0,1.0,10.33130400584621,16.87464371126436,0.0,Landing
25.3,-469.2936183161813,-1018.6598234636676,153.98640690907382,3.5685979196559265,-4.569543932601358,25.80606184781186,31.922109800495136,0.0,1.0,10.33130400584621,16.87464371126436,0.0,Landing
25.400000000000002,-470.96186658407214,-1011.530632182064,153.2654582587452,3.65798605822775,-4.405777411524817,25.71221142430022,32.23474419714735,0.0,1.0,10.33130400584621,16.87464371126436,0.0,Landing
25.5,-472.6915648146035,-1017.8865819034968,154.33379620194088,3.7109153503883223,-4.528428271675803,25.631367885489,32.039689994810445,0.0,1.0,10.33130400584621,16.87464371126436,0.0,Landing
25.6,-474.3830512256988,-1034.9564711427774,154.778989610791,3.6058717626258496,-4.363691470442808,25.960273722090506,31.705769071920145,0.0,1.0,10.33130400584621,16.87464371126436,0.0,Landing
25.700000000000003,-476.136648939786,-1023.9026228642501,153.6267671005326,3.154768940050588,-4.731145349375149,25.84875266146912,31.69721089241021,0.0,1.0,10.33130400584621,16.87464371126436,0.0,Landing
25.8,-477.81107792892476,-1006.4923381278618,155.00579610005573,3.061148385570298,-4.195345007639468,25.658845806893055,31.579671158133756,0.0,1.0,10.33130400584621,16.87464371126436,0.0,Landing
25.900000000000002,-479.4155129163381,-993.1250635714946,153.90267226351168,3.1328589941876284,-4.493752561175935,25.81864237880893,32.38950041970972,0.0,1.0,10.33130400584621,16.87464371126436,0.0,Landing
26.0,-481.1022742576435,-990.3986421439072,154.94920533745267,3.564547163474432,-4.45529353519195,25.77751081817138,32.40238146279865,0.0,1.0,10.33130400584621,16.87464371126436,0.0,Landing
26.1,-482.7630711396443,-1009.6076708513692,154.24950167708423,3.8765383934390996,-4.172799614736164,25.618387658931624,31.963866212177763,0.0,1.0,10.33130400584621,16.87464371126436,0.0,Landing
26.200000000000003,-484.46355127059496,-1008.7497232118722,156.22297957901105,3.0562043795552576,-4.6575666857641735,25.81581254110489,31.97748964996104,0.0,1.0,10.33130400584621,16.87464371126436,0.0,Landing
26.3,-486.14602287370286,-1026.892386664042,155.3945191843706,3.4564830359140406,-4.541004673213703,25.882769860266137,32.206648736050425,0.0,1.0,10.33130400584621,16.87464371126436,0.0,Landing
26.400000000000002,-487.8975330729645,-1011.9720089851512,154.86085646019362,3.6478938505049565,-4.678056569584161,25.809741114937367,31.535504864379917,0.0,1.0,10.33130400584621,16.87464371126436,0.0,Landing
26.5,-489.5234113155207,-1021.3754251459932,152.71154552310085,3.408334618746087,-4.16400884086507,25.839485261154607,32.08477109254076,0.0,1.0,10.33130400584621,16.87464371126436,0.0,Landing
26.6,-491.2528999994328,-1004.1161658848068,154.2574889849666,3.5766780617707585,-4.433055226489152,25.492562758946008,32.49233471528228,0.0,1.0,10.33130400584621,16.87464371126436,0.0,Landing
26.700000000000003,-492.91811390238854,-1023.1982861162351,153.22148702493587,3.396834066795117,-4.880828944574761,25.675415243278053,31.85311854115172,0.0,1.0,10.33130400584621,16.87464371126436,0.0,Landing
26.8,-494.6394027461019,-1003.2814519357657,156.0884746009553,3.3873427263974127,-4.322149972957729,25.700518205556023,32.01084099207171,0.0,1.0,10.33130400584621,16.87464371126436,0.0,Landing
26.900000000000002,-496.26930725911166,-1018.541247950327,153.5826541653355,3.498150687983323,-5.037974991822231,26.007752581942327,31.618720192626853,0.0,1.0,10.33130400584621,16.87464371126436,0.0,Landing
27.0,-498.0108201421402,-1018.8232824136207,154.4045466386765,3.6173416789899075,-4.487792981677209,25.882807945356035,32.23967414821822,0.0,1.0,10.33130400584621,16.87464371126436,0.0,Landing
27.1,-499.73351915817,-1025.8320197713829,154.32403315322458,3.521299200423621,-4.605159087477894,25.858535070040887,32.363291171926434,0.0,1.0,10.33130400584621,16.87464371126436,0.0,Landing
27.200000000000003,-501.39846735796857,-1016.3969205269382,155.15409458300263,3.381110053318323,-4.39232596686238,25.57677437507823,31.934453485271842,0.0,1.0,10.33130400584621,16.87464371126436,0.0,Landing
27.3,-503.09280474477487,-1005.0102294146654,154.73066262758996,3.2667529663326014,-4.150815119154588,25.83391520439386,32.174504321959986,0.0,1.0,10.33130400584621,16.87464371126436,0.0,Landing
27.400000000000002,-504.7585703052433,-1008.2524152539463,152.3425917549685,3.662419797355908,-4.096760822250676,25.64146228344572,31.792875761158665,0.0,1.0,10.33130400584621,16.87464371126436,0.0,Landing
27.5,-506.4397294342383,-1012.2052182128641,156.02041461852662,3.6234939535378503,-4.960790287354831,25.646183396755703,31.968460052632025,0.0,1.0,10.33130400584621,16.87464371126436,0.0,Landing
27.6,-508.1538308358392,-1003.8411138897345,155.03098834514645,3.7715013057313054,-4.441411002239819,25.741571872156953,32.45083479181241,0.0,1.0,10.33130400584621,16.87464371126436,0.0,Landing
27.700000000000003,-509.777775874692,-1001.7997053506406,154.70509509609346,3.372210645244096,-4.30689401850836,25.873241759883683,32.000106916050186,0.0,1.0,10.33130400584621,16.87464371126436,0.0,Landing
27.8,-511.4487279609915,-984.8722555209292,153.1669787565223,3.2101515725244383,-5.143697280450509,25.934111351063507,31.5305754909991,0.0,1.0,10.33130400584621,16.87464371126436,0.0,Landing
27.900000000000002,-513.0781921134438,-997.1065530645774,153.67121123467373,3.729543290374338,-4.677932107904305,26.024235696525636,32.080572743774525,0.0,1.0,10.33130400584621,16.87464371126436,0.0,Landing
28.0,-514.7633086400149,-988.8847210703034,157.76450234663687,3.6652356988150605,-4.52529954391627,25.728926621142136,31.781055708521354,0.0,1.0,10.33130400584621,16.87464371126436,0.0,Landing
28.1,-516.393151566343,-1000.952211545291,152.80727609291762,3.594386065176429,-4.461676436206542,25.7898104948664,31.60968328451808,0.0,1.0,10.33130400584621,16.87464371126436,0.0,Landing
28.200000000000003,-518.0829531711703,-1002.048852124608,155.20073107536396,3.785848595217659,-4.998928585795776,25.680512545981742,31.98673260413889,0.0,1.0,10.33130400584621,16.87464371126436,0.0,Landing
28.3,-519.7735529006379,-1017.4555510884375,154.66257912128583,3.4970891126894093,-4.814929670532671,25.801650411152707,32.24863716776084,0.0,1.0,10.33130400584621,16.87464371126436,0.0,Landing
28.400000000000002,-521.4804293217852,-1005.5426068681072,154.02174357770232,3.4447746287973247,-4.509882600764865,25.732042036092082,31.764942058695006,0.0,1.0,10.33130400584621,16.87464371126436,0.0,Landing
28.5,-523.1106662055108,-996.4437490926912,153.63861065628095,3.505799790202154,-4.55203939897115,25.64251615390856,32.31252547454284,0.0,1.0,10.33130400584621,16.87464371126436,0.0,Landing
28.6,-524.7557716461014,-986.2239422106768,154.4311862323043,3.2687725861875245,-4.685189390759337,25.44170736179069,32.1470922950983,0.0,1.0,10.33130400584621,16.87464371126436,0.0,Landing
28.700000000000003,-526.4115490328386,-983.0924884648539,153.95196803832025,3.407197800038473,-4.563465757489675,25.709843229201113,31.855225382395588,0.0,1.0,10.33130400584621,16.87464371126436,0.0,Landing
28.8,-528.0261286478351,-992.9716224296271,154.39526865208788,3.9263814791082807,-4.670551673788033,25.5747336715948,32.17622035558863,0.0,1.0,10.33130400584621,16.87464371126436,0.0,Landing
28.900000000000002,-529.7206297582495,-983.7440730265143,154.08432173810027,3.3860686503784496,-4.4085195877615995,25.851239483882352,31.925262164846913,0.0,1.0,10.33130400584621,16.87464371126436,0.0,Landing
29.0,-531.3302693979712,-986.1115004475778,153.93900473836354,3.7589804147989616,-4.9632830393795615,25.73777822083025,32.31203216519336,0.0,1.0,10.33130400584621,16.87464371126436,0.0,Landing
29.1,-532.956686150073,-992.4762786437213,154.9703163128136,3.451182060123683,-4.1454772461651865,25.538669410789396,31.723729572296925,0.0,1.0,10.33130400584621,16.87464371126436,0.0,Landing
29.200000000000003,-534.6830111514681,-979.9090892277263,153.20679936307846,3.3459644756661757,-4.937849983525267,26.044035616628037,31.81561769088775,0.0,1.0,10.33130400584621,16.87464371126436,0.0,Landing
29.3,-536.2298148441098,-998.5936144591506,152.94457566429668,3.3365821721004787,-4.7448705649919996,25.81451368524438,32.73276785030728,0.0,1.0,10.33130400584621,16.87464371126436,0.0,Landing
29.400000000000002,-537.9496542223687,-996.817004600598,155.5833195070115,3.527640712931279,-4.950717008545491,25.984265136870874,31.47498458242861,0.0,1.0,10.33130400584621,16.87464371126436,0.0,Landing
29.5,-539.6670961744711,-1013.4193899633601,153.214875976888,3.369871893542154,-4.064751623567384,25.707802634066354,31.90269649586451,0.0,1.0,10.33130400584621,16.87464371126436,0.0,Landing
29.6,-541.2969117939266,-988.6597564279327,153.8203939292073,4.0759595479544375,-4.753240296435992,25.562378729566433,32.250782257288904,0.0,1.0,10.33130400584621,16.87464371126436,0.0,Landing
29.700000000000003,-542.8929530045084,-968.1193910340653,153.53058878821668,3.9627069947749907,-4.296776722459951,25.670196140179428,32.48377605296154,0.0,1.0,10.33130400584621,16.87464371126436,0.0,Landing
29.8,-544.5076931296414,-986.9570286094586,155.16830247133623,3.2261351444491724,-4.792154382528256,25.871174286397718,32.37569669218944,0.0,1.0,10.33130400584621,16.87464371126436,0.0,Landing
29.900000000000002,-546.2316969369739,-980.6598600646339,156.22884348230377,3.7422575670043488,-4.643301863527413,25.768944880758113,32.01686750086918,0.0,1.0,10.33130400584621,16.87464371126436,0.0,Landing
30.0,-547.7962523048316,-989.3390184006421,153.00392810560265,3.316090859109126,-4.91600240791526,25.594981888941447,31.99813893802934,0.0,1.0,10.33130400584621,16.87464371126436,0.0,Landing
