time_s,altitude_ft,vertical_speed_fpm,ias_kt,pitch_deg,roll_deg,heading_deg,throttle_pct,afterburner_on,gear_down,flaps_deg,speedbrake_pct,weight_on_wheels,label
0.0,0.1042905367000479,-45.01593651732949,15.64932595709254,-0.25815125343053036,-0.09902701791613966,294.6461025521495,21.607344791354404,0.0,1.0,0.0,0.0,1.0,Taxi
0.1,-0.04576258502438374,-55.0786948271514,15.804107348297961,-0.4647042788802038,0.4042258915099802,294.33510168257715,22.429055624815152,0.0,1.0,0.0,0.0,1.0,Taxi
0.2,-0.1711029374357091,-15.934556540806648,15.459995924908544,-0.4115218470517419,-0.2611246724940247,294.3083020935368,21.613393819620985,0.0,1.0,0.0,0.0,1.0,Taxi
0.30000000000000004,0.024617753996014652,25.717071902167394,16.25443676020645,-0.11730589876469105,0.5372088361168895,294.53254280308204,21.19770841834072,0.0,1.0,0.0,0.0,1.0,Taxi
0.4,0.08282277448645323,56.40637959673504,16.466617732509675,-0.5127917394694461,0.674636308258134,294.37696194168166,21.488063219993983,0.0,1.0,0.0,0.0,1.0,Taxi
0.5,0.11092896054796611,-53.47755968185323,16.501124422832973,-0.4639783266901758,0.09804487853423986,294.39805574890295,22.016971440021152,0.0,1.0,0.0,0.0,1.0,Taxi
0.6000000000000001,-0.2427700444132515,-47.20921666310326,17.499262436978746,-0.6671511905135972,0.42280494060512125,294.31412951751236,21.537300073042047,0.0,1.0,0.0,0.0,1.0,Taxi
0.7000000000000001,-0.1532233088290631,-48.08636303125338,14.742642566459782,-0.1846578648323287,-0.4629748989488828,294.29761697016295,21.708000624370214,0.0,1.0,0.0,0.0,1.0,Taxi
0.8,-0.12950285460830077,62.85503031961995,16.432720203422214,-0.5148105171247126,-0.3227619842865731,294.2107894211224,21.2430807867048,0.0,1.0,0.0,0.0,1.0,Taxi
0.9,0.0715051071848483,46.19751450886886,16.433879664441555,-0.1481976045414793,-0.3671676344430721,294.5335845904542,21.96042274033544,0.0,1.0,0.0,0.0,1.0,Taxi
1.0,0.07776426371528128,28.11734541919145,16.874905905667124,-0.010635086768934543,-0.5308179838524121,294.4456407707921,21.506239664672886,0.0,1.0,0.0,0.0,1.0,Taxi
1.1,0.011083872487656521,-23.779253177006968,15.611045364436613,-0.09415978286069876,-0.7172396610868761,294.22289938426184,23.241431381572372,0.0,1.0,0.0,0.0,1.0,Taxi
1.2000000000000002,-0.047391158700186536,-5.755192545079396,15.358491795247378,-0.16244691099246977,-0.5588561982819705,294.3917848938254,21.995149409253433,0.0,1.0,0.0,0.0,1.0,Taxi
1.3,0.0489883009898843,1.9827752972569332,15.91877393391396,-0.4244274750339362,-0.2672731416258717,294.3512623263506,21.233765665147303,0.0,1.0,0.0,0.0,1.0,Taxi
1.4000000000000001,0.020997748973941185,-6.5402928935180045,16.888193637119286,-0.36581993106365135,0.843953488746478,294.35731563882064,21.57668760965162,0.0,1.0,0.0,0.0,1.0,Taxi
1.5,-0.08009262316777654,-20.761284635594894,17.22754019503071,-0.5654279075207426,-0.17637011629501753,294.3953597415406,20.53465800414182,0.0,1.0,0.0,0.0,1.0,Taxi
1.6,-0.05481812218809016,14.982194904117096,16.81654012311435,-0.2382377962035982,0.5100098176670523,294.3235545907762,22.115828009427187,0.0,1.0,0.0,0.0,1.0,Taxi
1.7000000000000002,0.09590872349452666,2.8554500858469916,16.948087760565844,-0.5766395496449643,0.2277281232603973,294.50280430944986,21.63515331494123,0.0,1.0,0.0,0.0,1.0,Taxi
1.8,-0.06581537273854163,16.082637990912588,16.364524954891632,-0.45702446705466415,0.371047130436795,294.30284823301326,20.86650179875524,0.0,1.0,0.0,0.0,1.0,Taxi
1.9000000000000001,0.025595067766472742,-42.774394291270575,16.646773364726172,-0.4078915883717525,-0.7379422674400002,294.279157272258,21.567411769056854,0.0,1.0,0.0,0.0,1.0,Taxi
2.0,-0.11796324796182629,45.201000581111906,16.073475427974568,-0.36176449690005197,0.3648817789409437,294.4402168703019,21.848543325528084,0.0,1.0,0.0,0.0,1.0,Taxi
2.1,0.1601896301670179,16.047750593021863,16.24147612247215,-0.37684427884622906,-0.04635811140182652,294.47709788360703,23.13331739247567,0.0,1.0,0.0,0.0,1.0,Taxi
2.2,0.10583382073158208,35.4352435177394,16.743543525378165,-0.6953478625694601,0.39323426245407045,294.2880564536756,22.255948513053664,0.0,1.0,0.0,0.0,1.0,Taxi
2.3000000000000003,0.059212969626870796,-13.502237700782807,15.610338485089162,-0.692151275114839,0.7468132099711138,294.2088204414955,21.352431508915537,0.0,1.0,0.0,0.0,1.0,Taxi
2.4000000000000004,0.09267844166310389,-29.117290668485868,16.697004329941333,-0.48493846832739396,-0.4154573728807175,294.3516631041416,22.380313186193664,0.0,1.0,0.0,0.0,1.0,Taxi
2.5,-0.03975263261084723,-22.19481168694718,15.55763395672547,-0.47708555151717635,0.124471281088303,294.2730123356664,21.04283105577858,0.0,1.0,0.0,0.0,1.0,Taxi
2.6,-0.05176108880786508,11.635338375678572,16.901238100814467,-0.41984594278910603,-0.9610723270490169,294.3973664262106,22.09663669076787,0.0,1.0,0.0,0.0,1.0,Taxi
2.7,0.15085513354149677,22.38659620794823,16.991828726851132,-0.4994635151626666,0.022888111082831994,294.3947893611394,20.9570802138351,0.0,1.0,0.0,0.0,1.0,Taxi
2.8000000000000003,0.07218034842889393,-32.97557194187917,16.1706015189985,-0.2549634736157976,0.03215140797412237,294.38810927226837,21.515860424558486,0.0,1.0,0.0,0.0,1.0,Taxi
2.9000000000000004,-0.2166389485172609,-44.576653215850264,16.214309350508977,-0.16098141190048101,0.6707557602809453,294.19441039869946,21.552957474478536,0.0,1.0,0.0,0.0,1.0,Taxi
3.0,-0.07202813253775456,2.4732116495389156,16.298369674289432,-0.28678414746100234,-0.4035326296861773,294.3718800123918,21.58924814430464,0.0,1.0,0.0,0.0,1.0,Taxi
3.1,0.08454640667658853,62.36243735869869,16.902348143055566,-0.21036811203275274,0.6059074120444969,294.4735495262935,22.37059403195487,0.0,1.0,0.0,0.0,1.0,Taxi
3.2,0.0951732382762326,-16.05320150508639,16.19755650965761,-0.37921726406941164,-0.5943977800009069,294.35950893665245,20.569745404920795,0.0,1.0,0.0,0.0,1.0,Taxi
3.3000000000000003,-0.1522941400631865,-54.184395451521425,16.3181838498284,-0.21167262566410228,-0.34148417783333074,294.3188746218607,21.929972818474294,0.0,1.0,0.0,0.0,1.0,Taxi
3.4000000000000004,-0.18637557058101864,-49.26831046840757,17.43605086659999,-0.5710680106627318,-0.679191353915185,294.28566135676317,21.56857191819109,0.0,1.0,0.0,0.0,1.0,Taxi
3.5,-0.15116831406580528,15.693033763655116,17.010658944370768,-0.8229470844158957,0.06848812816796328,294.4519822649306,21.52811895571852,0.0,1.0,0.0,0.0,1.0,Taxi
3.6,-0.07382897124491097,-21.42089365252981,16.518317847247243,-0.46413148074780153,0.22811706986081914,294.3048248789644,21.86988115600252,0.0,1.0,0.0,0.0,1.0,Taxi
3.7,-0.29348003884366775,54.06034403630827,15.728132902194364,-0.431113379744662,0.010729093789039893,294.4276837463617,21.491691391643947,0.0,1.0,0.0,0.0,1.0,Taxi
3.8000000000000003,0.11913340611573607,-10.91640686928966,16.137251891981478,-0.38484371205319096,-0.050874941157121024,294.36863150020986,21.967481706031194,0.0,1.0,0.0,0.0,1.0,Taxi
3.9000000000000004,-0.1284110055913593,55.469807511332135,15.614908768962717,-0.36434613601946253,0.7463376594388953,294.3350484611083,21.90678164640943,0.0,1.0,0.0,0.0,1.0,Taxi
4.0,-0.01613100128700705,-69.00824895801416,15.464409223318198,0.006155660718484168,-0.595115924899265,294.47948730337293,21.15315875346282,0.0,1.0,0.0,0.0,1.0,Taxi
4.1000000000000005,-0.22590783867433478,50.46958371712385,16.87205739557099,-0.6243664636112164,-0.8282733450178332,294.44807193849294,22.199235283753787,0.0,1.0,0.0,0.0,1.0,Taxi
4.2,0.1239369129942599,2.0577294804068487,15.3458374270403,-0.5584326828483906,0.4698924537375203,294.3095304665113,20.7285682684242,0.0,1.0,0.0,0.0,1.0,Taxi
4.3,-0.005842353884972875,54.840995860575106,16.7723168050911,-0.5708557977305839,-0.4509548606923576,294.26303658506936,20.333700472583356,0.0,1.0,0.0,0.0,1.0,Taxi
4.4,0.0482971406285407,-28.226494648630865,16.875890021171728,-0.13292196958583008,-0.6027227950355426,294.3395644867271,21.127765178065758,0.0,1.0,0.0,0.0,1.0,Taxi
4.5,-0.017195560248894487,0.9869233318530769,15.997019058959777,-0.1300624167084687,0.04070522607544728,294.3516463991556,22.30395180951144,0.0,1.0,0.0,0.0,1.0,Taxi
4.6000000000000005,-0.0009077372257075396,28.68201927594261,16.159255791410526,-0.673672968471376,0.2443901081894524,294.3314966541194,21.952768534818308,0.0,1.0,0.0,0.0,1.0,Taxi
4.7,0.19170723700825373,9.394700491253905,16.51067530768166,-0.3561948835214095,0.5577482846338566,294.43732196103997,21.689233463931927,0.0,1.0,0.0,0.0,1.0,Taxi
4.800000000000001,0.029777942207374997,-2.628515428570578,16.22068300270817,-0.5369183954518112,0.48317488423743554,294.2798009951533,21.524295139903042,0.0,1.0,0.0,0.0,1.0,Taxi
4.9,-0.014050314368560482,-27.48135427195983,16.173156696721865,-0.4698731361677086,0.7376972671193728,294.12017135793303,21.173140686410324,0.0,1.0,0.0,0.0,1.0,Taxi
5.0,0.054300465648454546,-11.726597624114115,17.266375258779856,-0.8096026517099039,0.7595020103037596,294.3165836693511,21.556141536034197,0.0,1.0,0.0,0.0,1.0,Taxi
5.1000000000000005,-0.0288550459131956,4.643260257599354,16.65087237110624,-0.7010207203730995,0.06949775511869946,294.33302904275524,21.10630436183147,0.0,1.0,0.0,0.0,1.0,Taxi
5.2,0.009165986919436276,-12.01379935196846,15.530711082997966,-0.29691089315703145,-0.6316643469388716,294.45811639350995,22.042895737777485,0.0,1.0,0.0,0.0,1.0,Taxi
5.300000000000001,-0.005768531111387782,-26.214856205602832,15.362199078355683,-0.33091012617965776,-0.022323077753089258,294.2418893294614,21.685596307905403,0.0,1.0,0.0,0.0,1.0,Taxi
5.4,-0.15992932694120982,-29.87718864600092,16.09207943251654,-0.49581135196935155,0.032336395628504926,294.21983654144765,21.296409010680115,0.0,1.0,0.0,0.0,1.0,Taxi
5.5,-0.14021995631056838,10.827518068802803,16.306876858872513,-0.3834170720618398,-1.5030137346910173,294.20791584688766,21.551764940458018,0.0,1.0,0.0,0.0,1.0,Taxi
5.6000000000000005,0.04836905923262616,62.96371841420305,16.436704248150747,-0.35024508682550465,0.26147757739827,294.2630708310671,22.4400319669718,0.0,1.0,0.0,0.0,1.0,Taxi
5.7,0.1548892651298054,-5.636122701666314,16.526551437002556,-0.5135732577760941,-0.05710004669512783,294.4637505013393,21.16744101016481,0.0,1.0,0.0,0.0,1.0,Taxi
5.800000000000001,-0.1684005698189,-20.47548953270221,15.947333028080436,-0.2113688222968436,0.18397028449019115,294.4162627007297,21.861323826705753,0.0,1.0,0.0,0.0,1.0,Taxi
5.9,-0.05400838843088488,-18.260331247546365,16.676309945180908,-0.4451578998703899,0.36405493804691835,294.3883764805922,21.41537808066637,0.0,1.0,0.0,0.0,1.0,Taxi
6.0,0.06358760889207354,17.41323804277151,16.372212521744252,-0.21156030522293112,-0.43386418385212755,294.33365169276703,20.523900118611646,0.0,1.0,0.0,0.0,1.0,Taxi
6.1000000000000005,-0.08133437960504251,5.400846318063333,15.845908568008097,-0.2760650922879589,0.19428766605332165,294.2783774969346,21.281083715056734,0.0,1.0,0.0,0.0,1.0,Taxi
6.2,-0.027004156840568245,7.901915053326857,16.655446326829544,-0.30637790218005795,0.6805798427894552,294.33567385757885,22.096229498451667,0.0,1.0,0.0,0.0,1.0,Taxi
6.300000000000001,0.10309718415870779,6.174846374371707,16.71426814403991,-0.5022541488392703,0.4810723388804305,294.3309776598378,23.287175115512866,0.0,1.0,0.0,0.0,1.0,Taxi
6.4,-0.05046014773318402,-18.317284106453915,16.339665621642713,-0.3170790937200221,0.6417454468645121,294.20581297412184,21.057118741775092,0.0,1.0,0.0,0.0,1.0,Taxi
6.5,-0.11859057737283787,-21.186920861938948,15.229369884594927,-0.15745097610580905,-0.336112333319904,294.1946690638382,21.44281080238178,0.0,1.0,0.0,0.0,1.0,Taxi
6.6000000000000005,-0.0028374201509869935,-2.822205063605234,15.669086764349906,-0.4379790884038829,0.10256904047639845,294.3139688542201,21.775094362162477,0.0,1.0,0.0,0.0,1.0,Taxi
6.7,-0.06457117305121023,-11.299965494501636,17.72743720999564,-0.37371684978846686,0.141445547576088,294.20602458961366,21.337166533937797,0.0,1.0,0.0,0.0,1.0,Taxi
6.800000000000001,-0.1750904048453461,13.929284097743286,16.921640000017764,-0.07565650452543227,1.2538313056226955,294.2688177724074,21.260404240925965,0.0,1.0,0.0,0.0,1.0,Taxi
6.9,0.06680900033772941,33.72580071004574,17.116629974562777,-0.31309643812334936,-0.4590488178246125,294.4218715522695,21.793560875298834,0.0,1.0,0.0,0.0,1.0,Taxi
7.0,0.1040578304990184,21.74792519277094,17.489009530186127,-0.15162736487998463,0.6508886045665953,294.4541447893657,21.522207836541785,0.0,1.0,0.0,0.0,1.0,Taxi
7.1000000000000005,-0.06635077888149146,-21.831101138154008,16.49882076671023,-0.38920049717188543,0.6913448830010047,294.4984016855442,21.482033720518825,0.0,1.0,0.0,0.0,1.0,Taxi
7.2,-0.04234650535304067,-21.19883572184949,16.823237020550703,-0.281563800937122,0.22479328328044448,294.3263821054236,21.334519667296014,0.0,1.0,0.0,0.0,1.0,Taxi
7.300000000000001,-0.0019363481102291167,40.367649263105456,16.753871685363254,-0.43550929633387014,0.5631112853449309,294.4826039808428,21.036904794565444,0.0,1.0,0.0,0.0,1.0,Taxi
7.4,0.13548746743403575,-0.5771804794655727,16.11420510358938,-0.77735976634471,0.26890750215435655,294.3621886971075,21.681967073631867,0.0,1.0,0.0,0.0,1.0,Taxi
7.5,-0.04523240775036859,8.71958561705073,17.13737033113696,-0.4964621879734418,0.8296909140328081,294.22612711407794,21.473052649418946,0.0,1.0,0.0,0.0,1.0,Taxi
7.6000000000000005,0.0416615799750245,-23.334397486647422,15.886576752947116,-0.3100442766560838,-1.0128598576416656,294.31518674330175,21.49746920102857,0.0,1.0,0.0,0.0,1.0,Taxi
7.7,0.018815480000798603,-13.993879348665018,15.880256250898338,-0.41180570118700494,-0.13177521790224964,294.43100708929137,22.022966170363915,0.0,1.0,0.0,0.0,1.0,Taxi
7.800000000000001,-0.11520180449369373,15.363834711411078,17.013722318110243,-0.15277445404598164,0.2821468943542161,294.2421605610391,20.789143987543273,0.0,1.0,0.0,0.0,1.0,Taxi
7.9,0.11848075353207987,26.337378485587664,16.305089157559923,-0.20157841131112864,0.31278800410900187,294.370708322509,21.771941501350753,0.0,1.0,0.0,0.0,1.0,Taxi
8.0,0.1505023724287369,39.98979972679066,17.028249684508964,-0.5031782303331875,-0.41181790962159603,294.37190078243043,21.827907672087107,0.0,1.0,0.0,0.0,1.0,Taxi
8.1,0.08474719414025957,-44.547901012476835,16.50402941345115,-0.3820716466322208,-0.5545018557659113,294.40915368692754,21.598177893773855,0.0,1.0,0.0,0.0,1.0,Taxi
8.200000000000001,-0.10425875153030431,-27.246527398922208,16.696880493308438,-0.4345494368273651,0.015348164441157854,294.4925141208586,21.8634335567154,0.0,1.0,0.0,0.0,1.0,Taxi
8.3,0.014269735434125845,-29.926311283741068,17.223704548910284,-0.268978563590727,-0.8765108297172516,294.40887822118407,21.001013919676893,0.0,1.0,0.0,0.0,1.0,Taxi
8.4,-0.0648843622784458,53.814958464985885,16.565077494408154,-0.2480272969938203,-0.13219659507311052,294.2356935092836,21.191759042554537,0.0,1.0,0.0,0.0,1.0,Taxi
8.5,0.16481604079462508,-54.66487349868154,16.944710413359022,-0.2977989360479877,-0.44575364744399876,294.2100872305999,21.400943753214356,0.0,1.0,0.0,0.0,1.0,Taxi
8.6,-0.25905463205928186,2.289105044778694,16.328618349643776,-0.39541655694722777,0.16945848327462484,294.16153339670245,22.071122941844777,0.0,1.0,0.0,0.0,1.0,Taxi
8.700000000000001,-0.05343883705455241,-15.618547395928934,16.876252581598276,-0.38700445187653315,0.0931423309822083,294.49581205463755,21.97630274103657,0.0,1.0,0.0,0.0,1.0,Taxi
8.8,0.08672330381498033,67.11508341310173,17.301847606701514,-0.35769630429092086,-1.029917815834082,294.2502313493035,21.908594895263136,0.0,1.0,0.0,0.0,1.0,Taxi
8.9,0.07652078500622668,-16.223933767678506,16.33251234109947,-0.5072850472715439,-0.3196681316705021,294.36211481312785,22.146615985235808,0.0,1.0,0.0,0.0,1.0,Taxi
9.0,-0.13455850589294502,-13.559525765754875,17.050312250273326,-0.6142858598830168,0.4265416357297187,294.23550325965243,22.1866595438334,0.0,1.0,0.0,0.0,1.0,Taxi
9.1,0.018925674986205857,-22.680496608977858,16.602690907734356,-0.36951078573358115,0.19236538559973276,294.22020185086615,21.86393537840269,0.0,1.0,0.0,0.0,1.0,Taxi
9.200000000000001,-0.03688169803866272,43.53972608443905,16.01243802595578,-0.45957898891464743,-0.3798718717326298,294.31947338982695,21.796858936234926,0.0,1.0,0.0,0.0,1.0,Taxi
9.3,0.08314012452925015,5.41926344189963,16.49767601778432,-0.22225485458106087,0.265053903083241,294.44490085657367,21.961598795514103,0.0,1.0,0.0,0.0,1.0,Taxi
9.4,0.046021992195703916,-39.0048556659321,16.65340302719571,-0.4573974521493147,-0.28741861036950117,294.52184766348455,22.14396539799602,0.0,1.0,0.0,0.0,1.0,Taxi
9.5,-0.23190597636832325,-4.991254926516073,15.906758126202032,-0.8001065097604466,-0.03807882756052816,294.24564003691955,21.49149011663048,0.0,1.0,0.0,0.0,1.0,Taxi
9.600000000000001,0.0581838498966698,21.55475086561057,15.528005763324332,-0.21724300441050043,0.02237124902171492,294.3625573476594,21.50020894025372,0.0,1.0,0.0,0.0,1.0,Taxi
9.700000000000001,0.15379574652375677,67.36201668445129,15.960601311127178,-0.396082113739433,-0.197047642001292,294.2995714746447,22.04657378819065,0.0,1.0,0.0,0.0,1.0,Taxi
9.8,0.10490410705393315,-7.173944191013933,16.356779556138317,-0.2440663079897421,-0.20700347419474927,294.1530118583896,21.596629755136863,0.0,1.0,0.0,0.0,1.0,Taxi
9.9,0.02231412894160002,-45.42776712666915,16.755319882226075,-0.2860469039341791,0.35763520078624944,294.39693100068325,21.41206589640939,0.0,1.0,0.0,0.0,1.0,Taxi
10.0,-0.07334308910958909,-49.70969813903539,16.422474573521207,-0.49134462216112906,-0.9448241593525851,294.32076817000757,21.34443210351499,0.0,1.0,0.0,0.0,1.0,Taxi
10.100000000000001,-0.1436443836412439,-2.7858484966878194,16.15657875652988,-0.2446787527115329,0.6465859018340396,294.3245000408126,21.40701880604209,0.0,1.0,0.0,0.0,1.0,Taxi
10.200000000000001,0.008384886458160821,5.64737663155272,15.349556104973693,-0.039734483225402684,0.40248895774451005,294.35037869934195,21.105118882831125,0.0,1.0,0.0,0.0,1.0,Taxi
10.3,-0.0451062059518256,38.395948220987485,16.587936501968034,-0.38434291474306426,-0.5157360982319832,294.40104614761754,21.38362553837255,0.0,1.0,0.0,0.0,1.0,Taxi
10.4,0.048335357463693385,-2.117627076930146,17.26752615416641,-0.6800292428697718,-0.3783608834110568,294.43891189242333,21.40241445906506,0.0,1.0,0.0,0.0,1.0,Taxi
10.5,-0.0022032489264900367,15.567160203823283,17.356519772052778,-0.4343546567965898,-0.36154170817921394,294.4191549137561,20.72938658930166,0.0,1.0,0.0,0.0,1.0,Taxi
10.600000000000001,0.03272959506729069,-3.6706679146975856,17.152422686748725,-0.4560133257496675,0.39114497590518355,294.19309281166136,20.7132510797244,0.0,1.0,0.0,0.0,1.0,Taxi
10.700000000000001,0.029982017890205343,-9.088574330488315,15.875642945623074,-0.2768936486090884,0.058392206265202945,294.4525528442621,21.22305531630845,0.0,1.0,0.0,0.0,1.0,Taxi
10.8,-0.04764612057893172,19.239268957892577,16.032343196700275,-0.23464102354715388,-0.14848122496246605,294.4540588728023,22.171206760510252,0.0,1.0,0.0,0.0,1.0,Taxi
10.9,0.12892593985675346,15.003205844158003,16.340966198799304,-0.4772952461571238,-0.009754717769211423,294.15403461727044,21.92968806035579,0.0,1.0,0.0,0.0,1.0,Taxi
11.0,0.10499804711099524,12.674253839438371,16.94049472953194,-0.03472271351855377,-0.5762119163266821,294.11681485742906,21.194350368270776,0.0,1.0,0.0,0.0,1.0,Taxi
11.100000000000001,0.015725148618260017,-19.278468863601862,16.850278038403978,0.012371332300402993,-0.5241279431939715,294.38956325646836,22.210051237806987,0.0,1.0,0.0,0.0,1.0,Taxi
11.200000000000001,0.03253359553874405,-16.715474173044157,15.82674751165709,-0.5446062260242455,1.4086405277239729,294.5322857859196,21.277773455605228,0.0,1.0,0.0,0.0,1.0,Taxi
11.3,0.02142067624577433,-28.903808985260525,16.59634252955909,-0.2785486596460869,0.3815720695500943,294.3964772654159,22.038346904379438,0.0,1.0,0.0,0.0,1.0,Taxi
11.4,-0.1287938963080427,-21.32178553039803,16.47301167415517,-0.4672723155804827,0.45803780935604604,294.1900154560359,21.9451218803621,0.0,1.0,0.0,0.0,1.0,Taxi
11.5,-0.07407533211324618,11.481215022503848,15.935436187975837,-0.009307951767235478,-0.15697705049361896,294.4887506799139,20.720766492185213,0.0,1.0,0.0,0.0,1.0,Taxi
11.600000000000001,0.0788267513582935,72.24285581865216,16.11452262425443,-0.5700635045153859,0.8391544982744961,294.38420409281116,21.205333604010846,0.0,1.0,0.0,0.0,1.0,Taxi
11.700000000000001,0.23242038278521804,27.658722943003824,16.358185265773777,-0.5540493611682161,0.7172521835729029,294.26888499650613,21.389389169420536,0.0,1.0,0.0,0.0,1.0,Taxi
11.8,0.06421828260177284,-21.672872336646773,16.192209505167252,-0.417775368891206,-0.05186780363555371,294.19895936874684,22.098858920915916,0.0,1.0,0.0,0.0,1.0,Taxi
11.9,-0.029537610324940452,-67.67954995510816,16.4502474916831,-0.23449926723142642,-0.17565819995790044,294.3710662592289,21.894050049100276,0.0,1.0,0.0,0.0,1.0,Taxi
12.0,-0.1059773669903229,-32.815282845807985,17.05404932493145,-0.5891101190451161,-0.6771897776278647,294.2043467028275,21.727094745068868,0.0,1.0,0.0,0.0,1.0,Taxi
12.100000000000001,-0.0998581316272672,11.484370320657561,16.609806654280433,-0.47643423949064645,0.6080928465552289,294.3280273018314,21.919089649679478,0.0,1.0,0.0,0.0,1.0,Taxi
12.200000000000001,0.027884241278347256,35.812487092293054,16.741786401862463,-0.4664137641799976,-0.27493851910476125,294.4868040916765,21.756642277438658,0.0,1.0,0.0,0.0,1.0,Taxi
12.3,0.07308506847114228,9.224224871764198,15.248055170395606,-0.40174556610002476,0.4232178427378619,294.4310502734204,22.059238253511555,0.0,1.0,0.0,0.0,1.0,Taxi
12.4,-0.0537370072684463,-18.875553692541263,16.733186555323808,-0.1106930257771011,-0.00030199010401120316,294.32594218652457,21.629449306814028,0.0,1.0,0.0,0.0,1.0,Taxi
12.5,-0.06649352718435916,-35.0376474630034,17.448096935394517,-0.34194010328531954,-0.7789674493553971,294.1893569455233,21.90746343698714,0.0,1.0,0.0,0.0,1.0,Taxi
12.600000000000001,-0.10210316884387483,5.20656390348033,16.745604841895133,-0.17571097321793722,0.4466063165316666,294.3493548516378,22.048438003580603,0.0,1.0,0.0,0.0,1.0,Taxi
12.700000000000001,-0.027704187751044745,-2.5311937356712413,16.32474048980817,-0.30197413359504083,-0.9525123405448446,294.27905723388744,21.22001533913514,0.0,1.0,0.0,0.0,1.0,Taxi
12.8,-0.07914949586271547,16.011443151300217,17.122043260831795,-0.5516310320259807,0.11609896603288239,294.2189710335017,21.796738327233655,0.0,1.0,0.0,0.0,1.0,Taxi
12.9,-0.02204595308737384,36.34590867172902,15.891274465115194,-0.1243331266849313,-0.9873775026683358,294.3863743639033,21.60922388482419,0.0,1.0,0.0,0.0,1.0,Taxi
13.0,0.15402535560760025,17.838867560618027,16.056105283925373,-0.659360737903715,-0.7129830967433837,294.2932072643042,21.8058374738236,0.0,1.0,0.0,0.0,1.0,Taxi
13.100000000000001,0.010044841940374583,-21.446530593220814,15.535921590247387,-0.5029903924776968,-0.22997620303442906,294.34931968305693,21.165671850297723,0.0,1.0,0.0,0.0,1.0,Taxi
13.200000000000001,-0.129278606053478,-19.55059135460576,16.86598753373754,-0.5443395196530894,-1.143396357591699,294.1353313687673,22.309846934757843,0.0,1.0,0.0,0.0,1.0,Taxi
13.3,0.05627239883457137,-1.0247826221414609,16.7958759876763,-0.15083600548773562,0.0018251585396576954,294.211416660562,21.2227578777401,0.0,1.0,0.0,0.0,1.0,Taxi
13.4,0.004920928829667187,38.77391252097632,15.77902493200709,-0.5058327189857549,-0.44176409704103037,294.126668674219,22.279842448597872,0.0,1.0,0.0,0.0,1.0,Taxi
13.5,0.06459095655140347,-26.133788490533338,16.07995899957003,-0.7275071880930258,-0.07425601133009872,294.5452342166999,20.446371698378226,0.0,1.0,0.0,0.0,1.0,Taxi
13.600000000000001,-0.07439654361809543,28.157092515496164,17.203995602030787,-0.38074159488239745,0.2992943364571716,294.3003186133826,22.169253059351448,0.0,1.0,0.0,0.0,1.0,Taxi
13.700000000000001,0.14570639140714792,-5.093210753763849,16.385972049593658,-0.41122421984598934,-1.7222420390350932,294.294181731927,21.719567692134365,0.0,1.0,0.0,0.0,1.0,Taxi
13.8,0.039124902782584126,-15.484295170589405,16.42263503310372,-0.3281177420989656,0.20027610512644922,294.14814372385433,22.30367978717202,0.0,1.0,0.0,0.0,1.0,Taxi
13.9,-0.15181801947104256,-41.1440047503711,17.44452685423252,-0.7128599735946316,1.02022277104352,294.3145593803722,22.220651416547902,0.0,1.0,0.0,0.0,1.0,Taxi
14.0,-0.060013632344707704,-2.3976105907787755,16.53278016129816,-0.30939025199366926,-0.2952849707897917,294.48034921140083,21.358439671478497,0.0,1.0,0.0,0.0,1.0,Taxi
14.100000000000001,0.027136849828690152,4.888571038274847,16.904813582810693,-0.5265111527049544,0.43230464233610616,294.4669169281317,21.979725474127225,0.0,1.0,0.0,0.0,1.0,Taxi
14.200000000000001,-0.12737516427966844,-11.412297401536335,17.96422361562123,-0.3068040257231086,0.25790127428748455,294.18291944826467,21.636891986880617,0.0,1.0,0.0,0.0,1.0,Taxi
14.3,-0.11707511935238948,-32.24701504926755,16.462591330710566,0.0648552016178523,0.7272479045407836,294.3307444050695,21.229003204609718,0.0,1.0,0.0,0.0,1.0,Taxi
14.4,-0.13409822541764774,-10.424940652973406,16.33301494102446,-0.5392153907729077,-0.3948407149433375,294.32867373888894,22.26085346363531,0.0,1.0,0.0,0.0,1.0,Taxi
14.5,-0.1794998675445356,16.639708037406816,15.658828869441816,-0.35449409234751067,-0.08742510089806613,294.394380487282,21.426103366154923,0.0,1.0,0.0,0.0,1.0,Taxi
14.600000000000001,-0.03387657916535552,39.23138167328678,16.416084899898948,-0.5211300280487612,0.012529398541220885,294.18324173480266,21.495316544349,0.0,1.0,0.0,0.0,1.0,Taxi
14.700000000000001,0.06205868294878604,45.295979850295275,16.300343678146547,-0.6220588082676746,0.1421062516013141,294.2386756957842,22.243657897019915,0.0,1.0,0.0,0.0,1.0,Taxi
14.8,0.04698003170694068,-15.063725168265472,16.334886498471047,-0.48393470864264965,0.1879791441923965,294.3927794879164,20.87195105764184,0.0,1.0,0.0,0.0,1.0,Taxi
14.9,-0.10919520500668296,-6.363429663238814,16.676301450654314,-0.42593144148026063,-1.1491685661577504,294.29850624889,22.1167322495008,0.0,1.0,0.0,0.0,1.0,Taxi
15.0,0.030241534632591906,-26.63412788165223,16.56525576185068,-0.04158979470098373,-0.38981345056849176,294.25160343438483,22.085684062674247,0.0,1.0,0.0,0.0,1.0,Taxi
15.100000000000001,-0.08619060770132053,6.282318409161156,16.606360964388955,-0.773565867632832,1.0535807369924648,294.42328322838466,22.605323234142098,0.0,1.0,0.0,0.0,1.0,Taxi
15.200000000000001,-0.07778361296087727,-49.79880529304118,16.95311874294959,-0.4425183498153099,0.18568246723471005,294.5800711375025,21.77712362102481,0.0,1.0,0.0,0.0,1.0,Taxi
15.3,-0.21875249183261408,4.847853274156241,16.75190552599729,-0.4521030068612357,-0.1906645416371026,294.40066711322675,21.782550231459307,0.0,1.0,0.0,0.0,1.0,Taxi
15.4,-0.06195134133053942,21.05030436068566,15.748076000374597,-0.6804484851579081,-0.18662301757371924,294.5029267288696,22.328974945909188,0.0,1.0,0.0,0.0,1.0,Taxi
15.5,0.027467908842550955,40.164053983648394,16.172016223198536,-0.3283779002659757,0.16499122353133402,294.3177465786025,21.14099322213357,0.0,1.0,0.0,0.0,1.0,Taxi
15.600000000000001,-0.017932221914372222,25.954948706346443,16.652806712504496,-0.10682509545942537,-0.15758207864803186,294.3536739019005,21.409976880794193,0.0,1.0,0.0,0.0,1.0,Taxi
15.700000000000001,0.06782340220119268,-12.01013738787159,16.85034463439609,-0.08923502907492187,-0.7174642961413531,294.3488464081105,21.541022529382346,0.0,1.0,0.0,0.0,1.0,Taxi
15.8,-0.03258277809680709,16.839670256473216,15.711361167581208,-0.691950496841079,0.9915974751630381,294.24949035037844,21.11312328288877,0.0,1.0,0.0,0.0,1.0,Taxi
15.9,0.06626612936799375,9.466615769646046,15.55514518015459,-0.40057855815890114,0.26838124516563344,294.0421703328378,20.678897955858478,0.0,1.0,0.0,0.0,1.0,Taxi
16.0,0.1151564810494228,-29.842654454718765,16.163572664326953,-0.22745447102063307,-0.45337025669486936,294.1635523755167,21.890944976190358,0.0,1.0,0.0,0.0,1.0,Taxi
16.1,-0.18179605037040097,-6.135910594023727,16.85048536174358,-0.11037379748063875,-1.120060266653415,294.28838679063404,22.292971556022415,0.0,1.0,0.0,0.0,1.0,Taxi
16.2,0.03558657639787507,-2.412606493341675,16.689196678297495,-0.13128493827110094,-0.11180815219943202,294.2586994312769,21.374365406260445,0.0,1.0,0.0,0.0,1.0,Taxi
16.3,0.1030934485827144,35.16481717647407,14.974315910405123,-0.48503952966043057,0.3210541517946431,294.3722947348581,21.569981936878143,0.0,1.0,0.0,0.0,1.0,Taxi
16.400000000000002,-0.005971964488030716,26.151793261107088,17.33303117137032,-0.6208308506551192,0.1536777739301774,294.4327327980295,21.677993756383863,0.0,1.0,0.0,0.0,1.0,Taxi
16.5,0.1663455427034104,-23.058951370389888,17.47653478461231,-0.644531071875426,0.3093386224728659,294.5189241424341,21.337533790100018,0.0,1.0,0.0,0.0,1.0,Taxi
16.6,-0.01220130826923515,-3.3525747555122494,17.44580948021383,-0.3689681143070322,-0.19195494726325443,294.2712540339936,21.738536405519792,0.0,1.0,0.0,0.0,1.0,Taxi
16.7,-0.022734838265592063,-37.26847922463013,17.3037288258738,-0.6271061068160046,0.5111301150592703,294.3851784953106,22.185254365464797,0.0,1.0,0.0,0.0,1.0,Taxi
16.8,-0.019996853419740317,14.749525855474268,16.6400458200016,-0.16004844680915342,-0.17679042423387378,294.41914638769913,22.06431089171307,0.0,1.0,0.0,0.0,1.0,Taxi
16.900000000000002,0.06154632100813611,-12.24285031912182,16.018346438491157,-0.5201425338224779,-0.4293600185783754,294.3301173856694,21.666624950492174,0.0,1.0,0.0,0.0,1.0,Taxi
17.0,-0.0839490898612012,8.584819590020127,17.17650582830777,-0.5754360786485107,0.578432257549629,294.2780818856319,20.86072725317275,0.0,1.0,0.0,0.0,1.0,Taxi
17.1,0.02292724453036026,11.997798094157602,16.17753436915055,-0.4846776763008671,-1.2674715388136004,294.4753872658664,21.069911955681366,0.0,1.0,0.0,0.0,1.0,Taxi
17.2,0.12153531147892405,35.12463789696549,15.836112413654558,-0.4300220963979276,0.9662501889573898,294.22557132037093,22.049524371277275,0.0,1.0,0.0,0.0,1.0,Taxi
17.3,0.09167409962362616,-16.6324721505564,16.331066629213655,-0.5123714922308299,0.5816783411799129,294.1817950237296,22.081467607223615,0.0,1.0,0.0,0.0,1.0,Taxi
17.400000000000002,-0.060235116222421836,-28.089632407996593,15.155284191862407,-0.22160640298272105,0.4177568351297713,294.2967308125342,20.49996370818615,0.0,1.0,0.0,0.0,1.0,Taxi
17.5,-0.01891285056105901,-2.411589290969426,17.048754692159495,-0.12379374921538377,0.5520686743707438,294.38682340188416,21.26934681145787,0.0,1.0,0.0,0.0,1.0,Taxi
17.6,0.07961615316877893,19.016527083185917,16.516063566830518,-0.49427677514067553,0.2935547203259527,294.3983399192225,21.83212595585748,0.0,1.0,0.0,0.0,1.0,Taxi
17.7,0.03484751919350765,-18.276892086625466,17.51022606017299,-0.5848911595583566,-0.4271667370568627,294.32960779331097,21.72386986735147,0.0,1.0,0.0,0.0,1.0,Taxi
17.8,-0.11029731099418645,-4.26992713526668,17.017162633079185,-0.5539802922528014,0.21829637585129535,294.3279599055369,22.23104713726015,0.0,1.0,0.0,0.0,1.0,Taxi
17.900000000000002,0.058266517492445435,-12.49324142180717,16.88464009328431,-0.5562303528015178,0.21720847843469124,294.53655309990324,21.90695689317294,0.0,1.0,0.0,0.0,1.0,Taxi
18.0,-0.02761868791552829,30.27481357842052,15.806302182100719,-0.3240910094465843,0.505507729553221,294.3681738958003,22.28397747437334,0.0,1.0,0.0,0.0,1.0,Taxi
18.1,0.04107675689791609,31.59512535477458,15.593722656798464,-0.7298598632864642,-0.4808148285152492,294.34836293571277,20.31461947310872,0.0,1.0,0.0,0.0,1.0,Taxi
18.2,0.21624214426631824,-0.006737040370571397,15.454841342138144,-0.24694503936678322,0.04995923523890865,294.2112044090421,21.349433216096514,0.0,1.0,0.0,0.0,1.0,Taxi
18.3,-0.027652373117381304,12.63393252257765,17.238315685827505,-0.0931199617743822,0.0941939152753918,294.3252277321981,21.55874985048615,0.0,1.0,0.0,0.0,1.0,Taxi
18.400000000000002,0.10424641951080421,-45.01563516403482,16.714402078167986,-0.20784576435545452,0.4830791858975586,294.409802475024,22.29996274709259,0.0,1.0,0.0,0.0,1.0,Taxi
18.5,-0.008836031553855962,5.94368019252936,17.111781686384557,-0.23841073088114417,-1.0172872637696242,294.3899003758313,22.149673809655216,0.0,1.0,0.0,0.0,1.0,Taxi
18.6,0.0020660278452653705,-9.178165033327895,16.848408270093053,-0.6080309336731264,0.5780775379654053,294.4253709462523,21.11469090338311,0.0,1.0,0.0,0.0,1.0,Taxi
18.7,0.05835559434416459,-36.25212534723822,16.67130743326898,-0.14406499749440643,0.25714494333090515,294.34277318660395,21.101220989118218,0.0,1.0,0.0,0.0,1.0,Taxi
18.8,-0.1900966582900472,-5.309566202710883,15.793750721887484,-0.4074277348248572,-0.9198001069073405,294.3978591464129,22.05635256019013,0.0,1.0,0.0,0.0,1.0,Taxi
18.900000000000002,-0.024481803168289185,7.939920812122902,15.999250409269525,-0.12422603344311017,-0.6063246167521195,294.3018723941582,21.879467533272805,0.0,1.0,0.0,0.0,1.0,Taxi
19.0,0.09805519840477897,33.269898042923074,16.295898141312414,-0.1811405739299965,-0.05888364480503256,294.17011300103604,21.68825595582355,0.0,1.0,0.0,0.0,1.0,Taxi
19.1,-0.02374716807543198,16.181071094374357,17.195102508335317,-0.2910523287408726,0.768392487467418,294.3536471740731,22.107809480465804,0.0,1.0,0.0,0.0,1.0,Taxi
19.200000000000003,0.05642355230358246,-27.27878404405389,15.978811113358034,-0.5777287708393494,-0.2422251412692684,294.42493199996727,21.28534176201597,0.0,1.0,0.0,0.0,1.0,Taxi
19.3,-0.038338721815490605,45.91205647365296,16.297806805791375,-0.8520057943904552,1.0549156362985974,294.11537100088265,22.371509028581634,0.0,1.0,0.0,0.0,1.0,Taxi
19.400000000000002,0.20581311429283267,3.4862583326423597,16.98105394853519,-0.3359493723424807,0.02244164403004982,294.2096241698689,21.510859575880712,0.0,1.0,0.0,0.0,1.0,Taxi
19.5,0.07385484396679408,-38.07729849263711,16.348846485086273,-0.6661294140504503,-0.07210435442659859,294.46206094883087,21.11738544659907,0.0,1.0,0.0,0.0,1.0,Taxi
19.6,-0.22872521427867634,-54.93414222087133,16.427112808716824,-0.4815666515083009,0.5054437850610772,294.4791113364947,21.23956562670607,0.0,1.0,0.0,0.0,1.0,Taxi
19.700000000000003,-0.06885759681152413,-13.113761878750706,16.657885600539505,-0.1832184935655489,-0.45840661277133116,294.39941040315034,20.74433503838076,0.0,1.0,0.0,0.0,1.0,Taxi
19.8,0.008286034573040389,19.217495903831548,16.084945225644784,-0.25384217163865896,-0.48359297501013493,294.41343057631195,20.878131940149736,0.0,1.0,0.0,0.0,1.0,Taxi
19.900000000000002,-0.1326377347595188,37.85477815729856,17.003734763356725,-0.04724085510376874,0.8984251449424878,294.2779222702367,21.51758438263318,0.0,1.0,0.0,0.0,1.0,Taxi
20.0,0.12041629397496854,-25.484324934929294,16.254117339929376,-0.40891306269709554,-0.05395446528260402,294.3281443039418,21.748066719745914,0.0,1.0,0.0,0.0,1.0,Taxi
20.1,-0.11913559010160624,20.674356607319506,16.775231773327306,-0.6524974874873868,0.46500754317034065,294.1370976754091,22.53466516238013,0.0,1.0,0.0,0.0,1.0,Taxi
20.200000000000003,-0.029265951722921388,-35.32710280307359,16.287550622762193,-0.5221201288306507,-0.2049211214624689,294.24390088627786,22.149528720719204,0.0,1.0,0.0,0.0,1.0,Taxi
20.3,-0.056219220040399545,13.88974538271912,16.416373868747513,-0.2932146309188571,-0.2649453738713168,294.2763531735933,21.419838907838688,0.0,1.0,0.0,0.0,1.0,Taxi
20.400000000000002,-0.04968686318801078,-0.17094306246751323,17.675537084436826,-0.18336617433363978,0.06509406379810558,294.3482627286222,21.717264884798954,0.0,1.0,0.0,0.0,1.0,Taxi
20.5,-0.030120667035259098,13.893401301524833,17.52447302003868,-0.16086177948662064,-0.42999237189165407,294.3526762057369,22.361411784271702,0.0,1.0,0.0,0.0,1.0,Taxi
20.6,0.013247786467224474,-1.5676481334880894,16.990068419756742,-0.30457733145131577,0.5426259289690067,294.35199589618173,21.159872274570937,0.0,1.0,0.0,0.0,1.0,Taxi
20.700000000000003,-0.05752510385545138,-10.822460071867127,15.916238539678464,-0.40635718213769706,-0.044670502827351945,294.3367965951961,21.958191731165957,0.0,1.0,0.0,0.0,1.0,Taxi
20.8,-0.08423296739459489,9.151346297830749,17.20373593482606,-0.592363529051977,-0.4160955730745809,294.3426221421114,21.254787042905782,0.0,1.0,0.0,0.0,1.0,Taxi
20.900000000000002,0.059004517956378046,27.47706418713591,15.89140205560081,-0.2118804665599329,0.330814771884905,294.292293656949,22.384440732413157,0.0,1.0,0.0,0.0,1.0,Taxi
21.0,0.079860217080228,33.60740596113903,17.48906090341675,-0.34719268466545244,-0.21289578054391795,294.3697528719317,22.347425680236384,0.0,1.0,0.0,0.0,1.0,Taxi
21.1,0.0838040624111001,-0.6966922931001799,16.93086750512592,-0.5524905265188709,-0.05057946938783702,294.3218386549197,21.839080288550893,0.0,1.0,0.0,0.0,1.0,Taxi
21.200000000000003,0.05552105649087698,-16.998092365587464,16.822166843860444,-0.5121473702512955,-0.5657965662341277,294.2604751553763,21.298268053803536,0.0,1.0,0.0,0.0,1.0,Taxi
21.3,-0.005130244747709484,17.37753030462107,16.497979879930266,-0.600660085442629,0.8014301364384536,294.359773787776,21.742579829628603,0.0,1.0,0.0,0.0,1.0,Taxi
21.400000000000002,0.17069171393420532,-38.947809323843295,16.74541835210206,-0.43819249552294337,0.4099519442888479,294.3144432062825,21.342574283514946,0.0,1.0,0.0,0.0,1.0,Taxi
21.5,-0.13921799012833966,13.406420656038298,16.869548236251152,-0.48462216501408284,-0.06237440894137205,294.27053122458176,22.033481317133177,0.0,1.0,0.0,0.0,1.0,Taxi
21.6,0.06190185853248183,-7.528944587012904,16.69513752645088,-0.12735518910682925,-0.3468502451431034,294.3453107994935,20.5152800261722,0.0,1.0,0.0,0.0,1.0,Taxi
21.700000000000003,0.1330469909991406,23.725489600650608,16.908647951807115,-0.1979687114807891,0.005299392923187982,294.30365069976733,21.93691062875793,0.0,1.0,0.0,0.0,1.0,Taxi
21.8,-0.02059054212508677,14.301227602897976,16.456163054322957,-0.467346110734574,0.07452670744096815,294.3200220686899,22.126679449919266,0.0,1.0,0.0,0.0,1.0,Taxi
21.900000000000002,0.13340799654697155,-28.50024708128431,16.371989125414693,-0.46034061927731107,-0.003232190326035229,294.3857631221922,22.13278326229863,0.0,1.0,0.0,0.0,1.0,Taxi
22.0,-0.009454244407281109,11.932100090498041,16.772803558903583,-0.2311884041198876,0.38129685913236694,294.4347031090258,22.427449407241294,0.0,1.0,0.0,0.0,1.0,Taxi
22.1,0.03906995832740327,-18.60765499825839,16.556408458218645,-0.44294195258800595,0.009949577720445323,294.44230189268364,22.276133493254825,0.0,1.0,0.0,0.0,1.0,Taxi
22.200000000000003,0.04036972155567944,-3.138117139994032,16.998521355590597,-0.14815980748265042,-0.6129554176260744,294.3830137055504,21.82991143906304,0.0,1.0,0.0,0.0,1.0,Taxi
22.3,-0.02514483010725141,2.1646799980574136,16.5038524722407,-0.1526279534003998,0.2717609094371098,294.1652244204231,21.791462065922392,0.0,1.0,0.0,0.0,1.0,Taxi
22.400000000000002,0.049893358317690206,5.797824401126099,16.652671045971733,-0.1740564311234194,-0.413122647841927,294.38956444283644,21.07774753213059,0.0,1.0,0.0,0.0,1.0,Taxi
22.5,0.0693588435613098,31.36600731657329,17.365170328420913,-0.056498671819338875,-0.727497067496182,294.3166612296649,21.462032260909176,0.0,1.0,0.0,0.0,1.0,Taxi
22.6,0.1316852064756149,7.171556129430972,16.040530331046522,-0.47288293572593154,0.705020584399379,294.4370383321859,21.513149403839403,0.0,1.0,0.0,0.0,1.0,Taxi
22.700000000000003,0.08575113896484493,22.183450748505212,16.70263670282951,-0.3113130852803707,0.3233938430144226,294.26445102341665,22.031015522930563,0.0,1.0,0.0,0.0,1.0,Taxi
22.8,0.18027609730383573,-1.424303229729027,16.08224234047287,-0.14551758341741877,-0.3763174331372258,294.28181174308236,22.063217274867696,0.0,1.0,0.0,0.0,1.0,Taxi
22.900000000000002,0.12456369032696962,-51.61729838914659,15.257379764498348,-0.42977177504767383,-0.28120909007239164,294.36838881086396,21.550644508287117,0.0,1.0,0.0,0.0,1.0,Taxi
23.0,-0.1723353529808882,-28.802993435105375,15.601827962382686,-0.2457007614234761,-0.369253067329634,294.31535975075235,21.78753351995585,0.0,1.0,0.0,0.0,1.0,Taxi
23.1,0.036261130128308665,-55.78370026431224,16.07325503736529,-0.6311641919869825,0.3810929950813617,294.42767831687433,21.02166760154857,0.0,1.0,0.0,0.0,1.0,Taxi
23.200000000000003,-0.15435481099459172,55.790776392527455,16.40869788563249,-0.31013244831159625,0.9902931043832277,294.42395532120463,21.984043643984098,0.0,1.0,0.0,0.0,1.0,Taxi
23.3,0.1066185289817489,-10.514295620610014,16.46184921831672,-0.4593973652785582,-0.05548616439099659,294.27683701426054,22.003161069749407,0.0,1.0,0.0,0.0,1.0,Taxi
23.400000000000002,-0.016310347974741565,55.42461603268335,16.739737072472675,-0.5981937813465158,-0.18269544350829114,294.24577399106056,22.007847953913448,0.0,1.0,0.0,0.0,1.0,Taxi
23.5,0.12276826916882487,-63.600280700595086,18.20373014354388,-0.13814874829961338,-0.3354257807682674,294.39101550840064,21.83439883495395,0.0,1.0,0.0,0.0,1.0,Taxi
23.6,-0.21138287452122662,-3.6117649847859403,16.64483903868668,-0.6316340007822475,-0.37598120953739256,294.33693812897945,21.99338184863779,0.0,1.0,0.0,0.0,1.0,Taxi
23.700000000000003,-0.03436917289867133,-16.743456426813964,16.94183372261266,-0.1899683191958087,0.09700782694465586,294.29963880817763,21.84802683645161,0.0,1.0,0.0,0.0,1.0,Taxi
23.8,0.039050987034754965,3.593236099418116,15.889265756706099,-0.27544960459734247,0.16360815718515898,294.28900266532855,21.91356624523227,0.0,1.0,0.0,0.0,1.0,Taxi
23.900000000000002,-0.1934166940241361,16.658143745649355,16.396317880008734,-0.8826845419697723,0.9864724053247933,294.25297237008135,21.517065102864034,0.0,1.0,0.0,0.0,1.0,Taxi
24.0,0.04892154582957535,-19.697885353863597,17.372353232125146,-0.4297228610889681,-0.3871906981202862,294.23703320512163,22.260618772376056,0.0,1.0,0.0,0.0,1.0,Taxi
24.1,-0.059438439734563114,75.73124941733595,16.606221543722146,-0.5580015843489025,-0.1902182219509188,294.3961167066201,21.91507242730019,0.0,1.0,0.0,0.0,1.0,Taxi
24.200000000000003,0.18523955306254353,-23.794820109252175,17.76794150969951,-0.4626674669948884,0.11107161519329832,294.44816368594593,21.87681009584706,0.0,1.0,0.0,0.0,1.0,Taxi
24.3,-0.07005255471668567,13.608533718293195,17.147495140316494,-0.7380700846975226,-0.1977290803495388,294.36982483769725,22.34979990713878,0.0,1.0,0.0,0.0,1.0,Taxi
24.400000000000002,0.008604228856902723,-28.46873703187875,16.62014473916482,-0.289921225280217,-0.09955226275501608,294.42044384829353,21.548009191830076,0.0,1.0,0.0,0.0,1.0,Taxi
24.5,0.04289586790314964,10.544863259587004,16.425396645812256,-0.4468052355758146,-0.15641623801225546,294.30685442622894,21.916475262164443,0.0,1.0,0.0,0.0,1.0,Taxi
24.6,-0.017328238418750763,-10.971409581766153,17.501565280169967,-0.23074577866599377,0.18834871845221898,294.4436094135666,21.728975026094954,0.0,1.0,0.0,0.0,1.0,Taxi
24.700000000000003,-0.04625281905192816,-4.329048451513036,15.74619031993221,-0.8104646742325854,-0.049856724219872584,294.29457430604,21.71614048032197,0.0,1.0,0.0,0.0,1.0,Taxi
24.8,0.02125062564558434,-0.4657342300485456,16.847551800287068,-0.5378673373725149,0.4117146825360879,294.2671284834099,21.11310522541422,0.0,1.0,0.0,0.0,1.0,Taxi
24.900000000000002,-0.019656909568993606,38.12478843202988,16.601765707991614,-0.13847637134738944,-0.3901051551743963,294.26669352832846,21.5052559350494,0.0,1.0,0.0,0.0,1.0,Taxi
25.0,0.14437112310822117,-30.68220763416379,15.741573322279796,-0.6397096963778945,0.08659191252183564,294.5876632897764,22.118193611141177,0.0,1.0,0.0,0.0,1.0,Taxi
25.1,-0.13216041252523475,-21.813922210393297,17.193745851881136,-0.23956446401736634,0.33712100815314994,294.42038015218066,21.086132016460787,0.0,1.0,0.0,0.0,1.0,Taxi
25.200000000000003,-0.1287265206209602,11.506848843585743,17.262419157657167,-0.30995751549749445,0.14369983542727655,294.3726136052642,21.84867510222298,0.0,1.0,0.0,0.0,1.0,Taxi
25.3,0.20190536732614972,42.27011467224996,16.942902075730256,-0.4453971386965372,0.7278837399177644,294.3306167064493,21.22801952166655,0.0,1.0,0.0,0.0,1.0,Taxi
25.400000000000002,0.07919016083601493,52.3735380034374,16.36998617472986,-0.5084815134258263,-0.1272238443210944,294.36636474366287,20.911657950594,0.0,1.0,0.0,0.0,1.0,Taxi
25.5,0.1331411693962267,-42.49626131727273,16.83911130421989,-0.537723941526766,-0.13620336844169045,294.28856075411204,21.568143338617244,0.0,1.0,0.0,0.0,1.0,Taxi
25.6,-0.010575939260214058,-6.278993633415624,16.21582504034419,-0.0888512796473791,0.5042651882009241,294.25906324607104,21.82226163862428,0.0,1.0,0.0,0.0,1.0,Taxi
25.700000000000003,0.047795192668936705,-29.21536647735927,15.960004778070058,-0.6638599458316161,0.7221537834835343,294.3364127695802,21.81077590490631,0.0,1.0,0.0,0.0,1.0,Taxi
25.8,-0.012935662990569788,17.789958680001117,16.558497720180245,-0.4958659346971598,-0.3313087667704877,294.33011610014125,21.927588065760894,0.0,1.0,0.0,0.0,1.0,Taxi
25.900000000000002,0.07837385413979142,-30.700093447444022,16.51792320867364,-0.07194345939359231,0.10393590048699272,294.2820637425857,22.439400965100653,0.0,1.0,0.0,0.0,1.0,Taxi
26.0,-0.10570527456828352,-27.937706904869795,15.917389914665852,-0.4517850595604826,0.2656571872831741,294.23786918643236,20.898417575385437,0.0,1.0,0.0,0.0,1.0,Taxi
26.1,-0.15262419751491885,-13.306630613889586,16.369901682762688,-0.105635529549716,0.453073276578098,294.29569292549604,21.86431201375299,0.0,1.0,0.0,0.0,1.0,Taxi
26.200000000000003,0.011840701070343436,29.383567187351115,16.345144846666997,-0.05178945843934191,0.11323502252738032,294.3842723561345,21.7883619640031,0.0,1.0,0.0,0.0,1.0,Taxi
26.3,0.041212561368471956,39.07276777539155,15.743043946953335,-0.5483878300187172,-0.5229485852224355,294.2124662797978,21.10921876105645,0.0,1.0,0.0,0.0,1.0,Taxi
26.400000000000002,0.04273964136203878,9.552922036988937,15.364893882708065,-0.09223353576170834,0.4793504985269971,294.2833811130216,21.167053067249693,0.0,1.0,0.0,0.0,1.0,Taxi
26.5,0.05960531125528802,-45.89916463697799,16.903518795329916,-0.5196261635460566,-0.21174753434548524,294.1659525120731,21.2730993167641,0.0,1.0,0.0,0.0,1.0,Taxi
26.6,-0.1882832618164181,-6.742301927471549,15.796752849391236,-0.11133285648040481,0.06506635406828139,294.42898565717087,22.32127215738906,0.0,1.0,0.0,0.0,1.0,Taxi
26.700000000000003,0.009028131724680958,-16.981326718574067,16.744041652020165,-0.5984613356030144,-0.07539533554627939,294.33832591961345,21.66665205959325,0.0,1.0,0.0,0.0,1.0,Taxi
26.8,-0.0253013223375824,33.623487578407456,16.294128262672963,-0.06470556841102493,-0.444312400525332,294.35064572898386,21.36801238093019,0.0,1.0,0.0,0.0,1.0,Taxi
26.900000000000002,-0.02016582392438097,-28.569297615239574,16.047502531297273,-0.45660636133370225,-0.5344922806162549,294.37003157601634,21.990062162243003,0.0,1.0,0.0,0.0,1.0,Taxi
27.0,-0.13381835635151704,40.266351406492156,16.504243055575795,-0.4133205421477169,-0.2568529872487984,294.32142529129055,22.001223659304777,0.0,1.0,0.0,0.0,1.0,Taxi
27.1,0.17603043469487825,-3.7719780269728744,15.898967209094133,-0.29287743752100104,-0.88215041174054,294.3565566596121,22.42537760752506,0.0,1.0,0.0,0.0,1.0,Taxi
27.200000000000003,-0.03902571405924546,58.135902894788536,15.525503763097142,-0.22454770037914923,-0.06723792088279718,294.39161562586594,21.506724566411933,0.0,1.0,0.0,0.0,1.0,Taxi
27.3,0.15686115812242554,-7.147868685888966,16.253314228862216,-0.3406791332379159,0.49665269668919115,294.39425617834297,21.620808312762136,0.0,1.0,0.0,0.0,1.0,Taxi
27.400000000000002,0.1402910912654333,27.475084976309706,16.788462653290992,-0.6294565044017914,-0.14088692602518807,294.1818483797779,21.74788710739582,0.0,1.0,0.0,0.0,1.0,Taxi
27.5,0.09834971082230293,-47.437687216189346,17.12436722665805,-0.5908249955310442,0.5919083092443101,294.3249747828514,21.163960891990687,0.0,1.0,0.0,0.0,1.0,Taxi
27.6,-0.08032727795852135,-34.332070860535666,17.352715935624534,-0.4618569281002143,0.07550113789832218,294.42407943488206,22.492071172680653,0.0,1.0,0.0,0.0,1.0,Taxi
27.700000000000003,-0.0313692630372452,11.21227087117559,15.740255108448773,-0.12122695296487362,-0.9619139049457434,294.4987370063511,21.29425737223331,0.0,1.0,0.0,0.0,1.0,Taxi
27.8,0.1544110651781807,-17.47320701520431,16.128663098823818,-0.6093869488051185,-0.1744211294986623,294.5281956659544,22.00967598515728,0.0,1.0,0.0,0.0,1.0,Taxi
27.900000000000002,-0.16769331303454307,29.867958102973613,17.110422593660562,-0.3889855482653983,0.6654330175989692,294.21586362769017,21.394766755407726,0.0,1.0,0.0,0.0,1.0,Taxi
28.0,0.11797052747762266,15.097234862755647,15.8208358313896,0.06449071210888901,-0.0753570463328921,294.2752415193361,23.02436082372186,0.0,1.0,0.0,0.0,1.0,Taxi
28.1,0.22989723949195873,23.101008536173566,16.71121617659857,-0.12453058293905411,0.44512665331884854,294.29794587158085,21.34835645741239,0.0,1.0,0.0,0.0,1.0,Taxi
28.200000000000003,-0.05218827035367544,-32.559119568338176,16.669226981585094,-0.26739923883395833,-0.18276054162088567,294.24707679213793,22.17132251615756,0.0,1.0,0.0,0.0,1.0,Taxi
28.3,-0.044825070364068416,-42.62546631272043,15.786920312256418,-0.414558675666703,0.9885989990595787,294.22856544335605,22.425326611537095,0.0,1.0,0.0,0.0,1.0,Taxi
28.400000000000002,0.016769907928356347,13.958693225092757,16.73857902400921,-0.27311302323384384,-0.7293554137407222,294.3009783445792,21.28128324755614,0.0,1.0,0.0,0.0,1.0,Taxi
28.5,0.017605195771788172,4.853886569037225,16.242235001424827,-0.3204896561283936,-0.21989211829386027,294.34458082917445,21.897464129536278,0.0,1.0,0.0,0.0,1.0,Taxi
28.6,-0.020555637518882466,-17.537661383926675,16.333315730611925,-0.0991031983559022,0.7980404274142551,294.0769773010795,21.889526805804415,0.0,1.0,0.0,0.0,1.0,Taxi
28.700000000000003,-0.0709183989912772,13.450271622767252,15.780946764033217,0.05304222720809565,0.05091393744398277,294.4770330033424,21.388752934587902,0.0,1.0,0.0,0.0,1.0,Taxi
28.8,0.08485655388562427,40.39699999845086,16.398223317022396,-0.5321814637880389,0.04542734559482921,294.44816969783164,21.713228543982524,0.0,1.0,0.0,0.0,1.0,Taxi
28.900000000000002,0.18142936247337166,2.6466788714352085,17.026728897599266,-0.2700769286369743,-0.5148919544174778,294.4563491027161,21.828486847194615,0.0,1.0,0.0,0.0,1.0,Taxi
29.0,-0.05768500463410131,-18.309315385422906,16.000838558362116,-0.7555866570363228,0.29790814518781356,294.3932710830038,22.47989158683363,0.0,1.0,0.0,0.0,1.0,Taxi
29.1,-0.0066900230414904385,-27.05325431283202,15.91671464968237,-0.671621798186361,-0.6270885633855577,294.2067848824746,21.52319186133936,0.0,1.0,0.0,0.0,1.0,Taxi
29.200000000000003,0.04616309090921139,27.20150293555673,16.341565580067975,-0.5316845626749606,0.06963039622111655,294.121154669873,22.117222649587397,0.0,1.0,0.0,0.0,1.0,Taxi
29.3,0.07832251004368218,-13.158285410231215,17.363667591417883,-0.586327674941137,-0.10896633583651665,294.4128423576582,20.135408551945837,0.0,1.0,0.0,0.0,1.0,Taxi
29.400000000000002,-0.07248145009264668,-11.29555838356397,16.923175318439693,-0.15034200767579928,-0.14289318462548553,294.5174986701538,21.489443147999342,0.0,1.0,0.0,0.0,1.0,Taxi
29.5,-0.01031470100860862,10.266404603476985,17.238139645070635,-0.6190643019334554,-0.5041585204336727,294.34382777079793,22.413132412566124,0.0,1.0,0.0,0.0,1.0,Taxi
29.6,0.12965453306106695,14.712219900905632,16.602312277400628,-0.27511668226118546,0.2783949813741652,294.35014087284446,21.274234859105785,0.0,1.0,0.0,0.0,1.0,Taxi
29.700000000000003,0.0010796494118813363,18.46681237698452,15.943367146191191,-0.8474936950525533,-0.3444863827576175,294.53467068488453,22.2100177481203,0.0,1.0,0.0,0.0,1.0,Taxi
29.8,0.08201936087631384,20.787270845895875,16.245852111485178,-0.41697349384736715,0.4608651827682477,294.3333127723754,21.41144528964245,0.0,1.0,0.0,0.0,1.0,Taxi
29.900000000000002,0.23359088729054617,-9.085868663407316,16.300778865939265,-0.25672522890396254,-0.2679689384474664,294.54430723734777,20.680976841068137,0.0,1.0,0.0,0.0,1.0,Taxi
30.0,-0.044349693905155405,23.983195182983206,16.77287747932185,-0.48829303328224355,-0.3584778078290577,294.32369094474257,21.036658953646757,0.0,1.0,0.0,0.0,1.0,Taxi
30.1,0.20193533679122974,-62.688122317381215,15.24261314076103,-0.2627431078828199,-0.6377271789798048,294.3526986453304,21.61961787763576,0.0,1.0,0.0,0.0,1.0,Taxi
30.200000000000003,-0.07984972429636,1.4589804275317124,15.715741789289265,-0.3102317399862932,0.018467347640434405,294.20149343519665,21.318828782554917,0.0,1.0,0.0,0.0,1.0,Taxi
30.3,-0.037054791767496945,-24.446937569819866,16.650510895576325,-0.1872507236080261,-0.5043176210514947,294.5183396312675,22.00257105035753,0.0,1.0,0.0,0.0,1.0,Taxi
30.400000000000002,0.07970064894213029,21.56912458934329,16.169666261598877,0.15002749099113322,-0.20017775434082452,294.41279291423825,22.66865815875229,0.0,1.0,0.0,0.0,1.0,Taxi
30.5,0.027995898650356316,26.642399682976485,16.241444313084976,-0.4418887046554647,0.10279647126539788,294.45320202577113,21.83111107851064,0.0,1.0,0.0,0.0,1.0,Taxi
30.6,0.09615720664738535,-8.323214562918936,16.822135128650434,-0.8353731827046256,-0.07323788323804105,294.49228538115744,21.737826184964604,0.0,1.0,0.0,0.0,1.0,Taxi
30.700000000000003,0.03808457612753546,2.125470776017863,16.87838616915422,-0.5635509375039707,-0.44950372443747416,294.2226403269434,21.89674632225854,0.0,1.0,0.0,0.0,1.0,Taxi
30.8,0.03862325253044549,-34.44623917643568,16.77650485825623,-0.27626281557970434,0.1928571022403556,294.3325004892379,21.410028565921785,0.0,1.0,0.0,0.0,1.0,Taxi
30.900000000000002,-0.07607398923479318,-3.130406578659366,16.297417241155966,-0.22394579991620436,-0.8662349686241643,294.3050754250992,20.850203023691446,0.0,1.0,0.0,0.0,1.0,Taxi
31.0,0.02243254323423852,-8.377384547474021,15.950556030224089,-0.5419241433746077,0.21620808383833567,294.25732927857393,21.75258194957296,0.0,1.0,0.0,0.0,1.0,Taxi
31.1,-0.0032636702069247167,11.386323789296632,17.423579589065156,-0.6902985098135028,1.315675058700088,294.3429143099146,21.873051334532995,0.0,1.0,0.0,0.0,1.0,Taxi
31.200000000000003,-0.019142370288310135,-27.558778481510824,15.936011894317636,-0.008384692930974602,0.036218086571933907,294.27516264888004,21.59502961692548,0.0,1.0,0.0,0.0,1.0,Taxi
31.3,-0.11536134917331571,19.109257142236363,17.095744302221572,-0.6512370808571961,0.598482810118651,294.4763148872886,21.916419911547308,0.0,1.0,0.0,0.0,1.0,Taxi
31.400000000000002,0.092282615504257,7.411634726678767,16.685874670976514,-0.1951860900560646,0.20937477452963016,294.4645044774388,20.82263597275446,0.0,1.0,0.0,0.0,1.0,Taxi
31.5,0.017915803345083588,2.625475446264275,16.096033168542647,-0.5177274926966609,0.306968489197416,294.3109519470645,22.092100858120077,0.0,1.0,0.0,0.0,1.0,Taxi
31.6,-0.10223397194199446,-31.63801087411267,16.202337649852833,-0.3549668072970433,0.12643529902272904,294.23693170876027,21.310230186124258,0.0,1.0,0.0,0.0,1.0,Taxi
31.700000000000003,-0.06590743886630648,-11.437689428244502,17.167220522738866,-0.3976074527136891,0.6895436028656207,294.2714950896682,21.280165518194973,0.0,1.0,0.0,0.0,1.0,Taxi
31.8,-0.03927264379613904,3.9959774833962527,16.131733322416245,-0.2877137758431325,-0.5003605408219295,294.3398676691861,21.618339570770143,0.0,1.0,0.0,0.0,1.0,Taxi
31.900000000000002,-0.08225408452501333,-7.522064314984434,15.539477640092613,-0.35056686675667287,-0.05809245996292099,294.5321595544792,20.561772261883707,0.0,1.0,0.0,0.0,1.0,Taxi
32.0,-0.10351776044122879,-34.71199059262341,16.940902383970904,-0.27074685305844465,0.022423891937304912,294.435437293217,21.089275642659214,0.0,1.0,0.0,0.0,1.0,Taxi
32.1,-0.2128325967592562,-4.73164058179745,15.865511755037009,-0.3046358118072933,-0.0076713341591291544,294.5166830315818,21.243554383261568,0.0,1.0,0.0,0.0,1.0,Taxi
32.2,-0.10591228743400072,29.38200794442424,16.79488724962384,-0.3988646036408547,-0.009711496964146181,294.1255566073078,21.016456449504908,0.0,1.0,0.0,0.0,1.0,Taxi
32.300000000000004,0.043392279280892294,59.89477674006245,17.115636209179122,0.12700060348126208,0.1294152900187455,294.3713025093291,22.255323905007067,0.0,1.0,0.0,0.0,1.0,Taxi
32.4,0.08664128694105594,12.095586310791466,16.827226154417723,-0.5710302523421111,-0.15111673921796231,294.40001986526977,21.523576739900644,0.0,1.0,0.0,0.0,1.0,Taxi
32.5,-0.04543435588004352,-32.50410429537411,16.201474782712403,-0.2093746081248572,-0.5349231411471475,294.3562600277894,21.098580551714768,0.0,1.0,0.0,0.0,1.0,Taxi
32.6,-0.11912824219597842,-19.875656205122812,16.383252828763975,-0.3643628148816571,-0.05694491422794257,294.3991881689449,22.256007534563985,0.0,1.0,0.0,0.0,1.0,Taxi
32.7,-0.012736994084558282,-11.11558739077919,16.943778262853705,-0.38814077896052107,-0.29888079135760437,294.26392551486515,22.03918380452167,0.0,1.0,0.0,0.0,1.0,Taxi
32.800000000000004,-0.1010122928339396,9.19020267295668,17.01770306981402,-0.2936866949417703,0.8425557480324346,294.3046591851854,20.22518181187264,0.0,1.0,0.0,0.0,1.0,Taxi
32.9,-0.07317722883119515,21.546009591261207,16.370523361244373,-0.43127432965257906,-0.5133918094582475,294.21100297397606,21.597002065760392,0.0,1.0,0.0,0.0,1.0,Taxi
33.0,0.09499305387174767,22.063129665348228,16.138888923712823,-0.20113173405590715,-0.14531977926857628,294.36863899796344,21.803887305045812,0.0,1.0,0.0,0.0,1.0,Taxi
33.1,0.009303355492801443,40.38018704593694,16.127635137165655,-0.2599510766331793,-0.5970688638162734,294.3480475507588,21.53439938270384,0.0,1.0,0.0,0.0,1.0,Taxi
33.2,0.12872370639848946,-5.496773202711448,16.070928524277186,-0.026852533239378917,0.46994119603067086,294.201661284535,21.177303765859072,0.0,1.0,0.0,0.0,1.0,Taxi
33.300000000000004,0.06750918785819032,-21.575745855437702,16.235799054989133,-0.32647073363783746,-0.4401096742867478,294.42955108786487,21.78219977737061,0.0,1.0,0.0,0.0,1.0,Taxi
33.4,-0.0985753737843872,-27.449406566330065,16.780543495833243,-0.5018025716273318,-0.27137412110446324,294.3183939298124,21.077011369566232,0.0,1.0,0.0,0.0,1.0,Taxi
33.5,-0.008523326433161017,-6.2467026113637125,16.97060027235912,-0.31815841877710027,-0.5314170155017957,294.3744870374144,22.162699767967815,0.0,1.0,0.0,0.0,1.0,Taxi
33.6,0.03627567480137162,41.86675320366598,16.228381590063414,-0.4594632654302423,-0.1243194465620636,294.2356146126274,21.774679527176524,0.0,1.0,0.0,0.0,1.0,Taxi
33.7,0.11075839223394257,-1.5405926025790961,16.523118104262707,-0.2907114875668565,-0.09386239335316714,294.31633943155236,21.710379736065207,0.0,1.0,0.0,0.0,1.0,Taxi
33.800000000000004,-0.016226289446056624,0.04248482440407031,16.275331760047163,-0.6945509467778428,0.34933509656199424,294.299684013823,22.210577574516527,0.0,1.0,0.0,0.0,1.0,Taxi
33.9,0.03648809892339185,-36.49206708474442,17.78744188476875,-0.5735747058313332,0.401870084044041,294.3892260943953,21.976686026005993,0.0,1.0,0.0,0.0,1.0,Taxi
34.0,-0.07170194318977964,24.87970250961001,17.04404266269828,-0.40059312326296553,0.0763585044968037,294.3266146700555,22.187234157090113,0.0,1.0,0.0,0.0,1.0,Taxi
34.1,0.10817222310199329,-28.481616713765053,16.708139843628476,-0.158274311004753,-0.557846473626399,294.2600278071636,21.12172010843436,0.0,1.0,0.0,0.0,1.0,Taxi
34.2,-0.10591998464543358,0.9598925666820245,15.809303516614316,-0.6320630924390174,0.4971086934309875,294.3412606730885,21.28110082261916,0.0,1.0,0.0,0.0,1.0,Taxi
34.300000000000004,-0.06690248035636968,-33.91351294113689,17.418345610132494,-0.20354118855459097,-0.9266708857618887,294.28615527299246,21.040504365430866,0.0,1.0,0.0,0.0,1.0,Taxi
34.4,-0.061395341603691304,28.42316105529795,16.639833138509406,-0.61523247828766,0.011144126540359315,294.30543380208246,20.94208139873768,0.0,1.0,0.0,0.0,1.0,Taxi
34.5,0.03619582063105605,-20.807290327979683,16.19639337324688,-0.4136147059704672,0.43602471194049086,294.2924789462219,21.868291144339594,0.0,1.0,0.0,0.0,1.0,Taxi
34.6,-0.1709389319962682,6.704212732198617,16.253665970922526,-0.06891746401047188,0.22464205330104775,294.28764129200977,20.597630889115482,0.0,1.0,0.0,0.0,1.0,Taxi
34.7,-0.027874277942698318,9.360000193153994,16.435465067823085,-0.5813459441186772,-0.07889117122540841,294.26994611000964,22.58327033602245,0.0,1.0,0.0,0.0,1.0,Taxi
34.800000000000004,0.0829958215968259,51.44452872835773,16.68385916940362,-0.37664339089642784,0.23553902149090686,294.28482685594736,21.30169180602629,0.0,1.0,0.0,0.0,1.0,Taxi
34.9,0.08628371164552029,4.2488630657805215,16.503153521790356,-0.13780331812439958,0.05232071105676724,294.45613022989255,22.104133619883587,0.0,1.0,0.0,0.0,1.0,Taxi
35.0,-0.006629962613795833,-13.92813590100001,16.712069992715083,-0.22043972932987954,-0.41669993522729953,294.2906406518824,22.158123421069448,0.0,1.0,0.0,0.0,1.0,Taxi
