time_s,altitude_ft,vertical_speed_fpm,ias_kt,pitch_deg,roll_deg,heading_deg,throttle_pct,afterburner_on,gear_down,flaps_deg,speedbrake_pct,weight_on_wheels,label
0.0,-2.006433592542184,-594.1101938151618,184.1644359403049,4.065717741202332,3.8466801638611927,111.77338528135249,41.60546259689846,0.0,1.0,12.221485723619217,11.446741000039735,0.0,Landing
0.1,-3.98680090525939,-814.6093337305109,185.99837369387947,3.5735208610296536,3.8259025786577854,111.81046522769805,41.150333717054785,0.0,1.0,12.221485723619217,11.446741000039735,0.0,Landing
0.2,-6.079480261194738,-1220.3411043589456,183.26969991104448,3.9410590982089433,3.9762988112723443,111.86401809771041,40.89864388458607,0.0,1.0,12.221485723619217,11.446741000039735,0.0,Landing
0.30000000000000004,-8.108139114336911,-1242.9144135929048,185.07265502972842,3.884741644834629,3.7131585758093317,111.58879341812633,40.690935772105426,0.0,1.0,12.221485723619217,11.446741000039735,0.0,Landing
0.4,-10.201372973223915,-1245.2134229886058,183.91837725415797,3.8683238450407855,3.850722322701083,111.67592799350655,40.929592296119644,0.0,1.0,12.221485723619217,11.446741000039735,0.0,Landing
0.5,-12.305547376137767,-1240.479417850627,183.97752733272014,3.9334708954317654,3.5984870366530415,111.64887075231758,41.3284929143627,0.0,1.0,12.221485723619217,11.446741000039735,0.0,Landing
0.6000000000000001,-14.310536203590045,-1238.2291297818463,182.62031632176655,3.834345441673566,4.026746700079298,111.49955413409208,41.256907086091175,0.0,1.0,12.221485723619217,11.446741000039735,0.0,Landing
0.7000000000000001,-16.392518622133146,-1239.7422608397378,185.01219161596677,4.085428992818172,3.954514223528507,111.69587163059322,40.9695362061145,0.0,1.0,12.221485723619217,11.446741000039735,0.0,Landing
0.8,-18.504258680336456,-1247.6493389339792,184.3892472173704,3.7181727718737676,3.795345188224376,111.84918684914965,41.5996980569364,0.0,1.0,12.221485723619217,11.446741000039735,0.0,Landing
0.9,-20.54878289825994,-1259.190158043225,184.29570289417225,4.082631903884745,4.209797661841828,111.5462777121611,40.745289813874415,0.0,1.0,12.221485723619217,11.446741000039735,0.0,Landing
1.0,-22.68846941234927,-1251.9045784678226,182.76970515560257,3.94927908941607,4.168386965981563,111.59361116397679,41.25695446884681,0.0,1.0,12.221485723619217,11.446741000039735,0.0,Landing
1.1,-24.76378157267557,-1259.863808702473,183.93241914484727,3.569374889436089,3.8950781526322067,111.7453641720603,41.037761982444586,0.0,1.0,12.221485723619217,11.446741000039735,0.0,Landing
1.2000000000000002,-26.848101941772306,-1247.29027048624,183.68200071987437,3.6013181251855424,3.426935116917774,111.5661141145502,41.30217996517926,0.0,1.0,12.221485723619217,11.446741000039735,0.0,Landing
1.3,-28.92492076478047,-1240.5055165406445,184.42183672028062,3.674678964833594,3.726595953026483,111.47917892814507,41.343018938992394,0.0,1.0,12.221485723619217,11.446741000039735,0.0,Landing
1.4000000000000001,-30.96630915537879,-1242.2800714455334,183.14035561947756,3.6569143146586773,4.002811449221591,111.6965924566249,41.03380185130216,0.0,1.0,12.221485723619217,11.446741000039735,0.0,Landing
1.5,-33.05950229899997,-1230.025651272951,184.79815125651726,4.150896636881528,3.975642907776383,111.54825656924459,40.69921098364263,0.0,1.0,12.221485723619217,11.446741000039735,0.0,Landing
1.6,-35.075049021145226,-1214.6989419889417,182.00059976010837,3.999034136748459,3.739183307015722,111.77155963625455,41.3699984405075,0.0,1.0,12.221485723619217,11.446741000039735,0.0,Landing
1.7000000000000002,-37.0398038653235,-1195.78780696134,183.8964670223795,3.6792694588003974,4.344578498623598,111.66564510769808,41.16463020176771,0.0,1.0,12.221485723619217,11.446741000039735,0.0,Landing
1.8,-39.038441333806674,-1215.0062329827563,182.64162121321567,4.0623265615008695,4.1229248961879055,112.02658540344561,40.99347915697855,0.0,1.0,12.221485723619217,11.446741000039735,0.0,Landing
1.9000000000000001,-41.15008018605901,-1229.964359881197,183.65569113609226,3.853672681137297,3.9142229819635648,111.71457703062788,41.49634077539041,0.0,1.0,12.221485723619217,11.446741000039735,0.0,Landing
2.0,-43.18962566472948,-1232.3932044319706,184.52489301883216,4.309800358399929,4.132392074815667,111.73657942628745,41.01697098296701,0.0,1.0,12.221485723619217,11.446741000039735,0.0,Landing
2.1,-45.200407355966526,-1218.1531073351891,185.58872375427816,3.6640779596610336,3.7494961746328355,111.35667537611482,40.904837178538685,0.0,1.0,12.221485723619217,11.446741000039735,0.0,Landing
2.2,-47.24084572273495,-1196.9848036123594,182.70320154325617,4.064374070470299,4.010816672278841,111.4571194713734,41.16324276084556,0.0,1.0,12.221485723619217,11.446741000039735,0.0,Landing
2.3000000000000003,-49.17454968279128,-1193.855275162271,182.89094208187907,3.5524065459287932,4.279742320101616,111.78252481208864,41.3483894334862,0.0,1.0,12.221485723619217,11.446741000039735,0.0,Landing
2.4000000000000004,-51.16968373177788,-1190.3813289067841,183.5244610031472,3.4724981612945887,3.619510704646868,111.62399635343496,40.892328361039354,0.0,1.0,12.221485723619217,11.446741000039735,0.0,Landing
2.5,-53.192752367268874,-1195.2776828281642,183.83454960790567,3.786473691560242,4.0120886965416345,111.91660749092364,41.26863478858938,0.0,1.0,12.221485723619217,11.446741000039735,0.0,Landing
2.6,-55.1509380969321,-1184.8616304002019,185.04506763045342,3.57789194931354,3.7207367709912735,111.60219307311849,41.20131632053812,0.0,1.0,12.221485723619217,11.446741000039735,0.0,Landing
2.7,-57.09399188377889,-1191.997071306369,185.68650815903848,3.569507510517704,3.866231699999175,111.65994371384346,40.84019373627685,0.0,1.0,12.221485723619217,11.446741000039735,0.0,Landing
2.8000000000000003,-59.15273772380072,-1202.3885815815036,184.2450073701482,3.8097903493519882,3.865227304230234,111.56753151895134,41.22360984720429,0.0,1.0,12.221485723619217,11.446741000039735,0.0,Landing
2.9000000000000004,-61.16288100483962,-1210.5965366119306,183.08498070637194,3.793459139196258,4.017335803439714,111.43376858329367,41.253686492667,0.0,1.0,12.221485723619217,11.446741000039735,0.0,Landing
3.0,-63.146974566838544,-1200.6452840533555,185.26609700550316,3.8360730453626193,3.7897571915382766,111.56684837499984,41.021620339314715,0.0,1.0,12.221485723619217,11.446741000039735,0.0,Landing
3.1,-65.1559641440675,-1196.12494514989,186.41027748377445,3.6636300436870046,3.729523508650706,111.24076193535768,41.016995934790884,0.0,1.0,12.221485723619217,11.446741000039735,0.0,Landing
3.2,-67.14350573058907,-1199.2256562186597,183.21612519726568,3.789517575036562,4.350611356519618,112.01528240333124,40.85713543765053,0.0,1.0,12.221485723619217,11.446741000039735,0.0,Landing
3.3000000000000003,-69.14310284793184,-1186.794481725292,183.8351795567751,3.5710987598640846,3.9950597210575944,111.7086155373375,41.33377049500409,0.0,1.0,12.221485723619217,11.446741000039735,0.0,Landing
3.4000000000000004,-71.08993655269396,-1210.5505792374743,183.70413132608584,3.719531671118137,4.187314241224675,111.74712514282146,40.698046733808894,0.0,1.0,12.221485723619217,11.446741000039735,0.0,Landing
3.5,-73.19625862677644,-1219.8629328234006,185.56490349309612,3.4407516760313746,3.8348877104121097,111.63401914355791,41.51177417344043,0.0,1.0,12.221485723619217,11.446741000039735,0.0,Landing
3.6,-75.24241751204885,-1252.1113547345408,185.19845343869255,4.081865352722995,3.9305767754066556,111.62742308343246,41.45483816419569,0.0,1.0,12.221485723619217,11.446741000039735,0.0,Landing
3.7,-77.35049332636666,-1220.286079758091,183.24076533609613,3.945134376110444,4.112900079393601,111.90258555760306,41.37950442903918,0.0,1.0,12.221485723619217,11.446741000039735,0.0,Landing
3.8000000000000003,-79.2976890255669,-1221.0975715657185,183.60640300943706,4.201392878968352,3.696997751935755,111.3770032081274,40.63537221936138,0.0,1.0,12.221485723619217,11.446741000039735,0.0,Landing
3.9000000000000004,-81.34790536987744,-1205.1957741664382,183.76244409731518,3.6126848219371936,3.938413185085242,111.60190528301553,41.216451454721216,0.0,1.0,12.221485723619217,11.446741000039735,0.0,Landing
4.0,-83.37647219719885,-1224.7530168293508,185.40307282827064,3.8825556832655015,3.917070531741213,111.55447854782858,41.10376855424839,0.0,1.0,12.221485723619217,11.446741000039735,0.0,Landing
4.1000000000000005,-85.42145410971365,-1216.722191898555,184.98640778172938,3.874968884556285,4.143873368396393,111.75603247593409,40.949512940946235,0.0,1.0,12.221485723619217,11.446741000039735,0.0,Landing
4.2,-87.43151632937021,-1197.4761528511492,183.30794363595197,3.8133984469967164,4.152503438313933,111.8085326900636,41.11485112858736,0.0,1.0,12.221485723619217,11.446741000039735,0.0,Landing
4.3,-89.3638529614546,-1198.3820126594792,185.70596801761045,4.086731265381362,3.687208954335183,112.03728874826572,40.82558123908026,0.0,1.0,12.221485723619217,11.446741000039735,0.0,Landing
4.4,-91.41336417301105,-1199.8531333468293,181.7080500913738,3.7409812801341196,3.8663331700810173,111.58996581529641,41.15885160417878,0.0,1.0,12.221485723619217,11.446741000039735,0.0,Landing
4.5,-93.43078199610436,-1207.8541606448512,186.32689331099996,3.988861056448041,4.377508711695541,111.76811018743598,40.728236297716805,0.0,1.0,12.221485723619217,11.446741000039735,0.0,Landing
4.6000000000000005,-95.40312376467885,-1207.3841749601513,184.91237083868918,3.393294325673944,3.661018267199163,111.63393470750617,41.07121771601807,0.0,1.0,12.221485723619217,11.446741000039735,0.0,Landing
4.7,-97.4502850478118,-1192.565456295759,184.40243766426346,3.5727860665071347,3.9625142009720467,111.45883204567753,40.918530846509405,0.0,1.0,12.221485723619217,11.446741000039735,0.0,Landing
4.800000000000001,-99.39360927758315,-1201.155418822711,184.3929460658022,3.6573206437709946,4.079224989660768,111.81626875638119,41.431712265772866,0.0,1.0,12.221485723619217,11.446741000039735,0.0,Landing
4.9,-101.4089008587924,-1178.9280440835114,184.26427408848357,3.761213400874557,4.048466398927379,111.70542325249579,40.95638862430016,0.0,1.0,12.221485723619217,11.446741000039735,0.0,Landing
5.0,-103.34492526822936,-1182.1117126667161,184.56096478742404,4.0545909696428435,3.878196180568134,111.57679914508117,41.35077889459341,0.0,1.0,12.221485723619217,11.446741000039735,0.0,Landing
5.1000000000000005,-105.30416784091673,-1166.4032485122932,184.84837980524222,3.4097277006612936,4.0034055720570185,111.57943821511628,41.426001101788295,0.0,1.0,12.221485723619217,11.446741000039735,0.0,Landing
5.2,-107.24091710135387,-1169.4155920587662,185.2025030833931,3.8701931978344613,3.5225257671944323,111.87416577596235,41.638490873063844,0.0,1.0,12.221485723619217,11.446741000039735,0.0,Landing
5.300000000000001,-109.19200322852319,-1175.1059185100473,184.0069562223944,3.6188404558422387,3.8296294530322936,111.76535456449358,41.36996328748733,0.0,1.0,12.221485723619217,11.446741000039735,0.0,Landing
5.4,-111.17969743346697,-1194.122059360731,184.26654514949567,3.8977306444267548,3.906004933908601,111.55640036984869,40.98571016557394,0.0,1.0,12.221485723619217,11.446741000039735,0.0,Landing
5.5,-113.21152739815753,-1184.3134109194496,183.76973800676438,3.7776884629704854,3.71399230720071,111.6961962323158,41.07548307439308,0.0,1.0,12.221485723619217,11.446741000039735,0.0,Landing
5.6000000000000005,-115.11357028312044,-1197.2426949540106,184.31274562922556,4.149445070919518,3.738864740202985,111.69379347840908,41.13190720048679,0.0,1.0,12.221485723619217,11.446741000039735,0.0,Landing
5.7,-117.16591090823702,-1186.6475045367679,183.78234561680887,3.9895762375098642,3.9134443158017205,111.62340639871519,40.9611676845829,0.0,1.0,12.221485723619217,11.446741000039735,0.0,Landing
5.800000000000001,-119.14476492084137,-1197.006215584145,185.03230838152297,3.687657580131579,3.934488096414576,111.65029565845884,41.374135197217974,0.0,1.0,12.221485723619217,11.446741000039735,0.0,Landing
5.9,-121.09860136104116,-1161.4764087773553,184.3351856039006,3.8137385436015947,3.8069551744644943,111.91143915861488,41.151972662796055,0.0,1.0,12.221485723619217,11.446741000039735,0.0,Landing
6.0,-122.9732929521238,-1177.1909784242866,184.62910644378906,3.999826239421914,3.4663117859319232,111.51221309782443,41.28644080194048,0.0,1.0,12.221485723619217,11.446741000039735,0.0,Landing
6.1000000000000005,-125.0307198129628,-1177.9028046251512,183.32172152971535,4.006333376146219,3.9842595179381117,111.93319479236277,41.79005560757542,0.0,1.0,12.221485723619217,11.446741000039735,0.0,Landing
6.2,-126.98811538416692,-1213.9988605541332,184.11119362213157,3.5854161022547215,3.773492519888994,111.55633008945551,41.309331362905425,0.0,1.0,12.221485723619217,11.446741000039735,0.0,Landing
6.300000000000001,-129.04328725489447,-1192.7247980095244,185.14233818211488,4.141545283614254,3.8598213936067607,111.61132479065327,40.7321113085878,0.0,1.0,12.221485723619217,11.446741000039735,0.0,Landing
6.4,-130.99434380301042,-1197.8894231933168,184.29626120190287,3.741462620599731,4.12564052012174,111.584094471985,40.990247595864375,0.0,1.0,12.221485723619217,11.446741000039735,0.0,Landing
6.5,-132.9775625001335,-1191.0088125586071,184.29255050266093,3.797105080513093,3.7153490250967764,111.70388310696114,41.56652807193137,0.0,1.0,12.221485723619217,11.446741000039735,0.0,Landing
6.6000000000000005,-134.9983313176875,-1198.9293243765587,183.89618026516914,3.9381773770900934,3.6926040608365835,111.94580871608213,40.76748583554777,0.0,1.0,12.221485723619217,11.446741000039735,0.0,Landing
6.7,-136.98899042489322,-1197.6750740397051,184.04100534101167,3.8689070340120235,3.9483301777034727,111.47001788987808,41.51260484547739,0.0,1.0,12.221485723619217,11.446741000039735,0.0,Landing
6.800000000000001,-138.96593787033203,-1178.7633866833746,182.06250511877104,3.8539804894626166,3.7295039797068825,111.53392763354515,41.13507915600191,0.0,1.0,12.221485723619217,11.446741000039735,0.0,Landing
6.9,-140.89214825110437,-1150.8902211797138,185.26015977084072,3.7144897358012874,4.163615500672786,111.80777163835808,40.79346715395337,0.0,1.0,12.221485723619217,11.446741000039735,0.0,Landing
7.0,-142.74344153079178,-1162.2490559454661,184.64504540409456,3.8577857307271097,3.98153075195823,111.50235169199942,41.34221065592198,0.0,1.0,12.221485723619217,11.446741000039735,0.0,Landing
7.1000000000000005,-144.77718315005936,-1174.0964390540623,185.04217233151692,3.836124844597274,3.988857115917764,111.85975241993492,40.856597572269116,0.0,1.0,12.221485723619217,11.446741000039735,0.0,Landing
7.2,-146.7626304463747,-1192.8368862583568,185.2944844465155,3.7120682203447415,3.93881673934598,111.61734608643724,41.145811186663636,0.0,1.0,12.221485723619217,11.446741000039735,0.0,Landing
7.300000000000001,-148.70762596208357,-1179.1565435386358,183.64351935857096,3.9798467899660035,3.9896572028577926,111.97867120005685,41.2398566774999,0.0,1.0,12.221485723619217,11.446741000039735,0.0,Landing
7.4,-150.67296586775254,-1189.9029859113796,184.68311561955457,3.966820085002053,3.6880634907229153,111.91963729774358,40.706209092127075,0.0,1.0,12.221485723619217,11.446741000039735,0.0,Landing
7.5,-152.71214537593158,-1189.0675571412373,184.0939552873658,3.437698775688942,3.659861705982208,111.86558390823723,41.01849672410439,0.0,1.0,12.221485723619217,11.446741000039735,0.0,Landing
7.6000000000000005,-154.65296374778976,-1180.3215098243643,185.853442780163,3.505487235063961,3.676198658165238,111.8629674675276,41.33775655891672,0.0,1.0,12.221485723619217,11.446741000039735,0.0,Landing
7.7,-156.57457341687436,-1180.506063593765,183.536157533326,4.197749297675804,4.114135380974655,111.9556970583759,41.196205813583276,0.0,1.0,12.221485723619217,11.446741000039735,0.0,Landing
7.800000000000001,-158.6146756939004,-1177.1818513090466,185.75086735636455,3.6700884006672156,3.7382562695552863,111.5626746934272,41.08139689884862,0.0,1.0,12.221485723619217,11.446741000039735,0.0,Landing
7.9,-160.538873004335,-1168.9063126826907,185.0054866608037,3.902535028665088,4.103463235993474,111.79379953947671,41.41426175109439,0.0,1.0,12.221485723619217,11.446741000039735,0.0,Landing
8.0,-162.4191049802878,-1127.5493678044656,184.69332718499936,3.7269185760214736,3.8478084328909548,111.65196981009251,40.588096800640685,0.0,1.0,12.221485723619217,11.446741000039735,0.0,Landing
8.1,-164.25242253292274,-1124.6644885105013,184.12997818020068,3.9263005025759825,3.9691566302417507,111.90585296328334,41.13746906790789,0.0,1.0,12.221485723619217,11.446741000039735,0.0,Landing
8.200000000000001,-166.1621954468875,-1109.1815205531814,185.28332249535063,3.600995835734595,4.143812594927793,111.48118449421787,40.75921571228571,0.0,1.0,12.221485723619217,11.446741000039735,0.0,Landing
8.3,-167.96501258305372,-1142.512948226937,182.83670039395264,3.9784382702932577,3.9899884518939195,111.71691671763153,41.337812726386396,0.0,1.0,12.221485723619217,11.446741000039735,0.0,Landing
8.4,-169.96498727405742,-1132.119392600589,183.98219468391022,3.561133530237706,3.62549718741286,111.59639897744023,41.428618225604396,0.0,1.0,12.221485723619217,11.446741000039735,0.0,Landing
8.5,-171.82279240989044,-1140.0612235134247,184.5326973177986,3.7194043190473582,4.065078000788145,111.5373706554729,41.59196058454373,0.0,1.0,12.221485723619217,11.446741000039735,0.0,Landing
8.6,-173.66531870062084,-1108.383077490089,183.99738386464531,4.161048020242865,4.22494661612037,111.85735572603835,40.70809369015647,0.0,1.0,12.221485723619217,11.446741000039735,0.0,Landing
8.700000000000001,-175.50690266150787,-1107.003155887537,184.6191023728732,3.9628566088372135,3.6316423105077145,111.608920570907,40.9108473929478,0.0,1.0,12.221485723619217,11.446741000039735,0.0,Landing
8.8,-177.35780818932813,-1145.4170829460566,184.04915338125173,3.63727255459604,3.7408463538754595,111.60281228581505,40.65580898361643,0.0,1.0,12.221485723619217,11.446741000039735,0.0,Landing
8.9,-179.39240411535113,-1152.6304263911584,185.70841572969016,4.10857995656457,3.66024717963827,111.53011007922339,41.18573901548377,0.0,1.0,12.221485723619217,11.446741000039735,0.0,Landing
9.0,-181.27005479346366,-1162.2511743899906,185.9834452272998,3.7808052369569527,4.096744750956656,111.61486955702424,40.591955847745496,0.0,1.0,12.221485723619217,11.446741000039735,0.0,Landing
9.1,-183.16906406127808,-1127.0254450146128,185.16338592015663,3.8654374493459516,3.5854090500336917,111.52573783077781,41.28614196950285,0.0,1.0,12.221485723619217,11.446741000039735,0.0,Landing
9.200000000000001,-185.0275313404242,-1129.0274358166585,183.41291214375053,3.9784349658063385,3.708711460009309,112.03480301434956,41.07757076715626,0.0,1.0,12.221485723619217,11.446741000039735,0.0,Landing
9.3,-186.91519197254695,-1138.9157626702001,185.88279770586075,3.7870038802995847,3.9284023341218184,111.69550690495657,40.641410473602576,0.0,1.0,12.221485723619217,11.446741000039735,0.0,Landing
9.4,-188.86364287462908,-1155.826827993269,185.05596062315732,4.105217415951194,3.7069990569942015,111.69684805194834,41.050907686930245,0.0,1.0,12.221485723619217,11.446741000039735,0.0,Landing
9.5,-190.80666548039054,-1162.8518777168722,184.4758949722208,4.0836291434243925,3.5553891319477016,111.69638548358444,41.295296052693466,0.0,1.0,12.221485723619217,11.446741000039735,0.0,Landing
9.600000000000001,-192.7294513611313,-1168.338529351331,184.12588347289042,3.9187622719296247,3.9524267388867127,112.10338689839489,41.70010848184767,0.0,1.0,12.221485723619217,11.446741000039735,0.0,Landing
9.700000000000001,-194.70533552138573,-1164.9329664111804,185.40143966339886,4.036528809953527,3.814181673759208,111.77291972416373,41.32146029228742,0.0,1.0,12.221485723619217,11.446741000039735,0.0,Landing
9.8,-196.63133031244644,-1167.6648620991843,185.151154257391,3.930724836404053,3.726449875821224,111.61837352896782,40.87327015327497,0.0,1.0,12.221485723619217,11.446741000039735,0.0,Landing
9.9,-198.56777567162723,-1150.411284092678,184.1969746164799,4.174364407346125,3.9805368040384463,111.71134660658288,40.90386934764238,0.0,1.0,12.221485723619217,11.446741000039735,0.0,Landing
10.0,-200.45739194184912,-1145.1343909625848,186.30029213827171,3.833588226459477,3.9962477077681413,111.96532504584343,41.01035040638128,0.0,1.0,12.221485723619217,11.446741000039735,0.0,Landing
10.100000000000001,-202.35700226725936,-1135.8034525713435,182.94126647250147,4.349266473128382,3.8011664020482527,111.71792204294667,41.13005802444241,0.0,1.0,12.221485723619217,11.446741000039735,0.0,Landing
10.200000000000001,-204.24679293448395,-1150.3689318240788,182.78487237668597,4.0995529148174965,3.797539591495654,111.73580498463161,41.544728316889234,0.0,1.0,12.221485723619217,11.446741000039735,0.0,Landing
10.3,-206.20923660096952,-1159.401071568783,184.2114313143611,4.148793962899465,4.087725365892529,111.6595521416528,40.843770857807094,0.0,1.0,12.221485723619217,11.446741000039735,0.0,Landing
10.4,-208.15400762510328,-1154.6517983966112,184.81653008443652,3.9106461426562387,3.9489839061689644,111.7301673836742,41.224355960062304,0.0,1.0,12.221485723619217,11.446741000039735,0.0,Landing
10.5,-210.020051926467,-1154.6731533910645,184.98213917669517,4.020553505883513,3.882659260825289,111.51415215247374,41.594901435276526,0.0,1.0,12.221485723619217,11.446741000039735,0.0,Landing
10.600000000000001,-211.98260236792484,-1148.7339142558994,183.0891884588534,3.6023674801790255,3.7325237522448504,111.58336088954917,40.9279086787161,0.0,1.0,12.221485723619217,11.446741000039735,0.0,Landing
10.700000000000001,-213.89767719638277,-1150.982388460858,184.2680065681163,3.7410823580603054,3.8344472909089213,111.75856702489693,40.941365211143356,0.0,1.0,12.221485723619217,11.446741000039735,0.0,Landing
10.8,-215.7749638687713,-1128.3347403477876,183.9938587294433,3.515899058787568,4.031873449290709,111.73153705276684,41.10543809252183,0.0,1.0,12.221485723619217,11.446741000039735,0.0,Landing
10.9,-217.62427606966378,-1116.1898172498013,184.4373844972496,3.57375792550622,3.728483179155201,111.88312113989707,41.393413938310474,0.0,1.0,12.221485723619217,11.446741000039735,0.0,Landing
11.0,-219.47862628263178,-1132.8492158707775,182.82970140011923,4.052412497858022,4.0141639039160095,111.48605796542455,41.222473719872276,0.0,1.0,12.221485723619217,11.446741000039735,0.0,Landing
11.100000000000001,-221.43920994812518,-1157.1623561229046,183.86736657949317,3.6990761738639737,4.145068355602363,111.67540711467723,40.896990421060245,0.0,1.0,12.221485723619217,11.446741000039735,0.0,Landing
11.200000000000001,-223.4100878502783,-1178.791700069229,184.33604686322874,3.7856764891616317,3.776381456282778,111.67886707629782,41.24331588026791,0.0,1.0,12.221485723619217,11.446741000039735,0.0,Landing
11.3,-225.37258478297792,-1185.2268764475068,184.05683572504896,3.77813936155847,3.921928687499903,111.66244649843117,40.77574547670723,0.0,1.0,12.221485723619217,11.446741000039735,0.0,Landing
11.4,-227.36534433036272,-1163.0249431348773,184.34817658030744,3.8073115569749993,3.608845451315011,111.85476999545568,40.888453425541535,0.0,1.0,12.221485723619217,11.446741000039735,0.0,Landing
11.5,-229.2252125659527,-1147.8242685855491,185.1736447153069,3.807998399091883,3.693662337099548,111.63771525961738,40.787318363509314,0.0,1.0,12.221485723619217,11.446741000039735,0.0,Landing
11.600000000000001,-231.11170612590567,-1117.1993811640789,185.90170093369727,3.6865312966069665,4.162719512398993,111.8190719019401,40.93555107063531,0.0,1.0,12.221485723619217,11.446741000039735,0.0,Landing
11.700000000000001,-232.9513412361831,-1136.5571645759758,185.19736747393551,3.4417440206335463,3.74689695175051,111.66668111439975,40.874689284373936,0.0,1.0,12.221485723619217,11.446741000039735,0.0,Landing
11.8,-234.90799838883257,-1142.0858061967067,184.82286885104563,4.026416198138835,3.2911668779340366,111.73595190305468,41.23338881097585,0.0,1.0,12.221485723619217,11.446741000039735,0.0,Landing
11.9,-236.8221351568892,-1146.3441495814948,184.98733164002223,3.6368295701160025,3.9822380569241966,111.70460319959125,40.7047051303504,0.0,1.0,12.221485723619217,11.446741000039735,0.0,Landing
12.0,-238.68306198409059,-1128.114719120924,186.32954637092482,4.043660937214863,3.9370295493934098,111.58582707680648,41.12955863579305,0.0,1.0,12.221485723619217,11.446741000039735,0.0,Landing
12.100000000000001,-240.5485719844372,-1110.3918808073502,183.7064042255513,3.8770522844791215,3.732868797507433,111.90586525808556,41.23830622088316,0.0,1.0,12.221485723619217,11.446741000039735,0.0,Landing
12.200000000000001,-242.37409456092595,-1127.0847763664563,183.8347485346796,4.043279881757991,3.6813284087095877,111.79916303973988,41.02640631110759,0.0,1.0,12.221485723619217,11.446741000039735,0.0,Landing
12.3,-244.31848586592287,-1127.2297851977726,184.8880348483532,4.459016747957969,3.736914138211804,111.66376650413162,40.92511694907212,0.0,1.0,12.221485723619217,11.446741000039735,0.0,Landing
12.4,-246.18472091042605,-1138.9939230906919,182.93660606141336,4.074962804154793,4.159429553823309,111.98756901478589,41.21726344816338,0.0,1.0,12.221485723619217,11.446741000039735,0.0,Landing
12.5,-248.0690641763794,-1120.4392050827323,183.47189963821077,4.031692080547874,4.186828972219923,111.97129611155788,41.3277840289014,0.0,1.0,12.221485723619217,11.446741000039735,0.0,Landing
12.600000000000001,-249.92068189133653,-1116.4294674620976,183.62310372061785,3.730911221091792,3.7094452715616697,111.7238109947973,41.354462523722546,0.0,1.0,12.221485723619217,11.446741000039735,0.0,Landing
12.700000000000001,-251.76686824773654,-1107.7816734695489,182.6160702152913,3.8978338321380024,4.059050931978781,111.60726480291169,41.027812968756486,0.0,1.0,12.221485723619217,11.446741000039735,0.0,Landing
12.8,-253.60797254372716,-1111.639580268917,183.85794750386634,3.874025189332966,4.115621747076155,111.51347602057137,40.7961374126798,0.0,1.0,12.221485723619217,11.446741000039735,0.0,Landing
12.9,-255.4788797926811,-1129.0127035607554,184.003728236893,3.813679912777362,4.168675042587182,111.7773976930373,41.11787339922257,0.0,1.0,12.221485723619217,11.446741000039735,0.0,Landing
13.0,-257.4119317655403,-1113.9549468969221,183.49534935390324,3.557791746344549,3.9104402353742853,111.47890853257923,40.809980102221445,0.0,1.0,12.221485723619217,11.446741000039735,0.0,Landing
13.100000000000001,-259.17774727821177,-1108.5642771332175,184.69660673177248,3.727163592429907,4.099239559248493,111.68361703925171,40.81298070923712,0.0,1.0,12.221485723619217,11.446741000039735,0.0,Landing
13.200000000000001,-261.0217011783472,-1107.7723537895736,183.46686030949678,3.751531841542656,3.9514682186553785,111.59846009199583,40.89874323867717,0.0,1.0,12.221485723619217,11.446741000039735,0.0,Landing
13.3,-262.9507935344882,-1128.7181523579761,181.71522062452317,3.968065196819508,3.7044713915657455,111.64732823168197,41.19652245292913,0.0,1.0,12.221485723619217,11.446741000039735,0.0,Landing
13.4,-264.82133804000165,-1123.595559648959,184.1504318893008,3.7152789863830136,3.6841253310994433,111.74906817107535,40.6885701200421,0.0,1.0,12.221485723619217,11.446741000039735,0.0,Landing
13.5,-266.639678976592,-1112.7360381120639,183.11316988515355,3.6276852773434873,3.640983253149162,111.45642464945217,40.42789621485219,0.0,1.0,12.221485723619217,11.446741000039735,0.0,Landing
13.600000000000001,-268.5144737250485,-1114.9226337502455,185.712500885015,4.019900833413064,3.953197641159791,111.75485539708791,41.084626925519,0.0,1.0,12.221485723619217,11.446741000039735,0.0,Landing
13.700000000000001,-270.3959512087529,-1139.059593127206,184.65778316608836,3.7674101635342994,3.8439386464175938,111.68049008555352,41.17094547187221,0.0,1.0,12.221485723619217,11.446741000039735,0.0,Landing
13.8,-272.334976942228,-1136.0547115282088,186.68102551634317,3.784427979302826,4.14610159375369,111.75791829022188,41.221546721034684,0.0,1.0,12.221485723619217,11.446741000039735,0.0,Landing
13.9,-274.19474728268955,-1141.0726614237774,183.39583227542286,3.943852402509227,3.844312863497503,111.7482437216313,41.74362539450404,0.0,1.0,12.221485723619217,11.446741000039735,0.0,Landing
14.0,-276.10131451587176,-1126.3123710022796,184.41173885397805,3.946508926789855,4.082499940785777,111.80077853916566,40.63673324680412,0.0,1.0,12.221485723619217,11.446741000039735,0.0,Landing
14.100000000000001,-277.9665387972394,-1126.045999478447,182.91865109479983,3.660675507401273,3.79524468967397,111.60848233515071,40.94913100210328,0.0,1.0,12.221485723619217,11.446741000039735,0.0,Landing
14.200000000000001,-279.8249772800818,-1113.7367069872994,184.41579189627652,3.790740635338535,3.7644237201058353,111.6975999081804,41.21670035485827,0.0,1.0,12.221485723619217,11.446741000039735,0.0,Landing
14.3,-281.66999805080826,-1102.7246421177438,184.08558059462115,3.8980826649131544,3.8444465804225523,111.67731277902794,40.237672252051155,0.0,1.0,12.221485723619217,11.446741000039735,0.0,Landing
14.4,-283.48016200782814,-1111.3886688769412,182.73412654728114,4.000160002611271,3.842788726811083,111.79757037593288,41.35392555934284,0.0,1.0,12.221485723619217,11.446741000039735,0.0,Landing
14.5,-285.3819206244665,-1109.8809721452767,181.71155898965554,3.836030196098654,3.621185320398792,111.53922373785201,40.88451959402309,0.0,1.0,12.221485723619217,11.446741000039735,0.0,Landing
14.600000000000001,-287.21940291153464,-1119.743224257354,183.07517372033666,3.7394354154837237,4.059634844922038,111.73399679707421,40.93326866799772,0.0,1.0,12.221485723619217,11.446741000039735,0.0,Landing
14.700000000000001,-289.0788781291149,-1116.1849122177955,184.25140573918196,3.812890840044072,3.678026311155262,112.02947554006232,41.13384549168681,0.0,1.0,12.221485723619217,11.446741000039735,0.0,Landing
14.8,-290.96284518555547,-1114.8843553198162,184.33716071098038,3.783674679479974,3.5526394509832535,112.01040209549376,41.18443372209389,0.0,1.0,12.221485723619217,11.446741000039735,0.0,Landing
14.9,-292.7938246881337,-1113.9214157297602,183.09054026579824,3.8569764304442313,4.067433677529651,111.74687989193575,40.91835704264461,0.0,1.0,12.221485723619217,11.446741000039735,0.0,Landing
15.0,-294.6484852077637,-1102.2930392836543,185.62149613478107,3.5050650597496493,3.6619982329223806,111.6929322492627,41.31889021648021,0.0,1.0,12.221485723619217,11.446741000039735,0.0,Landing
15.100000000000001,-296.47431038197374,-1110.677604734235,183.12390508332211,3.6033337694783083,4.260221972454756,111.58354492831921,40.75273022258308,0.0,1.0,12.221485723619217,11.446741000039735,0.0,Landing
15.200000000000001,-298.3472127118049,-1118.7567251908831,184.409824303683,3.8196614040898997,3.6815540506588453,112.04513642769678,40.78842849119423,0.0,1.0,12.221485723619217,11.446741000039735,0.0,Landing
15.3,-300.24226883371813,-1140.7190350561564,181.93161574756286,3.8048599529362344,4.123275912534075,111.50916000173817,41.3266620804632,0.0,1.0,12.221485723619217,11.446741000039735,0.0,Landing
15.4,-302.1779055572545,-1146.0550592655409,182.582043003305,3.6203588260973136,4.1254032448929925,111.75263935993166,40.960536942020944,0.0,1.0,12.221485723619217,11.446741000039735,0.0,Landing
15.5,-304.0774880081326,-1138.1729398960033,185.48504378754407,3.68895153969744,4.106908509663819,111.69929615417868,40.51809898232804,0.0,1.0,12.221485723619217,11.446741000039735,0.0,Landing
15.600000000000001,-305.93313353319814,-1133.2100199466481,184.61367760491342,3.772782306485836,3.8330407224231964,111.51035074314336,41.295283355278535,0.0,1.0,12.221485723619217,11.446741000039735,0.0,Landing
15.700000000000001,-307.84395565698776,-1111.7209873791694,185.12718272898982,4.283708001550235,3.847776743473375,111.21300640015272,41.301409574621076,0.0,1.0,12.221485723619217,11.446741000039735,0.0,Landing
15.8,-309.63609294502845,-1120.09825684014,183.1602031161966,3.7184855153555536,3.8420072988998157,111.78404640061814,40.93197309475111,0.0,1.0,12.221485723619217,11.446741000039735,0.0,Landing
15.9,-311.53362481739885,-1106.8722163147982,184.1231852057932,3.740114039959392,4.020808867731905,111.66701267149449,40.46473680496205,0.0,1.0,12.221485723619217,11.446741000039735,0.0,Landing
16.0,-313.37831673856175,-1118.9339067469518,185.0175121014376,4.025778714913112,3.7320610771264384,111.68977865659281,41.174900674158486,0.0,1.0,12.221485723619217,11.446741000039735,0.0,Landing
16.1,-315.2307624787632,-1104.7397926841313,184.54438241524093,3.830566729843596,4.044667401881142,111.57164979395088,40.888923257236584,0.0,1.0,12.221485723619217,11.446741000039735,0.0,Landing
16.2,-317.0573237808195,-1110.5879752763258,182.07156452656437,3.7482255121742867,3.9859516358524805,111.93992105801732,41.3302289436279,0.0,1.0,12.221485723619217,11.446741000039735,0.0,Landing
16.3,-318.9312566149434,-1120.1147183186208,184.68000574995008,4.143686456202563,3.821809463125854,111.63990361792435,41.01591238603694,0.0,1.0,12.221485723619217,11.446741000039735,0.0,Landing
16.400000000000002,-320.8313360703563,-1132.0492220647452,185.96878988255602,3.8220146669849187,3.688781882965271,111.70123636402536,41.7877231306607,0.0,1.0,12.221485723619217,11.446741000039735,0.0,Landing
16.5,-322.7175698911432,-1114.8593679239525,184.69846098743352,3.8992940037386,3.7345824450639236,111.61391968222529,40.427638674769604,0.0,1.0,12.221485723619217,11.446741000039735,0.0,Landing
16.6,-324.50555345456314,-1098.2080201524354,187.03233909589107,3.576391717773425,3.6135211911630734,111.70630315477001,41.06596649522955,0.0,1.0,12.221485723619217,11.446741000039735,0.0,Landing
16.7,-326.3223761711185,-1075.3303425891431,184.4639170155189,3.859755161774197,3.778452273994859,111.98132679650064,41.24966602613398,0.0,1.0,12.221485723619217,11.446741000039735,0.0,Landing
16.8,-328.09422160408894,-1066.2285679171077,182.83782371730453,4.08579329426225,4.182308126911315,111.70296568675212,41.50873776076344,0.0,1.0,12.221485723619217,11.446741000039735,0.0,Landing
16.900000000000002,-329.8366962941487,-1087.615493756016,183.90513906658342,3.99405606148111,3.9513521351048357,111.89737354137691,40.83127440106158,0.0,1.0,12.221485723619217,11.446741000039735,0.0,Landing
17.0,-331.76045363989857,-1100.7701195314212,183.13586192263512,4.181670610602673,3.935109050775127,111.81310869740798,41.08973439504377,0.0,1.0,12.221485723619217,11.446741000039735,0.0,Landing
17.1,-333.59807220174605,-1101.643533800575,185.39404591207366,3.9227099828762393,3.624314849576299,111.89565950275164,41.032738443064154,0.0,1.0,12.221485723619217,11.446741000039735,0.0,Landing
17.2,-335.34491396315155,-1088.6200098425093,182.96377407134028,3.852406550003649,4.1474688006220175,111.61672089455561,41.04005798156023,0.0,1.0,12.221485723619217,11.446741000039735,0.0,Landing
17.3,-337.2035536891111,-1078.4880984071378,183.1425029623337,4.035830287300827,3.6814378201167965,111.65621705419608,41.231776351896706,0.0,1.0,12.221485723619217,11.446741000039735,0.0,Landing
17.400000000000002,-338.99051269378174,-1098.5137192247862,183.23825201640258,4.008590254081802,3.7245887614910558,111.42220394465903,41.592477252649815,0.0,1.0,12.221485723619217,11.446741000039735,0.0,Landing
17.5,-340.8374825592755,-1094.5505248744325,184.29675565748354,3.395776443497934,3.40817349835016,111.87105689625128,40.86504448540973,0.0,1.0,12.221485723619217,11.446741000039735,0.0,Landing
17.6,-342.6763063134833,-1088.8206816877641,184.6316792030108,3.7537521123932316,3.7070609034489777,111.5143133171324,41.06233165493317,0.0,1.0,12.221485723619217,11.446741000039735,0.0,Landing
17.7,-344.43461610222056,-1066.7013667357082,184.8196585155156,3.4914286222880118,3.7775846117671295,111.60165129225459,41.16253778602492,0.0,1.0,12.221485723619217,11.446741000039735,0.0,Landing
17.8,-346.170989392954,-1057.427816749498,184.94373381252814,4.29051139668352,4.103961898319171,111.61446379089102,41.25157861568533,0.0,1.0,12.221485723619217,11.446741000039735,0.0,Landing
17.900000000000002,-347.96344539723077,-1080.6201060343938,184.58146292525456,3.562373962135764,3.814531315688411,111.97171191091593,40.6168964255098,0.0,1.0,12.221485723619217,11.446741000039735,0.0,Landing
18.0,-349.8377166323925,-1076.1365537120355,183.11791097988726,3.5620442511781105,3.8466655319581298,111.71381639543438,41.220089930805166,0.0,1.0,12.221485723619217,11.446741000039735,0.0,Landing
18.1,-351.5516721615142,-1076.8740646538163,183.6652896036715,4.200661209685296,3.960930952554273,111.59534850978059,41.27437253702364,0.0,1.0,12.221485723619217,11.446741000039735,0.0,Landing
18.2,-353.34781572049985,-1075.8700700196187,185.44269507044942,3.905549890072307,3.7891089066838712,111.90904854166263,40.952405973101556,0.0,1.0,12.221485723619217,11.446741000039735,0.0,Landing
18.3,-355.2170669824906,-1094.087576838183,183.579418869558,3.6242277046701794,4.134597276931191,111.65211291506068,40.83983963816731,0.0,1.0,12.221485723619217,11.446741000039735,0.0,Landing
18.400000000000002,-357.0221100457051,-1103.3330464179926,184.88228395609053,3.766133573727038,3.928887262237595,111.74533165787341,41.52079189325032,0.0,1.0,12.221485723619217,11.446741000039735,0.0,Landing
18.5,-358.8644809525898,-1078.93390282469,184.29010453607964,4.48801620149333,4.010419162762691,111.61077464147041,41.386191727224215,0.0,1.0,12.221485723619217,11.446741000039735,0.0,Landing
18.6,-360.61173649661407,-1082.8024999398394,183.94197380456126,3.6931417827290636,3.88248362448718,111.71103384953085,41.282368331710416,0.0,1.0,12.221485723619217,11.446741000039735,0.0,Landing
18.7,-362.4361225454043,-1086.130012658964,182.39468993708417,3.935766929151753,3.8071570888782,111.85794325153546,40.665459836705566,0.0,1.0,12.221485723619217,11.446741000039735,0.0,Landing
18.8,-364.29513101588464,-1105.949879228183,185.20540758335147,3.843278804191666,4.105922065304039,111.5764465697111,40.80394294336727,0.0,1.0,12.221485723619217,11.446741000039735,0.0,Landing
18.900000000000002,-366.141485892755,-1115.867277233565,184.28380019344712,3.762179248602967,3.8179866597226377,111.62163545895032,41.00873158125917,0.0,1.0,12.221485723619217,11.446741000039735,0.0,Landing
19.0,-368.01545893157214,-1096.5347358611098,184.04768263297842,3.5834423448924286,3.8328436465996147,111.70804474139874,41.270353949761976,0.0,1.0,12.221485723619217,11.446741000039735,0.0,Landing
19.1,-369.7778046951902,-1104.8213957911912,183.99338275614198,3.7592020505166635,4.0061858093292395,111.76433168721076,41.13539693469774,0.0,1.0,12.221485723619217,11.446741000039735,0.0,Landing
19.200000000000003,-371.66559287171094,-1096.4039942214072,184.61921438398886,4.013776291023324,3.8008841355226908,111.67227290747337,41.482354395210486,0.0,1.0,12.221485723619217,11.446741000039735,0.0,Landing
19.3,-373.4974789026792,-1101.7625211454629,184.3372758904937,3.9817659181799874,3.8165566531186763,111.65802712972362,41.13973585852257,0.0,1.0,12.221485723619217,11.446741000039735,0.0,Landing
19.400000000000002,-375.2866173009175,-1092.9992858345145,182.83620522671075,3.963738110869514,4.0234732088103,111.74706371348657,41.136091537801015,0.0,1.0,12.221485723619217,11.446741000039735,0.0,Landing
19.5,-377.1305893008835,-1076.5532560103566,183.81123687083277,3.5595115602058076,4.139657229775457,111.74011254303628,41.248677757049414,0.0,1.0,12.221485723619217,11.446741000039735,0.0,Landing
19.6,-378.88024518273096,-1056.4142978629548,185.39279158626908,3.8879115590807976,4.021040163681035,111.75950770697256,40.91339978836174,0.0,1.0,12.221485723619217,11.446741000039735,0.0,Landing
19.700000000000003,-380.5686887902323,-1066.7260690430794,182.18051316794805,3.7446229437444534,3.930896003781374,111.42251428853365,41.51292973586034,0.0,1.0,12.221485723619217,11.446741000039735,0.0,Landing
19.8,-382.4642196460989,-1055.5968921796307,181.82010329874558,4.042453930948677,3.892336000165135,111.53082362679731,40.68560226354562,0.0,1.0,12.221485723619217,11.446741000039735,0.0,Landing
19.900000000000002,-384.1582296436291,-1069.5800989011786,183.75018567970451,4.121277451503024,4.042048796094121,111.82773834691142,41.496947549273266,0.0,1.0,12.221485723619217,11.446741000039735,0.0,Landing
20.0,-385.91658928473817,-1051.112729625504,185.91826229927577,3.74614267775105,4.0217265130292965,111.57048734223724,40.834368455229814,0.0,1.0,12.221485723619217,11.446741000039735,0.0,Landing
20.1,-387.71978329422643,-1072.4351929727277,183.91183191696135,4.015522958563877,4.1331968372580725,111.62563741481642,41.07294242731322,0.0,1.0,12.221485723619217,11.446741000039735,0.0,Landing
20.200000000000003,-389.52040560849275,-1073.1012683924178,186.72720015810862,3.8170656050746596,3.9510248222151447,111.59986591395034,41.20050927733333,0.0,1.0,12.221485723619217,11.446741000039735,0.0,Landing
20.3,-391.28209562670025,-1059.526159224822,183.82658121961,3.8668157973425723,3.5121094286174945,111.76508124034132,41.49286200529432,0.0,1.0,12.221485723619217,11.446741000039735,0.0,Landing
20.400000000000002,-393.01741409035054,-1046.1516533983172,184.52731459376557,3.904086048234573,4.1799658461485665,111.7443811592068,41.371232012825615,0.0,1.0,12.221485723619217,11.446741000039735,0.0,Landing
20.5,-394.75116387548434,-1052.1008754013224,184.17849848414414,4.040776516159418,3.899571829274295,111.95610307775269,41.62140115512911,0.0,1.0,12.221485723619217,11.446741000039735,0.0,Landing
20.6,-396.54260000370687,-1059.5914138474996,185.9709453504169,3.9231657692969093,3.7540994537582533,111.67076498306983,41.44337637360093,0.0,1.0,12.221485723619217,11.446741000039735,0.0,Landing
20.700000000000003,-398.31537115958804,-1060.050101321599,183.8370384039489,3.815869230200947,3.8119294411439095,111.80280174872263,41.54724543017207,0.0,1.0,12.221485723619217,11.446741000039735,0.0,Landing
20.8,-400.05141438209233,-1070.92541618008,184.47187050322728,3.8435902620618063,3.7512098839590804,111.85166198367784,40.69916505250345,0.0,1.0,12.221485723619217,11.446741000039735,0.0,Landing
20.900000000000002,-401.89722708460727,-1043.1259232171897,182.98849115094978,3.8781863945912454,3.7337676264352293,111.73258044199667,40.936029937206534,0.0,1.0,12.221485723619217,11.446741000039735,0.0,Landing
21.0,-403.531000775674,-1035.4922603422892,183.90666101880544,3.7702601059103698,3.912568761753881,111.66152489294643,40.862092387359,0.0,1.0,12.221485723619217,11.446741000039735,0.0,Landing
21.1,-405.2288756838038,-1020.329225964781,183.99292102562072,3.6517782013852544,3.7172210731389166,111.65045103987825,41.179388916465825,0.0,1.0,12.221485723619217,11.446741000039735,0.0,Landing
21.200000000000003,-406.99887321443117,-1058.2798044292417,184.0761145388258,3.7813627052049483,4.3191971453209606,111.59634214028728,40.93503171588055,0.0,1.0,12.221485723619217,11.446741000039735,0.0,Landing
21.3,-408.8223997978202,-1067.042161955112,183.26037493756874,3.595212363323607,4.015400984814186,111.44834469803891,40.723929744866666,0.0,1.0,12.221485723619217,11.446741000039735,0.0,Landing
21.400000000000002,-410.56408649357934,-1078.4557686330913,186.8593711636903,3.7506779418760012,3.8889038236108204,111.78261741407249,40.612950270439015,0.0,1.0,12.221485723619217,11.446741000039735,0.0,Landing
21.5,-412.3911520575966,-1061.5955551670595,184.48569047105553,3.625032096312148,3.6837048332719062,111.86758439379076,41.464132596715096,0.0,1.0,12.221485723619217,11.446741000039735,0.0,Landing
21.6,-414.1303775736555,-1060.0727193348348,184.6830466794409,3.8122359466214366,3.655310088838815,112.03974392851455,41.74519919792146,0.0,1.0,12.221485723619217,11.446741000039735,0.0,Landing
21.700000000000003,-415.8644500902535,-1047.1494306298268,184.16289892048897,3.760337026250266,3.934053253420482,112.07365477680315,40.96627974944592,0.0,1.0,12.221485723619217,11.446741000039735,0.0,Landing
21.8,-417.62689921074576,-1034.4939888390627,184.86391128884344,3.606583059710996,3.8337989246642925,111.65911943549645,40.90974806481661,0.0,1.0,12.221485723619217,11.446741000039735,0.0,Landing
21.900000000000002,-419.3028475178508,-1025.0548637647967,185.0395046714484,3.9771542463748077,3.8165174584797636,111.93288970808698,41.19618419861121,0.0,1.0,12.221485723619217,11.446741000039735,0.0,Landing
22.0,-420.9897244090775,-1018.5880163048182,183.87829981306183,3.835410156893119,3.8620575734275784,111.92855130400847,41.15653317794661,0.0,1.0,12.221485723619217,11.446741000039735,0.0,Landing
22.1,-422.71983929226985,-1036.3708030117323,184.90098798444708,3.7826417874644216,3.836345366770426,111.68735915440777,40.86445319192552,0.0,1.0,12.221485723619217,11.446741000039735,0.0,Landing
22.200000000000003,-424.48470153290947,-1052.0052126023074,183.22507597283297,3.7509501019561653,3.813981363639686,111.73053245673367,40.57420127125627,0.0,1.0,12.221485723619217,11.446741000039735,0.0,Landing
22.3,-426.24975047208903,-1045.8771923768495,185.1622387929599,4.0178428717406005,3.899267959562337,111.84377065241961,41.42928570862335,0.0,1.0,12.221485723619217,11.446741000039735,0.0,Landing
22.400000000000002,-427.9492252541541,-1035.9061679249521,184.23672499210866,3.9676829100338806,3.9303047373718276,111.8497175898728,41.089500681331344,0.0,1.0,12.221485723619217,11.446741000039735,0.0,Landing
22.5,-429.66423237253423,-1044.069464953941,185.799855011922,4.04725326514405,3.794361300826171,111.7177819334712,40.71945790046823,0.0,1.0,12.221485723619217,11.446741000039735,0.0,Landing
22.6,-431.47009779685874,-1056.2274866108964,184.90691490187848,3.8543360849800505,3.829965143462054,111.65202341093419,41.02915878706826,0.0,1.0,12.221485723619217,11.446741000039735,0.0,Landing
22.700000000000003,-433.2303626872086,-1056.6847966963337,183.54276999188073,3.935706484552258,4.453900289850261,111.73659835598136,41.255701886199674,0.0,1.0,12.221485723619217,11.446741000039735,0.0,Landing
22.8,-434.9476563560159,-1032.7327388741537,184.4661900454805,3.932678660205875,3.807471172921894,111.77213903928623,41.27038902981566,0.0,1.0,12.221485723619217,11.446741000039735,0.0,Landing
22.900000000000002,-436.6337614912295,-1031.1099371903765,185.25072228676345,4.0221001357206445,3.505602816748078,111.73032707287933,40.897390169648624,0.0,1.0,12.221485723619217,11.446741000039735,0.0,Landing
23.0,-438.38591237316047,-1041.772980674557,185.20138222251884,3.8152288725402737,4.143506971044651,111.82290960461512,40.95954651044893,0.0,1.0,12.221485723619217,11.446741000039735,0.0,Landing
23.1,-440.1565212593887,-1042.4025412470996,184.51552852832162,3.5934983512704006,4.076389016535157,111.72620346318058,40.9684975026405,0.0,1.0,12.221485723619217,11.446741000039735,0.0,Landing
23.200000000000003,-441.845774197465,-1031.9006680669418,184.6758513434506,4.025519276405679,3.9918196137631137,111.61561956596466,40.98335630741819,0.0,1.0,12.221485723619217,11.446741000039735,0.0,Landing
23.3,-443.5454157134952,-1039.1129386005218,182.8875479695674,3.651727908534686,3.6097971906427126,111.74921502081031,41.195538762966514,0.0,1.0,12.221485723619217,11.446741000039735,0.0,Landing
23.400000000000002,-445.3520859523913,-1048.1693206590194,184.93971706412998,3.6323184592584536,3.903293989391356,111.77279794569529,41.44422498429791,0.0,1.0,12.221485723619217,11.446741000039735,0.0,Landing
23.5,-447.0866208007601,-1051.581681597304,184.72963866397617,3.6243437082292873,3.827123065999915,111.50872434407626,40.941725814366855,0.0,1.0,12.221485723619217,11.446741000039735,0.0,Landing
23.6,-448.8033241214817,-1052.8734056158555,182.9102214772218,3.836202764908844,3.9114817870541634,111.91170847153631,41.666911611789885,0.0,1.0,12.221485723619217,11.446741000039735,0.0,Landing
23.700000000000003,-450.61645298047057,-1046.291494487889,184.74632955798305,3.4730957840762455,3.834249033579789,111.65976981788492,41.43248202567326,0.0,1.0,12.221485723619217,11.446741000039735,0.0,Landing
23.8,-452.31807827319955,-1044.7674695140336,182.23771603044094,3.9444052354180514,3.6912018394416606,111.59381107210686,41.711638718897944,0.0,1.0,12.221485723619217,11.446741000039735,0.0,Landing
23.900000000000002,-454.02716146905186,-1036.695910786466,183.32827043084225,3.6840352885353727,3.8973949242396277,111.73817360886562,41.913071081779385,0.0,1.0,12.221485723619217,11.446741000039735,0.0,Landing
24.0,-455.7999325344029,-1027.4750979174428,183.39650667794388,3.7233903975004146,3.9843691486623753,111.6859944519573,40.89112160275669,0.0,1.0,12.221485723619217,11.446741000039735,0.0,Landing
24.1,-457.45545376278676,-1032.1681508347183,184.18492356038374,4.255327848235972,4.107618859422478,111.73108954522377,40.83890918482167,0.0,1.0,12.221485723619217,11.446741000039735,0.0,Landing
24.200000000000003,-459.18800222322545,-1028.0167392174235,182.94317260166804,4.204654816233569,3.794708071013364,111.70432968885706,40.77672863295634,0.0,1.0,12.221485723619217,11.446741000039735,0.0,Landing
24.3,-460.94001623049,-1031.2207820852223,183.3688488503738,3.6915003334009047,3.7887000697923736,111.74184759576906,40.95685059842026,0.0,1.0,12.221485723619217,11.446741000039735,0.0,Landing
24.400000000000002,-462.61155767321287,-1042.6163660678412,185.03636829675315,3.903250467679521,3.703642759326276,111.43548269224743,40.75852622814969,0.0,1.0,12.221485723619217,11.446741000039735,0.0,Landing
24.5,-464.40108405356466,-1029.445415040152,186.44141816590727,3.878037664973734,4.049754494315277,111.77340178470439,41.24740730920891,0.0,1.0,12.221485723619217,11.446741000039735,0.0,Landing
24.6,-466.0872433056908,-1038.943070084349,184.61585926804122,3.856261613009583,3.574434856229906,111.89464122483389,41.04092748700848,0.0,1.0,12.221485723619217,11.446741000039735,0.0,Landing
24.700000000000003,-467.8062730236346,-1024.7031713763704,185.22466327048673,3.8439900846978095,3.945162011929902,111.76469658550286,40.85224693736597,0.0,1.0,12.221485723619217,11.446741000039735,0.0,Landing
24.8,-469.5245999104465,-1036.0949539866624,182.98898610087082,3.687840011774695,3.9183320880755788,111.6916194548146,41.07936039282817,0.0,1.0,12.221485723619217,11.446741000039735,0.0,Landing
24.900000000000002,-471.2677180756241,-1034.933935213951,184.8261123132811,3.915155001469881,3.894136271039291,111.74891209677787,41.39221442537645,0.0,1.0,12.221485723619217,11.446741000039735,0.0,Landing
25.0,-472.98094269970437,-1029.1221942848324,183.529874766955,3.731573843644979,4.117172825950335,111.61402962929571,41.53712754231733,0.0,1.0,12.221485723619217,11.446741000039735,0.0,Landing
25.1,-474.6702108818707,-1027.071856631926,183.03632356395232,3.878718024791369,4.257712739917013,111.77175121568496,41.241389993218625,0.0,1.0,12.221485723619217,11.446741000039735,0.0,Landing
25.200000000000003,-476.4030773587837,-1018.5548122553769,184.0131067133605,3.8135985265026244,3.632327927924127,111.66517599570511,40.91551173601336,0.0,1.0,12.221485723619217,11.446741000039735,0.0,Landing
25.3,-478.07371676098126,-1012.8902130179767,183.7977626691434,3.955890183837408,3.823176987566134,111.93156470929284,40.96356382557997,0.0,1.0,12.221485723619217,11.446741000039735,0.0,Landing
25.400000000000002,-479.73466194696056,-1007.9704543638059,184.71111364288126,3.544080865452478,3.8741393165001172,111.66524009934938,41.15967084706923,0.0,1.0,12.221485723619217,11.446741000039735,0.0,Landing
25.5,-481.44292963060275,-1014.4655251814356,186.0644286493538,3.854304727910493,3.6469503842340942,111.81355633201832,41.398540992578965,0.0,1.0,12.221485723619217,11.446741000039735,0.0,Landing
25.6,-483.14604438688843,-1024.7159821217792,185.08901379170027,3.901752309717987,4.00707017678314,111.6430659894225,41.4485949080101,0.0,1.0,12.221485723619217,11.446741000039735,0.0,Landing
25.700000000000003,-484.85824185756945,-1016.7281414828722,184.98661074051796,3.6545862273088088,3.7285836042497005,112.01279461058886,41.401094098851644,0.0,1.0,12.221485723619217,11.446741000039735,0.0,Landing
25.8,-486.5265703380171,-1010.1726861833868,184.3388597674744,3.660551448436922,4.077470967728795,111.8043790643228,41.00554619781826,0.0,1.0,12.221485723619217,11.446741000039735,0.0,Landing
25.900000000000002,-488.19690781780537,-1010.9839095665961,185.27794347169777,3.581965223045176,3.849720839296063,111.81222202981729,41.1364656506547,0.0,1.0,12.221485723619217,11.446741000039735,0.0,Landing
26.0,-489.91316140540243,-1031.192831300416,183.5735530446023,3.647414604203447,3.6585043171833815,111.98664282211513,40.93490644888633,0.0,1.0,12.221485723619217,11.446741000039735,0.0,Landing
26.1,-491.6825344945192,-1032.4023077415745,185.40542149199774,3.657879245115747,3.7032228827646034,111.90021962362187,40.726583408821384,0.0,1.0,12.221485723619217,11.446741000039735,0.0,Landing
26.200000000000003,-493.35891935651324,-1036.6648800746361,183.62853801181674,3.771823773326396,3.9170123810715682,111.60889046265174,40.57511616058943,0.0,1.0,12.221485723619217,11.446741000039735,0.0,Landing
26.3,-495.0964858057756,-1034.9150554851349,185.5863999555915,3.7583865144271673,3.861758195406827,111.70248066130051,40.654142203849105,0.0,1.0,12.221485723619217,11.446741000039735,0.0,Landing
26.400000000000002,-496.85710977194486,-1034.7081209677185,185.14361293188261,3.8205597544798446,4.030895651136582,111.6467944686787,41.0568138304499,0.0,1.0,12.221485723619217,11.446741000039735,0.0,Landing
26.5,-498.53245996135183,-1026.4525955929912,183.46319533657513,3.9585981012869516,3.745693852969022,111.75878205943002,41.479741744540846,0.0,1.0,12.221485723619217,11.446741000039735,0.0,Landing
26.6,-500.22874878374057,-1004.1294345486108,183.75859843928842,3.9287316987859757,3.876455419805217,111.72248876022547,40.851351932123784,0.0,1.0,12.221485723619217,11.446741000039735,0.0,Landing
26.700000000000003,-501.8777569446879,-1035.1991960383657,185.38558896630093,3.790571612674202,3.80308745342682,111.83569614136889,40.714384351558984,0.0,1.0,12.221485723619217,11.446741000039735,0.0,Landing
26.8,-503.70845594154366,-1041.0548435433043,183.9988918539252,3.772033377972486,4.159759501393768,111.56316696051067,41.589207381635156,0.0,1.0,12.221485723619217,11.446741000039735,0.0,Landing
26.900000000000002,-505.4340230014571,-1049.2569186955734,183.42516616342297,3.6728434142522013,4.17166707801916,111.48840989160357,40.84362714151991,0.0,1.0,12.221485723619217,11.446741000039735,0.0,Landing
27.0,-507.1240415381658,-1021.9764877184161,184.6081348521894,3.5666665655547662,4.108564719545941,111.61852973472014,40.86126237487123,0.0,1.0,12.221485723619217,11.446741000039735,0.0,Landing
27.1,-508.81833838013574,-1007.0598678912347,184.72069637040616,4.219152333349481,4.102949968955997,111.51953940403149,40.75254022971672,0.0,1.0,12.221485723619217,11.446741000039735,0.0,Landing
27.200000000000003,-510.46932234091327,-1006.3589886926366,184.73351699191264,3.615324362427412,3.987731710523038,111.67288859313669,40.80482714868631,0.0,1.0,12.221485723619217,11.446741000039735,0.0,Landing
27.3,-512.155836481629,-974.2753470348589,184.99890664283242,4.20042184341665,3.9554070069284104,111.85737415260559,41.19667686703065,0.0,1.0,12.221485723619217,11.446741000039735,0.0,Landing
27.400000000000002,-513.68971511531,-979.7115562942622,184.74892353753322,4.256880782258437,4.0389318185807275,112.00176116870108,41.24746102906453,0.0,1.0,12.221485723619217,11.446741000039735,0.0,Landing
27.5,-515.3678801223846,-989.7831222682271,184.91993236503194,3.472595417238633,4.02835508142167,111.93962949502281,40.826238925716794,0.0,1.0,12.221485723619217,11.446741000039735,0.0,Landing
27.6,-517.1047520929701,-1015.7228406558033,185.70360780749076,3.8184752331536354,3.9866646285034792,111.80542762298768,41.21587094233558,0.0,1.0,12.221485723619217,11.446741000039735,0.0,Landing
27.700000000000003,-518.768329318589,-1027.7978358421706,183.17480771375503,3.5976105047148836,3.928837977198466,111.85934591106229,40.84917242342831,0.0,1.0,12.221485723619217,11.446741000039735,0.0,Landing
27.8,-520.5068693015954,-1019.9572668809878,183.8617574877433,3.837680982384747,3.8413328914147598,111.48269301044598,40.77266391806976,0.0,1.0,12.221485723619217,11.446741000039735,0.0,Landing
27.900000000000002,-522.204538427375,-1020.4408284810143,183.33173855217441,3.5269925871878094,3.877715600903125,111.44676057673269,41.55084664273225,0.0,1.0,12.221485723619217,11.446741000039735,0.0,Landing
28.0,-523.8705334609941,-994.997581858479,183.67811735435757,3.668394686593678,3.7357207118666267,111.6987202639483,41.07387868223643,0.0,1.0,12.221485723619217,11.446741000039735,0.0,Landing
28.1,-525.4818572108878,-988.5872755527771,183.17894052126053,4.389459938831469,3.837085554328116,111.78325287806399,41.72758647904392,0.0,1.0,12.221485723619217,11.446741000039735,0.0,Landing
28.200000000000003,-527.1474748051389,-997.1326967673576,184.75634816659962,3.9825990136574294,3.929776016307462,111.44294528847024,40.83044294221072,0.0,1.0,12.221485723619217,11.446741000039735,0.0,Landing
28.3,-528.8561969448309,-994.379484161891,182.74465669753238,3.8454766681125316,3.71008327818608,111.47263604408454,41.22864767211743,0.0,1.0,12.221485723619217,11.446741000039735,0.0,Landing
28.400000000000002,-530.4537546316973,-989.587483276955,184.35038604880503,3.7800651648060577,3.7424064469116383,111.9250818524502,41.07424419043104,0.0,1.0,12.221485723619217,11.446741000039735,0.0,Landing
28.5,-532.0954122215237,-980.0278335266512,185.3912241560864,3.531811071135133,3.710566321997351,111.40416149127873,41.037551597763766,0.0,1.0,12.221485723619217,11.446741000039735,0.0,Landing
28.6,-533.7563361124642,-994.5252651554256,182.99442974002443,3.665281918974906,4.204268799188297,111.70817474768506,41.69299322795071,0.0,1.0,12.221485723619217,11.446741000039735,0.0,Landing
28.700000000000003,-535.4263809574744,-1000.399653066961,184.07913256811312,4.154499647768337,4.020103862578379,111.63873228625016,41.245448039826115,0.0,1.0,12.221485723619217,11.446741000039735,0.0,Landing
28.8,-537.0974104868585,-975.0379151452989,183.5476959649281,3.642977240712056,3.8444081317057055,111.76006505932088,41.33839948364126,0.0,1.0,12.221485723619217,11.446741000039735,0.0,Landing
28.900000000000002,-538.6315256881907,-968.4010502578076,183.98713136341317,3.7374301419046914,3.9724948885530953,111.53822766090627,41.39439244493954,0.0,1.0,12.221485723619217,11.446741000039735,0.0,Landing
29.0,-540.2683862087634,-955.5565961684806,184.00703973055118,3.57451863398272,3.7737606988166936,111.61097338778859,40.90064686210531,0.0,1.0,12.221485723619217,11.446741000039735,0.0,Landing
29.1,-541.8751934677009,-972.8779177136403,182.83979466851218,3.88641535205397,3.6445687507998548,111.64968541498746,41.261085816000374,0.0,1.0,12.221485723619217,11.446741000039735,0.0,Landing
29.200000000000003,-543.4959152767589,-972.7944502435548,186.26902006123612,4.032458527655578,3.5827156976633647,111.96278539925572,41.20296085015635,0.0,1.0,12.221485723619217,11.446741000039735,0.0,Landing
29.3,-545.1323584599812,-989.5549263055955,183.6540468051191,3.9906320294716946,3.8920919560073926,111.70425767454361,40.71140653462492,0.0,1.0,12.221485723619217,11.446741000039735,0.0,Landing
29.400000000000002,-546.8229680992289,-997.1125320328383,184.49297812168726,3.778857771651055,3.775296416003957,111.63574702899513,40.884032990539254,0.0,1.0,12.221485723619217,11.446741000039735,0.0,Landing
29.5,-548.481477936923,-999.2589558080681,184.25303284343198,3.9353775008048304,3.896386141594207,111.58904593590944,41.06819391219959,0.0,1.0,12.221485723619217,11.446741000039735,0.0,Landing
29.6,-550.1286532390216,-976.5890084182729,184.00079545775992,4.295259065105296,3.990323209805903,111.92606330455311,40.95925645236559,0.0,1.0,12.221485723619217,11.446741000039735,0.0,Landing
29.700000000000003,-551.7059131413203,-991.0548320205635,181.76674583918816,3.929010672550564,3.8514478061213056,111.75636056425003,40.92453028993695,0.0,1.0,12.221485723619217,11.446741000039735,0.0,Landing
29.8,-553.4367520970259,-1014.1832633518561,183.1552865360491,3.9759607670845507,3.7499248147021365,111.75548037738565,41.575545410587566,0.0,1.0,12.221485723619217,11.446741000039735,0.0,Landing
