time_s,altitude_ft,vertical_speed_fpm,ias_kt,pitch_deg,roll_deg,heading_deg,throttle_pct,afterburner_on,gear_down,flaps_deg,speedbrake_pct,weight_on_wheels,label
0.0,-2.156763901484617,-623.4224379731336,186.57775160939767,0.44555227939405234,3.965875562165771,142.97130869298394,39.84793697367234,0.0,1.0,17.69509782537737,5.489039305127239,0.0,Landing
0.1,-4.234838694728396,-838.4819745779637,188.22599360216353,0.5462730364072205,4.295734988493259,142.85599524726058,39.831509909231094,0.0,1.0,17.69509782537737,5.489039305127239,0.0,Landing
0.2,-6.349173774374435,-1242.3122982569594,185.08480208232967,0.39473712088126756,4.165709102038412,142.8819067264301,39.90667016964141,0.0,1.0,17.69509782537737,5.489039305127239,0.0,Landing
0.30000000000000004,-8.368325392769414,-1257.4041765818058,187.78549436747406,0.2857885446511896,4.37298894044084,142.75950082864512,39.20681039103069,0.0,1.0,17.69509782537737,5.489039305127239,0.0,Landing
0.4,-10.521859577637425,-1265.449034569315,186.21279555004335,0.5206293615888895,4.0791674455373155,142.77132117089798,39.82364478592386,0.0,1.0,17.69509782537737,5.489039305127239,0.0,Landing
0.5,-12.676418947221011,-1276.959127412671,188.5709400986156,0.058630793832549544,4.157661177845501,142.83538857214273,39.9831612752442,0.0,1.0,17.69509782537737,5.489039305127239,0.0,Landing
0.6000000000000001,-14.75312102983277,-1247.7124615053542,186.57360987508693,0.5156854790601084,3.8789323945294734,142.66320861038372,39.49554171647501,0.0,1.0,17.69509782537737,5.489039305127239,0.0,Landing
0.7000000000000001,-16.760421885164195,-1222.5959401669743,186.465854780256,0.10624011478871223,4.343258714654629,143.25195652945837,39.42162283991521,0.0,1.0,17.69509782537737,5.489039305127239,0.0,Landing
0.8,-18.789398648055883,-1214.7232460140622,185.3323253989324,0.478388240315649,4.681589992049837,142.70626211796514,39.70606469918271,0.0,1.0,17.69509782537737,5.489039305127239,0.0,Landing
0.9,-20.82673725990308,-1214.8658542873316,186.7396897277725,0.09674454806512411,4.408989292199003,142.8168878755422,39.816505627088226,0.0,1.0,17.69509782537737,5.489039305127239,0.0,Landing
1.0,-22.834751156600852,-1204.2907138726662,186.70537903980133,0.2313571095246767,4.348697562015225,143.01608532777055,39.48894492195277,0.0,1.0,17.69509782537737,5.489039305127239,0.0,Landing
1.1,-24.810852217419214,-1194.9484419347707,186.26102852106231,0.06223962686242718,4.14574349848854,142.7356609711207,39.74071977207543,0.0,1.0,17.69509782537737,5.489039305127239,0.0,Landing
1.2000000000000002,-26.801479469576933,-1229.664947018022,186.16584590714942,0.42919927975469263,4.2869925460116125,142.9910443962317,39.874459413367425,0.0,1.0,17.69509782537737,5.489039305127239,0.0,Landing
1.3,-28.983075891690962,-1262.4137186066803,186.70531068498164,0.2171604128989608,4.4827360914476895,143.2431285455924,39.93453103312961,0.0,1.0,17.69509782537737,5.489039305127239,0.0,Landing
1.4000000000000001,-31.122920810452616,-1270.9642795929185,185.60521757802348,0.2573409646757086,4.5909617054025595,142.85268719921737,39.98365722564085,0.0,1.0,17.69509782537737,5.489039305127239,0.0,Landing
1.5,-33.156300867541525,-1232.5582369428794,187.42751614544017,0.6024091139514695,4.034992224061258,142.89636542709752,39.40113601175043,0.0,1.0,17.69509782537737,5.489039305127239,0.0,Landing
1.6,-35.14586707640536,-1228.2295342370894,185.54724671462162,0.5963918805457432,4.411580474207982,142.84627534546553,39.7116996312155,0.0,1.0,17.69509782537737,5.489039305127239,0.0,Landing
1.7000000000000002,-37.26406848163806,-1229.2239419392047,187.17097253805107,0.5114001670514694,4.746109482434471,143.0774995956129,40.09366518259115,0.0,1.0,17.69509782537737,5.489039305127239,0.0,Landing
1.8,-39.30242057723755,-1247.3485541282544,184.9740762453538,0.1590043738961176,4.2149486767337025,143.08013227538538,39.508304312950315,0.0,1.0,17.69509782537737,5.489039305127239,0.0,Landing
1.9000000000000001,-41.38260984704663,-1238.1077580066303,187.15892116435344,0.7875815793314411,4.160958158440856,142.7963731151998,40.040112359219634,0.0,1.0,17.69509782537737,5.489039305127239,0.0,Landing
2.0,-43.454607271671215,-1229.1627953411748,184.9170058931853,0.32421598479963265,4.463781246637439,142.88163597528484,39.81686740506635,0.0,1.0,17.69509782537737,5.489039305127239,0.0,Landing
2.1,-45.44823455394342,-1216.132334170031,187.19672376059285,0.07812790275122902,4.286687035555948,142.71518776584236,39.91903522769511,0.0,1.0,17.69509782537737,5.489039305127239,0.0,Landing
2.2,-47.463271517896786,-1215.7504665732163,186.15720939367523,0.38182586377050276,4.953834966098319,142.9123202634829,39.6453787743677,0.0,1.0,17.69509782537737,5.489039305127239,0.0,Landing
2.3000000000000003,-49.533359604537296,-1215.7741679948047,186.2454874268098,0.2301640638850922,4.619900094533686,142.80514984162005,39.53821851952602,0.0,1.0,17.69509782537737,5.489039305127239,0.0,Landing
2.4000000000000004,-51.527105393917445,-1207.2544914329244,187.03602809062338,0.5305013382378174,4.231695266368607,142.73338546164462,39.812556477162495,0.0,1.0,17.69509782537737,5.489039305127239,0.0,Landing
2.5,-53.49954397506141,-1207.551973714763,187.8557791035069,0.5180894520733346,4.446674396822826,142.9334146181722,39.88970687004793,0.0,1.0,17.69509782537737,5.489039305127239,0.0,Landing
2.6,-55.57111947311111,-1212.8846700957495,185.19081885436407,0.15460050954627125,4.474868932534845,142.67639413197855,39.826824046219265,0.0,1.0,17.69509782537737,5.489039305127239,0.0,Landing
2.7,-57.59152874439619,-1235.6789129375954,185.74469157857158,0.1328902273688708,4.30274249249327,142.94968072079797,39.662166292527985,0.0,1.0,17.69509782537737,5.489039305127239,0.0,Landing
2.8000000000000003,-59.677938539749384,-1230.293123021805,187.06129947210454,0.34897005938639686,4.117672074544307,142.90997308107023,40.0161722862068,0.0,1.0,17.69509782537737,5.489039305127239,0.0,Landing
2.9000000000000004,-61.722585088220136,-1242.4311804280678,186.12821991738545,0.22182072122675683,4.3101409046382475,142.83415008566158,40.17873123163644,0.0,1.0,17.69509782537737,5.489039305127239,0.0,Landing
3.0,-63.80368464653653,-1233.2346791084221,187.62979690954046,0.36562465371867486,4.455987340653621,143.1021330951237,39.4254184805394,0.0,1.0,17.69509782537737,5.489039305127239,0.0,Landing
3.1,-65.8441119352915,-1256.1183107473837,185.7601609079792,0.2574947130955859,4.294174140994909,143.06392345984045,39.44695849001244,0.0,1.0,17.69509782537737,5.489039305127239,0.0,Landing
3.2,-68.00317664195705,-1229.1361571372606,187.20441155383998,0.40057459718077354,4.266896854163819,142.86636460464388,39.88681831202697,0.0,1.0,17.69509782537737,5.489039305127239,0.0,Landing
3.3000000000000003,-69.94936543222283,-1220.0639702024519,186.0898558844509,0.44920515039527864,4.342576343228985,142.71900989438632,39.298730716697435,0.0,1.0,17.69509782537737,5.489039305127239,0.0,Landing
3.4000000000000004,-71.94443178630375,-1195.082159086047,185.60154659632153,0.5594607747283582,4.415904112453083,142.79304977142885,39.900376750061675,0.0,1.0,17.69509782537737,5.489039305127239,0.0,Landing
3.5,-73.97858743738729,-1225.67326573066,187.37356175633255,0.8010142374243749,4.6849553531072825,143.0586642642932,39.178483033980804,0.0,1.0,17.69509782537737,5.489039305127239,0.0,Landing
3.6,-76.07773176087613,-1238.4888487370945,184.67157271952522,0.3456876416350324,4.409010286731853,143.03280074714712,39.832332778560705,0.0,1.0,17.69509782537737,5.489039305127239,0.0,Landing
3.7,-78.13687602998922,-1238.6309303391383,185.7090459549295,0.3704330850556856,4.581031312402772,143.00704276968344,39.498960599755385,0.0,1.0,17.69509782537737,5.489039305127239,0.0,Landing
3.8000000000000003,-80.17174208908298,-1207.0865824838506,186.61836707598454,0.4898196343002388,4.4308600408136005,142.79758599823793,39.32739205705949,0.0,1.0,17.69509782537737,5.489039305127239,0.0,Landing
3.9000000000000004,-82.11316467329539,-1206.2581566745337,187.2844267762327,0.08346747872740984,4.297871511742531,142.97009870351502,39.71152844373821,0.0,1.0,17.69509782537737,5.489039305127239,0.0,Landing
4.0,-84.16816681336189,-1220.489330562279,185.76496987990666,0.31635894098358075,4.20668481735986,142.76464799327084,39.35627547866085,0.0,1.0,17.69509782537737,5.489039305127239,0.0,Landing
4.1000000000000005,-86.27418874189438,-1238.2129552375943,186.28786653021803,0.28091432821032103,4.190847692790079,142.59374866090076,39.71872919697407,0.0,1.0,17.69509782537737,5.489039305127239,0.0,Landing
4.2,-88.30422944948336,-1207.021792211495,184.5430625365309,0.034630670964618804,4.3778398640217615,142.74064152038397,40.041248811475974,0.0,1.0,17.69509782537737,5.489039305127239,0.0,Landing
4.3,-90.20327577441937,-1186.1334003659438,184.98532711238153,0.2755544656127309,4.160970894737184,142.7738594400828,39.632468728190105,0.0,1.0,17.69509782537737,5.489039305127239,0.0,Landing
4.4,-92.2048557437241,-1183.0550828693788,186.8253035652838,0.40532070786692975,4.138325902327075,142.8038590794962,39.62779414542206,0.0,1.0,17.69509782537737,5.489039305127239,0.0,Landing
4.5,-94.21950486383025,-1204.4224959235692,187.15683264577385,0.28062307854138957,3.926323192753174,142.80268366835594,40.009305583925695,0.0,1.0,17.69509782537737,5.489039305127239,0.0,Landing
4.6000000000000005,-96.22538825403721,-1198.9741929716502,187.8512380344597,0.06699397644294175,4.3467817460916995,143.06824845713777,39.75660760831206,0.0,1.0,17.69509782537737,5.489039305127239,0.0,Landing
4.7,-98.19972670858235,-1183.475934993646,185.8886574709708,0.6884275622611211,4.5346564923472465,143.02847936218006,39.12196956664451,0.0,1.0,17.69509782537737,5.489039305127239,0.0,Landing
4.800000000000001,-100.13688453879848,-1194.0548761937491,188.0765332640682,0.0623849670507321,3.936007490345255,142.94699868001055,40.25979908315374,0.0,1.0,17.69509782537737,5.489039305127239,0.0,Landing
4.9,-102.19566263500596,-1200.5717509490323,188.74775512549377,0.3475468696320205,4.225138038340934,142.78764997278097,39.83776594802331,0.0,1.0,17.69509782537737,5.489039305127239,0.0,Landing
5.0,-104.20258546332751,-1221.6037503405803,185.62201239307942,0.1620229720456442,4.289846212622993,142.81234905059364,40.05221876372079,0.0,1.0,17.69509782537737,5.489039305127239,0.0,Landing
5.1000000000000005,-106.24490329050138,-1206.6947161793394,184.373206536714,0.3806571724882485,4.44979288022023,142.98053205170146,39.63708837902731,0.0,1.0,17.69509782537737,5.489039305127239,0.0,Landing
5.2,-108.22913621590266,-1208.6559485622447,185.5837563839281,0.5158778040320806,4.219479848136331,143.0403856127524,39.62444262982246,0.0,1.0,17.69509782537737,5.489039305127239,0.0,Landing
5.300000000000001,-110.24586520613873,-1209.643485138696,185.06873089292642,0.06431743810464868,4.18959339928257,142.8747346502979,39.63395228026658,0.0,1.0,17.69509782537737,5.489039305127239,0.0,Landing
5.4,-112.29312071619486,-1209.1286904567853,185.37194268180482,0.537636001986769,4.336648072026318,143.03492511458353,39.55639490099158,0.0,1.0,17.69509782537737,5.489039305127239,0.0,Landing
5.5,-114.27477966818658,-1196.9435327980534,185.9122624165447,0.3767436178873906,4.4586868246552855,142.689913516018,39.67810294054985,0.0,1.0,17.69509782537737,5.489039305127239,0.0,Landing
5.6000000000000005,-116.230582870129,-1184.1678211062115,188.3725709284501,0.37593032361734025,4.5134285554436016,142.89020803353355,39.8488682121188,0.0,1.0,17.69509782537737,5.489039305127239,0.0,Landing
5.7,-118.21395982172592,-1182.6970721897624,185.3543718222365,0.5874742337559632,4.304483189765467,142.87724266995372,40.093451388405676,0.0,1.0,17.69509782537737,5.489039305127239,0.0,Landing
5.800000000000001,-120.1882650291354,-1185.9676958545945,185.49716707723488,0.5207814736341265,4.067213011688037,142.6041653262813,39.932531590832475,0.0,1.0,17.69509782537737,5.489039305127239,0.0,Landing
5.9,-122.16042134940197,-1184.8326624856554,187.09924467022302,0.4382030902248366,4.633060298339252,142.79360730503424,39.723560982565246,0.0,1.0,17.69509782537737,5.489039305127239,0.0,Landing
6.0,-124.1381231341542,-1178.0091959697445,186.81656701203178,0.3986382875064485,4.17867451590853,142.90441698835411,39.82044432617893,0.0,1.0,17.69509782537737,5.489039305127239,0.0,Landing
6.1000000000000005,-126.07831100898412,-1195.4140691062519,189.33661659019168,0.41827630607064636,4.608264770528343,142.85294057258852,39.322144977559425,0.0,1.0,17.69509782537737,5.489039305127239,0.0,Landing
6.2,-128.13749169493323,-1188.3636803495904,186.43688261576997,0.3967881255471599,4.143881979785082,142.65760445971029,39.43737253283948,0.0,1.0,17.69509782537737,5.489039305127239,0.0,Landing
6.300000000000001,-130.07994153590215,-1202.4915377161904,186.69019136102867,0.31413203238585374,4.668901947679772,142.8685026619297,39.19171929635762,0.0,1.0,17.69509782537737,5.489039305127239,0.0,Landing
6.4,-132.09076869756507,-1173.3514645413777,184.68480449963062,0.4803089789247289,4.704393557959262,142.82528339091778,40.394247782116,0.0,1.0,17.69509782537737,5.489039305127239,0.0,Landing
6.5,-134.00424901764012,-1182.7153959432337,184.6365310930687,0.6519519855499769,4.351481380500039,142.88248916825177,39.817066404284674,0.0,1.0,17.69509782537737,5.489039305127239,0.0,Landing
6.6000000000000005,-135.99351851561832,-1182.5612221346205,187.05266006884065,0.4094629032771459,4.377779557146219,142.72161941708185,40.160017770911594,0.0,1.0,17.69509782537737,5.489039305127239,0.0,Landing
6.7,-138.00357480823817,-1194.80793074203,186.1524684160224,0.05974147115755574,4.490411408602159,142.72951502593355,40.00433124054191,0.0,1.0,17.69509782537737,5.489039305127239,0.0,Landing
6.800000000000001,-139.97828867135027,-1188.7478367730293,186.9900436344719,0.31794064129529787,4.358287199297701,142.89041704239196,39.329128985967344,0.0,1.0,17.69509782537737,5.489039305127239,0.0,Landing
6.9,-141.93725769948347,-1178.459847650737,187.0529296915759,0.534429096490094,4.109149954105938,142.93125791382897,39.760179514104586,0.0,1.0,17.69509782537737,5.489039305127239,0.0,Landing
7.0,-143.89587404649185,-1163.3542446186539,185.5236140693207,0.3258759840240688,4.06760860855877,142.74993884320799,39.68870245142813,0.0,1.0,17.69509782537737,5.489039305127239,0.0,Landing
7.1000000000000005,-145.79505989444354,-1150.4678783801694,187.80202966321497,0.5030993710237206,4.588862547730706,142.59322475958254,38.969100684414926,0.0,1.0,17.69509782537737,5.489039305127239,0.0,Landing
7.2,-147.68959709138431,-1154.071924177754,185.24083609747234,0.36389146897816915,4.3174419934164705,142.877346089227,40.2452674954454,0.0,1.0,17.69509782537737,5.489039305127239,0.0,Landing
7.300000000000001,-149.66623366738062,-1141.4965992713633,188.23939957816592,0.3112444747687155,4.4232289027812834,142.77969333266412,39.493432054855674,0.0,1.0,17.69509782537737,5.489039305127239,0.0,Landing
7.4,-151.50254289080036,-1143.3514715419221,187.95653972675078,0.434912348028212,4.060389020092676,142.71506399251228,40.19928504880274,0.0,1.0,17.69509782537737,5.489039305127239,0.0,Landing
7.5,-153.40635444909393,-1151.0937217368735,188.02937008036972,0.2175617712899079,4.2137829326380665,142.9973437447727,39.39445327906577,0.0,1.0,17.69509782537737,5.489039305127239,0.0,Landing
7.6000000000000005,-155.421702276065,-1153.6901442541819,187.55644405598235,0.47422502363670355,4.68125041411139,142.68743440151275,39.8370153688745,0.0,1.0,17.69509782537737,5.489039305127239,0.0,Landing
7.7,-157.27099361207127,-1154.4435274536454,186.45849084152582,0.14035341992606679,4.34517637156695,142.66197832328407,39.65000959118358,0.0,1.0,17.69509782537737,5.489039305127239,0.0,Landing
7.800000000000001,-159.17857208636215,-1137.150820372517,186.63665655969663,0.512367344849546,4.330456925674733,142.94253180729459,39.49910015318153,0.0,1.0,17.69509782537737,5.489039305127239,0.0,Landing
7.9,-161.10745637792758,-1138.678806152734,186.22015101644666,0.3730393798771227,4.180118655309987,142.84917825015094,39.624688663966005,0.0,1.0,17.69509782537737,5.489039305127239,0.0,Landing
8.0,-162.96438764283494,-1149.9725799528278,187.4112395252375,0.5450306975371108,4.274873750909304,143.12171206608502,39.969414355327096,0.0,1.0,17.69509782537737,5.489039305127239,0.0,Landing
8.1,-164.9284349861263,-1150.95582841505,186.40772137283886,0.23984704132367413,4.253682354706585,143.08820472734578,39.39336983041985,0.0,1.0,17.69509782537737,5.489039305127239,0.0,Landing
8.200000000000001,-166.86223552000283,-1176.3696282525075,184.90048311558988,0.38496054960205117,4.440161840043725,142.8140721460801,39.807326331102054,0.0,1.0,17.69509782537737,5.489039305127239,0.0,Landing
8.3,-168.84623578409747,-1171.655842038325,185.2639439627647,0.2402317441607938,4.4650301967563655,142.5360041113044,39.30539568292704,0.0,1.0,17.69509782537737,5.489039305127239,0.0,Landing
8.4,-170.78671419631792,-1147.05156183648,185.36525336734275,0.09297087443799212,3.9639857280555253,142.55142809328618,39.44147247227411,0.0,1.0,17.69509782537737,5.489039305127239,0.0,Landing
8.5,-172.59749332918523,-1132.3142132854628,185.0205138984174,0.3180204193079306,4.43622438200599,142.75620562972983,39.326218797941834,0.0,1.0,17.69509782537737,5.489039305127239,0.0,Landing
8.6,-174.5078068505248,-1135.8934248901903,188.3231623284141,0.5815844449023975,4.771589229132014,142.62712770600535,38.757544100296705,0.0,1.0,17.69509782537737,5.489039305127239,0.0,Landing
8.700000000000001,-176.46618132076887,-1164.2401841083881,186.7570244763244,0.5679086418486936,4.388284846769261,142.92989963999764,39.5879744441837,0.0,1.0,17.69509782537737,5.489039305127239,0.0,Landing
8.8,-178.41869424972717,-1174.6678687783628,187.63613093623178,-0.1554860478452742,4.29289875580834,142.683593193232,40.110866802745406,0.0,1.0,17.69509782537737,5.489039305127239,0.0,Landing
8.9,-180.3811461944166,-1174.1254130288269,185.44264395602923,0.4449990766240483,4.743270303662155,142.68053655195206,39.54861373759117,0.0,1.0,17.69509782537737,5.489039305127239,0.0,Landing
9.0,-182.336808385913,-1164.151993151944,186.53310392194462,0.257212807840731,4.3869143703924625,142.81141008911112,40.313735067224364,0.0,1.0,17.69509782537737,5.489039305127239,0.0,Landing
9.1,-184.2394542154869,-1156.7243194586752,184.79269624839287,0.39620070311194067,4.340809997811505,143.0165063334287,39.62875016063826,0.0,1.0,17.69509782537737,5.489039305127239,0.0,Landing
9.200000000000001,-186.16476779170998,-1162.8689154515428,187.11042544569068,0.612836221189416,4.593205299451212,143.3290091851993,39.55146794232533,0.0,1.0,17.69509782537737,5.489039305127239,0.0,Landing
9.3,-188.15115296317072,-1163.0319692103399,187.57808391643152,0.4742962726451476,4.268285072872382,142.84499513890495,39.71151178393151,0.0,1.0,17.69509782537737,5.489039305127239,0.0,Landing
9.4,-190.0546140615386,-1155.0086361097726,186.80693935158257,0.3118187685965019,4.429519942212433,142.6930297423636,39.83185276801227,0.0,1.0,17.69509782537737,5.489039305127239,0.0,Landing
9.5,-191.93981097225884,-1141.8651407694767,187.78515269720987,0.3152895330016657,4.127913445030022,142.97309359781934,40.195296737019746,0.0,1.0,17.69509782537737,5.489039305127239,0.0,Landing
9.600000000000001,-193.8604786670181,-1141.8240432174684,188.04587005106526,0.4622620861395147,4.100746499425234,142.9548923081402,39.46391824441315,0.0,1.0,17.69509782537737,5.489039305127239,0.0,Landing
9.700000000000001,-195.76373427762593,-1157.1194741959573,186.03160934656526,0.17342376995207393,4.380320623349473,142.86679932177117,39.4451986422523,0.0,1.0,17.69509782537737,5.489039305127239,0.0,Landing
9.8,-197.72540834323863,-1153.9033117274014,187.16769925337445,0.5247029056473665,4.339939837315093,142.79403590207164,39.63028173895894,0.0,1.0,17.69509782537737,5.489039305127239,0.0,Landing
9.9,-199.6299952256551,-1162.2183274424287,185.63397949820126,0.5390416986408838,4.337973573953198,142.9676534937263,39.70454856844347,0.0,1.0,17.69509782537737,5.489039305127239,0.0,Landing
10.0,-201.57482591483807,-1150.1084438022983,188.55134870983144,0.14375404919457294,4.239410510735412,142.74756474719265,39.55026357920551,0.0,1.0,17.69509782537737,5.489039305127239,0.0,Landing
10.100000000000001,-203.47595056225012,-1135.71118520282,186.33900182540935,0.08248105326127952,4.146591888348917,142.8263510858847,39.956585450632204,0.0,1.0,17.69509782537737,5.489039305127239,0.0,Landing
10.200000000000001,-205.3085511516692,-1136.0866887986276,186.2197333517547,0.3544058315876751,4.422635751614145,142.8206304571342,39.775455301055615,0.0,1.0,17.69509782537737,5.489039305127239,0.0,Landing
10.3,-207.2552593588312,-1128.9261951727497,187.57897674296967,0.6168607263758521,4.013373722214613,143.00348522726904,39.367967412908506,0.0,1.0,17.69509782537737,5.489039305127239,0.0,Landing
10.4,-209.12058153811387,-1134.4064766732456,186.74982896753318,0.3753148776019192,4.464875380168637,142.82851196924304,39.5815066665351,0.0,1.0,17.69509782537737,5.489039305127239,0.0,Landing
10.5,-210.98058353503544,-1131.6246569169095,186.51225178063888,0.11433576083299124,4.37219498906692,142.8794280966979,39.89445229169245,0.0,1.0,17.69509782537737,5.489039305127239,0.0,Landing
10.600000000000001,-212.91338264341576,-1136.1113932409467,186.3478759370958,0.7902378400230781,4.550342787881676,142.6564055545906,39.35803298449348,0.0,1.0,17.69509782537737,5.489039305127239,0.0,Landing
10.700000000000001,-214.8011385043186,-1151.7142130526963,186.13029240761645,0.3822387726269282,3.945273908027886,142.95219838303717,39.42346984102927,0.0,1.0,17.69509782537737,5.489039305127239,0.0,Landing
10.8,-216.73915460029892,-1165.1710887456031,184.466494081765,0.40086868574285756,4.5926337206057735,142.88011038757656,39.822818277454644,0.0,1.0,17.69509782537737,5.489039305127239,0.0,Landing
10.9,-218.73923808714378,-1153.9431202587707,186.4400867045619,-0.0997752817482701,4.200016180958155,142.75704873658202,39.544366944206075,0.0,1.0,17.69509782537737,5.489039305127239,0.0,Landing
11.0,-220.57085410561245,-1151.910027012633,186.48530404922232,0.47185052794706095,4.387475406746085,142.8635501516244,40.03827531073124,0.0,1.0,17.69509782537737,5.489039305127239,0.0,Landing
11.100000000000001,-222.49870473536208,-1133.2783929854143,185.62825795284573,0.40101997941349954,4.554189999728011,142.75287155237305,39.431217463556706,0.0,1.0,17.69509782537737,5.489039305127239,0.0,Landing
11.200000000000001,-224.40563005207085,-1141.3626318305774,187.6889967365025,0.23278689589429669,4.351761329571219,142.98914671449876,39.84358041540731,0.0,1.0,17.69509782537737,5.489039305127239,0.0,Landing
11.3,-226.27766726476534,-1137.8881305678988,186.8026259778472,0.46591535260266426,4.139618153549258,142.68752101399753,39.634311231265315,0.0,1.0,17.69509782537737,5.489039305127239,0.0,Landing
11.4,-228.18814538820158,-1142.9754107953386,187.29683097200507,0.25367524365236227,4.292666417618358,142.55910588973734,39.8693544564482,0.0,1.0,17.69509782537737,5.489039305127239,0.0,Landing
11.5,-230.12050710604754,-1145.9550690366939,188.55934042749715,0.07983376670617165,4.37733748689822,142.9862865166824,39.926919908367566,0.0,1.0,17.69509782537737,5.489039305127239,0.0,Landing
11.600000000000001,-232.0074426099488,-1134.259879180786,185.6947669906372,0.34576063246519245,4.648781381001012,142.81915037403013,40.076118953127235,0.0,1.0,17.69509782537737,5.489039305127239,0.0,Landing
11.700000000000001,-233.8594447841055,-1131.8948334794356,188.076224886356,0.38183833474511775,4.171292012482828,142.71782698802105,39.87816626589387,0.0,1.0,17.69509782537737,5.489039305127239,0.0,Landing
11.8,-235.77998127344472,-1160.916333583458,185.75798987290273,0.26823060389241715,4.020818800839256,142.9803592190529,39.82070485426811,0.0,1.0,17.69509782537737,5.489039305127239,0.0,Landing
11.9,-237.8120242778661,-1184.205681204105,185.47134658754246,0.6940487261191348,3.9510011042282276,142.860774522077,39.3748177471059,0.0,1.0,17.69509782537737,5.489039305127239,0.0,Landing
12.0,-239.78047319012603,-1173.834382126438,186.2760511516057,0.5620675967139761,4.460049056779914,143.0847690400721,40.03759790201623,0.0,1.0,17.69509782537737,5.489039305127239,0.0,Landing
12.100000000000001,-241.6491531840769,-1148.9852354350262,185.7523511134745,-0.0700157226287434,4.638562320123304,143.14358946839405,40.0322846775142,0.0,1.0,17.69509782537737,5.489039305127239,0.0,Landing
12.200000000000001,-243.55695045504123,-1132.131509868816,185.84688279642702,0.2084808738628905,4.213457091800067,142.9048130245713,40.06395797982658,0.0,1.0,17.69509782537737,5.489039305127239,0.0,Landing
12.3,-245.4411307394701,-1132.125955164014,186.11547435687183,0.41893453126497837,4.9031954223463625,143.07879809196908,39.89606824458701,0.0,1.0,17.69509782537737,5.489039305127239,0.0,Landing
12.4,-247.30978295989698,-1128.7109541982943,186.7603604942785,0.08115015700758943,4.447106063936261,142.74172877175033,39.77874278883825,0.0,1.0,17.69509782537737,5.489039305127239,0.0,Landing
12.5,-249.2005052260327,-1122.8477064948038,187.1506997362021,0.47750242769817075,4.230787042849828,142.85049083091008,39.59066927665417,0.0,1.0,17.69509782537737,5.489039305127239,0.0,Landing
12.600000000000001,-251.05536927194413,-1108.8015156541587,187.59359021139747,0.22474386406301522,4.201500846848207,143.0498548524102,39.63842360417075,0.0,1.0,17.69509782537737,5.489039305127239,0.0,Landing
12.700000000000001,-252.85379053816777,-1103.8498084299817,187.09398266707393,0.3074993815393756,4.5182331184183235,143.11600072668784,39.426235645262764,0.0,1.0,17.69509782537737,5.489039305127239,0.0,Landing
12.8,-254.7197542681826,-1105.786921702213,186.01878475162238,0.5211487686012334,4.532681915510057,142.74542836063847,39.73924950699324,0.0,1.0,17.69509782537737,5.489039305127239,0.0,Landing
12.9,-256.5843038804552,-1122.7616373727585,188.21959670317813,0.1752280636201767,4.371277547739647,142.8092831916324,39.50939351642993,0.0,1.0,17.69509782537737,5.489039305127239,0.0,Landing
13.0,-258.46759872503156,-1106.0103698403623,187.62996487289806,0.45950818543153926,4.281772026428904,143.033548894104,39.24503520177213,0.0,1.0,17.69509782537737,5.489039305127239,0.0,Landing
13.100000000000001,-260.2498061173844,-1105.584500028624,186.32775345462062,0.5721807609444705,4.719239461932397,142.73020076738544,39.45538881569133,0.0,1.0,17.69509782537737,5.489039305127239,0.0,Landing
13.200000000000001,-262.1122263805983,-1105.3055065259741,185.21493713003335,-0.07875864649181014,4.044068994421539,142.57796009331122,39.509052190027056,0.0,1.0,17.69509782537737,5.489039305127239,0.0,Landing
13.3,-263.99412625766143,-1110.8941279496662,186.93723978985625,0.6864559151306078,4.477308658200349,142.7297525762247,39.84459676467945,0.0,1.0,17.69509782537737,5.489039305127239,0.0,Landing
13.4,-265.80427675713275,-1115.4114907656322,187.57176292963635,0.21792807929548003,4.704367738892556,142.71601400266377,39.39389754317352,0.0,1.0,17.69509782537737,5.489039305127239,0.0,Landing
13.5,-267.6892838344265,-1098.231983394794,186.1366395083164,0.22113204842076326,4.1308040008979034,142.6069469681426,39.71592014146889,0.0,1.0,17.69509782537737,5.489039305127239,0.0,Landing
13.600000000000001,-269.4852861746354,-1109.8761611326267,186.60976271927902,0.6211465140459373,4.095276793979999,142.94734452442754,39.49400940778398,0.0,1.0,17.69509782537737,5.489039305127239,0.0,Landing
13.700000000000001,-271.3536575627959,-1111.5181867319166,186.63710076172163,0.4792368014106027,4.278090506797386,142.87700743844414,39.99007509816412,0.0,1.0,17.69509782537737,5.489039305127239,0.0,Landing
13.8,-273.24687476808606,-1122.888462448111,187.26802331963225,0.2838924563961345,4.613199294913335,142.89634556803003,40.16002250099802,0.0,1.0,17.69509782537737,5.489039305127239,0.0,Landing
13.9,-275.09972848687596,-1114.549192610798,186.24819694240023,0.035167773549967474,4.385023765147031,142.50955591504294,39.53501536664581,0.0,1.0,17.69509782537737,5.489039305127239,0.0,Landing
14.0,-276.9264035258499,-1105.9528380927532,187.2046993471988,0.27082652299903487,4.027928211803076,142.81520667899275,39.74346178280862,0.0,1.0,17.69509782537737,5.489039305127239,0.0,Landing
14.100000000000001,-278.7766389585498,-1120.3339079533066,188.1115523646499,-0.23462439450553974,4.482809821320317,142.6884792034611,39.762221032531755,0.0,1.0,17.69509782537737,5.489039305127239,0.0,Landing
14.200000000000001,-280.7013980266425,-1120.480502120131,187.19417666513533,0.30744015022755955,4.182152873151848,142.6990518243531,39.410063441437096,0.0,1.0,17.69509782537737,5.489039305127239,0.0,Landing
14.3,-282.52880603645053,-1099.2051240552541,185.95293283668448,0.43058089764120955,4.007367220089935,142.92430512505882,39.757155731949794,0.0,1.0,17.69509782537737,5.489039305127239,0.0,Landing
14.4,-284.2726645788261,-1104.920794262216,186.6018403390132,0.7305231340619115,3.774133023121531,142.82384289903763,39.794839484607124,0.0,1.0,17.69509782537737,5.489039305127239,0.0,Landing
14.5,-286.2260019979536,-1105.706456309008,187.4243667189247,0.5266574214270998,4.032212140655611,142.86400803807726,40.01001504689552,0.0,1.0,17.69509782537737,5.489039305127239,0.0,Landing
14.600000000000001,-288.0573383179956,-1143.1933730931632,186.3251960961531,0.20138439264617214,4.594491852720942,142.9388612922387,39.70867773096176,0.0,1.0,17.69509782537737,5.489039305127239,0.0,Landing
14.700000000000001,-289.9886314442919,-1121.6573850994678,187.08592441729172,0.42322958515359893,4.355698411634169,143.17336116090303,39.4081509248644,0.0,1.0,17.69509782537737,5.489039305127239,0.0,Landing
14.8,-291.8342889234509,-1134.2084755454039,188.14499856198802,0.5105780401410449,3.9341571984050816,142.97295012120037,40.08699687594628,0.0,1.0,17.69509782537737,5.489039305127239,0.0,Landing
14.9,-293.7283806957226,-1119.5542337014558,185.66250170929695,0.37753644193137137,4.534931705980078,142.836378038019,39.90362461349988,0.0,1.0,17.69509782537737,5.489039305127239,0.0,Landing
15.0,-295.5864026127992,-1117.2804571988308,188.729653725867,0.21474822722583362,4.359704813459918,143.14342819051194,39.71049599136341,0.0,1.0,17.69509782537737,5.489039305127239,0.0,Landing
15.100000000000001,-297.42069120944507,-1109.7431945787434,185.1162851299358,0.27394224134333084,4.3392543112348685,142.70331093322193,39.847090457714394,0.0,1.0,17.69509782537737,5.489039305127239,0.0,Landing
15.200000000000001,-299.2770966686163,-1099.765613279385,186.04845390403398,0.13428196649482457,4.085641092566615,142.7200015888692,39.688784624003524,0.0,1.0,17.69509782537737,5.489039305127239,0.0,Landing
15.3,-301.0852306791961,-1098.7999603302342,188.90601030931137,0.08358385928253109,4.031618301597773,142.7474018212431,39.44917424098813,0.0,1.0,17.69509782537737,5.489039305127239,0.0,Landing
15.4,-302.91469101109624,-1083.614626595363,186.60943915181514,-0.1486260914127624,4.416210462207817,142.88140286401676,40.129007569900885,0.0,1.0,17.69509782537737,5.489039305127239,0.0,Landing
15.5,-304.6951698015931,-1099.7702306840665,186.8059533102607,0.46328695021716565,4.548821452116866,142.84865954652184,39.40992830814991,0.0,1.0,17.69509782537737,5.489039305127239,0.0,Landing
15.600000000000001,-306.58408183261645,-1077.830713378205,187.65518831048865,0.29495825822878147,4.300656381321614,142.79559467528702,39.376839092299186,0.0,1.0,17.69509782537737,5.489039305127239,0.0,Landing
15.700000000000001,-308.30384457798726,-1074.6517950071734,186.3254132371993,-0.007367942341278966,4.357639776190637,143.12157583214213,39.72709319455759,0.0,1.0,17.69509782537737,5.489039305127239,0.0,Landing
15.8,-310.068428776629,-1054.751750521632,186.86638364605358,0.14215188477254945,4.455343991134059,142.94447608069754,39.21569145487831,0.0,1.0,17.69509782537737,5.489039305127239,0.0,Landing
15.9,-311.8578405852246,-1074.9320561054333,186.00213114723127,0.5481211687638446,4.4414855553677155,142.8839514062725,39.638259025650946,0.0,1.0,17.69509782537737,5.489039305127239,0.0,Landing
16.0,-313.67850485851443,-1104.91640153233,187.0971983817478,0.2901256835452662,4.292676075404449,142.96826818893896,39.42233134611617,0.0,1.0,17.69509782537737,5.489039305127239,0.0,Landing
16.1,-315.59301078429064,-1114.4167151939087,186.16472075404627,0.31437401238798207,4.281041500138114,142.78451453413396,39.5559661582582,0.0,1.0,17.69509782537737,5.489039305127239,0.0,Landing
16.2,-317.42992416119415,-1118.627008103249,187.1914710412238,0.5108143059182348,4.050429745723573,142.804592542122,39.548806947202614,0.0,1.0,17.69509782537737,5.489039305127239,0.0,Landing
16.3,-319.2716398990307,-1102.1909438047146,185.91057087464768,0.28172128736224467,4.593480215918223,142.89758997289653,39.88084471294025,0.0,1.0,17.69509782537737,5.489039305127239,0.0,Landing
16.400000000000002,-321.1039655033142,-1107.0827448211503,186.8143750635001,0.0728146059509556,4.177170997315478,142.80956670873172,39.852981906523105,0.0,1.0,17.69509782537737,5.489039305127239,0.0,Landing
16.5,-322.9653378852999,-1125.8292297115304,186.824451193545,0.4935493439792288,4.386558776005864,142.89551896682036,39.96244369815397,0.0,1.0,17.69509782537737,5.489039305127239,0.0,Landing
16.6,-324.9007860475883,-1121.1437045222851,186.17619064327425,0.23480487788980198,4.350653433568345,142.8517630449884,39.7804636914896,0.0,1.0,17.69509782537737,5.489039305127239,0.0,Landing
16.7,-326.70968402592564,-1109.7144782560576,188.62509401744992,0.04108786941226944,4.298761228840856,142.93565098394708,39.32723248365427,0.0,1.0,17.69509782537737,5.489039305127239,0.0,Landing
16.8,-328.5139102765802,-1072.0615119005743,185.02628327778478,0.6460977965007296,4.494596676568484,142.6893038773219,39.45331080521118,0.0,1.0,17.69509782537737,5.489039305127239,0.0,Landing
16.900000000000002,-330.2610936070912,-1086.317135230172,187.11864184375452,0.3389820166709493,4.47003614675219,142.7698347660396,39.52605577014995,0.0,1.0,17.69509782537737,5.489039305127239,0.0,Landing
17.0,-332.1412697020765,-1096.760050503292,184.58863940729282,0.21243737567158044,4.438236414479908,142.88427949823324,39.468536540652515,0.0,1.0,17.69509782537737,5.489039305127239,0.0,Landing
17.1,-333.99771052909665,-1132.0445593512545,186.80794615517001,0.10861254618352323,4.609471604957174,142.9575467536513,39.530541182765155,0.0,1.0,17.69509782537737,5.489039305127239,0.0,Landing
17.2,-335.92131640384747,-1118.6796718206779,187.97158196244786,0.3869439549937404,4.3505567890617405,143.03038489621235,38.86340663242914,0.0,1.0,17.69509782537737,5.489039305127239,0.0,Landing
17.3,-337.7346680611799,-1116.4542305891246,186.41998600346616,0.08662396669679037,4.069625681519536,142.8033940476468,39.884394722316934,0.0,1.0,17.69509782537737,5.489039305127239,0.0,Landing
17.400000000000002,-339.5799816820423,-1077.956295733577,187.1275161451029,0.15059329332043803,4.182905512428991,142.7972028739195,39.331865858194,0.0,1.0,17.69509782537737,5.489039305127239,0.0,Landing
17.5,-341.31109788251536,-1077.9906917864878,186.25658925486152,0.45649835762747437,3.7911239357217896,142.88034975935204,39.934139450556756,0.0,1.0,17.69509782537737,5.489039305127239,0.0,Landing
17.6,-343.1246215201123,-1071.7292219242722,186.16684726559603,0.23404346162909415,4.951213623662487,142.95607310856133,40.06560052583814,0.0,1.0,17.69509782537737,5.489039305127239,0.0,Landing
17.7,-344.93862779166363,-1095.2989830286924,188.38836972595843,0.3799859286095156,4.322293564272184,142.8982048376119,39.43615228270788,0.0,1.0,17.69509782537737,5.489039305127239,0.0,Landing
17.8,-346.7875927976588,-1084.847842884551,186.58699318485387,0.19933590165860998,4.308486391746995,142.90427367402066,40.20192979201757,0.0,1.0,17.69509782537737,5.489039305127239,0.0,Landing
17.900000000000002,-348.5488607345351,-1064.2636831736581,185.62887901883062,0.3569254781279031,4.569489299832602,142.85597633526334,39.60448803575431,0.0,1.0,17.69509782537737,5.489039305127239,0.0,Landing
18.0,-350.2599462075319,-1059.2303160995698,185.33743785318939,0.5484601087192573,4.25171649279593,142.9345035801647,39.54095355689608,0.0,1.0,17.69509782537737,5.489039305127239,0.0,Landing
18.1,-352.08374437815667,-1072.2606725325932,186.74149926922783,0.4822987422110302,4.42138936572318,142.90650698381796,39.36838157841668,0.0,1.0,17.69509782537737,5.489039305127239,0.0,Landing
18.2,-353.91016409719805,-1071.4585468322184,185.16454681477836,0.28817107503172557,4.229677792835672,142.78536905559406,40.10887347011094,0.0,1.0,17.69509782537737,5.489039305127239,0.0,Landing
18.3,-355.617238941693,-1057.1832019302406,185.63761309911146,0.2988507959744167,4.520815179380811,142.6756553318789,39.82398887566701,0.0,1.0,17.69509782537737,5.489039305127239,0.0,Landing
18.400000000000002,-357.36966038780787,-1050.4109144447966,186.42762491098142,0.8480598170827337,4.452469810714265,142.63399202601613,39.46531505559874,0.0,1.0,17.69509782537737,5.489039305127239,0.0,Landing
18.5,-359.16221866942203,-1072.6831626106332,187.4738403663758,0.08140684940433951,4.732014381942804,143.00097951076543,39.5018998627337,0.0,1.0,17.69509782537737,5.489039305127239,0.0,Landing
18.6,-360.9806547547462,-1081.1270451787323,187.1518096946665,0.3340075776636638,3.9071034844869104,142.94007507841116,39.88703975591782,0.0,1.0,17.69509782537737,5.489039305127239,0.0,Landing
18.7,-362.77529561370153,-1069.8381095792342,187.7824506507611,-0.0432072462947799,4.3106918964070795,143.05113716960108,39.212065010310724,0.0,1.0,17.69509782537737,5.489039305127239,0.0,Landing
18.8,-364.5114092173182,-1034.8793556765258,188.0792231932329,0.07966340290926421,4.247252057765936,143.17239603390283,39.25263821701238,0.0,1.0,17.69509782537737,5.489039305127239,0.0,Landing
18.900000000000002,-366.1550515331288,-1032.4045807993002,185.98273621568828,0.3400652967519237,4.223784975106901,143.05791235502727,39.23343810457961,0.0,1.0,17.69509782537737,5.489039305127239,0.0,Landing
19.0,-367.93731851769803,-1027.0943356353428,186.4317241376084,0.3399740391527596,4.268870938872048,142.83615421041566,39.220035624802385,0.0,1.0,17.69509782537737,5.489039305127239,0.0,Landing
19.1,-369.6468808954949,-1061.8322254044756,186.54519634866787,0.31517293452879697,4.137384066678997,142.81854705522653,39.43916481226096,0.0,1.0,17.69509782537737,5.489039305127239,0.0,Landing
19.200000000000003,-371.4642126601512,-1056.5407824854901,184.96822952607278,0.07446217283315504,4.066394888535461,142.92749916271362,39.804120824384576,0.0,1.0,17.69509782537737,5.489039305127239,0.0,Landing
19.3,-373.2200224301255,-1056.1287475757695,187.40022750414187,0.6467923569376868,4.444352280164675,142.7918520471075,40.04613944279327,0.0,1.0,17.69509782537737,5.489039305127239,0.0,Landing
19.400000000000002,-374.92752463337376,-1041.4244626129744,185.45957542585168,0.4297609801469472,4.279283595486174,142.91178106871843,38.97022007576398,0.0,1.0,17.69509782537737,5.489039305127239,0.0,Landing
19.5,-376.67133497321606,-1029.870041191441,185.97676985947143,0.33779927139067484,4.309303906846128,142.87735105284753,39.49500849161466,0.0,1.0,17.69509782537737,5.489039305127239,0.0,Landing
19.6,-378.3693726360827,-1064.058835673643,186.57549279750273,0.2922564753280035,4.34066354207617,142.7633501174049,39.58349277780168,0.0,1.0,17.69509782537737,5.489039305127239,0.0,Landing
19.700000000000003,-380.247818811742,-1066.2584158035997,188.71974432411284,0.7848689144715466,4.613660241895447,142.65588741225997,39.93765193713272,0.0,1.0,17.69509782537737,5.489039305127239,0.0,Landing
19.8,-382.00262705223406,-1088.7224400727973,186.07151220675559,0.31270414989802564,4.2212331216021,143.0214743424998,39.486712382052794,0.0,1.0,17.69509782537737,5.489039305127239,0.0,Landing
19.900000000000002,-383.8129848364467,-1089.198751383924,186.42444678537348,0.3678353863941777,4.36268376278589,142.92361558444537,39.59733957060821,0.0,1.0,17.69509782537737,5.489039305127239,0.0,Landing
20.0,-385.6938125686616,-1092.6288667912218,187.01974418636635,0.34505328248018674,4.103103129097898,143.15857114299297,38.856472611221314,0.0,1.0,17.69509782537737,5.489039305127239,0.0,Landing
20.1,-387.46577138619017,-1073.4915315556805,186.9791843367781,0.400791398607834,4.262668431753886,143.0188183171402,39.82783005802048,0.0,1.0,17.69509782537737,5.489039305127239,0.0,Landing
20.200000000000003,-389.1804424942251,-1047.796850554289,184.95803079927245,0.1594975718146264,4.308243818911956,142.68035505931994,39.977519641750895,0.0,1.0,17.69509782537737,5.489039305127239,0.0,Landing
20.3,-390.93279682143304,-1056.4927330214118,186.83311380690188,0.2667934434194222,4.3213038742737435,142.7750538081666,39.76897925646795,0.0,1.0,17.69509782537737,5.489039305127239,0.0,Landing
20.400000000000002,-392.74823505129723,-1061.8613529083177,187.46200060338145,0.03674934131005769,4.293528563035917,143.28479910565858,39.46887271492811,0.0,1.0,17.69509782537737,5.489039305127239,0.0,Landing
20.5,-394.48974925876666,-1044.8450303578738,187.62132063750778,0.2337310039218446,4.383721182645698,142.56163455238334,39.97543136752731,0.0,1.0,17.69509782537737,5.489039305127239,0.0,Landing
20.6,-396.1570219732224,-1039.0804116419986,185.59697442598392,0.23921349912965298,4.614011312873903,142.8802582469226,39.205678778594724,0.0,1.0,17.69509782537737,5.489039305127239,0.0,Landing
20.700000000000003,-397.9436371095072,-1036.626700330055,185.1317880020245,0.3015758768913681,4.248275306376738,142.8347247384467,39.84982491278878,0.0,1.0,17.69509782537737,5.489039305127239,0.0,Landing
20.8,-399.67288276041694,-1034.888109712108,186.0700667219661,0.08320826910523171,4.497536154965932,142.6168608192678,39.93107477514947,0.0,1.0,17.69509782537737,5.489039305127239,0.0,Landing
20.900000000000002,-401.33146252178295,-1030.0293393279617,186.10882602448768,0.35396980461084976,4.1655942482103345,143.22740220464743,40.01200466666221,0.0,1.0,17.69509782537737,5.489039305127239,0.0,Landing
21.0,-403.09378380614703,-1035.3946633382407,188.6622028660648,0.32791203401903485,4.381274314278995,142.8913444525092,39.69215482053262,0.0,1.0,17.69509782537737,5.489039305127239,0.0,Landing
21.1,-404.84985607710814,-1053.4837340330569,187.51627590611236,0.5562253021987555,4.377693837042754,142.8414724262119,39.786694615927594,0.0,1.0,17.69509782537737,5.489039305127239,0.0,Landing
21.200000000000003,-406.59888119194824,-1062.2346243305515,185.40963128055367,0.3790192931220569,4.539262798032022,142.95616413137896,40.01009288419228,0.0,1.0,17.69509782537737,5.489039305127239,0.0,Landing
21.3,-408.4049569277998,-1046.8924799019987,185.7202635511965,0.37948904566952213,4.450254944968774,142.80426256289218,39.190869422523505,0.0,1.0,17.69509782537737,5.489039305127239,0.0,Landing
21.400000000000002,-410.08431847661814,-1040.094291251603,186.0411035376476,-0.05124177198497448,3.966041142913145,142.94580665782786,39.92132701661333,0.0,1.0,17.69509782537737,5.489039305127239,0.0,Landing
21.5,-411.79935264820625,-1010.630338706369,185.43719568664085,0.24542304859779807,4.239227038530862,142.6955632985305,39.895146032002806,0.0,1.0,17.69509782537737,5.489039305127239,0.0,Landing
21.6,-413.45810862133163,-996.7543656356952,185.67901503065542,0.32844226366481216,4.1403589425802085,142.80879678878023,39.32385275180732,0.0,1.0,17.69509782537737,5.489039305127239,0.0,Landing
21.700000000000003,-415.0680903047966,-999.562060758376,187.20801820447252,0.5590356687213307,4.142523870946996,142.87142983399383,39.79601519123887,0.0,1.0,17.69509782537737,5.489039305127239,0.0,Landing
21.8,-416.79716295199813,-1016.6525411720272,186.75785706282082,0.5281366770496903,4.404742414718262,142.83059213687,40.02267606173652,0.0,1.0,17.69509782537737,5.489039305127239,0.0,Landing
21.900000000000002,-418.54137132719177,-1040.9260729938865,185.31405070889943,0.4448963653339864,3.987572883073627,143.15018778047306,40.13510200644964,0.0,1.0,17.69509782537737,5.489039305127239,0.0,Landing
22.0,-420.27272066976604,-1025.4554515875611,185.71487379386386,-0.20627562027660684,4.220576516094794,142.82605929148042,39.54414742535026,0.0,1.0,17.69509782537737,5.489039305127239,0.0,Landing
22.1,-421.92444020993594,-1022.1622974693332,187.0870313186014,0.1989099589641513,3.79124898279844,142.86932762801905,39.47713085570264,0.0,1.0,17.69509782537737,5.489039305127239,0.0,Landing
22.200000000000003,-423.65218281453843,-1021.4524574240954,186.44168817777,0.33835558684267514,4.68269142135654,142.9781785519682,39.40201337921003,0.0,1.0,17.69509782537737,5.489039305127239,0.0,Landing
22.3,-425.3799829568865,-1030.035429600241,186.09797612580638,0.365535859901438,4.068388540831191,142.78090083684106,39.92234525715094,0.0,1.0,17.69509782537737,5.489039305127239,0.0,Landing
22.400000000000002,-427.07461735793714,-1023.1096726292435,186.92665627307943,0.47428280040779636,4.519256353117402,142.77470314179408,39.29753715695067,0.0,1.0,17.69509782537737,5.489039305127239,0.0,Landing
22.5,-428.76773117768465,-1020.8036838082194,187.65904521416851,0.5131110054747905,4.571538040107284,142.415531715376,39.93848614873184,0.0,1.0,17.69509782537737,5.489039305127239,0.0,Landing
22.6,-430.4840013759276,-1011.8093851482399,188.2765270899382,-0.1073509525057334,4.192924258162348,143.05584997969788,40.069735935481575,0.0,1.0,17.69509782537737,5.489039305127239,0.0,Landing
22.700000000000003,-432.13366428367834,-1004.9740869222774,185.96831622108039,0.28985633190070476,4.363657231210882,142.60822705947533,39.353135240715694,0.0,1.0,17.69509782537737,5.489039305127239,0.0,Landing
22.8,-433.79260161229604,-1018.6673980758201,186.58991722504825,0.3009348344761629,4.05106500125374,142.84792685172692,40.47913977590625,0.0,1.0,17.69509782537737,5.489039305127239,0.0,Landing
22.900000000000002,-435.5773383663067,-1033.2656329386964,185.90039742383397,0.38308684235327584,4.533170008700665,142.70477741966045,39.842266582388,0.0,1.0,17.69509782537737,5.489039305127239,0.0,Landing
23.0,-437.2999924483718,-1063.820400213649,186.70803388135985,0.4377689772309695,4.560302540413419,142.7748286192392,39.97765474757015,0.0,1.0,17.69509782537737,5.489039305127239,0.0,Landing
23.1,-439.1117036133643,-1044.6778794920647,186.735595841041,0.23800000468472143,4.39163202203541,142.6169951860955,39.744086493887295,0.0,1.0,17.69509782537737,5.489039305127239,0.0,Landing
23.200000000000003,-440.80072776376704,-1063.4028562501271,188.43045775041375,0.12785930846129798,4.159969661532526,142.60142958856056,39.842932587136836,0.0,1.0,17.69509782537737,5.489039305127239,0.0,Landing
23.3,-442.61700672962246,-1060.3610008010264,187.67688794830062,0.40911280059260113,4.4190975841305145,143.0903498043175,39.98142059445588,0.0,1.0,17.69509782537737,5.489039305127239,0.0,Landing
23.400000000000002,-444.4135086173694,-1073.9634102077844,186.56278190734648,0.054578622710699465,4.547357248109141,142.93882426491427,39.655073222576135,0.0,1.0,17.69509782537737,5.489039305127239,0.0,Landing
23.5,-446.17054481480596,-1057.307072135086,186.78124399711837,0.48492979744028253,4.439972135659342,142.74220691281351,39.36981259228872,0.0,1.0,17.69509782537737,5.489039305127239,0.0,Landing
23.6,-447.9035420902979,-1033.1155666661289,186.84813565032616,0.27498958551074737,4.506233739957378,142.8479647925401,39.86696676742244,0.0,1.0,17.69509782537737,5.489039305127239,0.0,Landing
23.700000000000003,-449.57908645070006,-1000.3597603507387,185.96426823352192,0.358137611672553,4.530947831286901,142.95870456275838,39.9959132597871,0.0,1.0,17.69509782537737,5.489039305127239,0.0,Landing
23.8,-451.17234361655966,-991.3621682965186,185.07766806010892,0.3579798595410192,4.660321606638324,142.86545863605357,39.95298118806779,0.0,1.0,17.69509782537737,5.489039305127239,0.0,Landing
23.900000000000002,-452.8603529317805,-988.7480299166327,185.9696527837451,0.21873883824202098,4.225430861164894,143.0102483220445,39.70367573751597,0.0,1.0,17.69509782537737,5.489039305127239,0.0,Landing
24.0,-454.5228266002832,-1014.1901031959264,187.44652299226192,0.7216929804746757,4.353210509847745,142.83124275286195,39.52007782736083,0.0,1.0,17.69509782537737,5.489039305127239,0.0,Landing
24.1,-456.2432941325393,-1026.5786920095707,184.87275172414616,0.1514508910007515,4.431598307075165,143.23764367516344,39.29874522757426,0.0,1.0,17.69509782537737,5.489039305127239,0.0,Landing
24.200000000000003,-457.99324639182834,-1033.6465757997757,186.38649751277117,0.15488629336569126,4.288739718501258,142.90075465500433,39.919299486406935,0.0,1.0,17.69509782537737,5.489039305127239,0.0,Landing
24.3,-459.6910594792821,-1037.683561841618,187.11972907803266,0.7628091881570919,4.282464043284554,142.87402714958682,39.80403512426444,0.0,1.0,17.69509782537737,5.489039305127239,0.0,Landing
24.400000000000002,-461.4317119417474,-1021.737187131032,186.50398147984185,0.10849917437119616,4.259074034380903,142.69929193596727,39.92317701348511,0.0,1.0,17.69509782537737,5.489039305127239,0.0,Landing
24.5,-463.1019323274835,-995.8682182743587,184.93802613953153,0.4285892428441741,4.544003775978335,142.6487645067062,39.771642316079614,0.0,1.0,17.69509782537737,5.489039305127239,0.0,Landing
24.6,-464.6704005706539,-987.0307064604617,187.21241597635205,0.38450422138725476,4.493722316788031,142.56588527361254,39.191149061542056,0.0,1.0,17.69509782537737,5.489039305127239,0.0,Landing
24.700000000000003,-466.3668654740497,-1010.9086754224222,188.7134079954774,0.1999149142713682,4.462836233390269,143.12750957409423,39.95840325557916,0.0,1.0,17.69509782537737,5.489039305127239,0.0,Landing
24.8,-468.1564757045956,-1052.1753174718128,186.20314548712733,-0.17828532520910823,4.682807474617468,142.56337411372755,39.4294955167764,0.0,1.0,17.69509782537737,5.489039305127239,0.0,Landing
24.900000000000002,-469.93127715801296,-1063.373120941219,187.23071424403855,0.17621404506107946,4.314157782741564,142.98009119147576,39.65574303484274,0.0,1.0,17.69509782537737,5.489039305127239,0.0,Landing
25.0,-471.6837310787558,-1054.7354748543285,187.7148071664102,0.6422207464609411,4.43361196310263,142.64577957513495,39.579004761769255,0.0,1.0,17.69509782537737,5.489039305127239,0.0,Landing
25.1,-473.43015307886725,-1028.088707166637,187.3798716288675,0.35915851994149484,4.217154941238958,142.71416968620588,39.90494127383858,0.0,1.0,17.69509782537737,5.489039305127239,0.0,Landing
25.200000000000003,-475.07172069384615,-1025.4946759335667,186.2462329876287,0.13033869039307586,4.035951721532767,142.82364264471937,39.732672907754576,0.0,1.0,17.69509782537737,5.489039305127239,0.0,Landing
25.3,-476.8112044584236,-1010.3489519768004,186.2526636016801,0.4021585910326002,4.120041663487909,142.89702522678135,40.13732221123744,0.0,1.0,17.69509782537737,5.489039305127239,0.0,Landing
25.400000000000002,-478.48189783875125,-1003.5976981180625,186.17493768699882,0.29998692287300666,4.374400148190674,142.7081136901117,39.709943370306604,0.0,1.0,17.69509782537737,5.489039305127239,0.0,Landing
25.5,-480.08970918443646,-1010.9571821307668,187.5144673736258,0.38601048295769436,4.212436134739098,142.6307945154001,39.06733214668739,0.0,1.0,17.69509782537737,5.489039305127239,0.0,Landing
25.6,-481.86599036907745,-1005.7933893843938,186.95953154287636,0.4039996844935715,4.076321340216069,142.65237296888694,39.9681316932426,0.0,1.0,17.69509782537737,5.489039305127239,0.0,Landing
25.700000000000003,-483.5108647856732,-1000.2565535256167,185.939988600377,0.5242222027445312,4.467366887494542,142.82579680849312,39.35673226800925,0.0,1.0,17.69509782537737,5.489039305127239,0.0,Landing
25.8,-485.09099195206454,-972.1939733741806,185.88285017177242,0.3538945510090762,4.525887557353334,143.0588084415832,39.86035967761,0.0,1.0,17.69509782537737,5.489039305127239,0.0,Landing
25.900000000000002,-486.72696023594835,-970.5936056819382,188.39910996215093,0.19104037692197887,4.384065580464741,142.67774795115974,39.60524258810414,0.0,1.0,17.69509782537737,5.489039305127239,0.0,Landing
26.0,-488.3638328140829,-1001.8613632541019,186.60428687739974,0.3036865963777884,4.882145630322679,143.1485026023244,39.94477481678907,0.0,1.0,17.69509782537737,5.489039305127239,0.0,Landing
26.1,-490.10029876833505,-997.6576660725755,186.91911898086792,0.24733428820937975,4.18954061647509,142.83525490673674,39.642919427404706,0.0,1.0,17.69509782537737,5.489039305127239,0.0,Landing
26.200000000000003,-491.71524856631123,-995.3182032928225,186.1692992413647,0.47821407330393406,4.787985667856072,142.8230176017471,39.13628413521244,0.0,1.0,17.69509782537737,5.489039305127239,0.0,Landing
26.3,-493.340423830547,-981.8322800351552,186.89939169677336,0.39515079378091433,4.372578743086579,142.75981353893076,39.392950469290774,0.0,1.0,17.69509782537737,5.489039305127239,0.0,Landing
26.400000000000002,-495.0094601685108,-996.0056209634104,184.60799628102,0.051597718244610846,4.38588026351894,142.84784925993245,39.534329551891815,0.0,1.0,17.69509782537737,5.489039305127239,0.0,Landing
26.5,-496.6952766711283,-988.319948820947,187.66563413159346,0.4291772779388969,4.513193925163973,142.99942402676356,39.61021310917535,0.0,1.0,17.69509782537737,5.489039305127239,0.0,Landing
26.6,-498.28202357465176,-984.9100087102215,186.03297250426195,0.5681759750941417,4.240245362680452,142.90670778617311,39.81775849263034,0.0,1.0,17.69509782537737,5.489039305127239,0.0,Landing
26.700000000000003,-499.93401021206193,-992.8953973330977,185.53093057440825,-0.011671003815470204,4.519365383670109,142.90556288492428,39.23563797625337,0.0,1.0,17.69509782537737,5.489039305127239,0.0,Landing
26.8,-501.6597536577938,-997.9682124665601,185.62876160637467,-0.008261867210061169,4.094704497060616,142.7254748471263,39.622426439995984,0.0,1.0,17.69509782537737,5.489039305127239,0.0,Landing
26.900000000000002,-503.27186463698456,-997.5285350154195,186.47132957613522,0.18032715357164708,4.471268467645057,142.95282057220527,39.91039837711829,0.0,1.0,17.69509782537737,5.489039305127239,0.0,Landing
27.0,-504.92165288713903,-971.473013194111,186.38927602716137,0.508921128262787,4.438196551634261,142.85829241889854,39.408167623478874,0.0,1.0,17.69509782537737,5.489039305127239,0.0,Landing
27.1,-506.5171187237643,-980.9686296311725,187.24740408211173,0.5151281388159329,4.46415993053848,143.08260154173217,39.81907607377142,0.0,1.0,17.69509782537737,5.489039305127239,0.0,Landing
27.200000000000003,-508.1767077851404,-998.4097848894635,184.8345686861137,0.1516966962809322,4.1592711541015905,142.95045893617697,39.43752677741335,0.0,1.0,17.69509782537737,5.489039305127239,0.0,Landing
27.3,-509.91370181158635,-1024.0085660284649,185.1280126301489,0.37455485365921254,4.271748594847453,142.86805627180053,39.48058874238453,0.0,1.0,17.69509782537737,5.489039305127239,0.0,Landing
27.400000000000002,-511.63716155390665,-1025.7573270514854,186.13529677793073,0.6282741063438955,4.309396022327675,142.84963675380976,39.94577911491295,0.0,1.0,17.69509782537737,5.489039305127239,0.0,Landing
27.5,-513.3054944203978,-1015.7527486615095,187.18905525722752,0.30896019264819097,4.119740691213312,142.95450739247013,40.11158450762868,0.0,1.0,17.69509782537737,5.489039305127239,0.0,Landing
27.6,-514.9924655548939,-995.4050996399815,185.86400515221115,0.18061909338531856,4.220373393767629,142.68969668346085,39.60718282807991,0.0,1.0,17.69509782537737,5.489039305127239,0.0,Landing
27.700000000000003,-516.6141870521066,-1005.5945816913209,186.27676419963734,0.39309701902153127,4.396735287084599,142.65797265235562,39.840162619016986,0.0,1.0,17.69509782537737,5.489039305127239,0.0,Landing
27.8,-518.3334673288545,-984.974996007054,187.21674127763967,0.3663829349914805,4.222260561799761,142.89356435100996,39.63890237440316,0.0,1.0,17.69509782537737,5.489039305127239,0.0,Landing
27.900000000000002,-519.9173405349292,-976.2114123006086,185.2424628932557,0.38961633784184513,4.400515607706293,142.93172825612277,39.3835341499703,0.0,1.0,17.69509782537737,5.489039305127239,0.0,Landing
28.0,-521.4952441136096,-956.0973723880352,187.96981554051155,0.3280590039180793,4.275802459421552,142.55785763039432,39.68250244036452,0.0,1.0,17.69509782537737,5.489039305127239,0.0,Landing
28.1,-523.1139541907946,-953.0324741387176,186.95983923524813,0.11544801148619105,4.225882926024277,142.81391623814307,39.55287447348429,0.0,1.0,17.69509782537737,5.489039305127239,0.0,Landing
28.200000000000003,-524.6825029056228,-961.5909454317034,187.57447435570788,0.20810029181210762,4.605633902056742,142.8566544382751,39.10743751399757,0.0,1.0,17.69509782537737,5.489039305127239,0.0,Landing
28.3,-526.3031988407681,-970.0366857017343,187.03348754963127,0.4910316421356422,4.225371823061523,142.74485931407833,39.231349428337325,0.0,1.0,17.69509782537737,5.489039305127239,0.0,Landing
28.400000000000002,-527.9641376193033,-967.9825239958063,187.35146567848557,0.12885530477644308,4.805425293890428,142.93153225826893,39.50585080745688,0.0,1.0,17.69509782537737,5.489039305127239,0.0,Landing
28.5,-529.5224155256018,-976.5773517682192,185.95668395690925,0.052976356800862934,4.543814199052896,142.9137266554045,40.04266097265331,0.0,1.0,17.69509782537737,5.489039305127239,0.0,Landing
28.6,-531.1860855996092,-962.8303654377532,188.20828983896047,0.44511648506593327,4.296406299144607,142.749078324356,39.43656274582724,0.0,1.0,17.69509782537737,5.489039305127239,0.0,Landing
28.700000000000003,-532.7782894464921,-977.0863456454208,187.2044578618834,0.6397247403052833,4.1643369880162755,142.9562291454962,39.54734530219147,0.0,1.0,17.69509782537737,5.489039305127239,0.0,Landing
28.8,-534.4078472538289,-965.0704063029252,187.30992943370916,0.4305088038755397,4.387284680254886,142.91620774446983,39.584843236516576,0.0,1.0,17.69509782537737,5.489039305127239,0.0,Landing
28.900000000000002,-536.0114376311238,-960.8506340901613,184.67908161595645,0.2029188545831013,4.506088485012486,142.91209574571315,40.131115013969506,0.0,1.0,17.69509782537737,5.489039305127239,0.0,Landing
29.0,-537.5825426169429,-964.1649711624495,185.25991081369355,0.1830083533803348,4.4121617895720435,142.88840105781549,39.81279504985398,0.0,1.0,17.69509782537737,5.489039305127239,0.0,Landing
29.1,-539.2286721096411,-959.5873031757264,187.7864039108752,0.42630785920952274,4.4546972057196905,142.79758513543453,39.79170937492606,0.0,1.0,17.69509782537737,5.489039305127239,0.0,Landing
29.200000000000003,-540.8093741470025,-971.808720336162,187.06634260053394,0.06274624688220354,4.326319365330806,142.95863647359067,39.89148644894163,0.0,1.0,17.69509782537737,5.489039305127239,0.0,Landing
29.3,-542.4415862186237,-962.8672194637602,185.42653732153386,0.6382916285670333,4.100177639402356,142.91026330714237,38.87264249502891,0.0,1.0,17.69509782537737,5.489039305127239,0.0,Landing
29.400000000000002,-544.0430082069599,-986.7254993780989,185.28377125252734,0.10909473960239957,4.436516711812226,142.76434915900217,38.99610132134638,0.0,1.0,17.69509782537737,5.489039305127239,0.0,Landing
29.5,-545.743001643893,-975.7080622947342,186.8310225203083,0.19280219461125722,4.616627171557404,142.74541784590826,39.893284278050054,0.0,1.0,17.69509782537737,5.489039305127239,0.0,Landing
29.6,-547.3201265300974,-976.7664417282049,186.33359262005735,0.39324347243905966,4.25156017290687,142.72910886018326,39.884954552940016,0.0,1.0,17.69509782537737,5.489039305127239,0.0,Landing
29.700000000000003,-548.926840415601,-957.6861060569627,186.5998056749839,0.4110359238844716,4.358827126895706,142.84196734837212,39.85372480639902,0.0,1.0,17.69509782537737,5.489039305127239,0.0,Landing
29.8,-550.5314321741778,-952.699951903287,185.84331594966613,0.2828294686451522,4.472867209109141,142.92795840303523,39.34511459603714,0.0,1.0,17.69509782537737,5.489039305127239,0.0,Landing
29.900000000000002,-552.0836262896138,-957.6797431798923,187.13245123959769,0.378801638075167,4.610346547911608,142.8050756542059,39.314848118092705,0.0,1.0,17.69509782537737,5.489039305127239,0.0,Landing
30.0,-553.7152391315004,-982.4386612961234,186.30298179085904,0.06106974859929032,4.221426339576364,142.82103541381326,39.58881608532711,0.0,1.0,17.69509782537737,5.489039305127239,0.0,Landing
30.1,-555.4436254806584,-996.6268254335318,187.1484569285152,0.39665955324281027,4.2336675666882515,142.60648776479582,39.80435331422241,0.0,1.0,17.69509782537737,5.489039305127239,0.0,Landing
