time_s,altitude_ft,vertical_speed_fpm,ias_kt,pitch_deg,roll_deg,heading_deg,throttle_pct,afterburner_on,gear_down,flaps_deg,speedbrake_pct,weight_on_wheels,label
0.0,-0.14538067938529622,40.8900353532985,22.933037246365124,0.05242090902165833,-0.25553449586685517,331.8332378923442,18.0136716835931,0.0,1.0,0.0,0.0,1.0,Taxi
0.1,-0.0090805615409679,25.029538359061075,24.11281664690819,0.14880357917569909,-0.7198343751932064,331.7378316961741,17.833248063115885,0.0,1.0,0.0,0.0,1.0,Taxi
0.2,-0.020232987589990856,7.11938433152995,25.01206610911196,0.0025248088905200916,0.6143086047990024,331.6798285454705,17.266959849420303,0.0,1.0,0.0,0.0,1.0,Taxi
0.30000000000000004,-0.10978375772764648,-16.300483432322142,23.581846502165458,0.23380202475734696,0.9189323480367166,331.5890651588152,17.492133803796538,0.0,1.0,0.0,0.0,1.0,Taxi
0.4,-0.0905829787025786,-24.00577255236937,24.419616880106986,0.3910875975407904,0.04872999598988986,331.7035054574616,17.232448552508682,0.0,1.0,0.0,0.0,1.0,Taxi
0.5,-0.1402618503518377,22.28896571185396,23.745992426827186,0.558564492222946,0.3575931625721966,331.76841845132776,17.600750620105053,0.0,1.0,0.0,0.0,1.0,Taxi
0.6000000000000001,0.0016610708316233383,40.76163299636249,24.4831083793249,0.1540171058607753,0.06400274379541654,331.48395517442384,16.808071670209358,0.0,1.0,0.0,0.0,1.0,Taxi
0.7000000000000001,0.11322518627923386,23.612387044532397,24.332778305606567,0.14830332818247519,-0.48599642686383177,331.6970391069867,18.065721798312403,0.0,1.0,0.0,0.0,1.0,Taxi
0.8,-0.022199915129175685,12.31344223404583,23.570942285034285,0.18299540146755522,0.1988354146134056,331.7179957585066,17.21696120465392,0.0,1.0,0.0,0.0,1.0,Taxi
0.9,0.06322828200185249,-41.287762155835615,23.487376366023348,0.1460384907001786,-0.09444294405834919,331.8443869063725,16.247155565145146,0.0,1.0,0.0,0.0,1.0,Taxi
1.0,-0.0932136244999442,-27.93756190799498,23.718823375055425,-0.16289340545551,0.19396218061910417,331.67195573849676,17.543036320439814,0.0,1.0,0.0,0.0,1.0,Taxi
1.1,-0.16188772466915058,10.08754120362993,23.508783534890057,0.47249201944689506,-0.15577366067869436,331.51966976793506,18.55604841954461,0.0,1.0,0.0,0.0,1.0,Taxi
1.2000000000000002,0.1136659880200021,24.95726183378856,23.30875995252428,0.07355888662374171,0.20787461699919066,331.63166500973875,18.32989591946643,0.0,1.0,0.0,0.0,1.0,Taxi
1.3,0.0315726846689986,14.541228772712506,24.32871219100915,0.1720900509166477,-0.021600143925648366,331.7250442976085,17.717074498931932,0.0,1.0,0.0,0.0,1.0,Taxi
1.4000000000000001,-0.08918158080558806,-5.355117019059634,23.906603441754466,0.06706433706829455,-0.3310749416890556,331.5720960227628,17.133723724072325,0.0,1.0,0.0,0.0,1.0,Taxi
1.5,0.08689040292470397,0.5748975571821724,24.459314751069964,0.23753889985984264,-0.9193328339109844,331.51703845741747,17.663901464111834,0.0,1.0,0.0,0.0,1.0,Taxi
1.6,0.03444717245490949,46.3290870850415,23.893321452871376,0.41279047159846455,-0.35654683711045415,331.6062283938602,17.36277908648041,0.0,1.0,0.0,0.0,1.0,Taxi
1.7000000000000002,0.1424638546196195,-2.765515930461625,23.812693309356813,0.03289891521400398,0.27984265761538113,331.6412490223988,17.672682800239066,0.0,1.0,0.0,0.0,1.0,Taxi
1.8,0.07306282327239587,-14.64216224178046,24.486611468173823,0.11517065342075951,-1.1041004290197158,331.622297145012,17.910643917202126,0.0,1.0,0.0,0.0,1.0,Taxi
1.9000000000000001,-0.038763638753992774,-48.631836500354915,24.922683324075,-0.2180799971410115,-0.00611490035016955,331.5276873174496,17.786649976493084,0.0,1.0,0.0,0.0,1.0,Taxi
2.0,-0.10069532788215506,-17.478243508996325,24.578310236576936,-0.2176996365816859,-0.4567639698424343,331.8059571726949,17.605225358257076,0.0,1.0,0.0,0.0,1.0,Taxi
2.1,-0.014328394272585752,59.89143954580735,23.420871928073606,0.28719707582782295,-0.13961030095023363,331.7366646573132,18.699114636358267,0.0,1.0,0.0,0.0,1.0,Taxi
2.2,0.260693558975044,25.438245375069084,25.052128059450656,0.28515349898378856,0.21687564937581627,331.59497091196545,17.82511724640477,0.0,1.0,0.0,0.0,1.0,Taxi
2.3000000000000003,0.026495898993190325,-30.360758866619634,24.87745396507954,0.3192939735070932,-0.7663543440339373,331.7927852225961,16.46286404033484,0.0,1.0,0.0,0.0,1.0,Taxi
2.4000000000000004,-0.16613218860568393,-68.93409560493954,24.307603918879696,-0.108778488319145,-0.18894957075548396,331.75820711703716,17.07560394681868,0.0,1.0,0.0,0.0,1.0,Taxi
2.5,-0.08397691904965365,13.209927641697684,23.125572086901467,0.07716373128378111,0.7035700261987005,331.79735784783315,17.214455428811338,0.0,1.0,0.0,0.0,1.0,Taxi
2.6,0.0925455372016788,58.450987534481385,22.966918660641667,-0.23371198701072238,0.3326991864282599,331.59327481010155,18.879808828434246,0.0,1.0,0.0,0.0,1.0,Taxi
2.7,0.12612274906672302,-3.477541772149825,22.69333716038904,0.22703833314778354,0.46386971972747804,331.84942238670305,18.64561315387663,0.0,1.0,0.0,0.0,1.0,Taxi
2.8000000000000003,-0.10136462791040278,-12.034593550421832,24.473665785334898,0.5013327108746022,0.44998604267016107,331.848438609994,17.414644818073366,0.0,1.0,0.0,0.0,1.0,Taxi
2.9000000000000004,0.03237256944956964,-24.428822964358062,23.644745383021842,0.007896062033505236,0.018511649243919025,331.83134337123033,17.436809670380924,0.0,1.0,0.0,0.0,1.0,Taxi
3.0,0.003978634244932724,25.52254135830339,24.218735539130027,-0.010996544874022907,-0.707680717808054,331.5859359094974,17.946158708231543,0.0,1.0,0.0,0.0,1.0,Taxi
3.1,0.026248078881114235,-10.944682112538375,23.53126848463185,-0.04997068113096212,-0.5863489649544348,331.62213039766664,16.93952165031471,0.0,1.0,0.0,0.0,1.0,Taxi
3.2,-0.02235084111312219,-32.97031507952196,22.689879349088127,0.4017563894247521,0.46043587533538477,331.5764419768964,17.93264146015729,0.0,1.0,0.0,0.0,1.0,Taxi
3.3000000000000003,-0.16087294115267703,7.24348955639509,23.562905857251184,0.26057149469599666,0.0903259592981249,331.6228390378261,17.477748726617303,0.0,1.0,0.0,0.0,1.0,Taxi
3.4000000000000004,0.06246552666308976,7.731523002132296,22.830316223928918,0.0989520573925023,-0.4446270172187089,331.3918108915393,18.360361928444014,0.0,1.0,0.0,0.0,1.0,Taxi
3.5,0.016306773897539355,39.21030127422174,24.13268087592544,0.43286019607333853,-0.6572535904089571,331.9373277717906,17.50129230322384,0.0,1.0,0.0,0.0,1.0,Taxi
3.6,0.035178565218431754,-49.79910694757029,24.334364257051064,0.23068270236066563,-0.17793537418401462,331.6067625335264,18.074797582693733,0.0,1.0,0.0,0.0,1.0,Taxi
3.7,-0.18653000807476164,-1.4499513856208732,24.69287531952618,0.3038752211094231,0.5486377514322209,331.71846474572806,18.165399591704222,0.0,1.0,0.0,0.0,1.0,Taxi
3.8000000000000003,0.009057016969435018,7.538530238914724,24.16090031568093,0.10869601652305315,0.39972019353890437,331.6133392242459,18.225620308653333,0.0,1.0,0.0,0.0,1.0,Taxi
3.9000000000000004,0.07287121641300541,40.99436493401233,24.14720089450778,0.26146367504771106,-0.7251480590585039,331.6010079158418,17.47148860831523,0.0,1.0,0.0,0.0,1.0,Taxi
4.0,0.01844181659530006,-29.338463520680403,24.663674171162178,0.7742438458823666,0.8096043690425602,331.66058942482596,17.283623243211757,0.0,1.0,0.0,0.0,1.0,Taxi
4.1000000000000005,-0.13763530063396692,0.7290593598559288,24.204832007031147,0.043676651912777226,0.10938698380228058,331.76531624976167,18.36847288144022,0.0,1.0,0.0,0.0,1.0,Taxi
4.2,0.07651651321228514,15.805313358096777,24.197484705032632,0.34363569167947927,0.02382501186478074,331.78867117437244,17.221022443097947,0.0,1.0,0.0,0.0,1.0,Taxi
4.3,0.09746838338578402,12.586879488541783,24.078946373409558,0.06575143615358753,0.12459671802267627,331.65832878924664,18.026723813875368,0.0,1.0,0.0,0.0,1.0,Taxi
4.4,-0.07470090319125794,-48.53989650820873,24.50845483409468,-0.041285733678850245,-0.2264564431883999,331.72787995504586,17.88793805540518,0.0,1.0,0.0,0.0,1.0,Taxi
4.5,-0.16618296932875845,-18.60195023466963,23.70275961484981,0.3447672845665986,-0.7615805685087286,331.65525379114774,17.251445317786363,0.0,1.0,0.0,0.0,1.0,Taxi
4.6000000000000005,0.004458632212435926,16.31065047393261,24.013925709004795,0.368967511750508,0.36600471098744486,331.5723206380542,17.991752059899568,0.0,1.0,0.0,0.0,1.0,Taxi
4.7,0.006852349178405207,27.462115907916132,24.087493179799512,0.500434399620526,-0.40973960773997786,331.6453862259457,17.159854508161246,0.0,1.0,0.0,0.0,1.0,Taxi
4.800000000000001,-0.028872389789177694,10.582409832202316,23.8126675851065,0.3123461048981765,-0.20882311614062793,331.700325292961,17.40922936361408,0.0,1.0,0.0,0.0,1.0,Taxi
4.9,0.0573706813734476,-6.948085216132369,23.4870869549476,-0.09580626145539178,-0.3856067622668225,331.71672829453655,18.095660951652917,0.0,1.0,0.0,0.0,1.0,Taxi
5.0,-0.027888076902256538,9.180659798181699,23.94849646854011,0.04931980348153189,0.49607980102082083,331.5405510275946,18.7231223432518,0.0,1.0,0.0,0.0,1.0,Taxi
5.1000000000000005,0.017030909201730903,-12.613130275721252,23.896723077799486,0.17990151281545205,0.6857546096603332,331.61072548463915,17.61832400345359,0.0,1.0,0.0,0.0,1.0,Taxi
5.2,-0.005694970005158562,3.7182540116926446,24.058813085570904,-0.15609301835637468,-0.0507781203421171,331.6517884106295,17.661408265191582,0.0,1.0,0.0,0.0,1.0,Taxi
5.300000000000001,-0.009296806843793219,-26.14150870112582,23.65914489167468,0.16760664847853762,0.04426253404748622,331.5984824282082,17.85617533615541,0.0,1.0,0.0,0.0,1.0,Taxi
5.4,-0.1136766343038981,-37.941961153548014,23.660458305132885,-0.3679311699022213,0.8017515698512528,331.79098916238854,17.09421982591937,0.0,1.0,0.0,0.0,1.0,Taxi
5.5,-0.19540477577289855,3.370903561426592,23.95860847768974,0.36792329137286117,0.11057653323186638,331.63452696166144,17.86627741303469,0.0,1.0,0.0,0.0,1.0,Taxi
5.6000000000000005,0.007557710963339815,28.278640481987974,24.309365219718792,0.20060973058621445,-0.8096173663272949,331.64867828493334,17.67110052240887,0.0,1.0,0.0,0.0,1.0,Taxi
5.7,0.027716568106041846,53.09976983923954,23.068479030469764,0.2862404268258619,-0.31761193351947875,331.72362062676416,17.18622342817447,0.0,1.0,0.0,0.0,1.0,Taxi
5.800000000000001,0.07009407342329926,22.263749034897998,23.82682036764011,0.2381671945400859,-0.6468928727502141,331.70398904203626,17.77172788903473,0.0,1.0,0.0,0.0,1.0,Taxi
5.9,0.11887645613782989,-3.073701720213618,23.299125172985164,-0.057458486920182766,0.3191496335298115,331.78916603786615,17.309702569871682,0.0,1.0,0.0,0.0,1.0,Taxi
6.0,0.012348059504973852,0.2101466357232861,24.653978714692244,0.2803534922821322,-0.17549815990856815,331.80783476186775,17.878107333989878,0.0,1.0,0.0,0.0,1.0,Taxi
6.1000000000000005,0.07114480660191579,-23.095788259184754,24.155306178296414,0.3484908266509905,-0.39665447244249813,331.643824561746,17.13408043427505,0.0,1.0,0.0,0.0,1.0,Taxi
6.2,0.0033975148419062105,-20.764059796407203,24.31275714840772,0.1448182474007463,-0.13761044740856235,331.7472121315643,18.307635489111682,0.0,1.0,0.0,0.0,1.0,Taxi
6.300000000000001,-0.09147223947706208,-12.115966304350279,23.06425748317536,-0.023038870705689718,0.15149378581435283,331.74811619250704,17.57013376353955,0.0,1.0,0.0,0.0,1.0,Taxi
6.4,0.01056497508016449,-9.566715862094055,23.864789784618036,0.3749436525107518,0.39539351004717194,331.67801460329906,18.43291174229209,0.0,1.0,0.0,0.0,1.0,Taxi
6.5,-0.04443606446856396,-2.0019883751827217,23.743194729500456,0.014249540938045563,0.4093689993944581,331.5374245112872,17.543276425141585,0.0,1.0,0.0,0.0,1.0,Taxi
6.6000000000000005,-0.10148218135297558,13.703052993561661,23.296391337598163,0.04737561131487192,0.8994347109803604,331.6180397998296,18.31501913017658,0.0,1.0,0.0,0.0,1.0,Taxi
6.7,0.07908024004797289,6.070190990682185,23.531811136631983,0.023560298716425676,-0.4065114423881616,331.4952697217633,17.83302331138456,0.0,1.0,0.0,0.0,1.0,Taxi
6.800000000000001,-0.01408510951515294,17.31842413257623,24.0062294616273,0.18745470303149764,0.10552835285556801,331.6858079596152,17.308461616191874,0.0,1.0,0.0,0.0,1.0,Taxi
6.9,-0.014890060690094343,13.211788899601354,23.664913280630536,0.24696154156454078,0.16941095272460463,331.6877518641851,17.316728049483807,0.0,1.0,0.0,0.0,1.0,Taxi
7.0,0.14513918454597974,33.10320550124689,23.44606668385974,0.3182445784082857,1.057035850114165,331.5976866787598,17.368470667492804,0.0,1.0,0.0,0.0,1.0,Taxi
7.1000000000000005,0.15143091799108158,-5.954450073572772,23.488947164706325,0.07321439315728508,0.639356451977743,331.6602560623114,17.394732012238524,0.0,1.0,0.0,0.0,1.0,Taxi
7.2,-0.04466231105795811,-35.00045570240059,24.818776376240066,0.21347395476978942,0.18551845025406416,331.73581995829636,17.896188757038406,0.0,1.0,0.0,0.0,1.0,Taxi
7.300000000000001,-0.029863093966023116,-7.1741569634398745,23.9875477129088,-0.1707429995037475,-0.7295393231426494,331.6392831400773,16.785233575146105,0.0,1.0,0.0,0.0,1.0,Taxi
7.4,0.11556013317388228,-2.76626323193544,24.23472754872979,-0.09498750901778757,-0.33442955225473914,331.46218027142913,17.2364993913345,0.0,1.0,0.0,0.0,1.0,Taxi
7.5,-0.058493627217635236,14.315960905995622,24.468021683925016,0.28975398971434063,0.42965086824639687,331.5677186959315,18.130676276081743,0.0,1.0,0.0,0.0,1.0,Taxi
7.6000000000000005,0.04171671056395505,-8.754220191910507,22.88373965017504,-0.16640556723055017,-0.2523366365152994,331.5361909555644,18.09366400042312,0.0,1.0,0.0,0.0,1.0,Taxi
7.7,0.07178903221432982,41.67380181596031,24.74464393827735,0.3201113519444839,1.03672476072773,331.5163891296438,17.046595759226594,0.0,1.0,0.0,0.0,1.0,Taxi
7.800000000000001,0.1498753818621664,-3.6460229295517954,23.33459976770125,-0.12035441731850238,0.01461589685866988,331.6392931581373,17.395305429386397,0.0,1.0,0.0,0.0,1.0,Taxi
7.9,0.02348659591619617,6.873160316050741,23.003678772094954,-0.0543429892644135,0.37117008727838335,331.73814029255163,18.284994767852908,0.0,1.0,0.0,0.0,1.0,Taxi
8.0,0.10615483379458363,-27.776958425508564,24.534329016886662,-0.06563392798061216,1.1232944996358767,331.6110753461095,18.144443262933095,0.0,1.0,0.0,0.0,1.0,Taxi
8.1,0.010990589734623695,-4.7301249670928485,24.464821241523868,-0.05824609166517153,0.5004590916304636,331.67605558891796,16.956357879207776,0.0,1.0,0.0,0.0,1.0,Taxi
8.200000000000001,-0.00016402891926796227,-10.759673403434192,23.70216142815323,0.3725164008081687,0.06946589748459973,331.83469901190017,17.8361611691121,0.0,1.0,0.0,0.0,1.0,Taxi
8.3,0.05235646677741277,9.76984306102669,24.180722472185494,0.1922923721665575,-0.15562477855991688,331.69010023347664,18.39707204847905,0.0,1.0,0.0,0.0,1.0,Taxi
8.4,0.059839805039757235,-16.563297667608992,23.223362710009393,0.28652816257487523,0.6068839525238525,331.6965396422738,17.163070834245076,0.0,1.0,0.0,0.0,1.0,Taxi
8.5,-0.08298051725731283,-10.206915263236828,23.689964268351858,0.3930550246218592,0.30392218356762113,331.7192270414107,17.589878611418726,0.0,1.0,0.0,0.0,1.0,Taxi
8.6,0.001321890461228726,1.4666422836669828,23.51303706243794,0.5836070161340385,0.013206605901800868,331.55394917721424,17.938057989059132,0.0,1.0,0.0,0.0,1.0,Taxi
8.700000000000001,0.06717301645809225,16.516292958374006,22.662828711438674,0.31417542809274934,-1.0011081565241295,331.5710521523613,17.405795679410563,0.0,1.0,0.0,0.0,1.0,Taxi
8.8,-0.0003990524654427133,-6.7048810427759875,23.710515154116013,0.4552668657535714,-0.8172372710835754,331.74454876646337,17.55115409558377,0.0,1.0,0.0,0.0,1.0,Taxi
8.9,-0.0322025147526511,4.780858166956345,24.15716121927449,0.5342087427965073,1.1352242272150563,331.6826683652555,18.235186817452295,0.0,1.0,0.0,0.0,1.0,Taxi
9.0,0.09107730729287407,-11.533538963152791,23.83536993347832,0.0070751311449761545,0.5408928883154146,331.69982294763815,18.17878822745504,0.0,1.0,0.0,0.0,1.0,Taxi
9.1,-0.05806674728120659,24.81362873709662,23.55802755577067,0.6452205963745612,-0.6081378532212385,331.64714272596916,18.112829809040534,0.0,1.0,0.0,0.0,1.0,Taxi
9.200000000000001,0.09186562893283207,-60.63982174613622,24.25546089805124,0.21980315173726173,0.5054653674367864,331.72295839296225,17.738778448628516,0.0,1.0,0.0,0.0,1.0,Taxi
9.3,-0.21212180143780693,-5.4660985291469,23.641150657665207,0.20120545309010945,-0.45392164844217225,331.6798623630714,16.860333464257895,0.0,1.0,0.0,0.0,1.0,Taxi
9.4,-0.08539723992694097,-0.8402025758793267,23.34689950383661,0.15012293820224262,1.0972374626953316,331.54533090556856,18.597295646846696,0.0,1.0,0.0,0.0,1.0,Taxi
9.5,0.08766461605343559,51.115873097952594,24.25064787570258,-0.015014753805615288,-0.30126577051236714,331.53233131353227,16.828161860996836,0.0,1.0,0.0,0.0,1.0,Taxi
9.600000000000001,0.043457564051956186,32.7439788700129,23.93144167160793,0.07324391582909455,-0.051598183310626225,331.63844987358345,18.524279806225902,0.0,1.0,0.0,0.0,1.0,Taxi
9.700000000000001,0.0783226544231237,-28.679826456658805,23.77231202822193,0.10464637667841155,0.5024318634948697,331.7252183113533,16.572694549804538,0.0,1.0,0.0,0.0,1.0,Taxi
9.8,-0.05573451622985828,-31.715217309476287,23.465973277553086,0.12547127171670489,-0.4553008270111654,331.88454346587093,18.590683040741315,0.0,1.0,0.0,0.0,1.0,Taxi
9.9,-0.11511852249542508,9.97499430857701,23.81974214770652,-0.09258493491072645,-0.2634861419374647,331.7293097759423,18.2765544810421,0.0,1.0,0.0,0.0,1.0,Taxi
10.0,0.12819762596600895,13.575057595673755,24.66688649931088,0.3014719033398307,0.4627343713643001,331.7482264295197,17.204466956144493,0.0,1.0,0.0,0.0,1.0,Taxi
10.100000000000001,0.012140771748510675,30.721099266446064,23.6358475530136,0.012003852889973826,0.30185920841647107,331.70236013283625,17.881567977183824,0.0,1.0,0.0,0.0,1.0,Taxi
10.200000000000001,0.03848697383680544,25.56037822071825,24.454468669034483,0.3225337767958681,-0.3392943189229451,331.5938233681079,17.908399819603815,0.0,1.0,0.0,0.0,1.0,Taxi
10.3,0.2559995170696004,15.061686584062992,23.197503200902048,0.010583231006485477,0.89569114641781,331.5612179760665,17.325212140270715,0.0,1.0,0.0,0.0,1.0,Taxi
10.4,0.08744920466882583,19.863372151816026,24.724209539658432,0.2966709224799563,-0.08062350311697622,331.62191464897046,17.332117687841695,0.0,1.0,0.0,0.0,1.0,Taxi
10.5,0.13780383459588577,-33.56023136765728,23.819815844069545,0.015561095835079308,0.12062989256700847,331.59160817747636,18.265076554580645,0.0,1.0,0.0,0.0,1.0,Taxi
10.600000000000001,0.08819836023131414,0.2863044216922877,23.62045695756087,0.1766419809714419,-0.573045767720038,331.82523000756873,17.256973169014323,0.0,1.0,0.0,0.0,1.0,Taxi
10.700000000000001,0.08888072677728742,-31.82548326967117,23.09886718251463,0.2606406771011177,0.03414663485419311,331.7351745507639,16.481981437600854,0.0,1.0,0.0,0.0,1.0,Taxi
10.8,-0.021323581752469928,9.266673580221115,24.74926189554279,0.4064266365591075,-1.56021034616204,331.4449574603086,17.96471288550073,0.0,1.0,0.0,0.0,1.0,Taxi
10.9,0.13453172813241984,-5.737093110167977,23.475242070281297,0.1246671217964283,0.4790139485648411,331.6611603843901,17.198862053591792,0.0,1.0,0.0,0.0,1.0,Taxi
11.0,0.060195261226447694,20.174193329431628,23.951499432064836,-0.07640957373312057,0.12907652234702544,331.59893413764394,17.662691950011375,0.0,1.0,0.0,0.0,1.0,Taxi
11.100000000000001,0.07954738489468836,-15.190294751178053,24.48169401454848,0.3380891858949648,0.11562471969291127,331.7553360917641,17.985243550480956,0.0,1.0,0.0,0.0,1.0,Taxi
11.200000000000001,0.05858025437652974,-30.70702132008383,22.722887393378986,0.41378499110469913,0.274003446212819,331.79537435327404,17.339536293772504,0.0,1.0,0.0,0.0,1.0,Taxi
11.3,-0.09333984537397129,-25.344300687970804,24.25088590654151,0.2759581396037145,0.8321812427778219,331.82525957408484,16.688627305227904,0.0,1.0,0.0,0.0,1.0,Taxi
11.4,-0.04717411854516549,-54.22135322083491,24.447582486604684,0.29693937459149106,-0.9142826824115273,331.6531831745374,17.12243991522931,0.0,1.0,0.0,0.0,1.0,Taxi
11.5,-0.21252651172764458,28.14317198082759,23.65581316084523,0.37096621585529976,0.4607033957794296,331.88031811803035,17.299980746848412,0.0,1.0,0.0,0.0,1.0,Taxi
11.600000000000001,0.0473760145301669,-0.3399994974476286,23.774869302626062,0.10795641880142436,0.16918631043186422,331.6133442684363,17.284464719672965,0.0,1.0,0.0,0.0,1.0,Taxi
11.700000000000001,-0.048874116032403395,70.14249844864976,23.7810564452221,0.2147522016517539,0.8354054385700572,331.7977697011761,17.639367776733632,0.0,1.0,0.0,0.0,1.0,Taxi
11.8,0.13818598051560446,-4.293896875895602,23.327176103005883,0.3117823286363095,0.7956676896399748,331.6299912625168,17.712498296499472,0.0,1.0,0.0,0.0,1.0,Taxi
11.9,0.025906530150689073,18.77900047844754,24.098451421995794,0.08604071354997839,0.36760244657575514,331.5925354059452,18.0948955640301,0.0,1.0,0.0,0.0,1.0,Taxi
12.0,0.04502088635983449,-24.116976848780983,24.55555705338373,0.26444423124311867,0.004354284644628027,331.73671300720935,16.572548025790162,0.0,1.0,0.0,0.0,1.0,Taxi
12.100000000000001,0.017601096271699732,-41.29238383276216,23.58497191837118,0.3998302224035642,0.7792904919359157,331.5998942088397,17.061723782685853,0.0,1.0,0.0,0.0,1.0,Taxi
12.200000000000001,-0.18055538901312157,-21.874865404162833,24.376364469961135,0.0850967268385071,0.6711614130746199,331.6457394708357,18.195728151776933,0.0,1.0,0.0,0.0,1.0,Taxi
12.3,-0.06435344066097949,-52.893758698061426,24.332602287397822,-0.12383645614850769,-0.9040718135320647,331.79620850804235,17.89997970634848,0.0,1.0,0.0,0.0,1.0,Taxi
12.4,-0.24686769721860724,29.724972892874316,24.739284551810385,0.17303488437640094,0.16571034854965586,331.6588382372713,16.93200404237928,0.0,1.0,0.0,0.0,1.0,Taxi
12.5,-0.03193052454874982,17.19496331139992,24.36484771901518,0.5832599827474778,-1.0553930259051136,331.4566441199927,16.60556912504964,0.0,1.0,0.0,0.0,1.0,Taxi
12.600000000000001,0.021621375896020298,69.74321623832891,23.698841426135655,0.019252775660771437,0.23434467337117376,331.8708525798147,17.25763878798759,0.0,1.0,0.0,0.0,1.0,Taxi
12.700000000000001,0.10184838397303751,9.962215316614833,23.61077756713499,0.26732656188258813,0.028192646229079577,331.7650797028739,17.1434467064681,0.0,1.0,0.0,0.0,1.0,Taxi
12.8,0.017880552034324492,-11.65173615337565,24.563074416183348,0.2222502883125614,0.2171363404495192,331.74876016140024,17.55805101846105,0.0,1.0,0.0,0.0,1.0,Taxi
12.9,-0.036637304870857805,-36.32300312524298,24.292723524255532,0.16475938350551614,0.07157262506142446,331.7960199784684,17.776494607442878,0.0,1.0,0.0,0.0,1.0,Taxi
13.0,-0.07976663165317723,-12.605906511849199,23.624186429112104,0.10556329638482981,-0.03157521652298465,331.58067285509287,17.18273791236368,0.0,1.0,0.0,0.0,1.0,Taxi
13.100000000000001,-0.045148980524921375,-14.979700395992166,25.06609533869043,0.2645841365735997,-0.2320805079266492,331.5886342638471,17.965718187145086,0.0,1.0,0.0,0.0,1.0,Taxi
13.200000000000001,-0.1115358068508185,0.716148522274891,22.837466179284775,-0.00215483099741251,-0.43577817053031265,331.68606288466697,16.93197598973956,0.0,1.0,0.0,0.0,1.0,Taxi
13.3,-0.07618588904180264,21.95802990634168,23.529706943968055,0.45269741264531144,0.6101127655337001,331.65293000867155,17.81191987743387,0.0,1.0,0.0,0.0,1.0,Taxi
13.4,0.06464116900678718,52.19106965169314,24.479141884059665,0.40132086014700113,-0.15102628560868694,331.68550708356054,17.059439544511516,0.0,1.0,0.0,0.0,1.0,Taxi
13.5,0.14941954140764738,23.4079520473919,23.978441896742144,0.3299996629723564,-0.28205755584764775,331.7520970236351,17.663536888958518,0.0,1.0,0.0,0.0,1.0,Taxi
13.600000000000001,0.040853871195157015,-34.92215901654832,24.18930564861195,0.2975355035052197,-0.13412933391849932,331.8305830927832,17.720080670014056,0.0,1.0,0.0,0.0,1.0,Taxi
13.700000000000001,-0.10996962607595424,-29.22315748526199,22.66850080569572,0.05849416424791193,0.578395382611513,331.6244713889655,17.3291934594287,0.0,1.0,0.0,0.0,1.0,Taxi
13.8,0.0033037539813376184,-44.661173424073525,23.599327093116123,0.23272384916227967,0.8740016899199728,331.55128148380777,18.0920315201533,0.0,1.0,0.0,0.0,1.0,Taxi
13.9,-0.18245199592521041,47.62713880644935,24.001493951726854,0.22610485231356392,0.3644041236923828,331.6908350536378,17.45068502274137,0.0,1.0,0.0,0.0,1.0,Taxi
14.0,0.12816606795629273,28.400530552599466,24.075389147105973,0.33346329386010676,0.7851380524981153,331.8760099299386,18.691196319363634,0.0,1.0,0.0,0.0,1.0,Taxi
14.100000000000001,0.14530640674433518,72.54790430477233,23.522841402180912,-0.033526717137924295,0.2139354594721076,331.76866042439053,17.970693964037324,0.0,1.0,0.0,0.0,1.0,Taxi
14.200000000000001,0.18028752559865147,-9.310361484550436,23.925131694223143,-0.008231942569082162,0.1431801365375108,331.55377213499526,18.34212566094765,0.0,1.0,0.0,0.0,1.0,Taxi
14.3,0.08161426053354069,-11.3146641869038,24.147384142000778,0.30479172333046173,-0.7570350087007541,331.6642773399702,17.751400492063247,0.0,1.0,0.0,0.0,1.0,Taxi
14.4,0.08873308580981631,-28.252668205846543,24.019256534800512,0.2590679336469845,-0.21016589941123243,331.7479108963678,17.349516827812746,0.0,1.0,0.0,0.0,1.0,Taxi
14.5,0.03902418456941889,-32.40020516331199,22.735319833250777,0.11259131968413978,-0.35230060479746417,331.8316774145085,17.802657573397205,0.0,1.0,0.0,0.0,1.0,Taxi
14.600000000000001,-0.08038676528301911,-11.784133491600153,22.43445186947866,0.10025787847562835,-0.2509683741925525,331.7581057153362,18.10582826543729,0.0,1.0,0.0,0.0,1.0,Taxi
14.700000000000001,0.029812418351815702,11.547986253136758,23.45231756289491,0.12221024443874862,-0.23941393086043575,331.59529158973965,18.21562173211657,0.0,1.0,0.0,0.0,1.0,Taxi
14.8,0.09676411583510283,34.41320393492577,23.948356455687815,0.2888516027819122,-0.7718459859717555,331.6425502811908,17.103589346380776,0.0,1.0,0.0,0.0,1.0,Taxi
14.9,0.09167925439160989,3.089009676531442,24.087903841056164,0.29831402934781204,-0.30751815271692984,331.7262265670788,16.927622742880402,0.0,1.0,0.0,0.0,1.0,Taxi
15.0,0.04525746673447305,-18.19910046831509,23.879596116743148,0.05227472319997731,-0.10993505402829223,331.5503374235461,17.543867515570835,0.0,1.0,0.0,0.0,1.0,Taxi
15.100000000000001,0.005768613493527517,-40.7156173740424,23.361312296658607,0.14542769208415054,-0.4767023630909653,331.66229398086307,17.580908310068587,0.0,1.0,0.0,0.0,1.0,Taxi
15.200000000000001,-0.111898832478602,-10.479954630753335,24.780216477436262,0.01285785734692746,-0.5278418078447807,331.81789649442317,18.294666159267805,0.0,1.0,0.0,0.0,1.0,Taxi
15.3,-0.007142306419293508,18.546734317387777,24.008453562452814,0.15752087307360127,-0.037396052642012664,331.73939589315637,16.92114804649013,0.0,1.0,0.0,0.0,1.0,Taxi
15.4,0.09850228508046653,40.78078475771323,23.619782800416374,0.3415377370487469,0.28977247458865785,331.7274838444848,17.775100508393436,0.0,1.0,0.0,0.0,1.0,Taxi
15.5,0.09200509130996426,-16.420507215745815,24.5172546712968,0.5160510135232456,0.017057439421365832,331.476128127596,16.850786311497334,0.0,1.0,0.0,0.0,1.0,Taxi
15.600000000000001,-0.08924484249802243,-8.086974985736182,22.412939336770435,-0.164325974682916,0.06533086681284893,331.7506708228839,17.4696281620682,0.0,1.0,0.0,0.0,1.0,Taxi
15.700000000000001,0.058067410151785785,-35.68543711988039,24.353839686790387,0.26450950101057397,0.8204801416004794,331.6228290691846,17.504158701431354,0.0,1.0,0.0,0.0,1.0,Taxi
15.8,-0.08642209428943753,12.862905982542985,23.430240166225836,0.24435260103829914,0.3723810463676999,331.57909032260534,17.76977622772615,0.0,1.0,0.0,0.0,1.0,Taxi
15.9,-0.024930312585307354,-5.056271028914812,22.854189501198995,0.5291897687350724,-0.6095931146915191,331.6935761498796,18.142991821559363,0.0,1.0,0.0,0.0,1.0,Taxi
16.0,0.03278605500721187,13.607046165757785,23.227522169975888,0.2135903191793169,-0.5040710932910919,331.7801963978485,17.122883515289512,0.0,1.0,0.0,0.0,1.0,Taxi
16.1,-0.01838686346064846,-6.111610266278447,24.675453942086907,0.21098434519184933,-0.3947796835893792,331.956037412201,17.616447530605715,0.0,1.0,0.0,0.0,1.0,Taxi
16.2,-0.05548836391669945,2.5214241376909996,22.85508056450422,-0.01655112612436424,0.5274531644204685,331.49082922476794,17.783935772456967,0.0,1.0,0.0,0.0,1.0,Taxi
16.3,0.045393175695667,-3.9177790436126188,24.636530804126252,0.16927029199012536,0.19412472648838455,331.7086949246675,17.03101569712119,0.0,1.0,0.0,0.0,1.0,Taxi
16.400000000000002,-0.03797575867871144,1.1592784858649665,23.871752667379287,-0.017029756951635916,0.22989059649057741,331.4999070453807,17.187776760288653,0.0,1.0,0.0,0.0,1.0,Taxi
16.5,-0.049691971487374496,14.87381029163341,23.30005542054083,0.25210809057296957,0.12682077380099513,331.6162112508746,17.29061626621511,0.0,1.0,0.0,0.0,1.0,Taxi
16.6,0.11976222715383418,0.3249926762905299,24.57490708582688,0.2271084925938115,0.19876144425887193,331.84944537881006,18.249371608139505,0.0,1.0,0.0,0.0,1.0,Taxi
16.7,-0.036350795297258646,-22.250009146969404,22.894397630842125,0.10160043004167778,-0.5517297500221164,331.5610362455594,17.733916968860985,0.0,1.0,0.0,0.0,1.0,Taxi
16.8,-0.1609420172222214,-21.22751774342666,24.30773662538425,0.008073662744732146,0.7187440585951209,331.7354936377294,17.732761491996126,0.0,1.0,0.0,0.0,1.0,Taxi
16.900000000000002,0.013624638436700974,9.431191911176873,24.351632047464843,0.4531513695258928,0.48048012324310535,331.4976936109904,17.390558928430984,0.0,1.0,0.0,0.0,1.0,Taxi
17.0,0.01080516425862584,19.549707988488272,24.47565818214411,0.3139520527336317,0.5020319395762499,331.6449677201349,16.688024770488507,0.0,1.0,0.0,0.0,1.0,Taxi
17.1,-0.0631934772797799,8.033915942758547,22.41652836639738,0.1215146394731414,-0.17679576696848426,331.6059918078304,17.882528539741834,0.0,1.0,0.0,0.0,1.0,Taxi
17.2,0.053794218150493844,-6.348725208897854,23.84847420642646,-0.12270779008805999,0.4463604810082024,331.60281094653726,17.59003631232738,0.0,1.0,0.0,0.0,1.0,Taxi
17.3,-0.020938461785863293,13.911393803917614,23.924374911646336,0.20060073236222856,0.1871642831779213,331.5964286802566,17.817313652211723,0.0,1.0,0.0,0.0,1.0,Taxi
17.400000000000002,0.006363491739808308,-7.326375477540762,23.25450808978494,0.8841678823422185,0.2495760657735118,331.7188204541776,17.209640989610453,0.0,1.0,0.0,0.0,1.0,Taxi
17.5,0.017162340762790166,-2.222736464671217,23.59946944670811,0.3597472077428408,-0.4042125819329075,331.66863532154025,18.19071575802778,0.0,1.0,0.0,0.0,1.0,Taxi
17.6,-0.03205214410921923,-7.336101641591793,23.425858147876053,0.0364479682154433,-0.44558642956697675,331.68059488467793,17.108163902214415,0.0,1.0,0.0,0.0,1.0,Taxi
17.7,-0.03031701646815051,-14.823822442089671,23.76365877296943,0.1915621195277871,-0.09308125100834304,331.67354812377016,17.54682101299585,0.0,1.0,0.0,0.0,1.0,Taxi
17.8,-0.05695677144765803,-11.166230074050532,23.116001186709234,0.17627987471911477,0.3428802124759936,331.6573203018745,18.004505590406676,0.0,1.0,0.0,0.0,1.0,Taxi
17.900000000000002,-0.08788329447947174,-30.08552648539528,24.242544470472513,-0.2498073811520794,0.5902690574737561,331.5865465800423,17.732854522002363,0.0,1.0,0.0,0.0,1.0,Taxi
18.0,-0.18074464889512676,-0.3802720716939471,23.601078333796128,0.1755235418175772,-0.3427892092462519,331.66189233790374,17.552881712654585,0.0,1.0,0.0,0.0,1.0,Taxi
18.1,-0.05885813180612758,-10.112598553865837,23.943516273982002,0.1785188264603483,0.9517759065899877,331.5822126436194,18.453540478436995,0.0,1.0,0.0,0.0,1.0,Taxi
18.2,-0.13844628724880076,19.7492290848972,23.4620176075704,0.3728805729540615,0.09262411991594585,331.7798991693112,16.97715327494653,0.0,1.0,0.0,0.0,1.0,Taxi
18.3,-0.0819985034706406,-17.078029570717433,24.126233508621794,-0.07735101020710283,0.537153471490173,331.68341192050707,16.64226144401212,0.0,1.0,0.0,0.0,1.0,Taxi
18.400000000000002,-0.1442482796597146,16.335582038151347,23.381513742439548,0.6094152405197057,-0.0821523419366239,331.61748675429226,18.831298496077242,0.0,1.0,0.0,0.0,1.0,Taxi
18.5,-0.056768377058043856,39.71498402734539,24.211562857557567,0.5756922515530071,0.22300419781114234,331.61954364210385,18.40977654754044,0.0,1.0,0.0,0.0,1.0,Taxi
18.6,0.11657641666608648,15.93976355091956,23.233582338829493,0.4026098638843658,0.25095832433911136,331.7632981894851,18.30663741987401,0.0,1.0,0.0,0.0,1.0,Taxi
18.7,-0.06454946190511669,14.526232563130863,24.532921555816664,0.21889622764032446,0.37417086931325355,331.62490108351335,18.034244816339793,0.0,1.0,0.0,0.0,1.0,Taxi
18.8,0.015862785757610593,-46.37641076462643,23.330443284338646,0.5674128865107974,0.6331480561452036,331.8747666542647,18.483871914683558,0.0,1.0,0.0,0.0,1.0,Taxi
18.900000000000002,-0.11530563715704555,-2.195836463625961,24.341627405681596,-0.283507763775623,-0.5426335732893213,331.6665489771708,16.94661972843051,0.0,1.0,0.0,0.0,1.0,Taxi
19.0,-0.07552864422324634,-20.164295578170055,23.806203994832558,0.05112202412735181,0.5686010018040965,331.6946804214231,18.736209057795445,0.0,1.0,0.0,0.0,1.0,Taxi
19.1,-0.08495869213323953,52.534700529127726,22.880814360500256,-0.3257596508840287,0.8935263262744104,331.6817531611646,17.614300938710635,0.0,1.0,0.0,0.0,1.0,Taxi
19.200000000000003,0.14736786548859324,11.050911932100425,23.692983399185206,0.21823939689006638,-0.39231998897770076,331.5546368024802,17.38695651121428,0.0,1.0,0.0,0.0,1.0,Taxi
19.3,-0.020274084562744044,19.223440040389587,23.61196667052729,-0.05368256041700517,0.12822024701210447,331.8884098650542,18.162610136565604,0.0,1.0,0.0,0.0,1.0,Taxi
19.400000000000002,0.011158508068708557,-35.08241322861341,24.943826927310404,0.16091909902172857,-0.05071285429392095,331.6256006707065,18.087877891770532,0.0,1.0,0.0,0.0,1.0,Taxi
19.5,-0.02804420065447366,7.713503304864467,23.549226951385993,0.5623169348323135,-0.31622261095522675,331.58344808972197,18.125262203570486,0.0,1.0,0.0,0.0,1.0,Taxi
19.6,0.018293431961578472,7.028400676817255,23.86345851436746,0.0015204969346090946,-0.2898787537838636,331.55295552760845,18.156034820315973,0.0,1.0,0.0,0.0,1.0,Taxi
19.700000000000003,0.04630051145279501,20.985848178023332,23.1100737267786,0.007590865752872683,-0.4289726852589893,331.5014926685765,17.93956654894757,0.0,1.0,0.0,0.0,1.0,Taxi
19.8,0.07688504023564319,-30.71905916128998,23.739446355997206,0.05846391260457352,-0.7564434279127179,331.7024592736533,17.145194903022475,0.0,1.0,0.0,0.0,1.0,Taxi
19.900000000000002,-0.13530186384487125,-17.290437702525356,23.289677529494046,0.060849605068408585,-0.54393744643881,331.5697765901849,18.250812521287717,0.0,1.0,0.0,0.0,1.0,Taxi
20.0,-0.04015167705983158,-23.23424302194994,23.149604748641476,0.010317938125836118,-0.15014203519871896,331.8705675788416,18.268963303475314,0.0,1.0,0.0,0.0,1.0,Taxi
20.1,-0.03928617487410634,-20.80814846068732,23.468948076780595,0.09987941538159134,-0.3799409460008951,331.63167639760286,18.285784640717115,0.0,1.0,0.0,0.0,1.0,Taxi
20.200000000000003,-0.2393426061483077,14.955770104910366,23.147798679153038,0.3567081429595438,0.8792895090092537,331.8354078861962,18.78905184505703,0.0,1.0,0.0,0.0,1.0,Taxi
20.3,0.03462717346472037,-4.777275122225063,25.7862915574342,0.04295027568862414,0.05724877899284836,331.5684100830258,17.205999012953143,0.0,1.0,0.0,0.0,1.0,Taxi
20.400000000000002,-0.06317255048523153,73.28011509280645,24.573128430442427,0.018217386292991078,-0.40581742597008363,331.7230165570785,18.357075630293327,0.0,1.0,0.0,0.0,1.0,Taxi
20.5,0.1270579693157247,-40.072093625610215,24.275291596964067,0.24011325891876106,0.15714818129753938,331.65988132093435,17.430173326420327,0.0,1.0,0.0,0.0,1.0,Taxi
20.6,-0.16573329466333056,-7.981909875106109,23.127363124868562,0.16347255804714894,0.9639403941957219,331.5124747171617,17.451547650999746,0.0,1.0,0.0,0.0,1.0,Taxi
20.700000000000003,-0.10308209986076194,5.3615407093573895,24.005524136921398,-0.11927317250322633,-0.014143184365360717,331.71864848568157,17.325956759878686,0.0,1.0,0.0,0.0,1.0,Taxi
20.8,0.1538656728625118,7.514461599316253,24.028861125543592,0.22087383314326173,-0.49396170128772676,331.8573254316484,17.61661515822878,0.0,1.0,0.0,0.0,1.0,Taxi
20.900000000000002,-0.12816098666674913,42.39718073636837,23.926645877493623,0.07966277687935994,-0.0853475188056079,331.6276961850738,17.396206198236193,0.0,1.0,0.0,0.0,1.0,Taxi
21.0,0.10890380382108007,-56.56213408733466,22.833419022661303,0.44059453956794714,0.09978371579662648,331.61489347764655,17.38201737484462,0.0,1.0,0.0,0.0,1.0,Taxi
21.1,-0.12894499757416136,-0.550042279556997,23.415779005119838,0.1598047928610656,0.6678413436074794,331.8312637594315,18.58895976893079,0.0,1.0,0.0,0.0,1.0,Taxi
21.200000000000003,-0.13091119806453397,-24.651553919720396,24.33614275021888,-0.01304345027007392,-0.10439016093841999,331.70178418405624,17.465902057620706,0.0,1.0,0.0,0.0,1.0,Taxi
21.3,-0.014353965777521769,18.869567941713814,23.429041121966577,0.29782289643156173,-0.5464360475258604,331.56764711470373,17.647580480630793,0.0,1.0,0.0,0.0,1.0,Taxi
21.400000000000002,-0.03459715786559216,54.29004738412802,23.875691536362613,-0.12775632860318814,0.14136733234258697,331.69587134905896,16.92733182794819,0.0,1.0,0.0,0.0,1.0,Taxi
21.5,0.14053903885610622,17.37279629974638,24.49974285610874,0.10688161877578732,-0.5260748543258047,331.5938133315053,18.292625992589933,0.0,1.0,0.0,0.0,1.0,Taxi
21.6,0.07251001572121024,10.55104240218234,23.36528144329058,0.3610147059823522,0.3120145555136912,331.71417288415637,17.21462549893569,0.0,1.0,0.0,0.0,1.0,Taxi
21.700000000000003,0.01815805414531967,-22.390874468828287,23.37179903045892,-0.10159849399216536,-0.4164244914537568,331.66027611873255,18.675863804392606,0.0,1.0,0.0,0.0,1.0,Taxi
21.8,0.028584666511964965,3.530778328781691,24.999291021510484,0.3176788654835738,-0.34122602836349997,331.5469256038116,17.750289170272858,0.0,1.0,0.0,0.0,1.0,Taxi
21.900000000000002,0.09016390736511883,-38.30460010571105,24.26538510703269,0.1699780390609688,0.7424224924288777,331.62983573739666,17.137471217533133,0.0,1.0,0.0,0.0,1.0,Taxi
22.0,-0.17336494638323544,-13.38498695154658,24.44626306792138,-0.12981608242795717,-0.20067627486634063,331.7157705044292,17.782270244542428,0.0,1.0,0.0,0.0,1.0,Taxi
22.1,-0.03834026824576781,11.194614501949578,23.972136071019335,0.41983406292433784,0.6707918341727969,331.75009815817793,17.39905037421034,0.0,1.0,0.0,0.0,1.0,Taxi
22.200000000000003,0.14613697987486685,46.3115981766695,23.276303975119518,0.32845538564882515,0.10886266172292348,331.5829417208304,17.476511912946435,0.0,1.0,0.0,0.0,1.0,Taxi
22.3,0.058193044500112194,23.050601284979123,24.021950237070506,0.04591024576312594,-0.0960478353651595,331.6336301774454,17.522507725013003,0.0,1.0,0.0,0.0,1.0,Taxi
22.400000000000002,0.07691273817912792,-32.288697454234104,23.6840650006836,-0.008371962914352493,1.0378484194690791,331.47037962671675,17.812463315446955,0.0,1.0,0.0,0.0,1.0,Taxi
22.5,-0.015306507396303546,-1.0581193010925958,23.21641720303029,0.23154188071013135,-0.24798430158116833,331.5412681112076,18.29183480323693,0.0,1.0,0.0,0.0,1.0,Taxi
22.6,0.05290244799464934,-37.22823881037291,23.544986423094606,0.0638920310500789,-0.20741906550850914,331.70429160796925,18.836455748409072,0.0,1.0,0.0,0.0,1.0,Taxi
22.700000000000003,-0.10922845587273647,-12.761334337303827,23.969587735565845,0.3796000910984345,0.0688203408985319,331.7671559831142,17.49631773836793,0.0,1.0,0.0,0.0,1.0,Taxi
22.8,-0.07911317908282255,-20.960972093272748,23.587439738986845,0.16849092876522975,0.2962118527745031,331.7814548623596,16.472560592338706,0.0,1.0,0.0,0.0,1.0,Taxi
22.900000000000002,-0.05190241247171427,45.95431189778598,22.88992584031648,0.29588677852804207,0.9804415191930572,331.8364659590625,16.75531781936241,0.0,1.0,0.0,0.0,1.0,Taxi
23.0,0.12054310361619358,6.992361656692168,24.088174013040213,0.194452744706411,0.4965081109481571,331.5291678632898,17.383845453921793,0.0,1.0,0.0,0.0,1.0,Taxi
23.1,-0.04415137079936158,7.375965231776148,23.509489296600456,-0.10471850914804531,0.7806571593620673,331.6597709584971,17.309487245161552,0.0,1.0,0.0,0.0,1.0,Taxi
23.200000000000003,-0.015022586312833392,-49.0830311781875,24.297827070502965,0.29270826201632594,0.24856884479818925,331.90277170317484,17.71724405638233,0.0,1.0,0.0,0.0,1.0,Taxi
23.3,-0.12487205227474377,-19.96175611382747,24.396413627771917,0.08414918239265289,-0.23392473435897115,331.6071974936099,17.13672928299683,0.0,1.0,0.0,0.0,1.0,Taxi
23.400000000000002,-0.1439601513684988,-15.312965149779524,22.689191333109896,0.4430232652310162,-0.23736840208221535,331.7224308175257,17.612711900389968,0.0,1.0,0.0,0.0,1.0,Taxi
23.5,-0.09158741206173089,28.902019407780795,25.17677076433071,0.10657596714309397,-0.21202840675277781,331.6848914720463,17.773450636340495,0.0,1.0,0.0,0.0,1.0,Taxi
23.6,0.01963804476416031,38.14283572715066,23.19311106119654,-0.06866262865405542,-0.5639558713801276,331.6878125726357,17.622602326217898,0.0,1.0,0.0,0.0,1.0,Taxi
23.700000000000003,0.04675402726725462,-11.843416436904965,24.035059719644355,0.4563393096955046,-0.20617963288108612,331.62759065734963,17.513129710216482,0.0,1.0,0.0,0.0,1.0,Taxi
23.8,-0.1508044942462556,-34.84510559095225,24.21807826292319,-0.005982609612607215,0.5632034953660106,331.3852641491362,18.75640472084879,0.0,1.0,0.0,0.0,1.0,Taxi
23.900000000000002,-0.15458748319060087,1.603971350616187,24.0797272591183,0.0022429362280793896,-0.1660715526771541,331.60155065318327,17.481313014901403,0.0,1.0,0.0,0.0,1.0,Taxi
24.0,0.054773884020335666,21.26285128240981,23.513167183831822,0.3941597390801763,-0.24288619904008754,331.78666561132354,16.852423225924806,0.0,1.0,0.0,0.0,1.0,Taxi
24.1,-0.04449023783420644,78.72878840251609,24.21467016192849,0.2816217805866308,-0.7818833264338212,331.64134339533325,17.1774281665629,0.0,1.0,0.0,0.0,1.0,Taxi
24.200000000000003,0.23905645882197968,-0.28782875218504006,24.341382501012014,0.3602254577170477,-0.20937989701377407,331.6209649989503,19.292655688121624,0.0,1.0,0.0,0.0,1.0,Taxi
24.3,0.05333474025941053,32.613360851070844,24.470699288142868,0.29526084303569833,0.3632473222195218,331.68627776502376,18.368593457759637,0.0,1.0,0.0,0.0,1.0,Taxi
24.400000000000002,0.11857656642114783,-27.335020627409676,23.81113908444509,0.1956631720476086,-0.09239681116303045,331.6846663596398,18.02618551797442,0.0,1.0,0.0,0.0,1.0,Taxi
24.5,0.1023813556849314,-28.023233785768188,24.497402397982608,-0.11146692592576135,0.01236694940747728,331.61190153411815,18.11050636525647,0.0,1.0,0.0,0.0,1.0,Taxi
24.6,-0.08678142866943028,-6.954812650913628,23.754402036757927,0.06154204823053534,0.647663581148854,331.8777280932045,17.45137634779869,0.0,1.0,0.0,0.0,1.0,Taxi
24.700000000000003,0.08380250316657985,-39.101681960971824,23.930680938796314,0.1086896365503608,-0.6719282633110216,331.72193145605684,17.763572162308236,0.0,1.0,0.0,0.0,1.0,Taxi
24.8,-0.09312705411992753,41.62032331328272,23.08660351175959,-0.16900824117163193,-0.22520614087227395,331.82384522908956,17.794902102482464,0.0,1.0,0.0,0.0,1.0,Taxi
24.900000000000002,0.12132018789698347,-9.127548979879395,23.389783622466332,0.09534955516189039,0.18583065546719343,331.6016570239642,17.99842376575557,0.0,1.0,0.0,0.0,1.0,Taxi
25.0,0.03816475826718299,4.001141510478756,23.422397646929415,0.515227798849794,-0.07651352114206471,331.4634754667982,17.394331163037027,0.0,1.0,0.0,0.0,1.0,Taxi
25.1,-0.07312134656753365,-10.558066901756428,24.187645477402416,0.3239213028205732,-0.4351199258179727,331.5534086581092,17.753740889842813,0.0,1.0,0.0,0.0,1.0,Taxi
25.200000000000003,0.06852985338820146,-1.099235945175181,23.56605083828917,-0.019514969277831362,-0.37219046808410566,331.70540300810853,17.319590975707214,0.0,1.0,0.0,0.0,1.0,Taxi
25.3,0.03266857854130722,-0.24672662699624937,23.132319594926656,0.22304460773880297,1.1602932945689952,331.7251770439707,17.341039163257726,0.0,1.0,0.0,0.0,1.0,Taxi
25.400000000000002,-0.07435497970251476,19.74362129853935,23.635262031595758,0.38574429564593116,-0.6654188013355875,331.6846937668315,17.093598600730914,0.0,1.0,0.0,0.0,1.0,Taxi
25.5,0.1672479598808983,-22.904990777369125,24.753453602696332,-0.021070971118449855,0.43249226291123744,331.68270242616677,17.626677858923347,0.0,1.0,0.0,0.0,1.0,Taxi
25.6,-0.08185637534553833,-3.3400430865608612,24.261301071051815,0.1955676845025596,-0.07270219728928418,331.6352827972984,16.766485890715146,0.0,1.0,0.0,0.0,1.0,Taxi
25.700000000000003,-0.09105519513531896,-18.3370688061476,24.144748255848285,0.03845913496215089,0.17463306759975328,331.57516692739,17.09111114503466,0.0,1.0,0.0,0.0,1.0,Taxi
25.8,0.07556261585016044,19.70350818374454,23.473161964405534,0.21876431147678976,0.8916909428927517,331.63629925532746,17.171763127657137,0.0,1.0,0.0,0.0,1.0,Taxi
25.900000000000002,0.01666116557318451,17.14618744452888,23.71730046724928,0.1564186602027345,0.6701309131901465,331.6824478163519,17.999269993242272,0.0,1.0,0.0,0.0,1.0,Taxi
26.0,-0.005324257912674402,20.51379858832742,22.981482488933867,-0.28336321045910484,0.19120086417502638,331.62764683869545,19.075145443966413,0.0,1.0,0.0,0.0,1.0,Taxi
26.1,0.17813160879179768,8.85138121843294,23.115129689432212,-0.00794187069526453,0.14043712062934924,331.9087840820134,17.323883381540146,0.0,1.0,0.0,0.0,1.0,Taxi
26.200000000000003,0.060918071665349384,14.929123013143384,23.129615524503006,0.17543604242893432,0.1875735956100593,331.51612288326055,17.731343117060995,0.0,1.0,0.0,0.0,1.0,Taxi
26.3,0.06932135715304269,-34.048216108261876,23.37488517207508,0.20740280986536913,0.2026366492053095,331.77466361893937,18.289089398322176,0.0,1.0,0.0,0.0,1.0,Taxi
26.400000000000002,0.007890528250488462,-5.581761792981324,24.20876824986309,0.33027081427493843,-0.019522203430025968,331.6056745348118,17.82747192323793,0.0,1.0,0.0,0.0,1.0,Taxi
26.5,0.0330092627004429,-26.041110337796315,23.160846908656172,-0.08859694766967746,0.9594174276642113,331.28301033829246,18.4677588721057,0.0,1.0,0.0,0.0,1.0,Taxi
26.6,-0.06088419453593874,-9.555489371873806,22.998196570513628,0.21183269049111136,-0.49770027500301933,331.7447950638219,17.622935407332466,0.0,1.0,0.0,0.0,1.0,Taxi
26.700000000000003,-0.03988691860888042,2.9058854083807852,24.130948747442154,0.06850488882110477,0.04159314174807023,331.7158056149767,17.87403107510605,0.0,1.0,0.0,0.0,1.0,Taxi
26.8,0.047538689742346985,-18.438718187226886,23.076925066988306,0.5591750353137864,-0.0833850345127977,331.5069322387236,18.600514046164793,0.0,1.0,0.0,0.0,1.0,Taxi
26.900000000000002,-0.15307778547207307,24.699494384495363,23.004020014881753,0.2870898988308037,1.108670263686867,331.84430775207795,16.938286631823956,0.0,1.0,0.0,0.0,1.0,Taxi
27.0,0.08361055331359653,-32.23654307780208,24.70349149483592,0.4462113211296274,-0.22425573434351553,331.67295012030115,18.425121599932403,0.0,1.0,0.0,0.0,1.0,Taxi
27.1,-0.11364402564666332,32.60168436180264,24.940572538524357,0.05610862898982055,0.3871954301875374,331.71478137868803,18.48446260578849,0.0,1.0,0.0,0.0,1.0,Taxi
27.200000000000003,0.009930636336940276,-14.322439608252822,23.182685370504483,0.6767522122428467,-0.5503778934083039,331.64609364678336,17.773220873417625,0.0,1.0,0.0,0.0,1.0,Taxi
27.3,0.011998355272332544,44.89270326734095,23.287498709047636,0.08047831498051598,0.13123908952135482,331.7370374458851,17.656986983412853,0.0,1.0,0.0,0.0,1.0,Taxi
27.400000000000002,0.11081949069004159,-9.788783099229585,23.64282866945554,0.33080403509687073,-0.25544861444587197,331.74034737658894,17.575230743524042,0.0,1.0,0.0,0.0,1.0,Taxi
27.5,-0.03901327915920749,5.540177450745225,24.26945799422119,-0.2064666108874258,-0.34646936805396017,331.6064135958959,17.315656092651544,0.0,1.0,0.0,0.0,1.0,Taxi
27.6,0.03969924252605884,-9.774954472251077,22.87709987057336,0.12355239258995668,0.7822531669912163,331.9054833855539,17.672216117221705,0.0,1.0,0.0,0.0,1.0,Taxi
27.700000000000003,0.061944718328786376,16.715734257094926,24.120813633955972,0.1757289869709721,-0.34692441079477015,331.62759124466857,16.97124204212109,0.0,1.0,0.0,0.0,1.0,Taxi
27.8,0.04456539212626731,-27.72155288742137,24.987227916200712,0.11538134275093356,-0.08555938304074347,331.68921182734016,17.890202747026198,0.0,1.0,0.0,0.0,1.0,Taxi
27.900000000000002,-0.09890852191104785,-0.8864219824973105,24.282276279713784,-0.07247498977059297,-0.6684821376096014,331.7193355630982,17.40689280399871,0.0,1.0,0.0,0.0,1.0,Taxi
28.0,0.057512608416299994,-8.616594959250055,23.696400314286144,0.0471672752082474,-0.7076036570921491,331.9330314226563,17.84948968315937,0.0,1.0,0.0,0.0,1.0,Taxi
28.1,0.0014824173300172115,27.095397574132125,23.405585977554566,-0.06900288234255719,-0.5370140368617343,331.6270257266806,17.892454574315412,0.0,1.0,0.0,0.0,1.0,Taxi
28.200000000000003,0.03656846595961296,-23.289400065100555,23.53734846371024,0.12501583324008209,0.658114185642974,331.8125751366142,17.301195677370718,0.0,1.0,0.0,0.0,1.0,Taxi
28.3,-0.05893439190920261,13.836228466497609,23.613649326305957,0.038326222163485385,0.4762312914187697,331.6058582473653,17.878909998142603,0.0,1.0,0.0,0.0,1.0,Taxi
28.400000000000002,0.07066355966250541,0.18086422274407235,23.50928233324833,-0.1643049281075578,0.6620685053834207,331.88048069376373,18.945551541324832,0.0,1.0,0.0,0.0,1.0,Taxi
28.5,0.03747278707333348,2.7549633074100726,22.52648208317635,0.43560415852553364,0.04220306273495535,331.6385467221511,17.883263893802116,0.0,1.0,0.0,0.0,1.0,Taxi
28.6,-0.04515957537215211,-7.581594239895931,24.50792752471642,0.3453639433220612,-0.1563811900042283,331.5059832392151,17.18320891421097,0.0,1.0,0.0,0.0,1.0,Taxi
28.700000000000003,0.03275558846302593,-30.380025722300427,24.160809489282222,0.16841890532970577,0.6547484263617509,331.8671874393732,18.36737425869486,0.0,1.0,0.0,0.0,1.0,Taxi
28.8,-0.11442734153816853,10.991553604490072,24.459171678982916,0.2625068252269228,-0.7970873358434579,331.54306506201215,17.69993977632023,0.0,1.0,0.0,0.0,1.0,Taxi
28.900000000000002,0.009798192650298384,-28.70995494883084,23.168395142154598,0.17003027319291247,-0.30817833533932654,331.77364702033697,17.583530232325728,0.0,1.0,0.0,0.0,1.0,Taxi
29.0,-0.11079418628112814,31.84201320478307,23.304745261016365,0.2936474515114157,0.10108996850209374,331.6389673305889,18.473812547267705,0.0,1.0,0.0,0.0,1.0,Taxi
29.1,0.04478272448574697,0.6752363726716375,24.101837686431615,0.15390283395729257,-0.8631296212972507,331.55033404802293,18.27073900771061,0.0,1.0,0.0,0.0,1.0,Taxi
29.200000000000003,0.013174374513656745,28.92321779910156,22.619377176205294,0.2228044425521136,-0.8340336225412082,331.72246607062175,18.61483115341234,0.0,1.0,0.0,0.0,1.0,Taxi
29.3,0.03382190271437985,16.995099315234825,23.01973072835993,0.3577769145884768,0.7059793638494885,331.69587290758477,18.10396087969389,0.0,1.0,0.0,0.0,1.0,Taxi
29.400000000000002,0.12975822106192125,-35.66859887191131,24.197208105751468,0.201567299639021,-0.023770278250702236,331.530778005146,18.0630707167453,0.0,1.0,0.0,0.0,1.0,Taxi
29.5,-0.16516861984589962,8.764632301111495,24.385871101167986,-0.13069956594616705,-0.3300217034489105,331.7787866721392,16.85238095305097,0.0,1.0,0.0,0.0,1.0,Taxi
29.6,0.07764506421993747,-49.055537051182284,24.177846994517793,0.18732553564459128,-0.6030300527270271,331.71488084852206,17.56506526834527,0.0,1.0,0.0,0.0,1.0,Taxi
29.700000000000003,-0.11551946419399002,45.056342579275885,24.846503129922663,0.14772055457362152,0.17171100313311347,331.5524451990716,17.263215207826512,0.0,1.0,0.0,0.0,1.0,Taxi
29.8,0.060113093050479995,-11.526660091225443,23.19817386319982,-0.05883810286335242,0.3342452779665645,331.4931809879746,16.632787298042878,0.0,1.0,0.0,0.0,1.0,Taxi
29.900000000000002,0.020011763763810413,28.4611807473446,22.587194038686647,0.0758361184340432,-0.39190843129061226,331.7945399497453,16.897042929181026,0.0,1.0,0.0,0.0,1.0,Taxi
30.0,0.026786439542733118,-15.854241833614127,24.632555966061915,-0.07608900143019709,-0.7988209662601353,331.83940921392514,16.331372158737594,0.0,1.0,0.0,0.0,1.0,Taxi
30.1,-0.019158116117590496,-51.64919391415179,23.43522135032606,0.11487338287891,-0.17616706534157475,331.60119120570255,17.598870099038546,0.0,1.0,0.0,0.0,1.0,Taxi
30.200000000000003,-0.23823420580694835,-27.256375952045605,22.854509468863476,0.03848071272877149,1.1128822206738598,331.67633747869286,17.86135273802478,0.0,1.0,0.0,0.0,1.0,Taxi
30.3,-0.10949544021749472,29.38020832587777,23.360280857485122,0.00332603177715593,0.22405132877290362,331.53458985845646,17.324128860832534,0.0,1.0,0.0,0.0,1.0,Taxi
30.400000000000002,0.1277429255117985,46.97777898428433,24.24538186986454,0.19468203241583326,0.20324383177068722,331.8004066884429,17.752253362177772,0.0,1.0,0.0,0.0,1.0,Taxi
30.5,-0.003345310885526552,8.807610139328835,23.796326474234842,0.1609710584393479,-0.25089767321343637,331.48692786975437,17.593121775282224,0.0,1.0,0.0,0.0,1.0,Taxi
30.6,-0.0654573895208504,-34.241028801456316,24.935871165463762,-0.14060542029587392,0.1758854412991531,331.56292356656115,17.462931067822964,0.0,1.0,0.0,0.0,1.0,Taxi
30.700000000000003,-0.04346221849548291,15.546256365326803,25.057256489670333,0.14314980491362878,0.8735749707761182,331.60076319124914,17.29621215625673,0.0,1.0,0.0,0.0,1.0,Taxi
30.8,0.07438597094110763,47.74767892109778,23.84135814020585,0.4369841109686962,-0.23011061717381115,331.6660583408202,16.76770532601068,0.0,1.0,0.0,0.0,1.0,Taxi
30.900000000000002,0.17328100508463865,33.47135830444595,23.68186496027545,0.10237663551880469,-0.6882397507996878,331.59485656082165,17.50751854116222,0.0,1.0,0.0,0.0,1.0,Taxi
31.0,0.12389457302674703,-8.183552754517153,23.229046330271615,0.13064949247443847,-0.3812208678548108,331.5915712197566,17.7248649700213,0.0,1.0,0.0,0.0,1.0,Taxi
31.1,0.033468207168522016,-49.54154043735563,24.18789950357184,0.3720489500706499,-0.3702206605851811,331.56437348639815,16.834742234601656,0.0,1.0,0.0,0.0,1.0,Taxi
31.200000000000003,-0.07442669710213937,-31.861858734294987,23.531979529703808,0.28759200450026856,-0.7999858174584159,331.76051607610407,17.248580080512298,0.0,1.0,0.0,0.0,1.0,Taxi
31.3,-0.03541472064472778,17.446784012403825,24.304834092933973,0.28375561156877355,0.5328476220002059,331.7281759669801,17.88329190476593,0.0,1.0,0.0,0.0,1.0,Taxi
31.400000000000002,0.1207021272305413,16.7441306063898,23.77077963360627,0.0507120053970922,0.1394172830954469,331.6037999188061,18.620353179087335,0.0,1.0,0.0,0.0,1.0,Taxi
31.5,0.009293955929809798,-0.518516537575195,23.439384453798837,-0.1257741411533615,0.4701025098206327,331.54878616406086,17.701060568595114,0.0,1.0,0.0,0.0,1.0,Taxi
31.6,-0.038007303332603576,22.21155843688753,24.245497160405996,0.5171711263341687,0.8182098523262458,331.57805637604883,17.581472334547996,0.0,1.0,0.0,0.0,1.0,Taxi
31.700000000000003,0.2317599194149791,-24.723586246404135,23.774936948826465,0.33300578512496637,0.27558062150577434,331.53988771764716,18.168961662440584,0.0,1.0,0.0,0.0,1.0,Taxi
31.8,-0.11432397530221075,-6.685972228385148,24.90751410045188,0.20837911055359232,0.3829937976422723,331.6513231762583,17.60727484334854,0.0,1.0,0.0,0.0,1.0,Taxi
31.900000000000002,-0.07143716447452922,-43.43009629058201,23.411591788963047,0.3647121907477664,-0.5898730089539418,331.73996180159054,17.277802035843855,0.0,1.0,0.0,0.0,1.0,Taxi
32.0,0.01460943796206917,19.66930240531057,24.72690314579156,0.16133141575970783,0.43997805884275437,331.70699367813893,17.399406122351184,0.0,1.0,0.0,0.0,1.0,Taxi
32.1,-0.015977463275657727,37.565086575154425,23.750672142337212,0.38508343658074545,0.17958025915439393,331.6560275396921,17.838218337642385,0.0,1.0,0.0,0.0,1.0,Taxi
32.2,0.11638826840124308,-9.921927102840522,23.774795623814857,0.06264182822473471,0.5357663533768183,331.66592988667276,17.907110995198636,0.0,1.0,0.0,0.0,1.0,Taxi
32.300000000000004,-0.03500019755213326,17.178084396517583,22.785247536144546,0.13357314116764352,-0.39064348726656795,331.68985839380184,18.66101277472574,0.0,1.0,0.0,0.0,1.0,Taxi
32.4,0.06991295870693039,-9.861579575620157,23.93762300732734,-0.06435881192351892,0.19438983651649536,331.5877045709849,17.42539304147649,0.0,1.0,0.0,0.0,1.0,Taxi
32.5,0.06708037052314249,1.3227760114332128,23.274739520299928,0.4260822787903835,0.15680709103301202,331.76371051414765,17.025309499074716,0.0,1.0,0.0,0.0,1.0,Taxi
32.6,-0.028386317494967023,-14.96956850513734,23.261346424986066,-0.08172219579658774,-0.4164422294524018,331.7640316725133,18.257432711329216,0.0,1.0,0.0,0.0,1.0,Taxi
32.7,-0.004934883818756163,-46.00134684139065,23.990694048960652,0.3488267280286931,0.04679275982938111,331.5802346230721,17.385021007410256,0.0,1.0,0.0,0.0,1.0,Taxi
32.800000000000004,-0.16292636368381064,22.917837899976757,24.41224614239341,0.21001728294709818,0.19169143681052156,331.6051266104997,17.22911722449011,0.0,1.0,0.0,0.0,1.0,Taxi
32.9,0.08620287200491686,18.522894362496565,22.0625259505935,0.2511109885696992,-0.0865287262271476,331.7659239729069,17.57787247064844,0.0,1.0,0.0,0.0,1.0,Taxi
33.0,0.08767958799372677,29.485593060207282,24.89463424687531,0.05368468786080785,0.8680322711272628,331.6068199101933,18.7564979377077,0.0,1.0,0.0,0.0,1.0,Taxi
33.1,-0.015498398382774104,-37.72456577532247,23.555657034452558,0.47161787875879074,1.6944646966758934,331.6189095136839,17.318694090329547,0.0,1.0,0.0,0.0,1.0,Taxi
33.2,-0.10241995687169532,-9.587306876879415,24.599941128018255,0.2341003520448203,-0.5171318001870748,331.69431488274756,16.946742774601304,0.0,1.0,0.0,0.0,1.0,Taxi
33.300000000000004,0.03974305360932986,2.3788483874753132,23.77516512289204,0.4718462288505685,-0.42627891823682,331.6328612404983,17.36816793040092,0.0,1.0,0.0,0.0,1.0,Taxi
33.4,-0.0036041564453973733,24.62194012321837,24.099345566308234,-0.02002485169686305,-0.03101296510824772,331.74480366016735,17.377029958094777,0.0,1.0,0.0,0.0,1.0,Taxi
33.5,0.020689743744396694,21.00935070660071,23.386205119791907,0.3307420352677536,-0.10935621319090236,331.5719976733741,17.827132852656828,0.0,1.0,0.0,0.0,1.0,Taxi
33.6,0.14478980714233355,69.93536882049445,23.43536696975943,-0.035591844749207624,-0.7295408065220021,331.6724750717965,17.771537123533346,0.0,1.0,0.0,0.0,1.0,Taxi
33.7,0.346072687657075,29.75147978465471,24.82133129788238,0.2410440278206466,-0.4574007950604494,331.72354922596287,17.677825199609316,0.0,1.0,0.0,0.0,1.0,Taxi
33.800000000000004,0.1694471426676704,-20.955255365280305,24.409409981453397,0.23197803691781052,0.23343293168449356,331.7467022155448,17.783468027183055,0.0,1.0,0.0,0.0,1.0,Taxi
33.9,0.040013530315932196,-75.8393802201978,24.400107112561926,0.43110427426178677,0.15882002944852475,331.48344040387076,18.052146621465962,0.0,1.0,0.0,0.0,1.0,Taxi
34.0,-0.03312421344391383,-35.181330905118465,23.816250344926033,-0.1323412814664205,-0.5544630200864045,331.50779666385415,17.713639626805797,0.0,1.0,0.0,0.0,1.0,Taxi
34.1,-0.006459511857921781,10.13447435565819,24.369310838924648,0.4970268751829225,-0.2557958391259726,331.66371292723807,18.019193163471677,0.0,1.0,0.0,0.0,1.0,Taxi
34.2,0.09068590209422328,17.594890107170656,23.899979581122334,0.35436716054095163,0.9039311003201322,331.8397181814729,17.24027389810606,0.0,1.0,0.0,0.0,1.0,Taxi
34.300000000000004,0.05485023709193959,-28.911710210328092,22.920991825719707,0.266589237267012,-0.5112794345673876,331.6405057353992,18.700787260409868,0.0,1.0,0.0,0.0,1.0,Taxi
34.4,-0.15101806290956207,1.6835515913972283,23.47478287590844,0.0063842043385799185,0.33314968870256545,331.5855952692913,17.637810052217468,0.0,1.0,0.0,0.0,1.0,Taxi
34.5,0.09910366005120952,-28.84935806208131,25.000628656841105,-0.15666339631581566,0.7075015434899651,331.64625184046304,17.711817446965906,0.0,1.0,0.0,0.0,1.0,Taxi
34.6,-0.08939655321846685,37.683926991392276,23.70460273204285,0.43839407944359077,-0.28117108888191406,331.8078349225111,17.99147364999976,0.0,1.0,0.0,0.0,1.0,Taxi
34.7,0.037401572047399405,-18.319048163491455,23.863224245599245,0.23495726003743986,-0.7043364628528475,331.4820826132059,16.973240739351837,0.0,1.0,0.0,0.0,1.0,Taxi
34.800000000000004,0.007508419233752403,20.14440622088367,23.206700398027753,0.26096599942028803,0.06277577664427735,331.6935477717017,17.281530544177286,0.0,1.0,0.0,0.0,1.0,Taxi
34.9,0.011325477885951655,-38.641277351264925,23.897591421966297,0.35652642015529024,-0.3376601416139926,331.764478710174,17.752944078714698,0.0,1.0,0.0,0.0,1.0,Taxi
35.0,-0.1558048147089251,-0.8967277363975938,23.239836088969753,0.13819517914785945,0.28180620864142664,331.5920825798728,16.951898373660676,0.0,1.0,0.0,0.0,1.0,Taxi
35.1,0.0030247805517645636,-16.376950508263196,23.950567833612368,0.32916463786396377,-0.2304596742735741,331.69237731845897,18.493012254790674,0.0,1.0,0.0,0.0,1.0,Taxi
