time_s,altitude_ft,vertical_speed_fpm,ias_kt,pitch_deg,roll_deg,heading_deg,throttle_pct,afterburner_on,gear_down,flaps_deg,speedbrake_pct,weight_on_wheels,label
0.0,0.08980299619542416,-49.97351676357741,15.60167873680762,-0.122087938122389,0.5080855258900602,198.80856620660143,21.867405283112976,0.0,1.0,0.0,0.0,1.0,Taxi
0.1,-0.07677539301650055,-8.760363971225317,16.18344714870821,-0.6094818888236884,-0.5366418653376263,198.97250363994272,22.312760053891527,0.0,1.0,0.0,0.0,1.0,Taxi
0.2,0.04600117633929757,7.202181782268418,16.697387007254004,-0.0030831292746736905,0.5109376856803867,199.04302374708038,22.65415229796602,0.0,1.0,0.0,0.0,1.0,Taxi
0.30000000000000004,0.12581390510676624,-5.208963230037114,15.586488598324731,-0.41109152451403613,0.41844439219080554,199.07712193013367,23.19107364849915,0.0,1.0,0.0,0.0,1.0,Taxi
0.4,-0.1028202091666861,-7.917905728109782,15.875546008067055,-0.3368148989414965,-0.08249015616828745,199.00031457879538,22.255583570277896,0.0,1.0,0.0,0.0,1.0,Taxi
0.5,0.00641164769874868,5.975132138192341,15.482771605479881,-0.3886059131738415,0.841931530856343,198.86765429529612,21.92320006531279,0.0,1.0,0.0,0.0,1.0,Taxi
0.6000000000000001,0.155689565797728,29.731375154752413,16.077494665879605,-0.37844796236501316,-0.8745999211713406,198.90919319497004,22.700932724315997,0.0,1.0,0.0,0.0,1.0,Taxi
0.7000000000000001,0.045836666607076006,-0.5056674305112523,15.880363945656265,-0.2834479194133965,0.6791656332175069,198.97606837896296,22.577616058760913,0.0,1.0,0.0,0.0,1.0,Taxi
0.8,0.0038833105461924438,-13.237250752019152,15.673274263802224,-0.08675013677034707,0.18025047494699828,199.11971047953614,22.779339089581914,0.0,1.0,0.0,0.0,1.0,Taxi
0.9,0.08950331203763225,25.649046771380103,16.00447534043704,-0.054479594839384776,0.8738456509841189,198.90960270587925,22.366386716779317,0.0,1.0,0.0,0.0,1.0,Taxi
1.0,0.17408190046397654,13.310598825752102,15.09481131045846,-0.16945549949029678,-0.6487596081615822,198.86202936178677,22.203722159948757,0.0,1.0,0.0,0.0,1.0,Taxi
1.1,0.07043630467495295,15.944624182010024,15.16750600508075,-0.16776639811715127,-0.11319158179104899,199.06017256077644,22.466836191086557,0.0,1.0,0.0,0.0,1.0,Taxi
1.2000000000000002,0.16922643294768236,-34.92235810573183,15.861706784962816,-0.37939993135614525,-0.25359461399140837,198.92040886340453,22.41394626697055,0.0,1.0,0.0,0.0,1.0,Taxi
1.3,-0.0005298900646826344,10.313133687144324,14.987945201810676,-0.277245232629027,-0.4822710267882909,199.04573083815603,22.315651799417328,0.0,1.0,0.0,0.0,1.0,Taxi
1.4000000000000001,0.12200197311067458,-47.32396733507642,15.493239945293366,-0.04613503021731688,0.7922833429119985,199.1065145993507,22.492338306984212,0.0,1.0,0.0,0.0,1.0,Taxi
1.5,-0.06739340372769974,37.877784939030946,15.888633581420544,-0.24296360170613074,-0.3070365413433412,198.8249756096925,22.535318513033708,0.0,1.0,0.0,0.0,1.0,Taxi
1.6,0.18885903463047207,-20.92801299741505,15.335316624574347,0.08508609770291153,0.02721285263611214,199.05936368096627,21.836012180186742,0.0,1.0,0.0,0.0,1.0,Taxi
1.7000000000000002,0.017361908123599324,17.267161605164905,15.736091722147032,-0.5000924169652077,-0.04201608315589081,198.90000612219978,22.56821104422087,0.0,1.0,0.0,0.0,1.0,Taxi
1.8,0.018942404298124774,-8.4124208608249,15.674943553207576,0.2290189798722277,-0.05110254257277961,198.8654407408086,21.91255246827366,0.0,1.0,0.0,0.0,1.0,Taxi
1.9000000000000001,0.14679693032634758,0.13071753950184473,15.728427696883164,-0.17024596265138595,-0.5100658982122906,199.00785404185717,23.134832061771192,0.0,1.0,0.0,0.0,1.0,Taxi
2.0,0.018015495821108563,-6.218927219809282,16.31630066853648,-0.34188069545624883,-0.4522959395455129,198.97266903705622,22.31589994550771,0.0,1.0,0.0,0.0,1.0,Taxi
2.1,-0.012152231800921622,-39.2565562118049,15.655942563483471,-0.30998572120525114,0.06770354955620964,198.82155541990733,22.886560078791025,0.0,1.0,0.0,0.0,1.0,Taxi
2.2,-0.0494858507326769,5.4799718011039955,15.623765998791566,-0.418395718649492,0.09414176686761551,199.0293491408554,22.653206713921946,0.0,1.0,0.0,0.0,1.0,Taxi
2.3000000000000003,0.045415354826628555,-1.0660860985241338,14.978104404678438,-0.3561966269167328,-0.12700024996408243,199.01277701261017,22.632475151244282,0.0,1.0,0.0,0.0,1.0,Taxi
2.4000000000000004,-0.01748266229354228,5.418476670914173,16.349784042607574,-0.1708794308734223,-1.5910120521286508,199.00603735400023,22.284555281485908,0.0,1.0,0.0,0.0,1.0,Taxi
2.5,-0.022393467378106033,12.276006699811129,16.595523616272036,-0.0731512878953969,1.2435442757427035,198.98388292266463,22.6818266020162,0.0,1.0,0.0,0.0,1.0,Taxi
2.6,0.1067953883256842,20.764517083875656,16.61916781530016,-0.17557740699176133,0.1775162543243595,198.99360562690322,23.02450359234903,0.0,1.0,0.0,0.0,1.0,Taxi
2.7,0.08633992312583601,-15.151082773857217,16.348143954069336,0.022147934024756344,0.006754007818164426,199.06241229299246,22.518429217193322,0.0,1.0,0.0,0.0,1.0,Taxi
2.8000000000000003,-0.0981488812473921,-41.36806721430215,14.975492276465355,-0.49352518311242305,-0.0814157359021565,199.0043894337971,22.688077934165875,0.0,1.0,0.0,0.0,1.0,Taxi
2.9000000000000004,-0.10004494774582656,-55.49472729639482,15.034785813905724,-0.12461443233025804,0.18470158660653893,198.87409098397177,22.990831228389993,0.0,1.0,0.0,0.0,1.0,Taxi
3.0,-0.19113371335613813,-8.477464138251294,15.532951162434927,-0.10269193499578905,-0.033673939773895586,198.97998542743483,22.65199721952356,0.0,1.0,0.0,0.0,1.0,Taxi
3.1,-0.14053620193864858,61.53883650392251,15.392876222986574,-0.026362999591261094,0.5488825630798618,199.0298882051643,22.098086222674453,0.0,1.0,0.0,0.0,1.0,Taxi
3.2,0.20764923477378594,33.82104840415212,15.84861690166594,-0.5441729543859407,0.10654967133253215,198.94348934567438,23.295271388298318,0.0,1.0,0.0,0.0,1.0,Taxi
3.3000000000000003,-0.022028471335377567,42.23145348201339,15.769761113067556,-0.27748137220067265,-0.05211509367763039,199.14825263737555,23.559904726259816,0.0,1.0,0.0,0.0,1.0,Taxi
3.4000000000000004,0.07062106547141836,-40.358486405486616,15.321779169800667,-0.3234760321027402,0.4779140559013437,199.0314402017351,22.890643195690323,0.0,1.0,0.0,0.0,1.0,Taxi
3.5,0.005856802746352882,22.24971056839749,15.379664008311973,-0.20047513217312662,-0.3567938723714841,199.01763812865352,22.75777833646005,0.0,1.0,0.0,0.0,1.0,Taxi
3.6,0.08922008150660987,4.4994430837836115,16.273857264051763,-0.327110683379591,0.3029210729342445,199.04409088889406,22.17531564694883,0.0,1.0,0.0,0.0,1.0,Taxi
3.7,0.09311828089033641,-37.22946548214082,14.916315466883841,-0.27359189566933095,-0.028113588101543338,198.97102352959803,22.47475519672291,0.0,1.0,0.0,0.0,1.0,Taxi
3.8000000000000003,-0.18029052466435116,-18.22075338465349,16.081071695977325,-0.2859217959979093,-0.1871675909251181,199.05004644431756,22.346979346393812,0.0,1.0,0.0,0.0,1.0,Taxi
3.9000000000000004,-0.00188368541665753,-16.126866372642215,15.606029992492385,-0.43193747470113364,-0.5478568592460108,199.03186530973255,23.619709520682417,0.0,1.0,0.0,0.0,1.0,Taxi
4.0,0.01248394902712539,47.315025323678235,15.744431550008988,-0.2628863161519144,-0.11843933831292783,198.98976927697015,22.779795110314105,0.0,1.0,0.0,0.0,1.0,Taxi
4.1000000000000005,0.056284601954039976,-9.681619411746526,15.746163438883123,-0.275316386820188,0.14261130416282033,199.00466298327467,22.561493367292222,0.0,1.0,0.0,0.0,1.0,Taxi
4.2,-0.05029178247539018,4.680189338071742,15.516573409268585,-0.23282832549498356,-0.4985567994265049,198.98006858997235,21.75340697537584,0.0,1.0,0.0,0.0,1.0,Taxi
4.3,0.035884895717484086,-20.306675470625468,15.667752604543221,-0.43413449126038994,0.018355440109780144,199.0630004964013,22.270847009112973,0.0,1.0,0.0,0.0,1.0,Taxi
4.4,-0.04524877539908737,-8.414037006685328,14.41574124209225,-0.04322747105850602,0.304868415521514,198.90193366991195,23.34394551834213,0.0,1.0,0.0,0.0,1.0,Taxi
4.5,-0.09236196750881684,-13.39407640351232,16.337486830608814,-0.11867778542253109,-0.8935541679750887,198.95304371341263,22.499206883101873,0.0,1.0,0.0,0.0,1.0,Taxi
4.6000000000000005,-0.031085486300077528,-10.399710002127579,15.044296387048108,0.0774877011607693,0.5478860848283368,198.80504714225515,22.163052703852152,0.0,1.0,0.0,0.0,1.0,Taxi
4.7,-0.09724732540972528,38.314505320426164,16.579602331804793,-0.5098428751182393,-0.6690198840278185,199.07882647818042,22.568993822831448,0.0,1.0,0.0,0.0,1.0,Taxi
4.800000000000001,0.09921055909331396,5.355243925787725,16.09120242548711,-0.18181017288287332,0.04543113080343463,199.09150625517668,23.364986053242678,0.0,1.0,0.0,0.0,1.0,Taxi
4.9,-0.004309266671138934,2.0162102954112058,15.9120031068256,0.2871315441542506,0.0739838564183912,198.9157133072481,22.75935515079792,0.0,1.0,0.0,0.0,1.0,Taxi
5.0,-0.08716627393266928,-20.568930301157746,15.167848081493016,-0.08798691466614747,0.07468597192851334,198.82936118139526,22.8910309841687,0.0,1.0,0.0,0.0,1.0,Taxi
5.1000000000000005,-0.0036340924124747724,1.9305094421500393,15.27055655384752,-0.21344878911701767,0.4009418704642782,199.0464295119075,22.495558541463456,0.0,1.0,0.0,0.0,1.0,Taxi
5.2,0.005343280539611272,-3.4188329061611356,16.058079281468316,-0.40311002484162084,-0.19030628884169332,199.01551738924343,22.602284676423483,0.0,1.0,0.0,0.0,1.0,Taxi
5.300000000000001,-0.10426043846347495,17.047568090520624,15.569563883515231,-0.44607188436727574,0.02579895541802481,199.06052794910704,23.15524331099343,0.0,1.0,0.0,0.0,1.0,Taxi
5.4,0.08160374804012838,-3.4560409746158243,16.106647249329928,-0.49683102355499503,0.4434422910788693,199.06143878319358,22.81672484396451,0.0,1.0,0.0,0.0,1.0,Taxi
5.5,-0.011936924333467812,30.07619821558131,15.987759877896593,-0.16366986286644586,-0.8035525849947521,198.87787830661887,22.125747069965367,0.0,1.0,0.0,0.0,1.0,Taxi
5.6000000000000005,0.04612055261443164,-23.150068928730757,15.957627625796666,-0.33293006987688745,0.25376467196260266,199.0415416893709,22.61147711822384,0.0,1.0,0.0,0.0,1.0,Taxi
5.7,-0.034146596603525384,-14.402711794439648,16.117264484809752,-0.4356665749190002,-0.12506335516066278,199.00522948796595,23.177630365500164,0.0,1.0,0.0,0.0,1.0,Taxi
5.800000000000001,-0.08395048330566605,-30.232830798063457,15.279453261701928,-0.28676475764968185,0.08815198412021619,199.10969448064247,22.205110681523436,0.0,1.0,0.0,0.0,1.0,Taxi
5.9,-0.10504360137588563,23.215182140222165,15.283356626708445,-0.1441178884710364,-0.005408754190826216,198.89081015602437,22.853891606733427,0.0,1.0,0.0,0.0,1.0,Taxi
6.0,0.08192931409758544,34.786040185680825,16.16182840878794,-0.34762700729708396,-1.0254964376118545,199.1104668160658,21.594179928239534,0.0,1.0,0.0,0.0,1.0,Taxi
6.1000000000000005,0.0899797176227381,7.9137220403810415,15.902333289614715,-0.606940542152979,0.1485084414225769,198.99628089629584,22.338517352667996,0.0,1.0,0.0,0.0,1.0,Taxi
6.2,-0.06547499117398041,-30.567669852865524,15.135576371188339,-0.38247495409170584,0.13648871817925382,199.0280080490561,21.98427640234086,0.0,1.0,0.0,0.0,1.0,Taxi
6.300000000000001,-0.07090903516674217,-46.62599208141435,17.039711773025868,0.06748880942957042,-0.648156604003535,198.806067077203,22.8842498004709,0.0,1.0,0.0,0.0,1.0,Taxi
6.4,-0.14315024278433366,30.03018221477595,15.726618134656722,-0.11476223293766524,0.35919182946898365,198.9326039058143,22.85040876235556,0.0,1.0,0.0,0.0,1.0,Taxi
6.5,0.08467591989989935,22.4677350068813,15.798256539150918,-0.293688415696005,0.17392771139050411,199.10456481777624,22.90350306564332,0.0,1.0,0.0,0.0,1.0,Taxi
6.6000000000000005,0.0414296398676643,7.775298036400495,16.030333066091515,-0.22245712729058834,0.706391108039508,198.94982387425694,22.274127089340848,0.0,1.0,0.0,0.0,1.0,Taxi
6.7,-0.10427375260233121,22.216055869884517,15.252036753768783,-0.16485200885059959,-0.48808067558798046,199.0868449827135,22.602247896559955,0.0,1.0,0.0,0.0,1.0,Taxi
6.800000000000001,0.1957561992493219,0.6673187855356512,14.9712787987106,-0.19533591249993604,0.5192928819777379,198.8600131265266,22.924044815938466,0.0,1.0,0.0,0.0,1.0,Taxi
6.9,0.0447662337953425,12.565888112701304,15.79995434194672,-0.06262401261889675,0.039543672897312206,199.03197587500108,22.07401651084941,0.0,1.0,0.0,0.0,1.0,Taxi
7.0,-0.04144431203882473,-24.017366379350207,15.064705061195983,0.06659018518944265,0.5135087076118953,198.90432355846656,23.33611560606115,0.0,1.0,0.0,0.0,1.0,Taxi
7.1000000000000005,0.07566936735257083,-11.73931648545063,15.618582387676668,-0.17821575423308372,-0.40533310334927986,199.16314449841684,22.49715933528081,0.0,1.0,0.0,0.0,1.0,Taxi
7.2,-0.013930348631910665,-18.120004595661904,15.784108389677737,-0.13547392026191662,-0.13520367758620858,199.15826673374193,22.43854756944488,0.0,1.0,0.0,0.0,1.0,Taxi
7.300000000000001,-0.13204433501713428,-32.08498576220494,16.39541733024456,-0.30267649177548195,0.49401633079113816,199.09007926912147,22.323544893816514,0.0,1.0,0.0,0.0,1.0,Taxi
7.4,-0.08475556145845389,5.487348741301074,15.29423930555031,0.007279147762748406,0.12481274565417298,199.133897612405,22.77913051381155,0.0,1.0,0.0,0.0,1.0,Taxi
7.5,0.0135063950745947,28.428472839227144,15.55792901422476,0.026856240741816972,0.6480841250219962,199.04626632593022,22.527357823813812,0.0,1.0,0.0,0.0,1.0,Taxi
7.6000000000000005,0.010098029179001466,11.464104394588327,16.775225866265675,-0.31196214282665885,0.4202415399974971,199.2871360960935,22.476016133015303,0.0,1.0,0.0,0.0,1.0,Taxi
7.7,-0.02743503948551226,16.716866206506293,15.834647223251867,-0.032415913816517705,0.7849470368345417,198.9832928374684,23.314528472661344,0.0,1.0,0.0,0.0,1.0,Taxi
7.800000000000001,0.09709072610712616,-27.197238832727162,15.62625401759859,0.10852546055464968,0.0042493677814797815,199.02136190026738,23.02964050945849,0.0,1.0,0.0,0.0,1.0,Taxi
7.9,-0.12588816498463434,2.5101559968408225,14.90269571983145,-0.07149853023750641,-0.0641726825184377,199.0049393664449,23.051403610222042,0.0,1.0,0.0,0.0,1.0,Taxi
8.0,-0.014884259501308152,-27.438586963383084,15.393589014248688,-0.027072829141656818,0.5330351268275454,198.92828066438062,22.226960547152917,0.0,1.0,0.0,0.0,1.0,Taxi
8.1,-0.040102208709789255,49.09564670421597,15.66583535001396,-0.5180086617662912,0.9776146314564785,198.8374086051607,22.178721853452476,0.0,1.0,0.0,0.0,1.0,Taxi
8.200000000000001,0.11959006853644552,-7.936838633620222,16.597133304453855,-0.11057765095767862,-0.19920655230526702,198.9558520879906,22.989025381568478,0.0,1.0,0.0,0.0,1.0,Taxi
8.3,-0.054568452669409274,22.718974516447386,15.214499415653117,-0.2182817610151729,-0.643107636563374,198.9791547405539,22.19012451246098,0.0,1.0,0.0,0.0,1.0,Taxi
8.4,0.07349266387244766,5.380799085506337,16.267468930603343,-0.12248169651900855,0.22031444662278166,199.05940962641114,22.856077521801758,0.0,1.0,0.0,0.0,1.0,Taxi
8.5,0.14649406396397718,14.452429188304677,16.722493487231365,-0.5895487481859334,0.7115626151851321,198.99277585973357,23.027300724859106,0.0,1.0,0.0,0.0,1.0,Taxi
8.6,0.01769369327211413,1.5238816195901705,14.964642038951753,-0.5394113760272424,-0.5633549317021699,199.24569939086052,22.500691906435602,0.0,1.0,0.0,0.0,1.0,Taxi
8.700000000000001,0.08111207197039849,-13.237749607881979,15.293313626791226,-0.7433596546726307,-0.3492678531685216,198.83195994131438,23.448422344270234,0.0,1.0,0.0,0.0,1.0,Taxi
8.8,0.08030531592456729,13.957011664237898,16.320013133271306,-0.1854940278884524,0.10341749903383328,198.99620738716567,22.71625801982342,0.0,1.0,0.0,0.0,1.0,Taxi
8.9,0.08747875159330361,-35.64142937868355,15.807457902343389,-0.3548453728408541,-0.632053304015402,198.95665674629277,22.036942524815437,0.0,1.0,0.0,0.0,1.0,Taxi
9.0,-0.09709507492301928,-13.68504692675018,15.598738719738956,-0.39787637824061106,0.06228548549701592,199.10512109174192,22.54861599618841,0.0,1.0,0.0,0.0,1.0,Taxi
9.1,0.011880081290816375,-38.869561531993995,15.988011031967385,-0.22987512332676982,0.12654061143385245,199.1416684016084,22.787491351168857,0.0,1.0,0.0,0.0,1.0,Taxi
9.200000000000001,-0.1068690560666664,40.86512330422802,14.67322815422478,-0.2982457832982926,0.8029785857173312,198.93573073587208,22.051822406870258,0.0,1.0,0.0,0.0,1.0,Taxi
9.3,0.10723054159812079,-36.312737021062766,15.914800514967615,-0.17042506670648017,-0.24901771361741407,199.08091321534084,22.808221622135402,0.0,1.0,0.0,0.0,1.0,Taxi
9.4,-0.16968360381449754,31.65355498446266,15.043698350201671,-0.24277772234111977,-1.128372683596345,199.00218587485483,23.11144994770594,0.0,1.0,0.0,0.0,1.0,Taxi
9.5,0.051398718855646855,-23.730198510149137,15.713553683245912,-0.32974069585589494,0.9372584351013105,199.01629603189156,22.239851345318915,0.0,1.0,0.0,0.0,1.0,Taxi
9.600000000000001,-0.011420450952624908,27.36552167460468,15.54150279213751,-0.3026775969218422,0.2648762428353203,199.00467275020674,22.55051150303215,0.0,1.0,0.0,0.0,1.0,Taxi
9.700000000000001,-0.032855995441474155,-46.107979244823106,15.1768840300142,0.18609007675661765,0.38933235126289795,199.02026248089453,23.286991462458595,0.0,1.0,0.0,0.0,1.0,Taxi
9.8,-0.17914117736846874,0.7583712618132049,15.130350663483268,0.24943861794798622,-0.023042419427535255,198.8967244145117,22.59894944482164,0.0,1.0,0.0,0.0,1.0,Taxi
9.9,-0.007628594643558917,-20.59709952977065,16.290249168365946,-0.15205678937165168,0.5461919648397017,199.02137855851674,22.50598005435576,0.0,1.0,0.0,0.0,1.0,Taxi
10.0,-0.13584149309032742,28.374139750686453,16.305536145026174,-0.20432340682130767,0.4834137952217917,198.96096531562057,22.9101443974185,0.0,1.0,0.0,0.0,1.0,Taxi
10.100000000000001,-0.037270478615036455,3.5890157216874954,14.656159836413451,-0.28869056235959945,-0.1903312635592943,199.01936809208644,22.10089366801246,0.0,1.0,0.0,0.0,1.0,Taxi
10.200000000000001,0.010316483964878576,28.283860040364896,15.670930693403788,-0.21864668853497274,0.37211015612893117,199.04985346942897,22.32935093289154,0.0,1.0,0.0,0.0,1.0,Taxi
10.3,0.0055778071114970865,-0.038880180431184165,15.131161005046495,-0.040107951693837046,-0.5364263575089495,199.0940542889531,23.525844737275502,0.0,1.0,0.0,0.0,1.0,Taxi
10.4,-0.03746487951719236,-25.919036989564045,16.0526917032575,-0.03693377388599331,-1.8354534602405481,199.12366514904897,22.677854941762455,0.0,1.0,0.0,0.0,1.0,Taxi
10.5,-0.11927870098294163,-5.209643057384575,15.823127018173754,0.039338171820108625,0.2867028167864348,198.97873197206275,22.690159936760526,0.0,1.0,0.0,0.0,1.0,Taxi
10.600000000000001,-0.020470408175425774,39.45490101933964,15.755405595053832,-0.37762170135832496,-0.4763759850545944,198.91619122248937,23.529008715122938,0.0,1.0,0.0,0.0,1.0,Taxi
10.700000000000001,0.15980962557950584,8.42693462792505,15.342239816587858,-0.24034459462832491,-1.1695321610479632,198.96393329521266,21.850494670247013,0.0,1.0,0.0,0.0,1.0,Taxi
10.8,-0.07714402784331637,2.2725156231209263,15.03178586265696,-0.25807412840832633,0.5333988985070607,199.12658138900542,22.383393519195675,0.0,1.0,0.0,0.0,1.0,Taxi
10.9,-0.009107830059821138,-13.660466436603508,16.041409753491855,0.01721018060596713,-0.3077435725577552,198.99112541145394,22.931468799130165,0.0,1.0,0.0,0.0,1.0,Taxi
11.0,0.09150729339648829,20.983040487873303,14.650073601504758,-0.37959071704945413,0.5511903221731852,198.90162230316935,22.496137326268382,0.0,1.0,0.0,0.0,1.0,Taxi
11.100000000000001,0.02777117459605015,-2.5507782308542297,16.6508102296971,-0.03637595796112747,-0.2744090535118989,198.99769839503915,22.76840608523916,0.0,1.0,0.0,0.0,1.0,Taxi
11.200000000000001,-0.02186172121409228,-56.86776388145288,14.962032425417231,-0.41743834056350493,0.08892219527860373,198.93356123598437,22.734295393485908,0.0,1.0,0.0,0.0,1.0,Taxi
11.3,-0.19283152601077613,-19.176935372770767,14.938121674917571,-0.5014577902315047,-0.6749171594714333,198.9360898808751,22.62130904906723,0.0,1.0,0.0,0.0,1.0,Taxi
11.4,-0.06811350226780367,5.5490312071584,15.81282467088868,-0.3911016030069622,-0.3502557830340446,198.91662519056342,22.514219255137313,0.0,1.0,0.0,0.0,1.0,Taxi
11.5,0.005883434821699739,37.34001440935226,14.961914073389883,-0.3185864506840166,-0.19124183009858045,199.03734536236334,23.089429238889558,0.0,1.0,0.0,0.0,1.0,Taxi
11.600000000000001,-0.006131453964014868,23.68462411578754,15.806146645326614,-0.16225698465622387,-1.0753356147793534,198.97827030150665,22.132864078580077,0.0,1.0,0.0,0.0,1.0,Taxi
11.700000000000001,0.050309618311134036,-39.68920904151591,15.690302320743013,-0.41176687367559833,0.8045336243665479,199.08555148080143,21.941134571240575,0.0,1.0,0.0,0.0,1.0,Taxi
11.8,-0.19256261038587977,-30.410610477512872,15.603767150107041,-0.28456464457305386,-0.6882783098549694,198.85204192991318,22.269924122295752,0.0,1.0,0.0,0.0,1.0,Taxi
11.9,-0.15818450635157918,-4.951246595666807,16.214827942395804,-0.16081056023659376,-0.41374306766737967,198.98568203206992,22.283273519671564,0.0,1.0,0.0,0.0,1.0,Taxi
12.0,0.02555338533280004,9.003911723316799,14.800768476905274,0.11001419736094659,0.6136937694316369,198.92815058424412,22.240663679322356,0.0,1.0,0.0,0.0,1.0,Taxi
12.100000000000001,-0.14754305176929572,10.347966668336158,15.385613531716993,0.12513096617125796,0.19344171194508497,199.16860419148372,22.056508677371777,0.0,1.0,0.0,0.0,1.0,Taxi
12.200000000000001,-0.10644467300989835,-13.373281608891824,16.35344533266119,-0.56521521710359,0.46032041307739374,199.16667570128539,22.89349802956672,0.0,1.0,0.0,0.0,1.0,Taxi
12.3,-0.04131302271165902,28.80334910217586,16.99757679337873,-0.19773311021842968,0.5768730886381711,198.8111135545762,23.008617646179864,0.0,1.0,0.0,0.0,1.0,Taxi
12.4,-0.0035263062584163563,27.47310281795472,15.565387478353507,-0.3853521566606821,0.42150985963223053,199.21293898942554,22.801282708055822,0.0,1.0,0.0,0.0,1.0,Taxi
12.5,0.030920841079875305,63.25655415086337,14.638756898639407,-0.5171166988757329,0.23894393389168994,198.9430513519685,22.90346583376635,0.0,1.0,0.0,0.0,1.0,Taxi
12.600000000000001,0.27496974804265795,9.343169303425677,16.30420788464179,-0.10799185419994599,-0.16255178198873552,198.97215189444205,23.019591192475318,0.0,1.0,0.0,0.0,1.0,Taxi
12.700000000000001,0.04318954025871211,-6.684098188505305,14.794084468160632,-0.4918815334895103,-0.29402955671075415,198.83091297157762,22.58976850912063,0.0,1.0,0.0,0.0,1.0,Taxi
12.8,-0.00249964986265114,-62.46701726450235,15.089858103680818,0.06311657010536137,0.9746154426266708,199.04573871326454,22.543759805719425,0.0,1.0,0.0,0.0,1.0,Taxi
12.9,-0.03736533827985377,14.209911973369387,16.14035238221387,-0.15294471580351124,0.3221748131635222,198.8124312117435,23.00725932266289,0.0,1.0,0.0,0.0,1.0,Taxi
13.0,0.11423910012555914,-32.83153363958578,15.535004054638787,0.005719709935382372,0.31451803156968805,198.98892290842196,22.687242112037353,0.0,1.0,0.0,0.0,1.0,Taxi
13.100000000000001,-0.16665731806057993,-6.64674632347769,15.838982648785354,-0.25535712247729925,0.008715190423773181,199.01292040112196,21.99375770131048,0.0,1.0,0.0,0.0,1.0,Taxi
13.200000000000001,-0.07059906989724211,-32.98785457198579,16.4652034141102,0.12972571628751917,0.5942207460988185,199.01541076294234,22.7420001010896,0.0,1.0,0.0,0.0,1.0,Taxi
13.3,-0.05070017273436972,32.434683048461814,17.627341060235302,0.13882766185973228,0.6432518971950286,199.13416800453194,23.134871659997152,0.0,1.0,0.0,0.0,1.0,Taxi
13.4,-0.004483902818270779,12.227638309151587,14.700550773923096,-0.24054548543359494,-0.35210468337295575,198.98072343182105,22.742518334782247,0.0,1.0,0.0,0.0,1.0,Taxi
13.5,-0.009460878351484087,3.807050777299231,15.062227752786269,-0.2648921259162781,0.8197887644891184,199.0183098845846,22.618726265009535,0.0,1.0,0.0,0.0,1.0,Taxi
13.600000000000001,-0.031664918847873466,2.130998597337039,15.036885777761725,-0.05445962279508032,0.7104624405453352,198.91417932754257,21.80564171396776,0.0,1.0,0.0,0.0,1.0,Taxi
13.700000000000001,0.006171090168414505,14.79481333691443,17.084174382549495,-0.3881354515288289,-1.151535381269993,198.99189586379907,22.972149696737524,0.0,1.0,0.0,0.0,1.0,Taxi
13.8,0.06451318833308815,-24.477406404917854,15.582764272058496,-0.0007692560722684372,0.47625803014272117,199.1243683155966,22.221083648454453,0.0,1.0,0.0,0.0,1.0,Taxi
13.9,-0.1540519508724626,18.49776920108737,16.670503176575085,-0.17091920870330402,0.7138829136193199,199.0761334236663,23.075246619240787,0.0,1.0,0.0,0.0,1.0,Taxi
14.0,0.09865993617385146,-47.762214048678715,15.667667393022894,-0.2535325340288234,-0.41541451788446604,199.14298776330895,22.76882665343185,0.0,1.0,0.0,0.0,1.0,Taxi
14.100000000000001,-0.17429788191030535,7.7816487215766275,15.095827947439641,-0.48264713294546385,0.7791431575448057,199.09004691026587,23.36457054976652,0.0,1.0,0.0,0.0,1.0,Taxi
14.200000000000001,-0.11514370726457941,-20.27970547566532,15.68279638706848,-0.17875852385154534,-0.38595005429344215,198.96466366773348,23.04240036457481,0.0,1.0,0.0,0.0,1.0,Taxi
14.3,-0.0027385912044750587,24.84375443110187,14.935843819557222,-0.5058314531713795,-0.24789978106178742,199.15032066693436,22.76341110273866,0.0,1.0,0.0,0.0,1.0,Taxi
14.4,-0.05007910975479588,31.987666800532548,16.579958180830918,0.06844421743764079,0.1916727901524087,199.02837564736933,22.737473773765025,0.0,1.0,0.0,0.0,1.0,Taxi
14.5,0.0447946267380834,25.447957984244947,16.326211086763703,-0.37402178445279,0.0190817449458336,199.03721758257234,22.733271485331905,0.0,1.0,0.0,0.0,1.0,Taxi
14.600000000000001,0.12450119871674975,-21.428163540780144,14.450799098521099,-0.20701521020276553,0.06505730804842726,198.9062133455236,22.328376741838593,0.0,1.0,0.0,0.0,1.0,Taxi
14.700000000000001,-0.15721992745869653,-17.943498343422565,15.534946271606367,-0.1803106014978922,-0.20866677967200029,199.1678349265735,23.68695513365318,0.0,1.0,0.0,0.0,1.0,Taxi
14.8,-0.04492286497902936,-72.92869926130672,15.445941416078997,-0.3379000405975382,-0.6631743967282994,198.8666794971499,22.39261479053979,0.0,1.0,0.0,0.0,1.0,Taxi
14.9,-0.24014229758978378,30.07112973190536,15.827670749205625,0.10943766948362377,-0.00984640449898023,198.7470835238421,22.8551140760667,0.0,1.0,0.0,0.0,1.0,Taxi
15.0,-0.006864278799169706,15.2946263852486,15.084656124229454,-0.073624665294621,0.45997568969312896,198.91848656323145,22.396619158486775,0.0,1.0,0.0,0.0,1.0,Taxi
15.100000000000001,0.03155026694721368,34.54372888251231,16.346541169195117,-0.2735619225568995,-0.6315407899769692,199.06347817484414,22.424718072341935,0.0,1.0,0.0,0.0,1.0,Taxi
15.200000000000001,-0.06742365317722217,8.9177155216338,14.828046052146178,-0.3410445069268827,-0.014223086824599782,199.001150909677,22.6289306610053,0.0,1.0,0.0,0.0,1.0,Taxi
15.3,0.037724298808999406,-0.3524578338327545,14.721787653570818,-0.34379204029851107,-0.041179194844071065,198.87463220902782,23.287824152529282,0.0,1.0,0.0,0.0,1.0,Taxi
15.4,0.02978797777805002,2.041338982893007,15.714871111283134,0.027113201804714715,-0.3291633775022252,198.9297801552409,23.006782250881017,0.0,1.0,0.0,0.0,1.0,Taxi
15.5,-0.05721695826275702,0.27541878156298577,15.822866860807562,0.05499807251588934,0.19314441204287097,199.06372896185485,22.73793488049714,0.0,1.0,0.0,0.0,1.0,Taxi
15.600000000000001,0.039101392716814426,-27.947057364007367,15.289079650455289,-0.30195461610286156,0.21860874823319973,198.84016921179636,23.478799357602824,0.0,1.0,0.0,0.0,1.0,Taxi
15.700000000000001,-0.10994730904198674,4.099805090226494,15.623339332016132,-0.12347985193308818,-0.45733477719928683,198.90710961737966,21.899467850586653,0.0,1.0,0.0,0.0,1.0,Taxi
15.8,-0.03671793281162447,-0.9780032220464369,16.436746985409624,-0.11510973014283585,0.021272733301472845,199.13016635759323,22.99953120109325,0.0,1.0,0.0,0.0,1.0,Taxi
15.9,0.034211376606582314,26.510316565263576,15.671256932924486,0.06462139981991483,0.3436895674000594,198.91974601669517,21.7525797534557,0.0,1.0,0.0,0.0,1.0,Taxi
16.0,0.022604273784331212,7.302670646948907,14.944140112576306,0.048259652200342285,0.6453810072604252,199.08084235331125,22.411916246366076,0.0,1.0,0.0,0.0,1.0,Taxi
16.1,-0.00020457957687986238,-2.777849372408959,14.800140846430063,-0.2619586542369246,-0.985256270322043,198.83906846492448,22.734564986111852,0.0,1.0,0.0,0.0,1.0,Taxi
16.2,0.020322129744537603,-11.450492944058515,15.831440292222283,-0.001024568245260371,0.4957240692473161,198.98592907121122,22.62574153707037,0.0,1.0,0.0,0.0,1.0,Taxi
16.3,-0.03464819093596127,0.749042115738618,14.93042208794003,-0.019262139031534953,0.5884055775999907,199.0260676692959,22.45734541325819,0.0,1.0,0.0,0.0,1.0,Taxi
16.400000000000002,0.0035406310018133167,-18.42935701641129,15.793152538512855,-0.21344065811938617,-0.12427914228457893,198.85662691600544,22.554314090969694,0.0,1.0,0.0,0.0,1.0,Taxi
16.5,-0.07182465533751876,16.11393229763829,15.900411551065826,-0.3387340609965171,0.2316800556084408,199.0200849325829,22.309946048961397,0.0,1.0,0.0,0.0,1.0,Taxi
16.6,0.04592147055223028,15.948047120368281,16.293163781986873,-0.4770794652364372,-0.3759766699002877,198.98389839892423,22.37083065328367,0.0,1.0,0.0,0.0,1.0,Taxi
16.7,0.08328086660365483,4.806688191364576,15.786855361444276,0.17360111838895093,0.12006307749239989,198.98387042026673,23.02440809391844,0.0,1.0,0.0,0.0,1.0,Taxi
16.8,-0.047791214380695786,-10.048753686308617,15.386403606287315,-0.088546052956929,0.4640160869256785,199.08396069182004,23.20613518266802,0.0,1.0,0.0,0.0,1.0,Taxi
16.900000000000002,-0.004322297879312707,-32.425059074494875,16.276235760744406,0.025239408016743237,0.8858579747298173,198.95853086969976,24.101965998332126,0.0,1.0,0.0,0.0,1.0,Taxi
17.0,-0.07884442876881949,26.628533896250634,15.169255007545233,-0.5172513465086483,0.6285770445702792,198.8793086765288,22.35532756614208,0.0,1.0,0.0,0.0,1.0,Taxi
17.1,0.08535145510055747,23.487428948631276,15.541056840295553,-0.23052580564030242,0.060361303792349,199.16329440771028,22.26329546228138,0.0,1.0,0.0,0.0,1.0,Taxi
17.2,0.11311484686384375,29.316754326592218,16.000172177828414,-0.12697962644452415,0.3622549107848027,199.13217451197386,22.312933543433534,0.0,1.0,0.0,0.0,1.0,Taxi
17.3,0.06773934286414168,7.287970440553347,15.698569386332595,-0.20890549328666252,-0.8658189467805308,198.98386726318483,23.503402920764227,0.0,1.0,0.0,0.0,1.0,Taxi
17.400000000000002,0.12179130730332428,5.361417389387806,16.06609664084573,-0.28714240477105146,0.04429266487477103,199.0700761207005,22.314339725083293,0.0,1.0,0.0,0.0,1.0,Taxi
17.5,0.13992193381078286,2.486678926684661,14.636164641621978,-0.1390820525879113,0.4572603205978047,198.9702393300514,22.744583004817354,0.0,1.0,0.0,0.0,1.0,Taxi
17.6,0.08017273749756505,17.287619884021378,17.386502937341646,-0.40400725775908275,0.12002158785078731,198.97403467351091,22.13764874739705,0.0,1.0,0.0,0.0,1.0,Taxi
17.7,0.2082294067234312,-19.62556020814161,15.605719815842512,-0.19593554467942875,-0.27209109223297373,198.98255906850795,23.289321879874198,0.0,1.0,0.0,0.0,1.0,Taxi
17.8,0.041794132770074856,-37.19175797260251,15.28964729076105,-0.2810472808868995,-0.5562177115355905,199.0275204901394,23.282722106523266,0.0,1.0,0.0,0.0,1.0,Taxi
17.900000000000002,-0.10578605236544741,-36.93076034161681,15.878385700690437,0.2213719989513846,-0.12819943510276807,198.97001373847263,23.009359889441974,0.0,1.0,0.0,0.0,1.0,Taxi
18.0,0.023575605015347206,1.9931670741780347,15.99889335775114,-0.32803123618019653,-0.6344681458556786,199.1039630745156,22.975108053183124,0.0,1.0,0.0,0.0,1.0,Taxi
18.1,0.051759968140965076,-7.9011066581221785,15.465512664488273,-0.04283347606273749,0.8581514143505701,198.91411616616267,22.522790895675737,0.0,1.0,0.0,0.0,1.0,Taxi
18.2,-0.14529158565605824,34.61010770811539,15.11093100002772,-0.2886938948226021,-1.0491269834993047,199.02302429407723,22.34761446472203,0.0,1.0,0.0,0.0,1.0,Taxi
18.3,0.19662614355592423,1.46665930326832,16.010067404285188,-0.22346368331467442,-0.35389237994804745,199.04620269528948,22.713292784773678,0.0,1.0,0.0,0.0,1.0,Taxi
18.400000000000002,0.059093264657306736,24.237973267248094,16.64708426243085,-0.40174330437911665,0.29108384844327917,199.0182566686815,23.109486146658814,0.0,1.0,0.0,0.0,1.0,Taxi
18.5,-0.02410171931981771,-23.583934504802624,15.103449972999337,-0.09219135149958504,-0.5853833988098279,199.02611007584755,22.82568010721722,0.0,1.0,0.0,0.0,1.0,Taxi
18.6,0.07870647103191114,-7.483185520755508,16.37618188836117,-0.38550270651818275,0.7944850847178618,198.87121229555873,22.007939860158555,0.0,1.0,0.0,0.0,1.0,Taxi
18.7,0.021677337053529245,14.590235897694564,14.73579174833749,-0.6095188771023589,-0.040369960205747,198.98776988858845,22.784175514363888,0.0,1.0,0.0,0.0,1.0,Taxi
18.8,0.048849460168655164,1.8840130944171278,15.278994560749057,-0.017335453043833188,0.3948576707585478,199.06271988709284,22.915557534717422,0.0,1.0,0.0,0.0,1.0,Taxi
18.900000000000002,0.08812653650399684,10.901926219919494,15.839279714398282,-0.34230330479027204,-0.5823705379478284,198.85841498170953,22.2780803029843,0.0,1.0,0.0,0.0,1.0,Taxi
19.0,0.07618696815312676,10.063822267901557,16.54981140930436,0.07195963500231611,0.4211545643602309,198.94024608699908,22.839386554140155,0.0,1.0,0.0,0.0,1.0,Taxi
19.1,0.099168571508163,-6.123259179800962,15.130474886306096,-0.3027513290760351,0.36369465020076003,199.09571506439602,21.72740944314829,0.0,1.0,0.0,0.0,1.0,Taxi
19.200000000000003,0.057510240604992074,-10.155286610017642,15.823394084010028,-0.31127226654744566,0.3849622660749095,198.88439687099265,23.66161063456234,0.0,1.0,0.0,0.0,1.0,Taxi
19.3,0.025410535103038596,-32.42182125617221,15.69842594839733,-0.3948084754889793,0.144097884641657,199.00705332486962,22.244798678311444,0.0,1.0,0.0,0.0,1.0,Taxi
19.400000000000002,-0.062940534772698,-4.3181492993336095,14.932499105794463,-0.1373939981290948,0.022501402706480635,199.03071298703208,23.807815596276097,0.0,1.0,0.0,0.0,1.0,Taxi
19.5,0.03591949410832409,-15.107044178525683,17.01504885462387,-0.3908571770490876,-0.12783240756744896,198.91612749796207,21.883969401107574,0.0,1.0,0.0,0.0,1.0,Taxi
19.6,-0.050124685789589764,9.614397709567859,16.892483790180282,-0.11850127107210963,-0.2630267847545935,199.06682873200975,23.15129990449595,0.0,1.0,0.0,0.0,1.0,Taxi
19.700000000000003,-0.014868546224858645,3.3604820675172022,14.810355480661235,-0.1360243895812583,0.5371606673942908,199.25277095490844,22.67590452269325,0.0,1.0,0.0,0.0,1.0,Taxi
19.8,0.052721904445910156,4.417190466183679,15.359696976250692,-0.3399989081699342,0.2410299577234788,198.99002176762406,23.00554083797892,0.0,1.0,0.0,0.0,1.0,Taxi
19.900000000000002,-0.028038733458671323,-12.391558061028958,16.444876642175995,-0.20912728762320998,-0.729111095318189,199.06302831344215,23.81028125510443,0.0,1.0,0.0,0.0,1.0,Taxi
20.0,-0.07682633653000337,11.0664640224826,15.485121520120225,-0.33475705577966036,-0.46622487909815735,199.01227144422955,22.34649928844814,0.0,1.0,0.0,0.0,1.0,Taxi
20.1,0.10805422455832321,22.24602991307385,17.25829003532071,-0.18243242205980265,0.6377665100102137,198.96764766300453,22.980875585537163,0.0,1.0,0.0,0.0,1.0,Taxi
20.200000000000003,0.08319141610669797,-8.810952712426976,15.080781652129536,-0.021923849372776666,0.4115577061103544,198.9774693328028,22.287801016721936,0.0,1.0,0.0,0.0,1.0,Taxi
20.3,-0.1208811000921382,-27.099204473162946,15.300650188738276,-0.08988859927225226,0.4337096604386924,198.80483956993305,22.044447427114694,0.0,1.0,0.0,0.0,1.0,Taxi
20.400000000000002,-0.027441797807491453,-25.82182714680103,15.681549427560611,-0.42145553553644494,-0.40964788647930844,199.1174103737393,22.757894147102583,0.0,1.0,0.0,0.0,1.0,Taxi
20.5,-0.045917719627307126,1.0323988658222376,15.769359711593498,-0.4635091665418768,0.8955244265321293,199.03727070850607,22.513110452795488,0.0,1.0,0.0,0.0,1.0,Taxi
20.6,-0.11571910576302698,-5.305588204709544,16.102616601491572,-0.20333250039700518,-0.0490790611667523,199.13072301732404,22.40203526446178,0.0,1.0,0.0,0.0,1.0,Taxi
20.700000000000003,-0.05396973883103913,2.256206243889592,15.546756206203373,0.014896544184647836,0.11891546671090165,199.0329608847528,22.538620140278233,0.0,1.0,0.0,0.0,1.0,Taxi
20.8,-0.03463668840785913,10.423759966232486,14.801089092650615,-0.21801168235834006,0.03510642000226453,198.98316173063893,22.446695097499333,0.0,1.0,0.0,0.0,1.0,Taxi
20.900000000000002,-0.0636003059318645,-2.825132530281094,16.76673922773984,-0.09767572479354597,-0.4923472822430764,199.0284631049658,23.070983485622584,0.0,1.0,0.0,0.0,1.0,Taxi
21.0,-0.06809540148244456,20.09147545586858,16.639501741660006,-0.44900804263307,0.21353996056784716,198.84137662769774,23.612734586649093,0.0,1.0,0.0,0.0,1.0,Taxi
21.1,0.0658206888714838,-9.430179513424514,17.24910567304983,-0.38717412441030896,-0.2852882340286488,199.12610461566044,23.182070559272997,0.0,1.0,0.0,0.0,1.0,Taxi
21.200000000000003,-0.11075120349898704,19.16653885834759,15.124301393505721,-0.2533164634974279,-0.474848090857341,199.01294820144676,22.507859958240523,0.0,1.0,0.0,0.0,1.0,Taxi
21.3,0.02773729280929345,3.6471843238656994,15.707060266727469,-0.3262994111878498,0.8594214187215083,198.9437784605201,23.33687492342159,0.0,1.0,0.0,0.0,1.0,Taxi
21.400000000000002,0.08405661049081238,24.806525923532263,16.049461653357874,-0.4309793748004008,-0.67515412425382,199.02848951236922,22.1750668959736,0.0,1.0,0.0,0.0,1.0,Taxi
21.5,0.01328142611867435,-3.5989191711490207,14.952713557705646,0.03823624075128046,-0.7117166862945423,199.0035527209402,22.395702259337092,0.0,1.0,0.0,0.0,1.0,Taxi
21.6,0.009742696953548386,-32.616615614278494,15.9909614366916,-0.11324408506597672,-0.7195091796196182,198.93423674316455,22.679209519482917,0.0,1.0,0.0,0.0,1.0,Taxi
21.700000000000003,-0.07902646758058006,7.471800436367784,16.092830244331203,-0.15097128773472115,0.7229260210363404,199.0056363521286,22.103377706339174,0.0,1.0,0.0,0.0,1.0,Taxi
21.8,0.050640428300513324,-35.612764903679455,14.428503323123088,-0.09469212010313233,-0.44785668405465534,199.03587395955515,22.59807991928111,0.0,1.0,0.0,0.0,1.0,Taxi
21.900000000000002,-0.16832112756484882,25.054890091064948,15.820354168473981,-0.3079262445425447,0.5292752115143351,199.05926920197373,22.65174448923864,0.0,1.0,0.0,0.0,1.0,Taxi
22.0,0.04624798287474477,-3.322658515174254,14.564834027038358,-0.5004864505634309,0.13471789151990773,198.96439839327604,21.749615734577503,0.0,1.0,0.0,0.0,1.0,Taxi
22.1,0.03402713572464213,23.950459647019017,15.914823304777855,-0.3384948908767819,0.30323633918427056,198.90718574575317,23.509400547927164,0.0,1.0,0.0,0.0,1.0,Taxi
22.200000000000003,-0.04856882932975366,-27.214839216295264,14.970618166313892,-0.15339978398939685,0.0785992663439268,199.04088603514458,22.13175713112481,0.0,1.0,0.0,0.0,1.0,Taxi
22.3,-0.08982621320673152,-30.555267234861997,15.372910107578049,-0.3527384797127444,-0.6647669711217847,198.97735958082933,21.791014197778704,0.0,1.0,0.0,0.0,1.0,Taxi
22.400000000000002,-0.11874920044966782,50.2028689590303,14.676873607588721,-0.2102670218466828,-0.008804901749746612,198.9001142920382,22.662480856175844,0.0,1.0,0.0,0.0,1.0,Taxi
22.5,0.20244551546539782,-6.6255128964744285,15.336297526862802,-0.27984798829432267,0.048785721972597944,199.0285715360826,22.91771721188553,0.0,1.0,0.0,0.0,1.0,Taxi
22.6,-0.1229537776891036,6.007466348089398,14.281278797821328,-0.27726428745891923,0.518680186615147,199.05098222668653,22.2805397076229,0.0,1.0,0.0,0.0,1.0,Taxi
22.700000000000003,-0.08871186870922076,-56.08883207941767,15.965510871426114,0.15369737192285238,-0.39274057477354574,198.8616438673414,22.979126836066754,0.0,1.0,0.0,0.0,1.0,Taxi
22.8,-0.0779986449316904,35.42912164104303,16.383398307553968,-0.4069129195310408,0.4902994520625335,198.8605974635741,23.999570531479392,0.0,1.0,0.0,0.0,1.0,Taxi
22.900000000000002,0.05419183051611162,15.8176772050519,14.945021653527428,-0.3425083124049385,0.25876485548312106,199.1023280600724,22.890931040347397,0.0,1.0,0.0,0.0,1.0,Taxi
23.0,-0.009623482683961224,15.336687458583887,15.072603338314853,-0.32354323210541486,0.39544665916094823,199.02179423936695,22.406340000664915,0.0,1.0,0.0,0.0,1.0,Taxi
23.1,-0.001315207638770931,-10.854161132941398,14.934185699556716,0.03861308728823881,-0.2542795215860733,198.71098957006416,23.471373240543013,0.0,1.0,0.0,0.0,1.0,Taxi
23.200000000000003,-7.897514859531109e-05,-8.45073360955784,16.087026219771776,-0.3824136669143728,-0.40607209856992393,198.9863739510845,22.220355433102807,0.0,1.0,0.0,0.0,1.0,Taxi
23.3,-0.05187715073175038,32.87435503040273,16.594882556627294,-0.41220249605908177,0.28446543825359966,199.13025724645547,22.178839779334563,0.0,1.0,0.0,0.0,1.0,Taxi
23.400000000000002,0.1630565675132428,39.8423669015161,16.36042827837802,0.16609258943717392,0.9992199470446121,199.0131150725316,22.784575872380113,0.0,1.0,0.0,0.0,1.0,Taxi
23.5,0.19913285935898528,50.5792370828271,15.970110385381018,-0.22511710974120927,0.4398326433947405,198.9216569183335,22.4061228192652,0.0,1.0,0.0,0.0,1.0,Taxi
23.6,0.20101903468238522,-46.852337586109535,16.147632489832514,0.0522625053881588,-0.023335731927213773,199.13049927117606,22.340029958844557,0.0,1.0,0.0,0.0,1.0,Taxi
23.700000000000003,-0.0712051204173048,-50.96222431384394,15.654970789266931,-0.09256956366027558,0.7735607332929174,199.24874679443678,21.843713959981965,0.0,1.0,0.0,0.0,1.0,Taxi
23.8,-0.05567826221023436,-55.40666516212615,15.98099325355405,-0.5412317250453456,0.3683189128131668,198.97896108891996,21.67047102803096,0.0,1.0,0.0,0.0,1.0,Taxi
23.900000000000002,-0.07601429112824548,18.494955035370143,16.714389550582034,-0.25268025072301475,-0.3949660822350154,198.85235251401264,22.7535692857889,0.0,1.0,0.0,0.0,1.0,Taxi
24.0,0.021269654759545953,17.958997030838727,16.5611152934132,-0.14883539616960875,-0.9065830998512718,199.06839804398237,22.00998682062013,0.0,1.0,0.0,0.0,1.0,Taxi
24.1,0.034116722943959316,-14.931463066160546,16.046677822141113,-0.059818943580231154,-0.302200040256755,198.88211091681876,22.548025241924798,0.0,1.0,0.0,0.0,1.0,Taxi
24.200000000000003,-0.15067160645904817,-7.415799577346036,16.175686988955853,0.0008880244911762813,0.020865376566178064,199.02041931502185,22.16999747220874,0.0,1.0,0.0,0.0,1.0,Taxi
24.3,-0.015809343127184183,10.115083194226138,15.632819129149276,-0.19939387125246938,-0.04446778163915569,199.0401166786727,22.550746781200726,0.0,1.0,0.0,0.0,1.0,Taxi
24.400000000000002,0.08469213891509003,51.550993698187746,15.575182888035076,-0.3329915282984275,-0.014035941654863273,198.97398176886543,22.370177531141763,0.0,1.0,0.0,0.0,1.0,Taxi
24.5,0.1070833620318906,-9.622546390327036,16.856943525451307,-0.19756402491749664,-0.015186538595734279,199.04945000433622,23.160139287232816,0.0,1.0,0.0,0.0,1.0,Taxi
24.6,-0.0639220750788193,-33.068883378676624,15.274129653765941,-0.48730868608330197,0.13883165588031968,198.84259514702944,22.92460005458086,0.0,1.0,0.0,0.0,1.0,Taxi
24.700000000000003,-0.08065227797829304,-20.311349597921765,16.47633872210346,-0.37654068596700185,-0.2689311805827737,199.06198252963964,22.622154955680195,0.0,1.0,0.0,0.0,1.0,Taxi
24.8,0.005526614042281861,6.057978653748232,15.654149602913035,-0.16937816063875333,-0.3578935573004041,198.83685948065738,23.601013752667896,0.0,1.0,0.0,0.0,1.0,Taxi
24.900000000000002,-0.03363218181007806,36.83960690070176,15.538841013596706,-0.37226137335065357,-0.15552190160238086,198.92926402244302,23.15486433251449,0.0,1.0,0.0,0.0,1.0,Taxi
25.0,0.10354575652521587,18.540761441114032,15.742910981039076,-0.252727052047346,-0.19362878677626028,198.89973287222767,22.172630258027546,0.0,1.0,0.0,0.0,1.0,Taxi
25.1,0.09823042124785213,34.62458049030699,15.263777581443346,0.2310905458191017,0.37128404259337217,198.86840721146223,23.049721255449704,0.0,1.0,0.0,0.0,1.0,Taxi
25.200000000000003,0.13949072064145698,-41.7671725861414,16.02446631260528,-0.443839619979586,0.1417687316657071,199.06127322466295,22.26968799892841,0.0,1.0,0.0,0.0,1.0,Taxi
25.3,-0.10529010640549104,-34.572687480252995,16.071937223415677,-0.10088410939638649,-0.0837463772887108,199.15736187413972,22.303155074367034,0.0,1.0,0.0,0.0,1.0,Taxi
25.400000000000002,-0.07463301615341277,-27.425998938205,16.546334823845118,-0.35735724605067076,-0.33149487637115205,199.16121936194395,22.893084719222397,0.0,1.0,0.0,0.0,1.0,Taxi
25.5,0.002360725950432035,-18.1540049888052,16.314523076589797,-0.11143200629464091,-0.26989736836639283,199.06508393864647,23.47654704637189,0.0,1.0,0.0,0.0,1.0,Taxi
25.6,-0.19606013134951694,27.953872166223277,16.117805434732354,0.013949284963332337,0.6700265698430148,198.8652505769544,23.025135190065203,0.0,1.0,0.0,0.0,1.0,Taxi
25.700000000000003,0.06513634467770373,5.546676700711303,16.276899803851897,-0.12206099447611113,-0.4819237206862662,199.1068198846366,23.27429120301068,0.0,1.0,0.0,0.0,1.0,Taxi
25.8,0.03009410945398865,67.9312055056896,15.481510246688211,-0.09246224280724177,0.389391907247268,199.00150304497186,22.748823643717163,0.0,1.0,0.0,0.0,1.0,Taxi
25.900000000000002,0.14359589617893118,4.820577889451037,15.334742774942148,-0.2851432912301949,-0.2854860198478177,199.25445166324664,22.29071006417971,0.0,1.0,0.0,0.0,1.0,Taxi
26.0,0.089239234124959,7.297605595128421,14.397138912814096,-0.17938679671506136,-0.337152928062417,198.97418647734423,22.888794946385016,0.0,1.0,0.0,0.0,1.0,Taxi
26.1,0.06658213742963084,-29.040564781912774,15.82858416051068,-0.30358802046987443,0.43783963920426144,198.91242486881777,22.383885718906132,0.0,1.0,0.0,0.0,1.0,Taxi
26.200000000000003,-0.0016069277306325917,-7.292046026946167,16.619494325257495,-0.32303250842473413,-0.46523033993749474,198.99219958798267,23.085927631804918,0.0,1.0,0.0,0.0,1.0,Taxi
26.3,0.05277900399022828,25.76342481850764,15.179272942281308,-0.222029048720622,1.0232531782989576,198.98996213180135,22.842412828583495,0.0,1.0,0.0,0.0,1.0,Taxi
26.400000000000002,0.19539926152216916,6.607895983890614,15.438898360117435,-0.2367448615391233,0.5302855699856208,198.92256830199426,23.428711484072338,0.0,1.0,0.0,0.0,1.0,Taxi
26.5,0.03143255218882059,-21.353791886965638,15.260269166217267,-0.11809283556009402,1.3905694416430907,198.82453358301836,22.9309942205588,0.0,1.0,0.0,0.0,1.0,Taxi
26.6,-0.05398995544459981,-36.54464225123517,16.32371499420988,-0.2227196897905799,-0.5586094651191433,199.20662693908343,22.38901946894686,0.0,1.0,0.0,0.0,1.0,Taxi
26.700000000000003,0.012676050265993397,14.496860019404863,15.705964747089364,-0.25712330409640594,0.04087816827560971,198.9179361315595,23.296854247641885,0.0,1.0,0.0,0.0,1.0,Taxi
26.8,0.103916852285845,26.913113651684338,15.984175125197096,-0.336152007304927,-0.31218392535453277,198.8258797413954,22.64231089326134,0.0,1.0,0.0,0.0,1.0,Taxi
26.900000000000002,0.08057561281382197,12.840217550522162,16.07576414514991,0.12095633310376241,0.11039483506568201,198.99068177067647,22.352135467620126,0.0,1.0,0.0,0.0,1.0,Taxi
27.0,0.07687713801860431,-14.877803443832434,14.62858280794249,-0.21133087751509377,-0.8993280864452972,198.81943962642686,22.495815310613384,0.0,1.0,0.0,0.0,1.0,Taxi
27.1,0.02952783506668294,-9.511573507492802,16.22133702576102,-0.44047750234721733,0.3038798381403569,198.97150095240386,22.60888781802794,0.0,1.0,0.0,0.0,1.0,Taxi
27.200000000000003,0.03301774527635807,11.151830382832054,16.198269507433544,-0.2074506842427466,0.37985073347063597,198.99764752317503,21.81215161174705,0.0,1.0,0.0,0.0,1.0,Taxi
27.3,0.1326362899327647,-10.945225523927625,15.386052935362438,-0.2126185012304577,0.43826263896485274,198.88110355084063,22.785922805398805,0.0,1.0,0.0,0.0,1.0,Taxi
27.400000000000002,-0.02519829255295507,-17.10311764904607,15.51962219809211,-0.08802212953985045,-0.19540801616531403,198.91698186056544,22.428762881482186,0.0,1.0,0.0,0.0,1.0,Taxi
27.5,-0.052497842968872166,-37.06029586084292,15.092345449229134,0.05445262129119882,0.2721467337764745,199.0377830421678,22.708282074402607,0.0,1.0,0.0,0.0,1.0,Taxi
27.6,-0.052665189371449796,13.24384073747384,16.237088978954876,-0.404600913899102,-0.9795807644156216,198.874597893334,22.47758331248426,0.0,1.0,0.0,0.0,1.0,Taxi
27.700000000000003,0.041020911134414244,-7.0521585492891345,17.083170613187168,-0.2097977449203101,-0.9581655321836818,198.87815541387533,23.080151952975932,0.0,1.0,0.0,0.0,1.0,Taxi
27.8,-0.08775863571531774,10.645989192168244,15.508023668467896,-0.17298122798710966,0.46696006707463666,199.06662139008984,22.881256885794517,0.0,1.0,0.0,0.0,1.0,Taxi
27.900000000000002,0.0005647565893915217,-22.13335986142316,15.592597313640919,-0.6024444461650718,0.2328580534075388,198.88489704102426,22.427700471189972,0.0,1.0,0.0,0.0,1.0,Taxi
28.0,-0.06964588817270145,22.982770111713723,15.812498811676573,-0.012400989590003353,0.6210989459482061,198.87058029488958,22.255427343199482,0.0,1.0,0.0,0.0,1.0,Taxi
28.1,0.027155214843250994,-35.027988820536,15.507663111638076,0.1266315450720995,-0.1380967100956836,199.04481508574236,22.378123277125635,0.0,1.0,0.0,0.0,1.0,Taxi
28.200000000000003,-0.1745751875132884,5.1262245211017445,15.026240673107914,-0.4300188369125879,0.013638645149128789,198.96334353034547,23.65623638221494,0.0,1.0,0.0,0.0,1.0,Taxi
28.3,-0.044014765567192644,5.929170827630917,15.608283232259115,-0.016363332356285037,-0.36606451844432925,199.02500880131026,22.741166346000934,0.0,1.0,0.0,0.0,1.0,Taxi
28.400000000000002,0.05680106898140565,58.44980978736421,15.345720398211414,-0.2905248076500999,0.6242916986124796,198.98944669021137,22.14415511335978,0.0,1.0,0.0,0.0,1.0,Taxi
28.5,0.11767386142353276,16.37243144205878,16.846809706772312,-0.296590970548583,-0.10519638013694484,198.9979717059333,23.401319992259957,0.0,1.0,0.0,0.0,1.0,Taxi
28.6,0.03784739164310132,-39.79082300915565,15.740218728491387,-0.3034838980631972,-0.07733759139263657,198.92708794627458,23.313662482981684,0.0,1.0,0.0,0.0,1.0,Taxi
28.700000000000003,-0.14215304606437254,-41.61301485332219,16.362054295034877,-0.26993532467003395,0.1231361940083995,198.96971684127107,23.507640544132027,0.0,1.0,0.0,0.0,1.0,Taxi
28.8,-0.0903912128430781,1.8266049430635956,15.12056710520209,-0.3038627980507722,0.5121093151185122,199.08626637395366,22.805199112648395,0.0,1.0,0.0,0.0,1.0,Taxi
28.900000000000002,0.046980416358419395,31.92019004809892,15.918999280470652,-0.3001008790003318,0.011725768110049743,198.96026995683053,22.493409927089758,0.0,1.0,0.0,0.0,1.0,Taxi
29.0,0.017447904176122152,43.26884486566814,16.304349630318473,-0.05677559039834312,0.09493954728800058,198.85898230192754,22.258309950633983,0.0,1.0,0.0,0.0,1.0,Taxi
29.1,0.1259530114852627,28.576517787196895,17.16515589555748,-0.3693674849845673,1.5480292063280363,198.8487639918169,22.497789063091556,0.0,1.0,0.0,0.0,1.0,Taxi
29.200000000000003,0.18986300529440397,3.663584832566149,16.556649275290464,-0.24051591943459172,-0.7684599672087937,198.93103275822727,22.19678228660672,0.0,1.0,0.0,0.0,1.0,Taxi
29.3,0.03576582833895301,-42.44039791520175,15.988855260787512,-0.05267057355660751,-0.11527394826809471,199.20372899191386,23.151471795308325,0.0,1.0,0.0,0.0,1.0,Taxi
29.400000000000002,-0.08624897809074594,-11.511032062068145,15.824314189348602,-0.3522437167432747,0.2596759480454372,199.01139589457534,23.450011868465637,0.0,1.0,0.0,0.0,1.0,Taxi
29.5,0.1323078449840633,-31.624780646741673,15.957757230131792,-0.4395538266050817,0.5222802271900295,198.86553954603608,23.39163556696745,0.0,1.0,0.0,0.0,1.0,Taxi
29.6,-0.12235807489475528,8.205962902797973,15.448470203223128,-0.15853327558489944,-0.7230208051796831,198.9520821583002,21.98303266582837,0.0,1.0,0.0,0.0,1.0,Taxi
29.700000000000003,-0.045219163576756,-23.507505941789294,16.847437222798234,-0.21918410802205093,0.8885883281284753,198.84035620382394,22.476972677424886,0.0,1.0,0.0,0.0,1.0,Taxi
29.8,0.014770315275116961,24.703077169017007,16.195648169410585,-0.4494976438063915,-0.34795595145859537,198.92085292730962,22.91034729670592,0.0,1.0,0.0,0.0,1.0,Taxi
29.900000000000002,0.0011573109503298647,15.587425736747946,16.052966001122304,-0.3676122961784709,-0.35754868089436886,198.89436559170872,22.504628507823224,0.0,1.0,0.0,0.0,1.0,Taxi
30.0,0.03271796510698383,4.306240128042629,15.701627100713818,0.1644410231645792,0.46225140917482166,198.92064443825666,23.374895289523508,0.0,1.0,0.0,0.0,1.0,Taxi
30.1,0.0363015159153302,-4.283301559347822,15.233480997799044,-0.11477462747036055,0.5771010988733589,198.99620694409532,22.443460977572755,0.0,1.0,0.0,0.0,1.0,Taxi
30.200000000000003,-0.020259196846409148,-16.212464852343583,16.094434322654703,0.012700762034898394,-0.00042079600224758935,199.03769634845708,22.582746440354043,0.0,1.0,0.0,0.0,1.0,Taxi
30.3,-0.04834435915473399,-29.001887869961802,15.410949819250552,-0.20378875520064416,0.4876565754815253,199.15188884688257,22.27910731081844,0.0,1.0,0.0,0.0,1.0,Taxi
30.400000000000002,-0.10870792343447869,40.820226671539196,16.523172916094715,-0.16643014066072168,0.21217958347164795,199.00330430466943,22.563479610475877,0.0,1.0,0.0,0.0,1.0,Taxi
30.5,0.1838419365112869,-1.0998884000881997,14.845899540381378,-0.24092305587490073,-0.4225794914621003,198.9355157817531,22.594473603238743,0.0,1.0,0.0,0.0,1.0,Taxi
30.6,-0.05384380115517489,8.110668649843783,16.21699597785512,-0.3118402790687471,0.05122402495359435,198.77979481795035,22.17056206775171,0.0,1.0,0.0,0.0,1.0,Taxi
30.700000000000003,-0.06815458018525969,-57.690907252773144,16.07424888110268,-0.35325923210083854,-0.6159407751082049,198.88254545842335,22.476297195826735,0.0,1.0,0.0,0.0,1.0,Taxi
30.8,-0.10461259975257871,-16.900930464892745,16.419116412408915,-0.31422653996075867,0.6102770180707228,199.03455865265732,22.80098551965279,0.0,1.0,0.0,0.0,1.0,Taxi
30.900000000000002,-0.1383484534796385,27.074183661641957,17.096287560750334,0.04440723756921022,0.16948759044354533,198.9542346623997,23.380073892497226,0.0,1.0,0.0,0.0,1.0,Taxi
31.0,0.06721633812295019,44.934055149224115,15.77331501963264,-0.16508992456566995,0.7395885908620028,198.89051566552985,22.55567841708681,0.0,1.0,0.0,0.0,1.0,Taxi
31.1,0.12005767599354196,26.8366624459605,15.525063262480405,-0.5078993286242206,0.4872111839772491,199.0460899294585,22.452847282435176,0.0,1.0,0.0,0.0,1.0,Taxi
31.200000000000003,-0.004165141249835894,-2.821888287987955,15.035328609129964,-0.017439270875603985,0.8341820787045915,198.98704879345473,22.244381593867843,0.0,1.0,0.0,0.0,1.0,Taxi
31.3,0.05310689668301053,-26.231419886315916,15.540267355912913,-0.2733903809271432,0.42576218879442707,198.86922528832713,22.968212670540133,0.0,1.0,0.0,0.0,1.0,Taxi
31.400000000000002,-0.011099423438037513,-4.953796299182363,15.145689326273002,-0.4238154971114563,0.005448234731704999,199.1285629603425,22.337794500473542,0.0,1.0,0.0,0.0,1.0,Taxi
31.5,-0.028934122745747606,-24.041669587723053,15.393056049139435,-0.407836582059836,-0.8333609964022534,198.98275064609766,22.02547093384078,0.0,1.0,0.0,0.0,1.0,Taxi
31.6,-0.06710145125560465,-24.426161711337727,15.486904762723915,-0.24902604434333028,0.06115435789741452,198.92428239650383,22.816797652377684,0.0,1.0,0.0,0.0,1.0,Taxi
31.700000000000003,-0.13323023199472606,-8.25988168564748,15.278846081849787,-0.35523797844154326,0.9489729796405448,199.0099316965575,21.818917049323378,0.0,1.0,0.0,0.0,1.0,Taxi
31.8,-0.07023353117398493,33.57957712465616,14.64027242001861,-0.6653549982344393,-0.3481922969273549,199.05670108445634,23.36036078222522,0.0,1.0,0.0,0.0,1.0,Taxi
31.900000000000002,0.10079643436767625,28.90842269699748,15.633869097572953,-0.4323267999714952,0.10894571571724991,199.01804960009667,22.36951732936028,0.0,1.0,0.0,0.0,1.0,Taxi
32.0,0.01131188149026146,-6.099079305271346,15.098899335868637,-0.01719697985400412,-0.5777241042400931,199.1366400758169,22.88792188967117,0.0,1.0,0.0,0.0,1.0,Taxi
32.1,-0.10072892770034153,-30.7979542498751,16.332090840699532,-0.2781851943772481,0.18456883116121134,198.91110599937167,22.892594247666267,0.0,1.0,0.0,0.0,1.0,Taxi
32.2,-0.05319333688169913,-9.44739841826325,14.557876277516604,-0.2917537162739392,-0.017867575896828303,198.9363019527973,22.00352999095688,0.0,1.0,0.0,0.0,1.0,Taxi
32.300000000000004,-0.035925110601054695,31.191415956219856,16.152937516336298,-0.5322063569087517,-0.06617682129072883,199.12862330992334,22.89232502512526,0.0,1.0,0.0,0.0,1.0,Taxi
32.4,0.05522815208075785,16.672635963931796,16.183527133693072,-0.3957717644001864,0.008143823458949184,198.90314437948018,22.573313318687585,0.0,1.0,0.0,0.0,1.0,Taxi
32.5,0.030169842937959924,-18.613539305186205,16.28723520585511,-0.017047491237048823,0.8431230361681147,198.91068654495166,22.486168360496464,0.0,1.0,0.0,0.0,1.0,Taxi
32.6,-0.1289928071269856,-2.1214021022232807,16.231185900883386,0.013497442196545917,-0.3384620715537396,198.83346951047668,21.834553396936403,0.0,1.0,0.0,0.0,1.0,Taxi
32.7,0.044621141569641545,-4.872586013207867,15.850029684417608,-0.0656959084135196,-0.2898548792736163,198.8994629295555,23.091493877907524,0.0,1.0,0.0,0.0,1.0,Taxi
32.800000000000004,0.005806912871920693,40.8400470578237,15.34512082024719,-0.07874904187329226,0.07718936515088695,198.8659312015826,23.458510093121003,0.0,1.0,0.0,0.0,1.0,Taxi
32.9,0.07520742816213295,26.45753407851186,15.23425402472479,-0.2665679772067106,0.4080378591562824,198.888248419928,22.82210188313904,0.0,1.0,0.0,0.0,1.0,Taxi
33.0,0.1769088119622009,-2.934321627347444,15.303467134586555,-0.15401956819558338,0.6868899176515982,199.00696359050335,21.91343840351469,0.0,1.0,0.0,0.0,1.0,Taxi
33.1,-0.00886469526481649,18.676773585862886,15.317178157201063,-0.40116951548659574,0.11413001288516875,198.88135736240645,22.864808585508175,0.0,1.0,0.0,0.0,1.0,Taxi
33.2,0.16859129609144746,-20.914984761064286,16.76624061991593,-0.4259935956486648,-0.7356789671206213,198.92743224133176,22.268137663134606,0.0,1.0,0.0,0.0,1.0,Taxi
33.300000000000004,0.07233388815687956,-33.23927610816101,15.526812543355138,-0.26302008925965825,0.03644901275286025,198.87010718737622,22.250456449130425,0.0,1.0,0.0,0.0,1.0,Taxi
33.4,-0.1750610758056214,9.344887588868772,16.119259375772355,-0.08036302465361436,-0.2107199962145825,198.92867489917126,22.199370554488063,0.0,1.0,0.0,0.0,1.0,Taxi
33.5,0.21531573403579138,-7.205798352916588,15.50044147567292,-0.3033316458396904,-0.0470398506922245,199.04309224741905,22.836311839097714,0.0,1.0,0.0,0.0,1.0,Taxi
33.6,0.03630489639229669,34.45420947162741,13.885170315883792,-0.5119935572442611,-0.02261954660682716,199.0391558328912,22.72507267831649,0.0,1.0,0.0,0.0,1.0,Taxi
33.7,-0.002790028447484324,-49.71511802226298,15.203693291290731,0.09966553691879376,-0.16399370715571002,198.9075448908509,22.612426557355207,0.0,1.0,0.0,0.0,1.0,Taxi
33.800000000000004,-0.03325985607552343,14.513995036042857,15.976754572931117,-0.17114900538930475,0.1673676241301825,199.09627318248488,22.91976450632786,0.0,1.0,0.0,0.0,1.0,Taxi
33.9,0.10887487157251102,2.6333397159262355,16.114682056377887,-0.4311025926602323,-0.1802903916731012,199.1608750054877,22.262384785014994,0.0,1.0,0.0,0.0,1.0,Taxi
34.0,0.010376670132146902,23.973060018400133,15.386900654106876,-0.2363810372682993,-0.43340694526735396,199.07692039774042,22.467484014309736,0.0,1.0,0.0,0.0,1.0,Taxi
34.1,0.0866054440164773,-37.65530364144258,14.355588159936739,-0.26614371399866565,-0.2806038146626187,198.838132652819,22.12676548671037,0.0,1.0,0.0,0.0,1.0,Taxi
34.2,-0.07940164663470183,23.566980868371303,15.243623623799373,-0.43570265234871147,-0.3436507504407683,198.90357185226833,22.080878074145893,0.0,1.0,0.0,0.0,1.0,Taxi
34.300000000000004,0.12821157447400347,-16.741323536662453,16.06171229640081,-0.14632827901982887,0.2389799535584447,199.07793879970916,22.34006824127563,0.0,1.0,0.0,0.0,1.0,Taxi
34.4,0.00289882633316508,-20.14100745722107,15.982302393069203,-0.029796672296505733,0.5273587893188598,199.07154545369406,21.89711109757891,0.0,1.0,0.0,0.0,1.0,Taxi
34.5,-0.18010668392080717,-24.10259889884934,16.335511242141568,-0.06298310755043335,0.07774065949588847,198.9535464438195,22.441009527642816,0.0,1.0,0.0,0.0,1.0,Taxi
34.6,0.00769857997975677,-41.473794856959856,15.665030047080817,-0.23011161341225295,-0.3098864602688322,199.19940339517962,22.851647324993486,0.0,1.0,0.0,0.0,1.0,Taxi
34.7,-0.2044701479516342,40.38179320133661,14.66319331916617,0.37533449262472207,-0.8026903217314868,199.07437250253838,22.854312226673674,0.0,1.0,0.0,0.0,1.0,Taxi
34.800000000000004,0.021802282085875858,13.304342682569724,15.547020563871452,-0.6241013772101602,-0.26105323998390256,198.86066505597523,22.570670143524165,0.0,1.0,0.0,0.0,1.0,Taxi
34.9,0.07422029339260536,32.54852476601776,15.988170983600961,-0.18623003652878206,0.7340559859334743,199.10755300421056,22.39670162852128,0.0,1.0,0.0,0.0,1.0,Taxi
