time_s,altitude_ft,vertical_speed_fpm,ias_kt,pitch_deg,roll_deg,heading_deg,throttle_pct,afterburner_on,gear_down,flaps_deg,speedbrake_pct,weight_on_wheels,label
0.0,0.08744787716650365,-16.368057165194852,15.569064880691476,1.648047341203166,0.7526251981194456,327.6471105635741,19.2547900467992,0.0,1.0,0.0,0.0,1.0,Taxi
0.1,0.03288768661585415,-13.800522313866582,15.707871581256606,1.702914629018529,-0.016253088676672526,327.6511877556836,18.6311635375245,0.0,1.0,0.0,0.0,1.0,Taxi
0.2,0.01844526559717075,-26.987626091973407,14.820276843407065,1.9428177485022453,0.17032896213268364,327.7396015373672,18.916904813641036,0.0,1.0,0.0,0.0,1.0,Taxi
0.30000000000000004,-0.04749025329336336,-5.009238138029848,13.933755290232758,1.7732947395512273,-0.20965131654344393,327.8395481354182,18.696735896365215,0.0,1.0,0.0,0.0,1.0,Taxi
0.4,0.007841495925704921,-10.500462725245669,15.12990107753781,1.599814505494772,-0.24277995432307997,327.6576505333162,18.606706512486834,0.0,1.0,0.0,0.0,1.0,Taxi
0.5,-0.03405704802905759,21.992271447049962,15.542560545594434,1.6948753875514995,-0.47192177902181176,327.6736357881159,19.29513459262523,0.0,1.0,0.0,0.0,1.0,Taxi
0.6000000000000001,0.062471103941886465,-16.177214384792237,15.172722788323734,1.8240860700188968,-0.47428661373729797,327.62260015692505,19.133992564466478,0.0,1.0,0.0,0.0,1.0,Taxi
0.7000000000000001,-0.07304457599825628,30.031251760184407,15.014631565879924,1.9033135870387392,0.38749246014023114,327.6908999491843,18.389037588465715,0.0,1.0,0.0,0.0,1.0,Taxi
0.8,0.11609921077186443,-38.93023354508012,15.478872607807979,1.6662755811507508,0.2524387068868641,327.83136668733755,19.390694620581204,0.0,1.0,0.0,0.0,1.0,Taxi
0.9,-0.13218006378351418,48.158086494037065,15.430588299084173,1.6855480441385744,0.2687031408682747,327.639395601224,18.740477727271227,0.0,1.0,0.0,0.0,1.0,Taxi
1.0,0.16774585647192905,-35.967973789497556,15.536061789264167,1.6226433812503518,1.0625490181807202,327.5429164129455,18.978680691355628,0.0,1.0,0.0,0.0,1.0,Taxi
1.1,-0.06374065817562334,0.6280050719445143,13.989794053931771,1.9422886763319034,0.003131171452163523,327.76640254282347,18.730626290459632,0.0,1.0,0.0,0.0,1.0,Taxi
1.2000000000000002,-0.1290400384237916,-40.55549790108114,14.78388113244736,1.686844765143168,0.6169220114206033,327.5737978887919,18.284238669066447,0.0,1.0,0.0,0.0,1.0,Taxi
1.3,-0.0350316330334767,6.129551032762553,14.084256104697936,1.8794886141479645,0.7957016038930023,327.70734936687256,19.311891113030768,0.0,1.0,0.0,0.0,1.0,Taxi
1.4000000000000001,-0.03309290301181055,28.34629888373375,15.274011760841814,2.028969079082428,0.4556069846657498,327.51169942960473,19.595060551095777,0.0,1.0,0.0,0.0,1.0,Taxi
1.5,0.01269145599487716,-16.57634699212505,14.347936542138909,1.8550795176071655,0.014377844332880106,327.6367920185669,19.33101800442546,0.0,1.0,0.0,0.0,1.0,Taxi
1.6,-0.11791336799410193,-4.387455851054166,15.03485494017614,2.005618747377992,0.8347717015771415,327.59640905677566,18.37674152307385,0.0,1.0,0.0,0.0,1.0,Taxi
1.7000000000000002,-0.055030182267081354,2.822474330035149,15.565763004666625,1.7033130803611274,0.0568110805577406,327.6840563622237,19.37843106349563,0.0,1.0,0.0,0.0,1.0,Taxi
1.8,0.02680382764505292,13.413862950858265,15.684898195367003,2.0649323625047726,-0.3845314075111406,327.54778837943877,18.59475809300867,0.0,1.0,0.0,0.0,1.0,Taxi
1.9000000000000001,-0.05084405323981061,31.79514297858445,15.628921572466602,1.7447648165761585,0.12255661017063782,327.6400505725991,18.740249710989886,0.0,1.0,0.0,0.0,1.0,Taxi
2.0,0.10394553262584089,4.020736881425708,14.692360343681704,1.68916279899985,0.477621597234931,327.6707517572578,18.92467338612939,0.0,1.0,0.0,0.0,1.0,Taxi
2.1,0.046907512052181445,-6.605118281504102,14.350560792419893,1.8678405433423149,0.22042912464842965,327.58854003568854,18.449468297495137,0.0,1.0,0.0,0.0,1.0,Taxi
2.2,-0.08386964464733111,-8.05450699141511,13.734705711642638,1.5415102917370198,-0.22246972714894575,327.7682545932205,19.200429574416265,0.0,1.0,0.0,0.0,1.0,Taxi
2.3000000000000003,0.06367299766876539,-11.00103796998953,14.827980270158328,2.035495182229238,0.990279827854297,327.4420384511525,19.16247335723564,0.0,1.0,0.0,0.0,1.0,Taxi
2.4000000000000004,-0.008097677797766161,33.27023630155953,14.507325968307198,2.0482715694537084,-0.14714959260215194,327.8236035297489,19.55450695880376,0.0,1.0,0.0,0.0,1.0,Taxi
2.5,0.08248153686046658,-30.110191706165818,15.015846201787145,1.8693848997305806,0.40197616617888104,327.55280644072695,17.983110493749187,0.0,1.0,0.0,0.0,1.0,Taxi
2.6,-0.08687796086206367,13.870118342299504,15.696335323234553,1.8480251480931795,-1.2163869895336268,327.67577419425356,18.240473300572052,0.0,1.0,0.0,0.0,1.0,Taxi
2.7,0.06125291391373138,-31.697728819047374,13.94600877258807,1.7737749390300452,0.3281558987590209,327.639645376373,19.46484546742529,0.0,1.0,0.0,0.0,1.0,Taxi
2.8000000000000003,-0.07600710723477026,15.9791167525062,14.978106254566802,1.8184121558765063,0.14338418709771567,327.7362560974068,19.601871455339662,0.0,1.0,0.0,0.0,1.0,Taxi
2.9000000000000004,-0.006982377099532627,-8.964658373890163,15.52541393608548,1.777569885015342,-0.27969137763702795,327.6430942243287,18.678828835797496,0.0,1.0,0.0,0.0,1.0,Taxi
3.0,0.01642962204428061,0.5122229920270674,14.716837724438728,1.8718768136895492,-0.4665815574475201,327.6208539248937,19.32083022471771,0.0,1.0,0.0,0.0,1.0,Taxi
3.1,-0.07344599227463489,-6.041353392140084,14.112703321664624,2.10710539560503,-0.3220565947664598,327.6607416007348,19.10901891233434,0.0,1.0,0.0,0.0,1.0,Taxi
3.2,-0.03718914406023301,-11.481666762100849,14.184246714184633,1.5809487136429308,-0.799543517767126,327.71318134449007,17.593776449512138,0.0,1.0,0.0,0.0,1.0,Taxi
3.3000000000000003,-0.0409787117662236,13.252803610226849,14.984249223756114,1.9379217274836567,-0.5354084711819613,327.53477008063305,18.26808264680892,0.0,1.0,0.0,0.0,1.0,Taxi
3.4000000000000004,-0.007181974223500597,-7.998289672644624,14.771263753682335,1.2456088637740936,-0.26953624813773247,327.5938959103613,18.97950898913921,0.0,1.0,0.0,0.0,1.0,Taxi
3.5,-0.0771805924234561,21.348343464194315,14.981950625520803,2.101193444636246,-0.787017491619256,327.6102573006683,18.121445416684253,0.0,1.0,0.0,0.0,1.0,Taxi
3.6,0.06576300555474801,37.89062692610233,14.230267812693214,1.921497633117848,0.6401616992915441,327.49977898813654,18.439314269326765,0.0,1.0,0.0,0.0,1.0,Taxi
3.7,0.18227116040701105,31.77076588928861,16.389022742450237,2.086826388620255,0.08202835879806243,327.70919589173434,19.179926579969173,0.0,1.0,0.0,0.0,1.0,Taxi
3.8000000000000003,0.08167323702298701,-14.22283426051934,14.932099172481664,1.747187139063935,-0.9743830912524534,327.6749115345774,18.43737083240257,0.0,1.0,0.0,0.0,1.0,Taxi
3.9000000000000004,-0.005351165747848628,-25.660845180244223,16.32596522799698,1.6253085543739552,-0.8675435422711079,327.7063169009432,18.814543387845696,0.0,1.0,0.0,0.0,1.0,Taxi
4.0,0.053966934505790015,-0.24207138570323808,14.54083708848991,1.8777989281626795,0.15213041554752624,327.77022685861016,19.333753224121722,0.0,1.0,0.0,0.0,1.0,Taxi
4.1000000000000005,0.08046288009447089,-14.061921487824305,14.320629360164714,1.9672099411415593,0.28704831458116187,327.60341532066366,18.98997948818445,0.0,1.0,0.0,0.0,1.0,Taxi
4.2,-0.07566077318697009,21.99483063877898,14.334081612223043,1.5558813577485082,-0.5949776461868678,327.3894958033476,19.122651554802836,0.0,1.0,0.0,0.0,1.0,Taxi
4.3,0.16394108769968493,-45.050517964172506,15.358211563003197,1.7292636049692627,-0.06898853889495067,327.7477332979388,19.072619619707783,0.0,1.0,0.0,0.0,1.0,Taxi
4.4,-0.14478970972639166,12.13715927156099,15.977994292489255,1.6639877131819603,0.25628334536377645,327.7391633261027,19.025023696367764,0.0,1.0,0.0,0.0,1.0,Taxi
4.5,-0.014974976829165185,-29.200379068748493,15.461394237417135,1.925197347970367,0.29182461680996435,327.5971933688828,18.901366532483138,0.0,1.0,0.0,0.0,1.0,Taxi
4.6000000000000005,0.01793919235594245,13.22766501781863,14.101950234900762,1.981854868079345,0.36689377862235906,327.74434944656605,18.120685200029133,0.0,1.0,0.0,0.0,1.0,Taxi
4.7,-0.07865138463729847,41.910042928953125,13.569123028172646,1.8344356044690202,0.4333816151317285,327.70229983945273,18.506424276081706,0.0,1.0,0.0,0.0,1.0,Taxi
4.800000000000001,0.19457523781560052,-27.086877505775345,15.266259208401335,1.7136285436997172,-0.09004248113672025,327.73053727434126,19.14235515484665,0.0,1.0,0.0,0.0,1.0,Taxi
4.9,-0.11749519517293422,11.928215592941621,14.072662107687767,2.097157057193669,-0.37592721865197903,327.5266251462292,18.97999344204142,0.0,1.0,0.0,0.0,1.0,Taxi
5.0,-0.019010306672590307,-29.55736156948537,14.636525194406351,2.165516354823686,0.44653718644866874,327.6493685600516,18.67383273039592,0.0,1.0,0.0,0.0,1.0,Taxi
5.1000000000000005,0.046788429968173645,38.839980597007276,13.737490850785667,1.807130803625926,-0.45651656842132327,327.6134613218014,18.30962136137833,0.0,1.0,0.0,0.0,1.0,Taxi
5.2,0.07670470781210215,-3.8020336626231193,14.749950229061024,1.7603886545577598,-0.698530793223678,327.8611216833069,19.31349182977809,0.0,1.0,0.0,0.0,1.0,Taxi
5.300000000000001,-0.038020474985705904,-32.51577281405957,15.281938529272725,2.0984516084134675,0.17107187274701108,327.72776375952833,19.49039431113145,0.0,1.0,0.0,0.0,1.0,Taxi
5.4,-0.1157904341021242,-4.810108021511979,14.955193756061052,2.0845553057533968,-0.6066714894980322,327.5900542438342,18.776809181707456,0.0,1.0,0.0,0.0,1.0,Taxi
5.5,0.05265416770454226,24.318219494433773,14.412178964399443,1.9935784086393467,0.33897052923987475,327.8261528465707,19.39505717042367,0.0,1.0,0.0,0.0,1.0,Taxi
5.6000000000000005,0.08357062248646296,61.544169833793866,14.456821655825632,1.80413999868099,-0.5770989770617504,327.65112601283295,18.924813368170174,0.0,1.0,0.0,0.0,1.0,Taxi
5.7,0.19193041506684516,-23.266688348807083,14.786299276557672,2.05444440782981,0.5258780211210258,327.8939851854798,18.860274666324568,0.0,1.0,0.0,0.0,1.0,Taxi
5.800000000000001,-0.06367927403949313,-24.326923847497444,15.271796172440304,2.2313756789817143,-0.7774484202492123,327.65590615020074,18.889072065769742,0.0,1.0,0.0,0.0,1.0,Taxi
5.9,-0.03806399675102423,-58.640255379784456,14.873286806330515,1.7022475758915894,0.6497881022213425,327.77612986808333,18.669560807139145,0.0,1.0,0.0,0.0,1.0,Taxi
6.0,-0.10127086183207712,12.742601766983826,14.392095268464185,1.936439136304729,-0.18938357202131043,327.6344639118945,18.051574829421433,0.0,1.0,0.0,0.0,1.0,Taxi
6.1000000000000005,3.373479542603842e-05,-28.439397024854458,14.69157186946384,1.7336034668332452,0.39145174450379844,327.7934605075071,18.57008085744029,0.0,1.0,0.0,0.0,1.0,Taxi
6.2,-0.1802609818752965,6.773249866839002,14.752046682447808,1.6083001165809203,0.09713281179791905,327.62515740972776,19.03677634246374,0.0,1.0,0.0,0.0,1.0,Taxi
6.300000000000001,-0.06740461249788207,16.62164259538282,15.162276629573798,1.730558301495212,-0.8212058850471535,327.7611088473984,18.794760591490796,0.0,1.0,0.0,0.0,1.0,Taxi
6.4,0.08314194777234016,49.74243700684218,13.90083740042716,1.5735969969011887,0.8324382511587902,327.77809673911395,18.67863117987114,0.0,1.0,0.0,0.0,1.0,Taxi
6.5,0.06845120315891445,-10.989324668260556,16.044240124514562,1.781223071527443,0.44497892056036353,327.78951613521167,19.439417837499185,0.0,1.0,0.0,0.0,1.0,Taxi
6.6000000000000005,-0.12235123583918482,-9.120230292563912,15.59117418342958,1.3737794983654399,1.0638539021512374,327.65281214036577,18.82513482284465,0.0,1.0,0.0,0.0,1.0,Taxi
6.7,0.03754079630952062,13.991984170226408,15.251524469031763,1.6187991129412862,-0.7626778808798913,327.6662845708165,18.40240752649414,0.0,1.0,0.0,0.0,1.0,Taxi
6.800000000000001,0.13841112401004652,46.90378148407697,15.230468268301161,1.6608875923321513,-0.19119156488845757,327.4657093591478,18.47610501241139,0.0,1.0,0.0,0.0,1.0,Taxi
6.9,0.11216767158120007,-5.962506995154513,15.37858449310883,1.763536032894662,-0.18478937580090057,327.5865387027309,18.576833058810045,0.0,1.0,0.0,0.0,1.0,Taxi
7.0,0.007728261333748089,-13.426050151447505,15.329550738504262,2.0725566883464266,-0.5151957344107349,327.74801970714725,19.92168683645672,0.0,1.0,0.0,0.0,1.0,Taxi
7.1000000000000005,0.071280873252809,7.917820888846549,14.379599123690465,1.7462940078277858,-1.0990675999570991,327.8110166802401,18.02272320969677,0.0,1.0,0.0,0.0,1.0,Taxi
7.2,0.15175677602543283,10.187130878571695,14.3046481563673,2.122289663928259,-0.5265897586032908,327.66827963868275,20.134561643514353,0.0,1.0,0.0,0.0,1.0,Taxi
7.300000000000001,0.05866391572660659,-11.465937562764926,14.098079371971538,1.9143807315051813,0.10491164069479934,327.74931389498397,18.167991028951327,0.0,1.0,0.0,0.0,1.0,Taxi
7.4,0.013951185438984399,-23.130072264342488,16.216253776273085,2.017515065310652,-0.15899964632362287,327.66465305834436,18.595676065684703,0.0,1.0,0.0,0.0,1.0,Taxi
7.5,0.03610641470372041,-38.57620931101689,14.493927555028073,1.7655028784976834,-0.34382730833235625,327.737812472368,19.94074190981307,0.0,1.0,0.0,0.0,1.0,Taxi
7.6000000000000005,-0.13421713082847783,-3.5345663311426088,14.906654712521762,1.9349998178766534,0.3535243593255589,327.895520026912,18.3528286958801,0.0,1.0,0.0,0.0,1.0,Taxi
7.7,-0.0037216462167286007,-30.9017303674383,14.878771938306473,1.72322853145565,0.06672824720132432,327.72843938132223,19.639867690940154,0.0,1.0,0.0,0.0,1.0,Taxi
7.800000000000001,-0.11840223713347105,17.701339312333584,14.379617511123115,1.712068818046545,0.2228102949875809,327.6673920087819,18.95008727672474,0.0,1.0,0.0,0.0,1.0,Taxi
7.9,-0.04571043426680988,1.4811636181698649,15.844208338175022,1.9280673514000073,0.4587638522952797,327.57804852730237,18.758848141014486,0.0,1.0,0.0,0.0,1.0,Taxi
8.0,0.003684171874120748,35.52427843598394,14.940304112614127,1.962547385840154,0.5613880968564355,327.5531443750965,19.264486101493507,0.0,1.0,0.0,0.0,1.0,Taxi
8.1,0.059219155046448695,20.382295207548093,14.015919273740728,2.055076942577413,-0.43875221317479707,327.6754770164929,17.983860789682424,0.0,1.0,0.0,0.0,1.0,Taxi
8.200000000000001,0.05620104177093062,-13.652843644567966,14.126445353628972,1.8138172797566658,0.021697451804056175,327.7643245910713,18.64648173073789,0.0,1.0,0.0,0.0,1.0,Taxi
8.3,-0.06458004634871906,-15.521434916622477,14.229066360762443,1.9257999677231445,0.12195463790931209,327.6806504459894,19.0788090412555,0.0,1.0,0.0,0.0,1.0,Taxi
8.4,-0.01838801953666366,-26.703353974897524,14.438883627511377,1.8073996589878656,0.48019423555029705,327.7298057045957,19.33672361239459,0.0,1.0,0.0,0.0,1.0,Taxi
8.5,-0.07731572810355697,42.78269351296169,16.00188998431684,1.7111152263299843,-0.3156130823854453,327.64524464022816,18.500167334936638,0.0,1.0,0.0,0.0,1.0,Taxi
8.6,0.14933342121608942,-8.313596823257933,15.248835255337488,1.9921420448778155,0.048203842447732737,327.65302319642296,18.420776365060746,0.0,1.0,0.0,0.0,1.0,Taxi
8.700000000000001,-0.05995600365295335,5.035854026103407,14.45561458940342,2.06407445841356,0.20706973133653014,327.7421755379256,18.535606691022707,0.0,1.0,0.0,0.0,1.0,Taxi
8.8,-0.052136457973039965,-32.710340918659746,14.39481236503298,1.4627206229231793,0.4509176903353045,327.74686792091086,19.045014169691196,0.0,1.0,0.0,0.0,1.0,Taxi
8.9,-0.014218283377209321,10.206849699922328,14.432715601824176,1.9657351509052186,0.1336902165378256,327.62459183901933,17.93933493611594,0.0,1.0,0.0,0.0,1.0,Taxi
9.0,-0.008921755153341713,26.759327218718596,14.86510426978479,2.0788017958899374,0.32926246765674644,327.68744557074683,18.917887317525334,0.0,1.0,0.0,0.0,1.0,Taxi
9.1,0.081660178120553,5.001204408235587,14.292216868662337,1.6275176515091307,0.4630919414367314,327.7214768082579,18.935968381560993,0.0,1.0,0.0,0.0,1.0,Taxi
9.200000000000001,0.0107877386639686,-3.3712265058324795,14.770934765749695,1.9699093470855362,0.0048771404143691756,327.7312263746169,18.301056354358366,0.0,1.0,0.0,0.0,1.0,Taxi
9.3,-0.025777887682504125,-15.764925199665626,14.535014305730453,2.087521514337417,0.4951970275675528,327.51075866865074,18.46901648670885,0.0,1.0,0.0,0.0,1.0,Taxi
9.4,0.002835552122224847,2.641749253274213,14.443019876340342,2.3578019085385358,-0.6729713989992625,327.5510879554971,19.466543367497348,0.0,1.0,0.0,0.0,1.0,Taxi
9.5,0.023996484930339665,-9.519341027832334,15.333889662932028,2.1084717746614423,0.09917962154536306,327.6163485783957,19.739093383944322,0.0,1.0,0.0,0.0,1.0,Taxi
9.600000000000001,-0.0733745928216658,-27.404485408225796,14.783937427924162,1.9529410471586313,-0.02628138810950441,327.6797936665116,18.571001517491194,0.0,1.0,0.0,0.0,1.0,Taxi
9.700000000000001,-0.13418687491890413,4.19103026729312,15.128601458870188,1.418401916388879,0.37406635482220063,327.6662144749771,19.036337205820107,0.0,1.0,0.0,0.0,1.0,Taxi
9.8,0.04495163626680526,44.192534568904996,14.371806834702344,1.7085156776638382,-0.5441248031161716,327.67236081579506,19.03345141685657,0.0,1.0,0.0,0.0,1.0,Taxi
9.9,0.1475880800228592,33.159492751237735,14.982637003016354,1.7699974122643454,0.19044687380465825,327.6646426750601,18.459135394259587,0.0,1.0,0.0,0.0,1.0,Taxi
10.0,0.031610588837284535,-30.268826407362482,14.618007540261752,1.9253745178057258,-0.46236882572747123,327.5890284689683,20.179659858069996,0.0,1.0,0.0,0.0,1.0,Taxi
10.100000000000001,-0.10639249577000719,-11.997624476132202,14.130383980885187,1.9667106714596347,0.6437462721579738,327.76153637386267,18.66557862180239,0.0,1.0,0.0,0.0,1.0,Taxi
10.200000000000001,0.08759995764219813,-1.4998551272047298,15.031120362137159,1.5548948748151936,-0.7466478440427657,327.5076639474257,18.739739507123584,0.0,1.0,0.0,0.0,1.0,Taxi
10.3,0.02411131320126085,18.217372270368628,15.25179114963428,1.8087938095746117,0.2304772940525724,327.60503489987786,18.330825943698464,0.0,1.0,0.0,0.0,1.0,Taxi
10.4,-0.015305634418164071,-11.679616941614574,14.100906416876096,1.6572796703106143,-0.1211312164430422,327.5357241029476,18.81440224963943,0.0,1.0,0.0,0.0,1.0,Taxi
10.5,0.02920187293412524,-7.556630596222313,14.265466056379159,1.861222013750868,0.14691554399412668,327.53202831551175,18.696373962487186,0.0,1.0,0.0,0.0,1.0,Taxi
10.600000000000001,-0.013671839779850738,39.59689858958825,14.364999163170179,1.9985662948670226,-1.2826222975556516,327.75622861181535,18.07172053798345,0.0,1.0,0.0,0.0,1.0,Taxi
10.700000000000001,0.18267885852977717,-23.698357610271824,14.65612015166989,1.7365108516503824,-0.033039812281707694,327.58103472164635,18.949756932928032,0.0,1.0,0.0,0.0,1.0,Taxi
10.8,-0.08928991511723383,-9.7587526372775,15.44353661921692,1.7645400101574604,-0.7143791164312835,327.8159976618989,18.161878492498953,0.0,1.0,0.0,0.0,1.0,Taxi
10.9,-0.0624656029662382,-11.027506818117184,14.893405612224324,1.8036702258629977,-0.1354239401487339,327.68439776736886,19.094279273502746,0.0,1.0,0.0,0.0,1.0,Taxi
11.0,0.12754132443919128,19.803327041526654,14.609229937557048,1.6584812381372573,-0.9871517396861561,327.57061446072,18.635613664202882,0.0,1.0,0.0,0.0,1.0,Taxi
11.100000000000001,0.00972672009039941,8.957535528320639,14.341252956813019,1.719078402717052,-0.4981819476681373,327.647703007682,19.470273385692654,0.0,1.0,0.0,0.0,1.0,Taxi
11.200000000000001,-0.017677925324635035,-48.05355807220847,14.236979959314926,2.057163488315033,0.49648592319522444,327.47799467844425,19.323494598940183,0.0,1.0,0.0,0.0,1.0,Taxi
11.3,-0.11272646592185112,13.568529034684957,14.779081035600045,1.979856157493903,1.1175246266624743,327.6713822366463,18.160525862597687,0.0,1.0,0.0,0.0,1.0,Taxi
11.4,0.07756936526382414,-3.340005002810045,15.066915643189468,2.03182591505983,0.22155724186932488,327.72337596220973,18.6841172880014,0.0,1.0,0.0,0.0,1.0,Taxi
11.5,-0.03437795033868532,-5.9394003620046645,14.244838878169396,1.7039960150484172,-0.23041885220925548,327.60127973850604,18.817206621161418,0.0,1.0,0.0,0.0,1.0,Taxi
11.600000000000001,-0.1424234677318745,-21.25842179777523,15.032116259877476,1.5270200429076985,0.19811083573960656,327.67630308869343,18.43841145469987,0.0,1.0,0.0,0.0,1.0,Taxi
11.700000000000001,-0.028722743725052083,46.663974428815756,15.523135747274875,1.9052098026273863,-0.13896279583806798,327.7475014146172,19.316333523349936,0.0,1.0,0.0,0.0,1.0,Taxi
11.8,0.19894192180539344,21.256374277630357,14.779842845410178,2.1224954947760812,0.4665034889260903,327.64012685440196,19.293554001343377,0.0,1.0,0.0,0.0,1.0,Taxi
11.9,-0.036141596343722715,9.376258543081855,15.73727466602137,1.915500674298841,0.910921224172529,327.7219541971383,19.009472419928553,0.0,1.0,0.0,0.0,1.0,Taxi
12.0,0.01815854899035717,-13.539389050727971,15.196752339007489,1.87388828627019,0.5398940584355982,327.7710464016077,18.42733788145036,0.0,1.0,0.0,0.0,1.0,Taxi
12.100000000000001,0.13124497655175354,23.355096249975237,15.062294987206423,1.7265337636703215,-1.144930855246611,327.66030186145326,20.126135135742704,0.0,1.0,0.0,0.0,1.0,Taxi
12.200000000000001,0.08063388490615345,-0.5455606616421917,15.465901069607979,1.5220909940647602,-0.0494485616318274,327.48947395216896,18.739271860115768,0.0,1.0,0.0,0.0,1.0,Taxi
12.3,0.015430745682146182,-19.763293409095144,14.85879380015301,1.923255228168715,-0.09811591560123191,327.7236320382457,18.22601117867992,0.0,1.0,0.0,0.0,1.0,Taxi
12.4,0.032428509506277806,5.191671940012429,14.728236269130246,2.2271408025154353,-0.34953648179211294,327.5721050484225,18.817552034845267,0.0,1.0,0.0,0.0,1.0,Taxi
12.5,0.10659224460621558,-10.582341390561611,14.342139216123323,1.7855490796607414,1.0716865380653433,327.6908218272706,18.193866616210723,0.0,1.0,0.0,0.0,1.0,Taxi
12.600000000000001,-0.03748096127066188,-30.87691449207458,15.197459081831784,1.8304879962820892,-0.11703280433806629,327.77772887273454,17.646612938990007,0.0,1.0,0.0,0.0,1.0,Taxi
12.700000000000001,-0.12195606295409511,-28.481787335737923,17.671756998537084,1.722660457611132,0.24746734683387145,327.6390747691844,18.17170735784075,0.0,1.0,0.0,0.0,1.0,Taxi
12.8,-0.03581669207247405,32.616481695599084,14.804458589158704,2.0728605291330493,-0.798973135724099,327.78957044767867,18.713687057067364,0.0,1.0,0.0,0.0,1.0,Taxi
12.9,0.12560144720733354,18.45188903577409,14.358514085256083,1.8099464343575362,1.1905551483542927,327.63420695446484,18.825104907274035,0.0,1.0,0.0,0.0,1.0,Taxi
13.0,-0.029696617775224615,15.24742703246239,14.642008897202789,1.8902208244731125,0.5584831397047492,327.8027594101019,18.569233491089744,0.0,1.0,0.0,0.0,1.0,Taxi
13.100000000000001,0.04042044308983792,-20.137451247247643,13.73513704730335,1.7117786362751273,0.19378672863151924,327.49761689042487,19.044369676839615,0.0,1.0,0.0,0.0,1.0,Taxi
13.200000000000001,0.024914190971095318,17.40485984158732,14.916942762043652,1.901217995412089,0.1471799679439925,327.57734473259575,18.73959662692404,0.0,1.0,0.0,0.0,1.0,Taxi
13.3,0.05732768143271197,12.769383355783887,15.356192391963386,1.80683227395627,0.3266536575617538,327.8946100590945,19.147566487796333,0.0,1.0,0.0,0.0,1.0,Taxi
13.4,0.10426735986875735,-5.8225053567596206,13.657442299562959,1.846701534211518,-0.3752979375414252,327.4794017844554,18.766423298164153,0.0,1.0,0.0,0.0,1.0,Taxi
13.5,-0.004198335812702792,-21.771431591405445,15.397438974344242,1.903647134552498,-0.3031938805062346,327.6240391885981,18.543945497538292,0.0,1.0,0.0,0.0,1.0,Taxi
13.600000000000001,-0.051529476524315276,-36.745543666216356,14.61057107295665,1.5622081910103562,0.012543974191826677,327.6138127792824,18.955561351029722,0.0,1.0,0.0,0.0,1.0,Taxi
13.700000000000001,-0.07946035846232447,-32.64447545702698,15.2746164885443,1.6429196893678149,0.10240618341087228,327.74227900590154,19.362315595242826,0.0,1.0,0.0,0.0,1.0,Taxi
13.8,-0.16742071309783768,12.115716908982881,14.92318326752147,1.3574490390986091,0.4552371517783629,327.7410640157641,18.467607325679822,0.0,1.0,0.0,0.0,1.0,Taxi
13.9,0.00904910802059911,33.66250001752224,14.735958869638987,1.6548152847053328,0.29684022480096456,327.6533781609155,19.105569753215715,0.0,1.0,0.0,0.0,1.0,Taxi
14.0,0.08885214162528672,23.594544140484942,14.548687813504973,2.119201716912444,0.26419454389471736,327.7317949360031,19.66134806013519,0.0,1.0,0.0,0.0,1.0,Taxi
14.100000000000001,-0.04944799239541297,-26.638301208657065,14.178411119074259,1.7528779460665165,0.49606365243593836,327.61149633475725,18.9781811025551,0.0,1.0,0.0,0.0,1.0,Taxi
14.200000000000001,-0.12414239802268626,-7.059811622969022,15.456347871243114,1.5948783073599908,-0.010821683025662042,327.590251875485,19.114663740271578,0.0,1.0,0.0,0.0,1.0,Taxi
14.3,0.05355308351044161,10.387634063201064,14.681948162942408,1.7150691384515189,0.3591756936025285,327.6891434762814,19.19284169217977,0.0,1.0,0.0,0.0,1.0,Taxi
14.4,0.0024901779205923316,8.05398503042928,14.436674415079686,1.1438509056239905,-0.17432594914803967,327.6619171258195,18.31864937435564,0.0,1.0,0.0,0.0,1.0,Taxi
14.5,-0.08387247287053987,12.313058714477174,14.371298637998258,1.910583167922531,0.32923844770537947,327.7363252623011,18.554470403186052,0.0,1.0,0.0,0.0,1.0,Taxi
14.600000000000001,0.11511837708282746,-27.476831582254345,14.733744376457071,2.3079791787494077,0.2869681595427716,327.6720274742081,18.623296278175186,0.0,1.0,0.0,0.0,1.0,Taxi
14.700000000000001,-0.1348939799906794,48.78429177165828,15.541031823230652,1.6213414609879608,0.06537574784993021,327.65547941739055,18.547517496490926,0.0,1.0,0.0,0.0,1.0,Taxi
14.8,0.16004898598775152,-31.74531421915887,14.513088901214484,1.667214090951478,-0.2918006363717297,327.68502925846406,17.560260050232557,0.0,1.0,0.0,0.0,1.0,Taxi
14.9,-0.04360819401296692,35.95353622104697,14.066675466780906,2.0482613831629464,0.18499595313919448,327.70594102291943,19.147535805471215,0.0,1.0,0.0,0.0,1.0,Taxi
15.0,0.044873701114555374,-37.78109346666972,15.977054286876097,1.7603647430015008,-0.1407730360922193,327.81240923229757,18.45753123005125,0.0,1.0,0.0,0.0,1.0,Taxi
15.100000000000001,-0.028856481345597103,-2.346737150948836,15.905446746972306,1.907973188762076,-0.07383832010764199,327.54344960232254,19.018959135054164,0.0,1.0,0.0,0.0,1.0,Taxi
15.200000000000001,-0.05534187976771113,-22.686967634930586,14.663380377950828,2.011081187661228,-0.3712863021609115,327.70278037876983,18.290784882311545,0.0,1.0,0.0,0.0,1.0,Taxi
15.3,-0.06856113706009757,-5.604414001624169,14.910108981062962,1.879354836074913,-0.022224793995761306,327.86986023271925,19.105923125977032,0.0,1.0,0.0,0.0,1.0,Taxi
15.4,-0.05687855135371797,10.238692702499321,14.357404599993021,1.7734816167208731,-0.5862690047813283,327.66105857517266,19.120171003076724,0.0,1.0,0.0,0.0,1.0,Taxi
15.5,-0.004148416255214538,34.05097856974746,14.488802372771163,1.6536135240015244,0.5976342487757765,327.59070960741906,19.088404568696074,0.0,1.0,0.0,0.0,1.0,Taxi
15.600000000000001,0.1016937557886397,31.003360681015593,15.482900270789642,2.02295743664997,0.10667392049394304,327.5228519812056,18.658999744416274,0.0,1.0,0.0,0.0,1.0,Taxi
15.700000000000001,0.09813825205135997,-13.324515255847503,14.764872671621914,1.8178309391500562,0.10718332295278446,327.5232614089291,19.403990437069236,0.0,1.0,0.0,0.0,1.0,Taxi
15.8,-0.07077099253445208,-9.535540160721169,15.491333193741017,1.9725407953685437,-0.18991733291812424,327.6415598006711,18.94544669618992,0.0,1.0,0.0,0.0,1.0,Taxi
15.9,0.054016054985033826,6.8873035437346095,15.239829103498373,2.0233742206959944,0.5016080402161518,327.5989785753195,19.29104132995115,0.0,1.0,0.0,0.0,1.0,Taxi
16.0,0.132574769770033,43.49383497731659,15.255391089128144,2.2169073274955533,-0.5979477224626002,328.04756862492854,19.647110344525455,0.0,1.0,0.0,0.0,1.0,Taxi
16.1,0.1466981823521308,-24.1354256330799,14.51088227377066,1.5672287617143652,0.16740336943530607,327.72335744866984,19.146280437774237,0.0,1.0,0.0,0.0,1.0,Taxi
16.2,-0.06666107318036574,-33.83182639554488,14.282541135379613,1.4862086866706727,0.21940760542929372,327.6890010057741,19.11455343841871,0.0,1.0,0.0,0.0,1.0,Taxi
16.3,-0.03658436220769148,-19.363266170285957,14.76581061135419,1.2915104740488221,-0.0947687580718716,327.61996203212584,18.575717265536245,0.0,1.0,0.0,0.0,1.0,Taxi
16.400000000000002,0.049881851500700944,3.246295061045567,15.982046622454456,1.801238639783789,-0.7788068953159024,327.6328002361739,18.4863589374451,0.0,1.0,0.0,0.0,1.0,Taxi
16.5,-0.050429597875137955,-3.7432075656262302,16.271783017537757,1.7857269060162324,-0.2976887136787563,327.82018073329846,19.56099389277594,0.0,1.0,0.0,0.0,1.0,Taxi
16.6,-0.055300400035822685,-24.684729308879056,14.624660627637068,2.1767198648188213,-0.46606686083728327,327.66372195145027,18.917438450876677,0.0,1.0,0.0,0.0,1.0,Taxi
16.7,-0.0735417950436944,19.28730424541297,15.339331400937235,2.1156211386081867,0.1377138697138248,327.68922913484903,19.00289944033159,0.0,1.0,0.0,0.0,1.0,Taxi
16.8,0.046006923351926854,47.07486764394016,14.754400712021814,1.6814687469769625,-0.8648525957003432,327.4074852692594,18.292988051938067,0.0,1.0,0.0,0.0,1.0,Taxi
16.900000000000002,0.18007393818387807,-21.23002891408778,15.379640107464127,1.8710671407616712,-0.04625961240786524,327.6597179955502,18.495903095056043,0.0,1.0,0.0,0.0,1.0,Taxi
17.0,-0.17969193961413335,-15.069254350019804,15.52327928780658,1.9774956960402954,0.008676098474668917,327.72395094638796,18.388893112010752,0.0,1.0,0.0,0.0,1.0,Taxi
17.1,-0.029339348398172233,-13.189196826439408,14.696827124546791,1.5803567651322163,0.7507741241286005,327.63251118001835,18.858463422971653,0.0,1.0,0.0,0.0,1.0,Taxi
17.2,0.11412795405168097,6.317553252176822,14.551789474579191,1.7622735003466947,0.25136680791691185,327.67068134853025,19.27339896093411,0.0,1.0,0.0,0.0,1.0,Taxi
17.3,-0.14810417335324935,21.675511113219738,15.819050375402767,1.7926894766291592,-0.4769242893620437,327.6827802317541,19.134225259167053,0.0,1.0,0.0,0.0,1.0,Taxi
17.400000000000002,0.07903820716792631,-25.670416012319908,14.761817818994233,1.255137215412077,-0.0063374616665857345,327.76106552140664,19.427579940226003,0.0,1.0,0.0,0.0,1.0,Taxi
17.5,-0.014224126009918712,43.348716822441425,15.550807894764318,1.6095593019225414,0.507878175484331,327.61393265400875,18.354889366880087,0.0,1.0,0.0,0.0,1.0,Taxi
17.6,0.0686394107589577,-30.22144246842156,15.507086757928395,2.0529541933925777,-0.2810927449419812,327.7268203043026,18.654160292294847,0.0,1.0,0.0,0.0,1.0,Taxi
17.7,-0.07206900517418154,4.044806444573434,15.132502665124484,1.9632526719181604,-0.5167957530076621,327.76716934921524,18.241092470679497,0.0,1.0,0.0,0.0,1.0,Taxi
17.8,0.005999906212948404,0.42533173282912884,15.070618794493148,1.4860787611628283,0.40273431893038425,327.67500475173097,18.945981699351755,0.0,1.0,0.0,0.0,1.0,Taxi
17.900000000000002,0.07076606942310329,-23.347406490512345,14.83120016667314,1.4257836997221132,0.917348304306289,327.6499527131484,19.167424216457277,0.0,1.0,0.0,0.0,1.0,Taxi
18.0,-0.18880603762674325,-2.0503283543380633,15.808916411865209,2.078252581600186,-0.3102020474577587,327.77056248368797,18.720771845383442,0.0,1.0,0.0,0.0,1.0,Taxi
18.1,-0.004251735558741833,-10.049636227346134,15.389091553674188,1.6301476160412451,0.13758790654425856,327.7016175813051,17.980663871413487,0.0,1.0,0.0,0.0,1.0,Taxi
18.2,0.020517888286372677,19.944437607279074,14.732018277562652,2.1863920222925093,0.1638224123743908,327.5591646521798,19.5843046186332,0.0,1.0,0.0,0.0,1.0,Taxi
18.3,-0.08908384959034787,-21.91308027703354,14.430258997177418,1.595316285334266,-0.6096472342963614,327.83088218185924,19.350192735418453,0.0,1.0,0.0,0.0,1.0,Taxi
18.400000000000002,-0.11381713694390955,30.55615336803977,14.911938233576418,1.5970899019941696,-0.482685786092279,327.55367519192566,18.364704361783392,0.0,1.0,0.0,0.0,1.0,Taxi
18.5,0.1732986551265715,49.04708833336071,14.368578181250804,1.6510428601149751,-0.27232490733815035,327.68416829056275,18.921896389060546,0.0,1.0,0.0,0.0,1.0,Taxi
18.6,0.1561515920764557,21.787816516430976,13.937409333979916,1.5899726316517535,-0.15753820197909424,327.66442025988795,19.17766357032861,0.0,1.0,0.0,0.0,1.0,Taxi
18.7,-0.004878054361754639,-33.532047156009284,13.581447742096431,1.6187886314536546,-0.7714153049356774,327.78197930218835,18.851596576956133,0.0,1.0,0.0,0.0,1.0,Taxi
18.8,0.0056384193465251016,-29.093637706802213,14.309793154926304,2.1217039671978504,0.5268209851664355,327.57754292984623,19.051800550641794,0.0,1.0,0.0,0.0,1.0,Taxi
18.900000000000002,0.01068340354244466,-12.065683841903377,14.151553748236337,1.6764280312793687,-0.2900162780763417,327.82308996968266,18.914649218769718,0.0,1.0,0.0,0.0,1.0,Taxi
19.0,-0.0652064735712715,-24.672109033597213,14.684750044590185,1.6636729377759714,0.1770341259143365,327.6308662089209,18.77379649747302,0.0,1.0,0.0,0.0,1.0,Taxi
19.1,-0.11772212582146097,3.232183814840127,14.923113607769974,2.0387067132779912,0.032926822127223594,327.8289731038003,18.86151373376275,0.0,1.0,0.0,0.0,1.0,Taxi
19.200000000000003,0.026844322616645308,22.583381905698037,15.008327713973891,1.6778784163106357,-0.13548041750809528,327.63323230796664,19.497548994014252,0.0,1.0,0.0,0.0,1.0,Taxi
19.3,0.04771043595721866,42.727609380894386,15.162291163472455,1.7595586945438482,0.19275361883789222,327.4644869766861,18.562076749667586,0.0,1.0,0.0,0.0,1.0,Taxi
19.400000000000002,0.09591592108301095,-12.852027400448256,14.762441317809644,1.8272570906382182,0.2724229844312758,327.7922222355246,19.3105506734525,0.0,1.0,0.0,0.0,1.0,Taxi
19.5,-0.03741581438559596,7.646209492919368,15.264153889829814,2.0653532129160475,0.5805146386842167,327.8650928671741,18.76483792549617,0.0,1.0,0.0,0.0,1.0,Taxi
19.6,0.08594148342181553,-43.83216719506697,14.458948590217993,1.9216212916794857,0.3822851955233755,327.7332802655221,19.485048946742115,0.0,1.0,0.0,0.0,1.0,Taxi
19.700000000000003,-0.12324491489232388,18.896630705655898,15.27987284001767,1.4534084871720856,0.010661565395207013,327.54344541554315,18.512552023907123,0.0,1.0,0.0,0.0,1.0,Taxi
19.8,0.05706733914268356,-10.642603337682276,14.801275497588888,1.3784267075594685,0.5005683954377224,327.7472495062625,19.72071436839649,0.0,1.0,0.0,0.0,1.0,Taxi
19.900000000000002,0.03272846673340415,48.317928085285445,14.6007042036778,1.777946611652845,0.6132546724652702,327.6869701805599,18.738556563921616,0.0,1.0,0.0,0.0,1.0,Taxi
20.0,0.11834472553410334,-0.7453891693967828,15.280986382651001,1.620740889585992,-0.4037816449637714,327.63380464265606,18.748445964149806,0.0,1.0,0.0,0.0,1.0,Taxi
20.1,0.05334039329569967,31.76040173815852,14.359713354545754,1.868769367340011,0.5907487071973943,327.6208192642538,18.37209113649924,0.0,1.0,0.0,0.0,1.0,Taxi
20.200000000000003,0.19153047542419677,-6.594394208709133,15.750643678257676,1.657138211894055,-1.4850006174489239,327.46031637119336,18.9263798607794,0.0,1.0,0.0,0.0,1.0,Taxi
20.3,0.0853727544905577,-20.355645972497843,15.1611818262171,1.8025544428916795,0.18934002633191635,327.6339709744266,18.525788620594565,0.0,1.0,0.0,0.0,1.0,Taxi
20.400000000000002,-0.04843783656678951,-53.424349685463255,15.300074791385352,1.9173887515238324,-0.09916362135496987,327.6767865701272,18.85920531135962,0.0,1.0,0.0,0.0,1.0,Taxi
20.5,-0.07559127300311949,-23.860139198852867,16.015656224150568,1.8179602975170146,-0.6356374604936513,327.5997950809017,19.706177576863556,0.0,1.0,0.0,0.0,1.0,Taxi
20.6,-0.0339279415037066,4.024285240330398,14.320160031377302,1.8066749112829197,0.6426670741201752,327.62304704071676,19.24647708470823,0.0,1.0,0.0,0.0,1.0,Taxi
20.700000000000003,-0.028316410365137497,49.17570003987981,14.165567781083897,1.6920442095612174,0.4313908724102914,327.64699114871667,19.748054239053836,0.0,1.0,0.0,0.0,1.0,Taxi
20.8,0.17028722719627953,14.927784104361203,14.633690223051284,1.901162909333495,0.4445711481668236,327.55205708734206,18.283793359637773,0.0,1.0,0.0,0.0,1.0,Taxi
20.900000000000002,0.04071097901809945,29.977680149443824,15.817658574876862,1.8683572711626197,-1.4354444746061676,327.7012741839968,18.250031385664318,0.0,1.0,0.0,0.0,1.0,Taxi
21.0,0.12157199038208162,-3.6244569311844543,14.949422039906452,1.46399276920155,-1.4315920627178473,327.7089812999759,18.58917661271934,0.0,1.0,0.0,0.0,1.0,Taxi
21.1,0.15216494254035728,14.975764437125846,15.093263228064373,1.777267204993347,0.36785284447996885,327.7500045606163,18.110899643132637,0.0,1.0,0.0,0.0,1.0,Taxi
21.200000000000003,0.11558980120372869,-16.791908582414774,15.87230585386068,1.6264005739302732,0.7533463061469244,327.6213234010236,18.144760397636066,0.0,1.0,0.0,0.0,1.0,Taxi
21.3,0.037612447470007776,-56.20524837863451,14.423277130620093,1.9556129863769993,-0.2002111986582721,327.627165405524,18.258779423401204,0.0,1.0,0.0,0.0,1.0,Taxi
21.400000000000002,-0.12886129935281523,-19.546903502901387,14.425339025274127,1.9786639083861899,-0.6533208988070431,327.79327396421513,18.90052219019917,0.0,1.0,0.0,0.0,1.0,Taxi
21.5,0.017855283689221752,-23.67118307171395,14.99427723471093,1.7251776281913036,-0.10798255923948182,327.68691677487413,18.426516488806428,0.0,1.0,0.0,0.0,1.0,Taxi
21.6,-0.08074346788856196,32.06814812453141,15.534959660809072,1.9046273871638901,-0.21854076383475687,327.5786852146588,19.491345906215315,0.0,1.0,0.0,0.0,1.0,Taxi
21.700000000000003,0.03147944126984183,-29.55836328660253,15.56098877930861,1.7188488004155866,-0.6064774647451382,327.6122965973934,18.6911720250097,0.0,1.0,0.0,0.0,1.0,Taxi
21.8,-0.12993653274379086,19.877252515527427,14.702249565181678,2.077709682699968,-1.359749886117004,327.60330556941403,19.43643539535705,0.0,1.0,0.0,0.0,1.0,Taxi
21.900000000000002,0.018642794689075207,5.010881149789472,15.438273223245844,1.820512858654755,0.5096718805615775,327.6035021324701,18.238659627279365,0.0,1.0,0.0,0.0,1.0,Taxi
22.0,0.05653384701878923,18.02050213985813,16.07739353765787,1.6501426682122693,0.15931849975930565,327.61346314887123,18.474898353747346,0.0,1.0,0.0,0.0,1.0,Taxi
22.1,-0.039834022044500164,-14.99663724338434,14.993490689975463,1.8738914584435078,-0.09350165790210396,327.5736613668257,18.389155751242704,0.0,1.0,0.0,0.0,1.0,Taxi
22.200000000000003,-0.05634039152784645,-7.886727341541193,15.027299743380432,1.7545922264727198,0.33579351094334453,327.79275557835945,18.75064669607305,0.0,1.0,0.0,0.0,1.0,Taxi
22.3,0.017100210311083306,8.466883349402492,14.710475151685143,2.092263994548493,-0.13397753650538807,327.56585820597604,17.822174480575853,0.0,1.0,0.0,0.0,1.0,Taxi
22.400000000000002,0.002500394702512331,-6.015695742772233,14.648622859517515,1.8750370538258248,-0.10570705912234604,327.82521883541176,18.31499017595423,0.0,1.0,0.0,0.0,1.0,Taxi
22.5,-0.08641887024170758,2.6807633873245984,14.867467951221137,1.8963643869074196,-0.8156928898483261,327.71578722891786,19.016900110617637,0.0,1.0,0.0,0.0,1.0,Taxi
22.6,0.03050402724770635,6.879913623672787,14.53262824290696,1.9108635414375323,-1.0307404712707213,327.5420858449867,18.794581243638465,0.0,1.0,0.0,0.0,1.0,Taxi
22.700000000000003,0.03689996282087632,41.07334033401675,15.31341248775721,2.0849541136565426,-0.06587797294950459,327.5969539046305,18.880955929587476,0.0,1.0,0.0,0.0,1.0,Taxi
22.8,0.1189478314283762,-29.870493759113625,15.356991202865476,1.7585747934515914,0.13822290508794804,327.77969326071207,19.314379450255636,0.0,1.0,0.0,0.0,1.0,Taxi
22.900000000000002,-0.11884844154786177,-11.344263587449262,14.36171246886904,1.83549505182209,-0.03967678249948573,327.5750840059284,18.58793973821226,0.0,1.0,0.0,0.0,1.0,Taxi
23.0,-0.019821355116369996,-23.15609712718565,14.69889587705211,1.9931073825812482,-0.2599370288448952,327.6378814113291,19.05560416479784,0.0,1.0,0.0,0.0,1.0,Taxi
23.1,0.0031673457924479478,14.367357107183858,15.047625700011082,2.0748225052528757,-0.5386234026548029,327.81430768573455,18.192733002161088,0.0,1.0,0.0,0.0,1.0,Taxi
23.200000000000003,-0.04701165601194245,7.699372604342751,15.480844235295594,2.046091445713618,-0.18804544882281257,327.74740426033384,19.34418778334566,0.0,1.0,0.0,0.0,1.0,Taxi
23.3,0.018675507905343783,-5.647212824479254,14.40950164099943,1.9351156556666012,-0.43832779766246255,327.59783280698684,18.558426957567956,0.0,1.0,0.0,0.0,1.0,Taxi
23.400000000000002,-0.025068718329948298,35.64885102663227,15.330295913623939,1.7504729622053572,-0.2502790239454447,327.6048329642963,18.447052206495638,0.0,1.0,0.0,0.0,1.0,Taxi
23.5,0.13123259912121893,-10.267063630986906,14.239789886677992,1.6752408526454188,-0.332333298717963,327.79855483582196,19.381724781069188,0.0,1.0,0.0,0.0,1.0,Taxi
23.6,-0.032659810249590714,24.429771410608936,14.55814369887899,1.7243942339033627,-0.15665874159348372,327.8069416339613,19.731033253608828,0.0,1.0,0.0,0.0,1.0,Taxi
23.700000000000003,0.09708013872309641,2.0650846193342987,15.524229136817667,1.9544216414537006,0.5059891500495586,327.5317330097546,18.327470259035447,0.0,1.0,0.0,0.0,1.0,Taxi
23.8,0.14155802221789046,19.980747021386488,13.500746867282023,1.8920403425254126,-0.4588591938740049,327.66467052495034,18.948563201928526,0.0,1.0,0.0,0.0,1.0,Taxi
23.900000000000002,0.06724392485734176,-8.590584930356977,15.63720286356932,1.6338459799172589,0.48920972566269155,327.8375130249342,18.705628866895047,0.0,1.0,0.0,0.0,1.0,Taxi
24.0,0.05412721407131156,-19.73442910715949,16.153424214192654,2.1647125739107977,0.06206550049634208,327.6040735810626,19.124021966579715,0.0,1.0,0.0,0.0,1.0,Taxi
24.1,0.042885876682093045,22.230948575098722,15.329839855251537,1.823213424636315,-0.009110824532556565,327.6094814493448,19.15669798476729,0.0,1.0,0.0,0.0,1.0,Taxi
24.200000000000003,0.17839866773283541,-7.105578645770095,15.236724303442994,1.5540731011445628,-0.12308218885039099,327.82265210107585,19.567938572422857,0.0,1.0,0.0,0.0,1.0,Taxi
24.3,0.0185993208424611,27.720711125637347,14.073865663076157,1.6790254870999373,0.4577659432023945,327.7157472720844,18.20633214082082,0.0,1.0,0.0,0.0,1.0,Taxi
24.400000000000002,0.18148943231027978,-11.187066281075088,15.705167327976161,1.9206330419363589,-0.8206584592264792,327.6784930621909,18.60738278289279,0.0,1.0,0.0,0.0,1.0,Taxi
24.5,0.12246333632745998,-14.81848848044312,14.9543041450867,1.8525842322946027,-0.41707348955951745,327.5990337072792,18.281673871526724,0.0,1.0,0.0,0.0,1.0,Taxi
24.6,-0.05549312155975448,-13.73553661207355,14.34812710267729,1.787666276994776,0.2582578270833928,327.63596803775283,18.32374344132127,0.0,1.0,0.0,0.0,1.0,Taxi
24.700000000000003,0.11281174924991205,-7.51996932882745,15.40973392340497,1.5904534912633037,1.3283613631802478,327.5585009849069,19.98782751448423,0.0,1.0,0.0,0.0,1.0,Taxi
24.8,0.08486348968332275,11.842966242041724,14.887780600964977,1.6487274718100262,-0.4680249522951306,327.8007011652203,19.166861454107497,0.0,1.0,0.0,0.0,1.0,Taxi
24.900000000000002,0.0037217096504541416,-21.58241910794001,15.338794118373722,1.7950204660903484,0.5680045436600071,327.74601170041683,18.60474547603796,0.0,1.0,0.0,0.0,1.0,Taxi
25.0,0.004899653710212026,-41.94145926339569,15.27213713981299,1.6060969049130556,-0.4451474532911366,327.76942054122776,19.088222661608867,0.0,1.0,0.0,0.0,1.0,Taxi
25.1,-0.12484380663365569,2.719290822537,15.566580328189987,1.9072168190330474,-0.8174388149866655,327.6310807985517,18.718579775805175,0.0,1.0,0.0,0.0,1.0,Taxi
25.200000000000003,0.017318163763139188,43.724520160025236,14.807596807635399,1.818032984154126,-0.08091816347768759,327.8148283825119,18.558995038663042,0.0,1.0,0.0,0.0,1.0,Taxi
25.3,0.22352225451033825,33.80941550519324,14.525380148039796,1.823384303624578,-0.45018886977498535,327.7382209264308,18.753902969345557,0.0,1.0,0.0,0.0,1.0,Taxi
25.400000000000002,0.044203270892310575,-13.084210090397475,14.40329816767428,1.7246824329462558,-0.5338941796143648,327.66195424133866,18.10490259881499,0.0,1.0,0.0,0.0,1.0,Taxi
25.5,-0.04810288668884815,-41.857176115995806,14.77780708968631,1.448872196365644,-0.7601627182928188,327.62694257812484,19.255889348927273,0.0,1.0,0.0,0.0,1.0,Taxi
25.6,0.014236373930359286,-26.181122349237757,15.264172150358881,1.9784621754291976,-0.143176241284535,327.5813248325312,18.70084975234499,0.0,1.0,0.0,0.0,1.0,Taxi
25.700000000000003,-0.08670234085387818,44.604681337945635,14.606249680326128,1.6540025649981434,0.5395334185446015,327.5957317084876,19.227442443563984,0.0,1.0,0.0,0.0,1.0,Taxi
25.8,0.17492052000088004,0.2779809304602973,13.851356725206978,1.226903464992044,-0.2905528732668186,327.66850090550133,18.225216044412406,0.0,1.0,0.0,0.0,1.0,Taxi
25.900000000000002,0.01562627858266077,18.77392783484829,14.104518420300257,1.5994226004690966,-0.05096478957181523,327.6597872037273,20.095622398411454,0.0,1.0,0.0,0.0,1.0,Taxi
26.0,0.007167298320363291,-68.88168699868704,14.88030914718244,1.9737332869608084,0.45689706534158775,327.6844097850078,19.02699354606856,0.0,1.0,0.0,0.0,1.0,Taxi
26.1,-0.16948791499255514,-16.01221489253329,14.654712552700628,1.9400120675726706,-0.8768823050247794,327.7368333219073,18.485216370073882,0.0,1.0,0.0,0.0,1.0,Taxi
26.200000000000003,-0.06443479588000565,13.37170486187731,14.940488792680764,2.0592127242024225,-0.6053554777888387,327.62673446566396,18.32791375303746,0.0,1.0,0.0,0.0,1.0,Taxi
26.3,0.07402582262974987,50.25351044891061,14.875603575681167,1.4726431622403862,-0.4734756779805922,327.6972674025891,18.60779934785588,0.0,1.0,0.0,0.0,1.0,Taxi
26.400000000000002,0.08177963725199794,4.691896799411983,14.40184235267836,2.1890598327395443,0.0787209511604138,327.7880139874885,18.98575144344957,0.0,1.0,0.0,0.0,1.0,Taxi
26.5,-0.0409753118829457,-37.703608220379,14.476723245633842,1.660114830296852,0.023416286732830565,327.65517211002384,18.501240894513366,0.0,1.0,0.0,0.0,1.0,Taxi
26.6,-0.11449221847214508,-38.59184844499183,14.118370741986464,1.9396772687396469,1.2323157634294446,327.75169837795465,19.380104540079802,0.0,1.0,0.0,0.0,1.0,Taxi
26.700000000000003,-0.11117960497296114,30.167994810157357,14.525791745740603,2.106419470453843,-0.14806299854878013,327.65162982251286,18.57263648537927,0.0,1.0,0.0,0.0,1.0,Taxi
26.8,0.10986466216784115,24.265259359438904,14.120596095808791,1.639568458790992,0.1382458027436031,327.6797066219758,18.955461561634692,0.0,1.0,0.0,0.0,1.0,Taxi
26.900000000000002,0.006834078325049499,50.13861233397378,15.736083588022133,2.0965685692344733,0.1687836237433955,327.6008277653182,18.983948139613762,0.0,1.0,0.0,0.0,1.0,Taxi
27.0,0.13951345669690782,-11.495354891759009,15.65725200164921,1.8653637611798246,-0.6112104486793615,327.6938987969937,18.948422175991592,0.0,1.0,0.0,0.0,1.0,Taxi
27.1,0.052387887709046156,4.629948834098072,15.329436089252429,1.7618827895748699,0.1196550327062938,327.72125861503514,19.61207830552261,0.0,1.0,0.0,0.0,1.0,Taxi
27.200000000000003,0.029983822495539915,-6.327502862190717,13.902461203551708,1.7634709306620842,-0.08322739312282713,327.68591314461696,17.854006928259864,0.0,1.0,0.0,0.0,1.0,Taxi
27.3,0.10787594238595427,30.926006990902284,15.066464106285144,2.094122129893828,-0.3745212926184371,327.6487719657648,19.378973214219194,0.0,1.0,0.0,0.0,1.0,Taxi
27.400000000000002,0.20701792266355762,-17.982914987684698,14.654344887583537,1.4877082591118267,0.14959873202306512,327.7603330821736,19.304302359874963,0.0,1.0,0.0,0.0,1.0,Taxi
27.5,-0.05993075244288352,-64.01887999551542,14.187438396271189,1.4719778822726903,0.5669775261217742,327.77059152016045,19.225802413286218,0.0,1.0,0.0,0.0,1.0,Taxi
27.6,-0.21221845759162272,-64.57135139606977,15.080566624980952,1.8674736191506014,-0.2721555111186063,327.642788113547,19.27720895019102,0.0,1.0,0.0,0.0,1.0,Taxi
27.700000000000003,-0.11583883431679116,7.580487176820813,14.399061781471486,1.5782991397786559,0.08911738293019072,327.71422464622094,17.900489634128064,0.0,1.0,0.0,0.0,1.0,Taxi
27.8,-0.022028316558779397,12.348028583361355,15.136979264278276,1.9223651396800274,-0.029783179137495227,327.68097598682766,18.70536508885148,0.0,1.0,0.0,0.0,1.0,Taxi
27.900000000000002,-0.15047831467481593,54.022612242294294,14.845827868314519,1.885608269472133,-0.8378401539238405,327.65384735820203,19.819522047225018,0.0,1.0,0.0,0.0,1.0,Taxi
28.0,0.1542742268946804,23.43760887294715,14.531344847128134,1.7954692938588437,0.08248725996545579,327.6671502057061,18.782632010643436,0.0,1.0,0.0,0.0,1.0,Taxi
28.1,0.09515972780595643,28.994921365210413,15.368808110012509,1.9681767831583765,0.4512404086093468,327.6600789696363,18.357943202792175,0.0,1.0,0.0,0.0,1.0,Taxi
28.200000000000003,-0.005503707848763792,-21.62665089148202,15.165946021286482,2.092035495118321,0.016000552049499458,327.7419323131262,18.828426801592297,0.0,1.0,0.0,0.0,1.0,Taxi
28.3,0.046140972437270375,-6.919320926500077,14.454443304693159,1.6125300918118466,0.49162757878263597,327.63780931894166,18.557503877096803,0.0,1.0,0.0,0.0,1.0,Taxi
28.400000000000002,0.060563123173456114,8.39579423977,13.069065790806203,1.678837757049047,-0.6031916416077493,327.56233569745086,19.050117162184815,0.0,1.0,0.0,0.0,1.0,Taxi
28.5,0.03647526335008627,-4.875919354867801,15.040635127387326,1.809589647301325,-0.600065538927671,327.5546934521253,18.331644975298122,0.0,1.0,0.0,0.0,1.0,Taxi
28.6,0.021761375662931445,-8.593373004177735,15.069447539552366,1.4918547107764557,-0.4053399466363306,327.72913586243726,18.97879966217698,0.0,1.0,0.0,0.0,1.0,Taxi
28.700000000000003,0.017596258152567514,14.341629902919465,14.63383460092168,2.0732936571706015,-0.546806910918373,327.80724040519385,18.51223249304444,0.0,1.0,0.0,0.0,1.0,Taxi
28.8,0.10818341286468368,2.0929473652710917,15.195390084087062,1.974892146875844,0.9055258811548689,327.72764708780994,19.080386251901245,0.0,1.0,0.0,0.0,1.0,Taxi
28.900000000000002,0.032226112489286994,-27.830654896087918,14.98159084430754,2.141889688785488,0.7609407093823376,327.73387468376325,18.596726010135818,0.0,1.0,0.0,0.0,1.0,Taxi
29.0,-0.12155701632787197,-4.087156944925155,15.07726807051778,2.1499401930380584,0.15051947391200426,327.65916952270936,17.834139286865028,0.0,1.0,0.0,0.0,1.0,Taxi
29.1,0.08774762814005799,-27.88029461591736,14.888336508961926,1.7547739768883122,0.8053936637427574,327.7336822586484,19.211060818099043,0.0,1.0,0.0,0.0,1.0,Taxi
29.200000000000003,-0.10717536059029974,12.237598020210337,14.79307205175203,1.8168947118604013,-0.2614233809164091,327.7035924567273,19.237109708046304,0.0,1.0,0.0,0.0,1.0,Taxi
29.3,-0.06036902622682022,-10.888087689523308,12.444212808845574,2.2060876209015303,-0.2345384137846467,327.56768507989113,18.686642286453974,0.0,1.0,0.0,0.0,1.0,Taxi
29.400000000000002,0.033307189692441536,21.41766430477765,15.820397215647187,1.7215301025560326,-0.3716423963352994,327.6983901000964,19.278594346500338,0.0,1.0,0.0,0.0,1.0,Taxi
29.5,-8.703906641141047e-05,-10.22279619311612,15.57950684157771,1.4916892483088895,1.1136419741346764,327.66871701492005,18.952771749900815,0.0,1.0,0.0,0.0,1.0,Taxi
29.6,-0.11148300719240074,-49.36145316842495,15.502819629657528,1.5665145857298926,0.06037918631053462,327.92296966598883,18.139926477317278,0.0,1.0,0.0,0.0,1.0,Taxi
29.700000000000003,-0.21350007614968314,-13.603882844844321,15.148655871419903,1.8132456176964795,0.3152418294784277,327.64766756169,19.10182518433834,0.0,1.0,0.0,0.0,1.0,Taxi
29.8,-0.06810645329063299,34.10065645136962,15.512739498278803,1.8772211550705569,-0.25011877985348735,327.58690585023487,18.847998571361654,0.0,1.0,0.0,0.0,1.0,Taxi
29.900000000000002,0.05902027506444742,54.34509515631232,14.746673152290434,1.8710903910783578,0.23521525245132535,327.7553114988418,18.519663002163686,0.0,1.0,0.0,0.0,1.0,Taxi
30.0,0.05822539963187846,13.807682033763795,15.333370875994344,1.9843336118415504,0.039223472614771555,327.4796142400512,17.622596410317378,0.0,1.0,0.0,0.0,1.0,Taxi
30.1,0.0009319568781860339,-29.82567235225478,14.946383476543092,1.6263704114541557,-0.6927746377120381,327.4362424669366,18.65410455515871,0.0,1.0,0.0,0.0,1.0,Taxi
30.200000000000003,-0.09010808669682643,-14.403594997828167,14.533957902872325,1.888494288349378,-0.06387331722617991,327.65681401928896,19.592637150653914,0.0,1.0,0.0,0.0,1.0,Taxi
30.3,-0.013792575357262327,4.156616134641275,15.217254638604429,1.5528024299049388,-0.16887288188899766,327.71139542556944,19.059658643338658,0.0,1.0,0.0,0.0,1.0,Taxi
30.400000000000002,0.021715037551392466,35.600055141480446,15.786582319402605,1.592403970838607,0.3058896132321048,327.57966690863907,19.571254414996076,0.0,1.0,0.0,0.0,1.0,Taxi
30.5,0.08789218901057583,4.960599469436178,15.307847824706084,1.7173305827020315,-0.07414274638569039,327.76319906681715,19.199237248628428,0.0,1.0,0.0,0.0,1.0,Taxi
30.6,0.011010421989918626,-38.74079771432414,14.561991592948196,1.5959722525954725,0.3982809967050261,327.6692217746903,18.9925845688118,0.0,1.0,0.0,0.0,1.0,Taxi
30.700000000000003,-0.17198895102022815,-38.934527088457,14.621004144730067,1.6924235244183585,0.026302553016759576,327.5524716973896,19.337978498499798,0.0,1.0,0.0,0.0,1.0,Taxi
30.8,-0.1067804464317091,-19.507220161872684,13.751987341038202,1.9576001574953592,-0.3899787140536234,327.84357089928494,19.23615382498274,0.0,1.0,0.0,0.0,1.0,Taxi
30.900000000000002,-0.08652567881944473,18.603014569421163,15.265181573146249,1.8972334603416638,0.25057588130100217,327.6933601571843,19.337877204324002,0.0,1.0,0.0,0.0,1.0,Taxi
31.0,-0.07897387817312229,48.07579201318212,15.564894682367601,1.8792787839392258,-0.11606296464479092,327.64186377133,19.02908461918008,0.0,1.0,0.0,0.0,1.0,Taxi
31.1,0.13359851363420155,19.422513989467063,13.768584127936403,2.0960183183429932,0.361949531583818,327.7163369842772,19.17911597890296,0.0,1.0,0.0,0.0,1.0,Taxi
31.200000000000003,0.010586891127890623,36.89014042929716,14.769507299474782,2.2119129567495115,0.44146956126225023,327.7906512142979,19.266874693050084,0.0,1.0,0.0,0.0,1.0,Taxi
31.3,0.10547682397336354,-50.89999259595036,16.230053514368645,2.0580081239779573,0.07218755851682954,327.84088427967254,19.949055877293667,0.0,1.0,0.0,0.0,1.0,Taxi
31.400000000000002,-0.12090144934555021,-15.895435351096646,14.244903479917477,1.913537528590382,-0.34474505769922326,327.6254253706884,19.169303884868167,0.0,1.0,0.0,0.0,1.0,Taxi
31.5,-0.06889028562759256,-19.331785024645384,15.490938651446946,1.3895592967124224,0.6813164913706059,327.57638219751743,18.878837384643077,0.0,1.0,0.0,0.0,1.0,Taxi
31.6,0.008817898850136681,36.137641363298734,14.92868597928942,1.8404017401196595,-0.6307066962537936,327.7022111197916,19.10205922432538,0.0,1.0,0.0,0.0,1.0,Taxi
31.700000000000003,0.05978675747094352,6.659047452286406,15.571671791353273,1.6920176435877181,0.3000874232254318,327.7596748948147,18.583638591496562,0.0,1.0,0.0,0.0,1.0,Taxi
31.8,-0.035595048366160446,10.15506274461955,14.499210788236045,1.6831553877925804,-0.04120982065368439,327.7396734374614,19.12868466939189,0.0,1.0,0.0,0.0,1.0,Taxi
31.900000000000002,0.059593212573234494,-13.969491461895714,14.805602466534335,1.8221309315792327,0.25852378930282427,327.6187952736143,19.429082078483418,0.0,1.0,0.0,0.0,1.0,Taxi
32.0,-0.010060699838534979,-18.82291313682374,15.891309782940407,1.9671379697712341,0.9636535264980662,327.74583509714284,18.26363892633862,0.0,1.0,0.0,0.0,1.0,Taxi
32.1,-0.1297096140502791,8.529738443418552,14.821157951115513,1.7179794998651021,-0.2836391427066357,327.76676341930045,19.012166987422976,0.0,1.0,0.0,0.0,1.0,Taxi
32.2,0.1022419047903273,37.324962086581074,15.23646214714912,1.9631922148259218,0.5201640883686115,327.739617457554,19.866033442535755,0.0,1.0,0.0,0.0,1.0,Taxi
32.300000000000004,0.17656411059437038,47.734130018451175,14.991441999546286,1.7360866067542775,1.391282413814505,327.83854414321195,19.774483401081643,0.0,1.0,0.0,0.0,1.0,Taxi
32.4,0.10896103604197685,-29.498750152272617,13.954634453459569,1.617854959413429,-0.052798597287109096,327.714124085506,19.854794076184504,0.0,1.0,0.0,0.0,1.0,Taxi
32.5,-0.04525184597103574,-39.510272239053286,15.612506357192729,1.9554470068390093,0.6445367266800243,327.80454639320305,19.207115322071562,0.0,1.0,0.0,0.0,1.0,Taxi
32.6,-0.02098725060089601,-34.192443858476786,15.354694142613184,1.607588822840637,0.001173305485828071,327.7645471165481,19.854006566046458,0.0,1.0,0.0,0.0,1.0,Taxi
32.7,-0.06200118325040702,16.693785420569277,14.269735218531865,1.815799950863688,-0.5748797087387514,327.7256095130159,18.31493789612424,0.0,1.0,0.0,0.0,1.0,Taxi
32.800000000000004,0.038217081131810715,-10.428991740212245,13.956494919589158,2.0178741194614638,-0.4075579219427267,327.45092640167604,18.870545253787547,0.0,1.0,0.0,0.0,1.0,Taxi
32.9,-0.07313220930195717,27.07874739916637,14.636508523136316,1.8193499226057175,0.5431258946497473,327.75677273562565,19.033349956738956,0.0,1.0,0.0,0.0,1.0,Taxi
33.0,0.0733925537454249,-21.690547619121144,15.891124078606385,1.3636637296363805,-0.14841749313050337,327.70161198563164,18.615909168831035,0.0,1.0,0.0,0.0,1.0,Taxi
33.1,-0.07023565696379493,-18.286991438313837,13.91967200580158,1.890357644356516,0.9697955008690025,327.8851898231611,19.47329754078864,0.0,1.0,0.0,0.0,1.0,Taxi
33.2,-0.1645671664935263,1.9092512287143109,15.312913685219062,1.9074570055477118,-0.1942869565762959,327.7759212011765,18.470305558432013,0.0,1.0,0.0,0.0,1.0,Taxi
33.300000000000004,0.0829388098889965,10.579145219389952,14.534608767585642,1.7416166203856847,-0.6144975583340657,327.6361204697449,19.22690999439744,0.0,1.0,0.0,0.0,1.0,Taxi
33.4,-0.017339930866845096,25.474685162875446,14.71847579875465,2.0319915977369747,-0.8196036431041356,327.65277523361624,18.99848005610185,0.0,1.0,0.0,0.0,1.0,Taxi
33.5,-0.037193740679149004,-31.264476448156614,13.872672258138044,1.435825216609311,-0.009182254731506138,327.7783387463337,17.474464581431327,0.0,1.0,0.0,0.0,1.0,Taxi
33.6,-0.0733835723517865,27.736300848462225,15.122282148094515,1.658577911322987,-0.06429017152166469,327.83391217368876,19.592903182488797,0.0,1.0,0.0,0.0,1.0,Taxi
33.7,0.12134157337546608,2.5225851050164088,15.18639568293932,1.8350897051379325,-0.06931103537795295,327.53705289290974,19.03327677211651,0.0,1.0,0.0,0.0,1.0,Taxi
33.800000000000004,-0.024580815154066918,32.66676791056975,15.094199679043433,1.62302647763872,0.21668518413274396,327.6421013896904,19.469975619338953,0.0,1.0,0.0,0.0,1.0,Taxi
33.9,0.08995026720106229,-22.70053665610214,14.274292833677228,1.363901843783635,-0.13446262954711904,327.72017747942766,18.110876015607825,0.0,1.0,0.0,0.0,1.0,Taxi
34.0,0.007838890094955406,21.83098623895711,13.64612617375687,1.875903205626527,0.6058490632852832,327.72640937332585,18.875050855366585,0.0,1.0,0.0,0.0,1.0,Taxi
34.1,0.08457411604071868,7.036885849595808,15.16742333930836,1.9903827511707801,-0.9076550925540077,327.5876590384778,19.492415847880913,0.0,1.0,0.0,0.0,1.0,Taxi
34.2,0.12513469644904138,0.1962549117470426,14.55157410029834,1.9502228631359322,-0.0754360995931268,327.743621998912,19.20016011414141,0.0,1.0,0.0,0.0,1.0,Taxi
34.300000000000004,0.008820164653690687,14.16061320381246,14.546263618840536,1.8265516384711349,0.746052742764885,327.5661103370237,19.295792135012917,0.0,1.0,0.0,0.0,1.0,Taxi
34.4,0.15537718205978102,0.1725608706204073,14.0158467093511,1.6804771213568557,0.5281365418253157,327.6238973230544,19.271236048720738,0.0,1.0,0.0,0.0,1.0,Taxi
34.5,0.12599750080214345,16.74678002668884,15.576485038833136,1.9874289150504434,-0.2627775101630494,327.49876304055886,19.769486897474735,0.0,1.0,0.0,0.0,1.0,Taxi
34.6,0.09255406478713492,-55.14900679463873,14.547188531648649,1.5949249332387136,0.13175567199091273,327.7841715591712,18.901808017773934,0.0,1.0,0.0,0.0,1.0,Taxi
34.7,-0.12036785191341258,-37.26691898281238,15.213694248864284,1.8843741124684692,-0.09716942838466393,327.66171147529576,18.44442452524224,0.0,1.0,0.0,0.0,1.0,Taxi
34.800000000000004,-0.060337094111918316,-12.637448648293727,14.560777162147645,1.6067061977469799,-0.6682458410194996,327.56965318813377,19.009331624640904,0.0,1.0,0.0,0.0,1.0,Taxi
34.9,0.029366821545666374,32.199493478068206,13.87620767539461,1.9512184428561898,-0.05801975507699515,327.8592426290611,18.481548495912538,0.0,1.0,0.0,0.0,1.0,Taxi
35.0,0.04062961547692852,36.13698042239643,15.374980968362037,1.7218230245942525,0.09147206976035323,327.61209716947155,18.583349547267076,0.0,1.0,0.0,0.0,1.0,Taxi
35.1,0.12034780800006387,-18.233019352605627,16.47582076556197,1.821785887870875,-0.6517648233279744,327.6253379616245,18.93283113719689,0.0,1.0,0.0,0.0,1.0,Taxi
35.2,-0.06179827521736173,-21.991794828210804,14.40602455432538,1.7960612832277978,0.4117417742079054,327.7657883643228,18.303053335437152,0.0,1.0,0.0,0.0,1.0,Taxi
35.300000000000004,-0.06932935866412547,-24.25941210389602,14.814337456982235,1.8509117104690644,-0.12566575696494503,327.6720909390365,19.62907780659515,0.0,1.0,0.0,0.0,1.0,Taxi
